~Version Information
VERS.                      2.0: CWLS Log ASCII Standard - VERSION 2.0
WRAP.                       NO: One line per depth step
~Well Information Block
STRT.FT               335.0000: 
STOP.FT              1013.5000: 
STEP.FT                 0.1000: 
NULL.                -999.2500: 
COMP.          Pioneer Natural Resources: COMPANY
WELL.             Giggle 21-22: WELL
FLD.           Purgatoire River: FIELD
LOC.           950' FNL & 2094' FWL: LOCATION
CNTY.               Las Animas: COUNTY
SRVC.                Patterson: SERVICE COMPANY
DATE.          Thu Apr 13 09:31:38 2006: LOG DATE
UWI.           05 071 08726 00: UNIQUE WELL ID
STAT.                 Colorado: STATE
~Curve Information Block
DEPT.FT            0 000 00 00: Depth
DCAL.in                       : CDL Caliper
RHOB.g/cc                     : CDL Bulk Density
RHOC.g/cc                     : CDL Density Correction
DPOR.pu                       : CDL Density Porosity
GR.GAPI                       : Gamma Ray
NPOR.pu                       : Neutron Porosity
~Parameter Information Block
~A  Depth       DCAL        RHOB        RHOC        DPOR         GR         NPOR    
# ...
   507.8000      8.2398      2.5916      0.1112      3.5375    157.7879     24.7694
   507.9000      8.2398      2.5814      0.1023      4.1605    159.7702     25.2089
   508.0000      8.2076      2.5586      0.0371      5.5410    163.1101     25.5336
   508.1000      8.2076      2.5386      0.0795      6.7525    167.9395     25.4009
   508.2000      8.2076      2.5168      0.0972      8.0746    171.6231     24.5796
   508.3000      8.1794      2.4949      0.0435      9.3991    169.9841     23.5553
   508.4000      8.1794      2.4814      0.1165     10.2166    163.0704     22.9093
   508.5000      8.1599      2.4699      0.0898     10.9138    154.5173     22.8892
   508.6000      8.1599      2.4602      0.0795     11.5046    149.0624     23.2368
   508.7000      8.1599      2.4626      0.0678     11.3576    148.1956     23.5788
   508.8000      8.1573      2.4780      0.1308     10.4229    148.0896     23.9581
   508.9000      8.1573      2.4950      0.1515      9.3935    148.0496     24.3767
   509.0000      8.1550      2.5038      0.2059      8.8636    151.3760     24.4490
   509.1000      8.1550      2.5097      0.1738      8.5039    154.3525     24.2662
   509.2000      8.1550      2.5305      0.1825      7.2398    154.5328     24.2616
   509.3000      8.1564      2.5655      0.1727      5.1209    154.2054     24.5241
   509.4000      8.1564      2.5946      0.1859      3.3547    152.2655     25.2592
   509.5000      8.1549      2.6016      0.1952      2.9307    147.9743     26.5260
   509.6000      8.1549      2.5867      0.1443      3.8376    142.6156     27.7561
   509.7000      8.1549      2.5723      0.1422      4.7095    139.4806     28.4434
   509.8000      8.1545      2.5794      0.1485      4.2812    139.5074     28.5596
   509.9000      8.1545      2.6013      0.1925      2.9505    136.9579     28.2806
   510.0000      8.1537      2.6291      0.0719      1.2676    128.4414     28.0356
   510.1000      8.1537      2.6592      0.1292     -0.5584    119.5469     28.1433
   510.2000      8.1537      2.6737      0.1314     -1.4383    116.0786     28.3814
   510.3000      8.1555      2.6725      0.0446     -1.3620    117.6885     28.3180
   510.4000      8.1555      2.6703      0.1029     -1.2324    122.3300     28.0484
   510.5000      8.1530      2.6548      0.1459     -0.2908    128.6262     28.2053
   510.6000      8.1530      2.6290      0.0427      1.2731    134.7523     28.8186
   510.7000      8.1530      2.6255      0.0826      1.4851    138.6026     28.9260
   510.8000      8.1531      2.6376      0.0949      0.7526    138.9552     28.1068
   510.9000      8.1531      2.6368     -0.0049      0.7992    135.7071     27.0573
   511.0000      8.1532      2.6223     -0.0329      1.6790    133.7701     26.2520
   511.1000      8.1532      2.6103     -0.0611      2.4062    136.1309     25.6491
   511.2000      8.1532      2.6095     -0.0070      2.4571    137.9059     25.4881
   511.3000      8.1551      2.6108      0.0368      2.3761    136.0110     25.6746
   511.4000      8.1551      2.6003      0.0642      3.0141    132.4765     25.5530
   511.5000      8.1548      2.5758      0.0394      4.4974    129.9767     24.9991
   511.6000      8.1548      2.5575      0.0169      5.6063    130.5960     24.6929
   511.7000      8.1548      2.5613      0.0172      5.3752    133.8745     25.0631
   511.8000      8.1548      2.5716      0.0418      4.7497    138.4326     25.6004
   511.9000      8.1548      2.5672      0.0321      5.0157    142.8379     25.6860
   512.0000      8.1531      2.5505      0.0072      6.0300    143.4028     25.3425
   512.1000      8.1531      2.5320     -0.0333      7.1494    139.9850     24.9670
   512.2000      8.1531      2.5134     -0.0684      8.2761    137.8160     24.7522
   512.3000      8.1533      2.4921      0.0045      9.5702    141.5779     24.5656
   512.4000      8.1533      2.4668     -0.0489     11.1011    150.3663     24.2196
   512.5000      8.1564      2.4389     -0.0180     12.7957    160.0464     23.8166
   512.6000      8.1564      2.4158     -0.0333     14.1928    164.5289     23.5283
   512.7000      8.1564      2.4149     -0.0587     14.2479    161.1225     23.3143
   512.8000      8.1539      2.4395     -0.0095     12.7593    156.5876     23.1670
   512.9000      8.1539      2.4682      0.0176     11.0189    157.1432     22.9572
   513.0000      8.1548      2.4821      0.0082     10.1768    159.9700     22.2703
   513.1000      8.1548      2.4786      0.0536     10.3866    161.6044     21.3270
   513.2000      8.1548      2.4621      0.0178     11.3857    163.4498     21.1045
   513.3000      8.1539      2.4423      0.0016     12.5908    162.9912     21.7485
   513.4000      8.1539      2.4223      0.0383     13.8008    155.7554     21.9536
   513.5000      8.1506      2.4065      0.0027     14.7606    145.9631     21.0929
   513.6000      8.1506      2.4103      0.0142     14.5262    140.5858     20.2479
   513.7000      8.1506      2.4242      0.0866     13.6856    139.4966     20.1248
   513.8000      8.1488      2.4202      0.0449     13.9281    139.8190     20.0864
   513.9000      8.1488      2.3966      0.0714     15.3565    140.2263     19.5989
   514.0000      8.1281      2.3610      0.0936     17.5170    139.4695     19.2309
   514.1000      8.1281      2.3087      0.1100     20.6822    136.2131     19.1701
   514.2000      8.1281      2.2478      0.0866     24.3770    130.3284     19.0072
   514.3000      8.1147      2.2041      0.1359     27.0250    124.9567     18.9116
   514.4000      8.1147      2.1951      0.0834     27.5722    123.8032     19.3265
   514.5000      8.0860      2.2172      0.1161     26.2307    125.6587     20.0124
   514.6000      8.0860      2.2581      0.1289     23.7498    127.9577     20.4437
   514.7000      8.0860      2.3125      0.1480     20.4523    130.7232     20.9395
   514.8000      8.0813      2.3780      0.2567     16.4867    131.5152     21.8918
   514.9000      8.0813      2.4471      0.2902     12.2973    127.9701     22.8864
   515.0000      8.0819      2.5107      0.3173      8.4449    122.6189     23.5957
   515.1000      8.0819      2.5544      0.3564      5.7952    116.8054     24.1800
   515.2000      8.0819      2.5635      0.2782      5.2448    108.6771     24.7948
   515.3000      8.0815      2.5469      0.0765      6.2481    102.1779     25.3002
   515.4000      8.0815      2.5378      0.0714      6.7980    100.8742     25.3558
   515.5000      8.0796      2.5549      0.0694      5.7652    100.4427     24.7757
   515.6000      8.0796      2.5868      0.1139      3.8286     99.6650     23.8215
   515.7000      8.0796      2.6165      0.0681      2.0286    100.0137     22.9897
   515.8000      8.0807      2.6327      0.1286      1.0496    102.1263     22.7642
   515.9000      8.0807      2.6288      0.1252      1.2839    109.0667     23.2773
   516.0000      8.0831      2.6207      0.0895      1.7755    118.1577     23.9864
   516.1000      8.0831      2.6242      0.1288      1.5626    121.6256     24.2138
   516.2000      8.0831      2.6262      0.1047      1.4408    119.4670     23.8893
   516.3000      8.0843      2.6114      0.0632      2.3415    116.7106     23.2365
   516.4000      8.0843      2.5866      0.0473      3.8434    115.4002     22.1529
   516.5000      8.0827      2.5712      0.0003      4.7739    113.0172     20.8981
   516.6000      8.0827      2.5655      0.0221      5.1210    107.5588     20.2131
   516.7000      8.0827      2.5439      0.0591      6.4309    100.6852     20.3532
   516.8000      8.0824      2.5024     -0.0491      8.9468     93.3638     20.8676
   516.9000      8.0824      2.4758     -0.0798     10.5547     86.8180     20.8850
   517.0000      8.0819      2.4882     -0.0164      9.8085     84.8037     20.2521
   517.1000      8.0819      2.5224     -0.0019      7.7312     88.3940     19.9596
   517.2000      8.0819      2.5355      0.0792      6.9410     90.6923     20.4302
   517.3000      8.0824      2.5063     -0.0294      8.7080     86.1423     20.9167
