~Version Information
VERS.                      2.0: CWLS Log ASCII Standard - VERSION 2.0
WRAP.                       NO: One line per depth step
~Well Information Block
STRT.FT                -6.5000: 
STOP.FT              1317.5000: 
STEP.FT                 0.2500: 
NULL.                -999.2500: 
COMP.          Pioneer Natural Resources: COMPANY
WELL.              Dicks 32-5R: WELL
FLD.           Purgatorie River: FIELD
LOC.           1485' FNL & 1684' FEL--: LOCATION
PROV.                       CO: PROVINCE
CNTY.               Las Animas: COUNTRY
SRVC.          Patterson Wireline: SERVICE COMPANY
DATE.          Tue Dec 13 09:33:22 2005: LOG DATE
UWI.           05 071 08596 00: UNIQUE WELL ID
~Curve Information Block
DEPT.FT            0 000 00 00: Depth
CCL.                          : Casing Collar Locator
TT3.usec                      : CBL 3' Travel Time
AMP3.mV                       : CBL 3' Amplitude
GR.GAPI                       : Gamma Ray
~Parameter Information Block
~A  Depth       CCL         TT3         AMP3         GR     
# ...
    94.0000      0.0000    279.8631     80.5245     61.0442
    94.2500      0.0000    279.8601     80.5474     68.1042
    94.5000      0.0000    279.8797     80.5536     76.0614
    94.7500      0.0000    279.9770     80.4212     82.6957
    95.0000      0.0000    280.2656     79.8491     86.6091
    95.2500      0.0000    280.9026     78.3849     87.6034
    95.5000      0.0000    281.9935     75.7630     86.1317
    95.7500      0.0000    283.4613     72.3601     82.5554
    96.0000      0.0000    285.0215     69.1255     77.2697
    96.2500      0.0000    286.3357     66.8547     71.4364
    96.5000      0.0000    287.2092     65.6573     66.8497
    96.7500      0.0000    287.6540     65.1860     64.5381
    97.0000      0.0000    287.8058     65.0999     63.6755
    97.2500      2.0000    287.8062     65.1798     62.3580
    97.5000      0.0000    287.7119     65.2402     59.6708
    97.7500      0.0000    287.4362     65.1116     56.8065
    98.0000      0.0000    286.7228     64.7619     56.0238
    98.2500      0.0000    285.2522     64.5200     58.7425
    98.5000      0.0000    282.9731     65.1534     64.6178
    98.7500      0.0000    280.4341     67.4079     71.7438
    99.0000      0.0000    278.5936     71.1950     77.4263
    99.2500      0.0000    278.0611     75.3993     79.6821
    99.5000      0.0000    278.5909     78.7166     78.8341
    99.7500      0.0000    279.4402     80.6024     77.2905
   100.0000      0.0000    280.0671     81.3522     77.2525
   100.2500      0.0000    280.3713     81.5348     78.8236
   100.5000      0.0000    280.4769     81.5438     80.4202
   100.7500      0.0000    280.5025     81.5380     80.5404
   101.0000      0.0000    280.5027     81.5565     78.8240
   101.2500      0.0000    280.4958     81.5961     75.7144
   101.5000      0.0000    280.4888     81.6317     71.6523
   101.7500      0.0000    280.4857     81.6253     66.8547
   102.0000      0.0000    280.4851     81.5576     61.7326
   102.2500      0.0000    280.4835     81.4487     57.1148
   102.5000      0.0000    280.4779     81.3415     53.7703
   102.7500      0.0000    280.4684     81.2679     51.8373
   103.0000      0.0000    280.4562     81.2345     50.9448
   103.2500      0.0000    280.4424     81.2336     50.7355
   103.5000      0.0000    280.4289     81.2523     50.9291
   103.7500      0.0000    280.4185     81.2753     51.0626
   104.0000      0.0000    280.4138     81.2868     50.6825
   104.2500      0.0000    280.4143     81.2779     49.7902
   104.5000      0.0000    280.4165     81.2524     48.7385
   104.7500      0.0000    280.4174     81.2241     47.8314
   105.0000      0.0000    280.4161     81.2040     47.3537
   105.2500      0.0000    280.4151     81.1942     47.8093
   105.5000      0.0000    280.4172     81.1952     49.6310
   105.7500      0.0000    280.4218     81.2126     52.5583
   106.0000      0.0000    280.4257     81.2495     55.5757
   106.2500      0.0000    280.4268     81.2974     57.5059
   106.5000      0.0000    280.4270     81.3416     57.4504
   106.7500      0.0000    280.4282     81.3712     54.7860
   107.0000      0.0000    280.4294     81.3836     49.3783
   107.2500      0.0000    280.4289     81.3817     42.2320
   107.5000      0.0000    280.4268     81.3716     35.6099
   107.7500      0.0000    280.4246     81.3585     31.9265
   108.0000      0.0000    280.4211     81.3456     32.1914
   108.2500      0.0000    280.4133     81.3369     35.3895
   108.5000      0.0000    280.3995     81.3364     39.3671
   108.7500      0.0000    280.3824     81.3444     42.5444
   109.0000      0.0000    280.3673     81.3553     44.9937
   109.2500      0.0000    280.3596     81.3607     48.0901
   109.5000      0.0000    280.3618     81.3554     53.2691
   109.7500      0.0000    280.3722     81.3393     60.9113
   110.0000      0.0000    280.3856     81.3136     70.0112
   110.2500      0.0000    280.3951     81.2773     78.8988
   110.5000      0.0000    280.3966     81.2314     86.5107
   110.7500      0.0000    280.3899     81.1851     92.8927
   111.0000      0.0000    280.3784     81.1513     98.3334
   111.2500      0.0000    280.3667     81.1354    102.3356
   111.5000      0.0000    280.3576     81.1292    104.0202
   111.7500      0.0000    280.3518     81.1215    103.5764
   112.0000      0.0000    280.3475     81.1138    102.5456
   112.2500      0.0000    280.3416     81.1179    102.3030
   112.5000      0.0000    280.3326     81.1339    102.7184
   112.7500      0.0000    280.3216     81.1412    102.5587
   113.0000      0.0000    280.3120     81.1204    100.9426
   113.2500      0.0000    280.3077     81.0781     98.4172
   113.5000      0.0000    280.3125     81.0428     96.5839
   113.7500      0.0000    280.3262     81.0331     96.3304
   114.0000      0.0000    280.3425     81.0376     96.4552
   114.2500      0.0000    280.3522     81.0296     94.6194
   114.5000      0.0000    280.3496     80.9996     89.8753
   114.7500      0.0000    280.3359     80.9650     83.8730
   115.0000      0.0000    280.3163     80.9479     79.4969
   115.2500      0.0000    280.2964     80.9541     78.5074
   115.5000      0.0000    280.2797     80.9776     80.4090
   115.7500      0.0000    280.2677     81.0131     83.3727
   116.0000      0.0000    280.2609     81.0540     86.1582
   116.2500      0.0000    280.2581     81.0881     88.9988
   116.5000      0.0000    280.2578     81.1042     92.6504
   116.7500      0.0000    280.2591     81.1017     97.0750
   117.0000      0.0000    280.2618     81.0889    101.2978
   117.2500      0.0000    280.2656     81.0728    104.0774
   117.5000      0.0000    280.2692     81.0559    104.4610
   117.7500      0.0000    280.2706     81.0408    102.4017
   118.0000      0.0000    280.2682     81.0326     99.4849
   118.2500      0.0000    280.2621     81.0318     98.5188
   118.5000      0.0000    280.2542     81.0279    101.4761
   118.7500      0.0000    280.2474     81.0066    107.7022
   119.0000      0.0000    280.2437     80.9680    114.3970
   119.2500      0.0000    280.2424     80.9348    118.6869
   119.5000      0.0000    280.2420     80.9338    119.1744
   119.7500      0.0000    280.2412     80.9660    116.2305
   120.0000      0.0000    280.2402     81.0033    111.5637
   120.2500      0.0000    280.2400     81.0187    107.2809
   120.5000      0.0000    280.2416     81.0099    104.6617
   120.7500      0.0000    280.2452     80.9941    103.5269
   121.0000      0.0000    280.2504     80.9883    102.8969
   121.2500      0.0000    280.2571     80.9966    102.3005
   121.5000      0.0000    280.2658     81.0078    102.3176
   121.7500      0.0000    280.2767     81.0085    103.8996
   122.0000      0.0000    280.2881     81.0025    107.4101
   122.2500      0.0000    280.2963     81.0122    112.2332
   122.5000      0.0000    280.2988     81.0547    116.9160
   122.7500      0.0000    280.2963     81.1200    119.6836
   123.0000      0.0000    280.2915     81.1807    119.3156
   123.2500      0.0000    280.2856     81.2164    115.9425
   123.5000      0.0000    280.2775     81.2224    111.0199
   123.7500      0.0000    280.2661     81.2018    106.5285
   124.0000      0.0000    280.2522     81.1608    104.0994
   124.2500      0.0000    280.2385     81.1077    104.4448
   124.5000      0.0000    280.2284     81.0482    107.1724
   124.7500      0.0000    280.2243     80.9853    111.0825
   125.0000      0.0000    280.2258     80.9269    114.8089
   125.2500      0.0000    280.2294     80.8851    117.4189
   125.5000      0.0000    280.2314     80.8649    118.6261
   125.7500      0.0000    280.2297     80.8582    118.6298
   126.0000      0.0000    280.2250     80.8491    117.8175
   126.2500      0.0000    280.2188     80.8235    116.3350
   126.5000      0.0000    280.2141     80.7761    113.5657
   126.7500      0.0000    280.2134     80.7158    108.2122
   127.0000      0.0000    280.2177     80.6661     99.4634
   127.2500      0.0000    280.2245     80.6543     88.2153
