~Version Information
VERS.                      2.0: CWLS Log ASCII Standard - VERSION 2.0
WRAP.                       NO: One line per depth step
~Well Information Block
STRT.FT               345.0000: 
STOP.FT              2167.7000: 
STEP.FT                 0.1000: 
NULL.                -999.2500: 
COMP.          Pioneer Natural Resources: COMPANY
WELL.          Hemisphere 32-24: WELL
FLD.           Purgatoire River: FIELD
LOC.           1850' FNL & 2284' FEL--: LOCATION
PROV.                 Colorado: PROVINCE
CNTY.               Las Animas: COUNTRY
SRVC.                Patterson: SERVICE COMPANY
DATE.          Mon Aug 15 07:19:13 2005: LOG DATE
UWI.           05 071 08440 00: UNIQUE WELL ID
~Curve Information Block
DEPT.FT            0 000 00 00: Depth
DCAL.in                       : CDL Caliper
RHOB.g/cc                     : CDL Bulk Density
RHOC.g/cc                     : CDL Density Correction
DPOR.pu                       : CDL Density Porosity
NPOR.pu                       : Neutron Porosity
GR.GAPI                       : Gamma Ray
~Parameter Information Block
~A  Depth       DCAL        RHOB        RHOC        DPOR        NPOR         GR     
# ...
  1065.0000      8.1585      2.7008      0.0673     -3.0784     25.1905    122.1953
  1065.1000      8.1585      2.7527      0.0888     -6.2237     25.3314    116.6219
  1065.2000      8.1585      2.7954      0.1587     -8.8109     25.7364    113.7017
  1065.3000      8.1565      2.8155      0.1815    -10.0321     26.4642    114.8145
  1065.4000      8.1565      2.8141      0.1501     -9.9473     27.3028    115.0716
  1065.5000      8.1556      2.8132      0.0630     -9.8907     28.0134    110.7272
  1065.6000      8.1556      2.8245     -0.0062    -10.5761     28.7162    104.2777
  1065.7000      8.1556      2.8276      0.0128    -10.7612     29.2284    102.0822
  1065.8000      8.1566      2.7922      0.0057     -8.6152     29.2467    105.4909
  1065.9000      8.1566      2.7225     -0.0756     -4.3959     29.1341    109.8357
  1066.0000      8.1614      2.6509     -0.0647     -0.0535     29.1464    109.9400
  1066.1000      8.1614      2.5979     -0.0615      3.1582     29.0932    103.0052
  1066.2000      8.1614      2.5602     -0.0551      5.4441     28.8260     94.2504
  1066.3000      8.1798      2.5153     -0.0846      8.1615     28.5005     91.6444
  1066.4000      8.1798      2.4499     -0.1159     12.1268     28.2419     94.8342
  1066.5000      8.2149      2.3795     -0.1682     16.3949     27.6164    100.3212
  1066.6000      8.2149      2.3189     -0.1068     20.0650     26.2458    107.8672
  1066.7000      8.2149      2.2588     -0.0590     23.7102     24.3980    114.7725
  1066.8000      8.2477      2.1841     -0.0331     28.2352     22.4883    117.4410
  1066.9000      8.2477      2.0879     -0.0313     34.0671     20.7376    115.7081
  1067.0000      8.2639      1.9728     -0.0797     41.0417     19.3736    110.9706
  1067.1000      8.2639      1.8512     -0.1092     48.4096     18.2796    104.3288
  1067.2000      8.2639      1.7330     -0.1167     55.5763     16.6640     95.7724
  1067.3000      8.2790      1.6182     -0.1613     62.5344     14.0796     85.9851
  1067.4000      8.2790      1.5038     -0.1230     69.4665     11.3088     77.5221
  1067.5000      8.3350      1.3917     -0.1738     76.2590      8.9817     71.0984
  1067.6000      8.3350      1.2912     -0.1251     82.3499      6.8620     63.2247
  1067.7000      8.3350      1.2166     -0.0861     86.8706      4.9553     54.0750
  1067.8000      8.4643      1.1848     -0.0568     88.7988      3.5844     50.7398
  1067.9000      8.4643      1.1997      0.0084     87.8940      2.9704     54.2147
  1068.0000      8.6329      1.2495      0.0375     84.8765      3.0844     56.2007
  1068.1000      8.6329      1.3215      0.0995     80.5133      3.5930     53.4299
  1068.2000      8.6329      1.4090      0.1825     75.2125      4.1363     50.9205
  1068.3000      8.7789      1.5111      0.2891     69.0237      4.6880     52.9289
  1068.4000      8.7789      1.6336      0.3341     61.5998      5.3972     57.2664
  1068.5000      8.8367      1.7788      0.3885     52.7983      6.2436     60.8182
  1068.6000      8.8367      1.9345      0.3843     43.3613      7.0137     63.7250
  1068.7000      8.8367      2.0874      0.3863     34.0953      7.5206     65.4272
  1068.8000      8.6831      2.2307      0.4021     25.4120      7.9573     64.9148
  1068.9000      8.6831      2.3496      0.4060     18.2068      8.8073     66.2170
  1069.0000      8.3487      2.4362      0.3235     12.9586     10.2270     72.3160
  1069.1000      8.3487      2.5148      0.2426      8.1927     11.8871     78.1166
  1069.2000      8.3487      2.6051      0.2711      2.7205     13.4936     80.4496
  1069.3000      8.0919      2.6795      0.3168     -1.7870     15.0244     81.7911
  1069.4000      8.0919      2.7045      0.2171     -3.3041     16.4712     83.5989
  1069.5000      8.0004      2.6888      0.1353     -2.3509     17.8048     85.5509
  1069.6000      8.0004      2.6610      0.0787     -0.6658     19.2404     85.1551
  1069.7000      8.0004      2.6396      0.0470      0.6284     20.7806     82.0999
  1069.8000      7.9819      2.6235      0.0949      1.6071     21.7921     82.0778
  1069.9000      7.9819      2.6061      0.0551      2.6602     21.9406     87.8717
  1070.0000      7.9767      2.5966      0.0397      3.2371     21.7110     93.4527
  1070.1000      7.9767      2.5984      0.1057      3.1299     21.5769     92.9141
  1070.2000      7.9767      2.5997      0.0914      3.0460     21.5579     87.7192
  1070.3000      7.9756      2.5939      0.0693      3.3995     21.4262     84.5881
  1070.4000      7.9756      2.5805      0.0420      4.2103     21.0413     85.4200
  1070.5000      7.9763      2.5641      0.0567      5.2046     20.6382     86.9990
  1070.6000      7.9763      2.5563      0.0013      5.6784     20.4494     87.9729
  1070.7000      7.9763      2.5605      0.0451      5.4270     20.3455     87.9101
  1070.8000      7.9721      2.5665      0.0587      5.0586     20.2357     85.1794
  1070.9000      7.9721      2.5785      0.0395      4.3354     20.2213     80.1105
  1071.0000      7.9707      2.6048      0.0703      2.7409     20.3501     76.9922
  1071.1000      7.9707      2.6261      0.0937      1.4469     20.4944     77.0611
  1071.2000      7.9707      2.6241      0.0691      1.5706     20.4801     75.9084
  1071.3000      7.9750      2.6167      0.0081      2.0174     20.4098     73.1764
  1071.4000      7.9750      2.6307      0.0308      1.1673     20.5520     72.2744
  1071.5000      7.9798      2.6556      0.0936     -0.3424     21.0122     73.3927
  1071.6000      7.9798      2.6552      0.0982     -0.3127     21.7575     76.2905
  1071.7000      7.9798      2.6157      0.0480      2.0779     22.5697     81.6068
  1071.8000      7.9845      2.5696     -0.0401      4.8744     23.1393     86.3027
  1071.9000      7.9845      2.5544      0.0076      5.7959     23.5599     86.7008
  1072.0000      7.9821      2.5639      0.0124      5.2188     24.0792     84.8439
  1072.1000      7.9821      2.5699      0.0399      4.8519     24.4701     83.5162
  1072.2000      7.9821      2.5623     -0.0117      5.3154     24.3841     83.0795
  1072.3000      7.9722      2.5524      0.0457      5.9144     24.1040     84.7187
  1072.4000      7.9722      2.5455      0.0644      6.3339     24.0297     87.8142
  1072.5000      7.9663      2.5374      0.0355      6.8245     24.0113     90.4287
  1072.6000      7.9663      2.5339      0.0121      7.0372     23.8449     92.3804
  1072.7000      7.9663      2.5422      0.0375      6.5360     23.7200     93.2970
  1072.8000      7.9703      2.5476      0.1118      6.2085     23.8603     93.8911
  1072.9000      7.9703      2.5243      0.1006      7.6195     24.0662     96.7874
  1073.0000      7.9799      2.4776      0.0456     10.4462     23.9741    102.9718
  1073.1000      7.9799      2.4394     -0.0039     12.7644     23.4701    110.5651
  1073.2000      7.9799      2.4235      0.0263     13.7300     22.7997    118.5410
  1073.3000      7.9876      2.4191      0.0327     13.9934     22.4680    128.7395
  1073.4000      7.9876      2.4160      0.0375     14.1813     22.5985    136.6230
  1073.5000      7.9908      2.4143      0.0595     14.2860     22.6864    134.4135
  1073.6000      7.9908      2.4193      0.0385     13.9832     22.3880    127.6831
  1073.7000      7.9908      2.4356      0.0736     12.9952     21.8291    128.5822
  1073.8000      7.9919      2.4592      0.0667     11.5666     21.4493    138.6498
  1073.9000      7.9919      2.4799      0.1158     10.3096     21.5094    148.6678
  1074.0000      7.9948      2.5009      0.0629      9.0347     21.6826    148.8387
  1074.1000      7.9948      2.5373      0.1018      6.8326     21.5954    139.4570
  1074.2000      7.9948      2.5784      0.1601      4.3373     21.2803    129.7500
  1074.3000      7.9958      2.5923      0.1619      3.4994     21.1051    124.5720
  1074.4000      7.9958      2.5733      0.1204      4.6493     21.2963    121.7195
  1074.5000      7.9953      2.5519      0.0876      5.9451     21.5433    120.0683
