~Version Information
VERS.                      2.0: CWLS Log ASCII Standard - VERSION 2.0
WRAP.                       NO: One line per depth step
~Well Information Block
STRT.FT                 0.0000: 
STOP.FT              1238.2500: 
STEP.FT                 0.2500: 
NULL.                -999.2500: 
COMP.          Pioneer Natural Resources: COMPANY
WELL.                 Ray 34-6: WELL
FLD.           Purgatoire River: FIELD
LOC.           684' FSL & 2254' FEL: LOCATION
CNTY.               Las Animas: COUNTY
SRVC.                         : SERVICE COMPANY
DATE.          Fri Jun 23 09:23:24 2006: LOG DATE
UWI.           05 071 08695 00: UNIQUE WELL ID
STAT.                       CO: STATE
~Curve Information Block
DEPT.FT            0 000 00 00: Depth
GR.GAPI                       : Gamma Ray
CCL.                          : Casing Collar Locator
TT3.usec                      : CBL 3' Travel Time
AMP3.mV                       : CBL 3' Amplitude
~Parameter Information Block
~A  Depth        GR         CCL         TT3         AMP3    
# ...
   335.0000     51.4256      0.0000   1039.4955      3.5940
   335.2500     48.4554      0.0000   1074.8724      3.6928
   335.5000     49.5503      0.0000   1112.0902      3.9898
   335.7500     55.6730      0.0000   1140.9772      4.5286
   336.0000     66.8356      0.0000   1151.9071      5.3760
   336.2500     81.9477      0.0000   1136.9938      6.5822
   336.5000     99.0403      0.0000   1092.6520      8.1710
   336.7500    115.5692      0.0000   1022.5988     10.1819
   337.0000    128.8244      0.0000    937.7931     12.6952
   337.2500    136.9104      0.0000    852.1581     15.7472
   337.5000    139.9602      0.0000    777.9918     19.1760
   337.7500    140.0763      0.0000    724.5299     22.5696
   338.0000    139.6201      0.0000    696.8779     25.4162
   338.2500    139.7181      0.0000    691.8033     27.3536
   338.5000    140.1542      0.0000    696.0648     28.3345
   338.7500    139.9491      0.0000    694.1683     28.6089
   339.0000    138.1936      0.0000    679.8030     28.5509
   339.2500    135.0354      0.0000    658.3345     28.4553
   339.5000    131.6763      0.0000    638.7456     28.4456
   339.7500    128.9334      0.0000    625.2168     28.5188
   340.0000    126.3094      0.0000    616.0864     28.6269
   340.2500    123.1325      0.0000    608.6613     28.7202
   340.5000    120.1638      0.0000    604.4922     28.7781
   340.7500    119.3472      0.0000    610.3139     28.8359
   341.0000    121.7986      0.0000    632.0991     28.9728
   341.2500    126.4198      0.0000    666.7919     29.2558
   341.5000    130.8295      0.0000    701.2815     29.6955
   341.7500    133.4126      0.0000    720.1284     30.2452
   342.0000    133.9815      0.0000    713.5821     30.8291
   342.2500    132.7696      0.0000    681.2232     31.3627
   342.5000    129.7683      0.0000    632.8194     31.7626
   342.7500    125.5695      0.0000    583.4270     31.9756
   343.0000    122.2692      0.0000    541.3878     32.0230
   343.2500    122.4846      0.0000    501.5006     31.9995
   343.5000    126.9343      0.0000    454.7340     31.9984
   343.7500    133.1588      0.0000    402.3842     32.0358
   344.0000    136.8763      0.0000    355.6681     32.0501
   344.2500    134.6874      0.0000    323.7803     31.9727
   344.5000    125.9072      0.0000    307.0507     31.8143
   344.7500    112.5406      0.0000    300.1674     31.6847
   345.0000     97.8609      0.0000    297.8461     31.7034
   345.2500     84.7869      0.0000    297.1265     31.8742
   345.5000     74.9754      0.0000    296.8958     32.0784
   345.7500     68.8012      0.0000    296.8442     32.2106
   346.0000     65.7994      0.0000    296.8678     32.2838
   346.2500     65.0647      0.0000    296.9120     32.3574
   346.5000     65.4588      0.0000    297.0021     32.3917
   346.7500     65.8874      0.0000    297.3778     32.2375
   347.0000     65.7413      0.0000    298.6320     31.7883
   347.2500     65.2645      0.0000    301.9592     31.1135
   347.5000     65.3781      0.0000    309.3178     30.4127
   347.7500     66.8474      0.0000    323.6438     29.8572
   348.0000     69.4303      0.0000    348.6548     29.5015
   348.2500     71.8032      0.0000    387.3648     29.3029
   348.5000     72.3891      0.0000    439.7485     29.1394
   348.7500     70.5854      0.0000    502.2007     28.7907
   349.0000     67.6214      0.0000    569.2684     27.9904
   349.2500     66.3230      0.0000    634.4882     26.5701
   349.5000     69.5690      0.0000    690.5828     24.5669
   349.7500     78.3931      0.0000    732.5681     22.1896
   350.0000     91.3847      0.0000    761.4996     19.6884
   350.2500    105.9295      0.0000    783.3909     17.2479
   350.5000    119.7930      0.0000    804.4639     14.9721
   350.7500    131.4777      0.0000    828.0094     12.9224
   351.0000    139.8217      0.0000    854.4018     11.1348
   351.2500    144.2048      0.0000    882.3946      9.6087
   351.5000    145.1840      0.0000    910.2870      8.3110
   351.7500    144.3091      0.0000    935.9485      7.2048
   352.0000    143.0794      0.0000    955.9967      6.2739
   352.2500    142.3461      0.0000    967.1328      5.5204
   352.5000    142.5957      0.0000    970.7410      4.9469
   352.7500    144.1384      0.0000    975.4365      4.5432
   353.0000    146.6022      0.0000    992.0514      4.2853
   353.2500    148.6331      0.0000   1023.9170      4.1415
   353.5000    148.8083      0.0000   1060.4398      4.0801
   353.7500    146.9156      0.0000   1080.7655      4.0804
   354.0000    143.8791      0.0000   1069.2760      4.1432
   354.2500    140.5954      0.0000   1032.9127      4.2947
   354.5000    137.5882      0.0000   1001.5317      4.5825
   354.7500    135.5344      0.0000   1004.8391      5.0642
   355.0000    134.8935      0.0000   1046.8217      5.7795
   355.2500    134.9813      0.0000   1105.1670      6.7139
   355.5000    134.5872      0.0000   1153.5270      7.7796
   355.7500    133.6697      0.0000   1179.1982      8.8630
   356.0000    133.5443      0.0000   1181.8032      9.9182
   356.2500    135.2072      0.0000   1164.5681     11.0028
   356.5000    138.0717      0.0000   1133.3717     12.2010
   356.7500    140.5674      0.0000   1101.1821     13.5558
   357.0000    141.5777      0.0000   1084.2668     15.0963
   357.2500    140.9444      0.0000   1087.7507     16.8265
   357.5000    138.8560      0.0000   1098.6798     18.5914
   357.7500    135.4937      0.0000   1100.2096     20.0208
   358.0000    131.5579      2.0000   1091.6544     20.7102
   358.2500    128.6229      2.0000   1088.2355     20.4943
   358.5000    128.4164      0.0000   1100.5433     19.6110
   358.7500    131.5294      0.0000   1119.1177     18.6704
   359.0000    136.7806      0.0000   1121.2911     18.3827
   359.2500    142.0505      0.0000   1089.7917     19.1321
   359.5000    145.9998      0.0000   1024.1140     20.7431
   359.7500    148.8237      0.0000    938.8540     22.6869
   360.0000    151.2267      0.0000    854.5005     24.4610
   360.2500    153.2942      0.0000    787.8837     25.7708
   360.5000    154.9562      0.0000    745.8480     26.5691
   360.7500    156.9868      0.0000    723.5858     27.1303
   361.0000    160.5952      0.0000    707.4224     28.0257
   361.2500    165.9685      0.0000    679.8923     29.8374
   361.5000    171.5328      0.0000    627.7121     32.7849
   361.7500    174.7279      0.0000    551.2426     36.5780
   362.0000    173.7205      0.0000    466.0923     40.5863
   362.2500    168.7608      0.0000    392.2246     44.1648
   362.5000    162.0345      0.0000    341.1634     46.9673
   362.7500    156.0087      0.0000    312.5128     49.1029
   363.0000    151.5030      0.0000    299.1356     51.0222
   363.2500    147.0228      0.0000    293.2457     53.2070
   363.5000    140.1717      0.0000    289.3408     55.9367
   363.7500    130.3053      0.0000    284.5058     59.2618
   364.0000    119.8274      0.0000    277.9595     63.0384
   364.2500    112.2182      0.0000    270.5889     66.9338
   364.5000    108.5091      0.0000    264.0348     70.5209
   364.7500    106.1196      0.0000    259.4546     73.4752
   365.0000    101.4991      0.0000    256.9307     75.6803
   365.2500     93.5936      0.0000    255.8293     77.1398
   365.5000     84.2907      0.0000    255.4660     77.8638
   365.7500     76.0616      0.0000    255.4242     77.9066
   366.0000     70.1064      0.0000    255.5130     77.4606
   366.2500     66.7098      0.0000    255.6469     76.7872
   366.5000     66.3916      0.0000    255.7921     76.0234
   366.7500     69.9729      0.0000    255.9472     75.1288
   367.0000     77.6030      0.0000    256.1178     74.0595
   367.2500     88.2731      0.0000    256.2932     72.9230
   367.5000    100.6542      0.0000    256.4616     71.8953
   367.7500    114.0669      0.0000    256.6651     71.0246
   368.0000    128.0895      0.0000    257.0561     70.1880
   368.2500    141.4082      0.0000    257.9443     69.2330
