~Version Information
VERS.                      2.0: CWLS Log ASCII Standard - VERSION 2.0
WRAP.                       NO: One line per depth step
~Well Information Block
STRT.FT               340.0000: 
STOP.FT              2342.7500: 
STEP.FT                 0.2500: 
NULL.                -999.2500: 
COMP.          Pioneer Natural Resources: COMPANY
WELL.          Pinkerton 41-12: WELL
FLD.           Purgatoire River: FIELD
LOC.           1222' FNL & 670' FEL--: LOCATION
CNTY.               Las Animas: COUNTY
SRVC.                Patterson: SERVICE COMPANY
DATE.          Wed Mar 15 10:37:39 2006: LOG DATE
UWI.           05 071 08500 00: UNIQUE WELL ID
STAT.                 Colorado: STATE
~Curve Information Block
DEPT.FT            0 000 00 00: Depth
SN.Ohm-m                      : IEL Short Normal
SP.mV                         : IEL Spontaneous Potential
DIR.Ohm-m                     : IEL Induction Resistivity
GR.GAPI                       : Gamma Ray
~Parameter Information Block
~A  Depth        SN          SP         DIR          GR     
# ...
  1512.5000      9.1494     53.0047      7.7360    128.3353
  1512.7500      9.1186     52.3854      7.7504    128.2839
  1513.0000      9.0784     51.8519      7.7606    128.7311
  1513.2500      9.0451     51.4127      7.7792    129.2021
  1513.5000      9.0369     51.0630      7.8198    129.2406
  1513.7500      9.0694     50.7873      7.8929    128.5036
  1514.0000      9.1500     50.5629      8.0041    126.9817
  1514.2500      9.2754     50.3654      8.1551    126.6763
  1514.5000      9.4380     50.1746      8.3455    128.4934
  1514.7500      9.6354     49.9788      8.5741    130.9133
  1515.0000      9.8743     49.7781      8.8395    134.1438
  1515.2500     10.1625     49.5832      9.1422    134.5525
  1515.5000     10.5036     49.4127      9.4862    131.3669
  1515.7500     10.9011     49.2879      9.8815    127.1232
  1516.0000     11.3666     49.2277     10.3441    119.4935
  1516.2500     11.9201     49.2453     10.8926    114.7307
  1516.5000     12.5781     49.3460     11.5432    109.1648
  1516.7500     13.3386     49.5281     12.3033    106.4416
  1517.0000     14.1760     49.7841     13.1671    102.9560
  1517.2500     15.0511     50.1026     14.1130    100.4704
  1517.5000     15.9286     50.4691     15.1047     95.9460
  1517.7500     16.7898     50.8665     16.0965     92.3993
  1518.0000     17.6364     51.2742     17.0446     86.9086
  1518.2500     18.4847     51.6678     17.9223     83.8108
  1518.5000     19.3526     52.0197     18.7285     81.1966
  1518.7500     20.2434     52.3012     19.4844     81.1110
  1519.0000     21.1379     52.4871     20.2180     82.7611
  1519.2500     22.0018     52.5596     20.9490     84.0282
  1519.5000     22.8024     52.5125     21.6815     84.4283
  1519.7500     23.5198     52.3531     22.4061     83.2607
  1520.0000     24.1516     52.1006     23.1051     79.6277
  1520.2500     24.7109     51.7826     23.7582     76.2410
  1520.5000     25.2204     51.4290     24.3483     70.1184
  1520.7500     25.7036     51.0664     24.8711     65.7908
  1521.0000     26.1787     50.7139     25.3422     60.1155
  1521.2500     26.6559     50.3808     25.7915     57.3269
  1521.5000     27.1332     50.0679     26.2402     54.3351
  1521.7500     27.5912     49.7710     26.6790     52.5833
  1522.0000     28.0000     49.4855     27.0671     49.7247
  1522.2500     28.3362     49.2115     27.3589     47.7638
  1522.5000     28.5950     48.9566     27.5378     45.2686
  1522.7500     28.7891     48.7369     27.6280     44.0676
  1523.0000     28.9349     48.5741     27.6764     42.8399
  1523.2500     29.0359     48.4899     27.7230     42.2668
  1523.5000     29.0811     48.4996     27.7833     41.7855
  1523.7500     29.0585     48.6055     27.8501     41.9066
  1524.0000     28.9704     48.7947     27.9061     43.0269
  1524.2500     28.8384     49.0401     27.9369     44.2319
  1524.5000     28.6967     49.3069     27.9381     45.8682
  1524.7500     28.5794     49.5621     27.9177     46.4283
  1525.0000     28.5104     49.7832     27.8969     46.5394
  1525.2500     28.5007     49.9646     27.9106     46.4615
  1525.5000     28.5512     50.1188     28.0012     46.4392
  1525.7500     28.6554     50.2712     28.2070     46.3969
  1526.0000     28.8028     50.4522     28.5472     46.0593
  1526.2500     28.9850     50.6876     29.0094     45.6547
  1526.5000     29.1981     50.9911     29.5471     44.8888
  1526.7500     29.4397     51.3612     30.0960     44.2819
  1527.0000     29.7009     51.7815     30.5983     43.2004
  1527.2500     29.9600     52.2251     31.0189     42.3881
  1527.5000     30.1836     52.6607     31.3410     41.0683
  1527.7500     30.3353     53.0579     31.5519     40.0992
  1528.0000     30.3863     53.3914     31.6379     38.5810
  1528.2500     30.3268     53.6440     31.5963     37.7503
  1528.5000     30.1727     53.8066     31.4478     37.4366
  1528.7500     29.9653     53.8782     31.2358     38.1751
  1529.0000     29.7580     53.8644     31.0076     40.6498
  1529.2500     29.5933     53.7761     30.7927     42.7226
  1529.5000     29.4844     53.6277     30.5945     45.3094
  1529.7500     29.4107     53.4351     30.3962     46.2584
  1530.0000     29.3316     53.2142     30.1755     46.6410
  1530.2500     29.2135     52.9789     29.9190     46.5867
  1530.5000     29.0517     52.7400     29.6283     46.5403
  1530.7500     28.8721     52.5044     29.3164     46.5717
  1531.0000     28.7142     52.2747     28.9965     46.6903
  1531.2500     28.6085     52.0502     28.6732     46.9622
  1531.5000     28.5598     51.8282     28.3474     48.0460
  1531.7500     28.5417     51.6055     28.0273     49.3222
  1532.0000     28.5092     51.3803     27.7338     51.9190
  1532.2500     28.4217     51.1536     27.4898     53.8872
  1532.5000     28.2645     50.9306     27.3040     56.6937
  1532.7500     28.0538     50.7200     27.1620     58.1463
  1533.0000     27.8269     50.5340     27.0318     59.1937
  1533.2500     27.6281     50.3869     26.8776     58.8960
  1533.5000     27.5044     50.2944     26.6746     56.7077
  1533.7500     27.5027     50.2726     26.4183     54.1516
  1534.0000     27.6589     50.3377     26.1251     49.3691
  1534.2500     27.9782     50.5057     25.8285     46.2948
  1534.5000     28.4250     50.7905     25.5699     43.1403
  1534.7500     28.9347     51.2020     25.3860     42.2775
  1535.0000     29.4384     51.7424     25.3002     42.1965
  1535.2500     29.8810     52.4023     25.3185     42.3846
  1535.5000     30.2175     53.1581     25.4358     42.8347
  1535.7500     30.3974     53.9724     25.6405     43.6235
  1536.0000     30.3652     54.7967     25.9124     45.9156
  1536.2500     30.0911     55.5774     26.2166     47.7140
  1536.5000     29.6171     56.2642     26.5038     49.3228
  1536.7500     29.0768     56.8166     26.7288     49.2712
  1537.0000     28.6602     57.2092     26.8731     48.5336
  1537.2500     28.5247     57.4328     26.9533     48.7946
  1537.5000     28.7004     57.4931     27.0007     51.9153
  1537.7500     29.0580     57.4064     27.0250     55.9597
  1538.0000     29.3717     57.1956     26.9901     63.6570
  1538.2500     29.4367     56.8863     26.8195     68.5228
  1538.5000     29.1593     56.5049     26.4301     73.5029
  1538.7500     28.5685     56.0775     25.7752     75.1101
  1539.0000     27.7656     55.6300     24.8708     76.3826
  1539.2500     26.8549     55.1874     23.7911     77.6285
  1539.5000     25.8995     54.7733     22.6363     81.2826
  1539.7500     24.9178     54.4092     21.4938     84.9719
  1540.0000     23.9152     54.1134     20.4182     92.0333
  1540.2500     22.9152     53.9005     19.4357     97.6206
  1540.5000     21.9639     53.7810     18.5620    107.1742
  1540.7500     21.1053     53.7618     17.8118    114.0176
  1541.0000     20.3541     53.8457     17.1932    123.6403
  1541.2500     19.6923     54.0313     16.6974    128.3518
  1541.5000     19.0904     54.3119     16.2956    130.5686
  1541.7500     18.5295     54.6742     15.9478    128.1495
  1542.0000     18.0064     55.0978     15.6187    119.7089
  1542.2500     17.5318     55.5558     15.2923    112.4693
  1542.5000     17.1318     56.0166     14.9764    101.9186
  1542.7500     16.8475     56.4474     14.6985     96.1026
  1543.0000     16.7154     56.8187     14.4944     90.4248
  1543.2500     16.7377     57.1074     14.3943     89.4147
  1543.5000     16.8654     57.3001     14.4095     92.6266
  1543.7500     17.0100     57.3939     14.5205     97.0632
  1544.0000     17.0702     57.3961     14.6735    103.6671
  1544.2500     16.9610     57.3218     14.7904    105.8845
  1544.5000     16.6446     57.1918     14.7971    104.4999
  1544.7500     16.1567     57.0286     14.6558    101.4266
  1545.0000     15.6041     56.8540     14.3808     97.0333
  1545.2500     15.1165     56.6864     14.0254     95.8689
  1545.5000     14.7772     56.5387     13.6526     97.4024
  1545.7500     14.5848     56.4178     13.3091    100.0933
