~Version Information
VERS.                      2.0: CWLS Log ASCII Standard - VERSION 2.0
WRAP.                       NO: One line per depth step
~Well Information Block
STRT.FT               360.0000: 
STOP.FT              2475.0000: 
STEP.FT                 0.1000: 
NULL.                -999.2500: 
COMP.          Pioneer Natural Resources: COMPANY
WELL.          Hellzonfire 32-31: WELL
FLD.           Purgatoire River: FIELD
LOC.           1993' FNL & 2265' FEL: LOCATION
STAT.                 Colorado: State
CNTY.               Las Animas: COUNTY
CTRY. USA : Country
SECT. 31 : Section
TOWN. 32S : Township
RANG. 66W : Range
SRVC.                Patterson: SERVICE COMPANY
DATE.          Fri Sep 02 07:26:13 2005: LOG DATE
API.           05 071 08483 00: UNIQUE WELL ID
~Curve Information Block
DEPT.FT            0 000 00 00: Depth
DCAL.in                       : CDL Caliper
RHOB.g/cc                     : CDL Bulk Density
RHOC.g/cc                     : CDL Density Correction
DPOR.pu                       : CDL Density Porosity
GR.GAPI                       : Gamma Ray
NPOR.pu                       : Neutron Porosity
~Parameter Information Block
~A  Depth       DCAL        RHOB        RHOC        DPOR         GR         NPOR    
# ...
   504.0000      8.4857      2.5338      0.0466      7.0405    130.6449     26.6584
   504.1000      8.4857      2.5709      0.1425      4.7960    134.6092     26.6631
   504.2000      8.4857      2.6017      0.0837      2.9264    140.4299     26.8186
   504.3000      8.5196      2.6214      0.0962      1.7310    140.7240     27.0404
   504.4000      8.5196      2.6297      0.0964      1.2275    138.1203     26.9308
   504.5000      8.5495      2.6234      0.1056      1.6137    139.7126     26.6202
   504.6000      8.5495      2.6042      0.0800      2.7736    143.1649     26.5394
   504.7000      8.5495      2.5907      0.0738      3.5968    141.5791     26.7618
   504.8000      8.5534      2.5936      0.0979      3.4187    134.6926     26.9724
   504.9000      8.5534      2.5991      0.0425      3.0854    126.0892     26.9942
   505.0000      8.5052      2.5970      0.0461      3.2128    120.0301     27.0705
   505.1000      8.5052      2.5877      0.0542      3.7739    117.6562     27.3635
   505.2000      8.5052      2.5745      0.0401      4.5750    116.4242     27.6498
   505.3000      8.4755      2.5642      0.0611      5.2001    113.8041     27.3393
   505.4000      8.4755      2.5668      0.0825      5.0418    109.1117     26.4549
   505.5000      8.5203      2.5869      0.0763      3.8228    105.8915     26.1112
   505.6000      8.5203      2.6130      0.0869      2.2442    106.3691     26.7207
   505.7000      8.5203      2.6273      0.0424      1.3741    108.3888     27.2680
   505.8000      8.5277      2.6259      0.1022      1.4583    112.8727     27.0342
   505.9000      8.5277      2.6222      0.0339      1.6833    121.9998     26.5172
   506.0000      8.4339      2.6259      0.1066      1.4606    130.8883     26.2217
   506.1000      8.4339      2.6267      0.0935      1.4141    133.4691     26.0379
   506.2000      8.4339      2.6192      0.1106      1.8671    134.4714     25.7918
   506.3000      8.4522      2.6090      0.0651      2.4867    138.0964     25.5102
   506.4000      8.4522      2.5932      0.0593      3.4425    139.0446     25.4643
   506.5000      8.5235      2.5654      0.0447      5.1277    136.7524     25.8463
   506.6000      8.5235      2.5386     -0.0030      6.7537    136.3902     26.1144
   506.7000      8.5235      2.5338     -0.0184      7.0398    139.9984     25.9740
   506.8000      8.5965      2.5418      0.0517      6.5568    146.7054     26.0206
   506.9000      8.5965      2.5428     -0.0027      6.4958    154.1111     26.4250
   507.0000      8.6860      2.5468      0.0416      6.2569    157.6323     26.7404
   507.1000      8.6860      2.5629      0.0751      5.2788    156.7796     26.6908
   507.2000      8.6860      2.5828      0.0546      4.0725    154.2032     26.3290
   507.3000      8.8119      2.5934      0.0946      3.4311    148.3518     26.0015
   507.4000      8.8119      2.5860      0.0700      3.8801    141.9000     26.0431
   507.5000      8.8174      2.5672      0.0554      5.0176    142.0960     26.3240
   507.6000      8.8174      2.5558      0.0216      5.7096    146.9014     26.5414
   507.7000      8.8174      2.5645      0.0911      5.1793    148.2325     26.7745
   507.8000      8.7372      2.5829      0.0510      4.0660    144.2513     27.2093
   507.9000      8.7372      2.5931      0.0751      3.4500    139.3821     27.5178
   508.0000      8.7049      2.5918      0.0235      3.5301    137.0623     27.2903
   508.1000      8.7049      2.5790      0.0630      4.3060    137.9895     26.8931
   508.2000      8.7049      2.5533      0.0511      5.8577    141.6381     26.8909
   508.3000      8.5910      2.5277     -0.0112      7.4122    148.2096     27.1496
   508.4000      8.5910      2.5220     -0.0050      7.7565    156.8845     27.0712
   508.5000      8.5374      2.5363      0.0424      6.8890    163.2651     26.7159
   508.6000      8.5374      2.5567      0.0063      5.6575    163.2041     26.7476
   508.7000      8.5374      2.5711      0.1193      4.7826    157.9474     27.2483
   508.8000      8.5409      2.5738      0.0600      4.6181    152.9887     27.8383
   508.9000      8.5409      2.5730      0.0437      4.6687    149.1757     28.3282
   509.0000      8.5354      2.5771      0.0595      4.4162    144.2788     28.6045
   509.1000      8.5354      2.5862      0.0709      3.8646    139.7655     28.5012
   509.2000      8.5354      2.5917      0.1003      3.5357    140.5921     28.2252
   509.3000      8.5121      2.5844      0.0498      3.9733    147.7865     28.0347
   509.4000      8.5121      2.5663      0.0618      5.0707    153.2949     27.8762
   509.5000      8.5623      2.5474      0.0141      6.2173    152.0305     27.6738
   509.6000      8.5623      2.5410      0.0041      6.6056    149.9445     27.4597
   509.7000      8.5623      2.5466      0.0651      6.2692    152.0876     27.3465
   509.8000      8.6179      2.5476      0.0701      6.2044    154.4247     27.2059
   509.9000      8.6179      2.5384      0.0075      6.7634    154.0069     26.8893
   510.0000      8.4912      2.5270      0.0501      7.4570    155.4003     26.6399
   510.1000      8.4912      2.5246     -0.0268      7.5973    159.5032     26.8313
   510.2000      8.4912      2.5360      0.0307      6.9093    162.5534     27.2956
   510.3000      8.4545      2.5379      0.1203      6.7949    161.3633     27.5367
   510.4000      8.4545      2.5177     -0.0054      8.0153    157.1121     27.6376
   510.5000      8.4578      2.5015      0.0142      8.9996    156.5037     28.0243
   510.6000      8.4578      2.5076      0.0023      8.6299    156.6468     28.4239
   510.7000      8.4578      2.5318      0.0500      7.1659    148.0442     28.3920
   510.8000      8.4730      2.5605      0.0578      5.4226    134.0815     28.1403
   510.9000      8.4730      2.5868      0.0399      3.8324    122.8887     27.8835
   511.0000      8.4850      2.6081      0.1441      2.5375    114.3675     27.3312
   511.1000      8.4850      2.6194      0.0971      1.8575    110.9423     26.5364
   511.2000      8.4850      2.6203      0.1217      1.7983    115.9218     25.9552
   511.3000      8.4379      2.6054      0.1233      2.7057    122.9681     25.7548
   511.4000      8.4379      2.5710      0.0964      4.7866    128.7129     25.8198
   511.5000      8.2959      2.5293      0.0478      7.3146    136.1001     25.7462
   511.6000      8.2959      2.4945      0.0641      9.4228    141.3710     25.4283
   511.7000      8.2959      2.4750      0.0631     10.6041    140.5082     25.3509
   511.8000      8.2611      2.4776     -0.0286     10.4460    139.3090     25.6937
   511.9000      8.2611      2.5080      0.0333      8.6065    144.2752     26.1915
   512.0000      8.3661      2.5563      0.1130      5.6788    151.0510     26.5123
   512.1000      8.3661      2.6044      0.1344      2.7636    153.5631     26.6749
   512.2000      8.3661      2.6363      0.2484      0.8319    156.7494     26.9733
   512.3000      8.4098      2.6428      0.1974      0.4373    165.1216     27.2215
   512.4000      8.4098      2.6367      0.1270      0.8087    171.4489     27.2463
   512.5000      8.4289      2.6199      0.2127      1.8226    166.9745     27.3376
   512.6000      8.4289      2.5728      0.0972      4.6805    152.8086     27.5990
   512.7000      8.4289      2.5077      0.0308      8.6269    142.0472     27.6993
   512.8000      8.4305      2.4699     -0.0646     10.9139    143.7293     27.3309
   512.9000      8.4305      2.4819      0.0414     10.1882    146.7911     26.6163
   513.0000      8.4575      2.5215      0.0937      7.7852    141.6898     25.8596
   513.1000      8.4575      2.5565      0.1011      5.6653    137.4125     25.3034
   513.2000      8.4575      2.5642      0.1094      5.2018    141.8267     25.2083
   513.3000      8.5153      2.5420      0.0433      6.5445    151.6677     25.4426
   513.4000      8.5153      2.5147      0.0449      8.1997    162.8479     25.5619
   513.5000      8.6856      2.5042      0.0491      8.8353    167.1963     25.5542
