~Version Information
VERS.                      2.0: CWLS Log ASCII Standard - VERSION 2.0
WRAP.                       NO: One line per depth step
~Well Information Block
STRT.FT               -10.2500: 
STOP.FT              2871.7500: 
STEP.FT                 0.2500: 
NULL.                -999.2500: 
COMP.          Pioneer Natural Resources: COMPANY
WELL.          Grey Goose 33-30: WELL
FLD.           Purgatorie River: FIELD
LOC.           2136' FSL & 2065' FEL--: LOCATION
STAT.                       CO: State
CNTY.               Las Animas: COUNTY
CTRY. USA : Country
SECT. 30  : Section
TOWN. 32S : Township
RANG. 67W : Range
SRVC.          Patterson Wireline: SERVICE COMPANY
DATE.          Tue Dec 06 12:24:57 2005: LOG DATE
API.            05 071 0854600: UNIQUE WELL ID
~Curve Information Block
DEPT.FT            0 000 00 00: Depth
CCL.                          : Casing Collar Locator
TT3.usec                      : CBL 3' Travel Time
AMP3.mV                       : CBL 3' Amplitude
GR.GAPI                       : Gamma Ray
~Parameter Information Block
~A  Depth       CCL         TT3         AMP3         GR     
# ...
  1899.2500      0.0000    572.0964      8.6608    111.2307
  1899.5000      0.0000    610.2344      8.3650    110.4490
  1899.7500      0.0000    638.1613      8.0955    110.8688
  1900.0000      0.0000    654.6530      7.8876    114.0415
  1900.2500      0.0000    664.2964      7.7368    120.5766
  1900.5000      0.0000    670.8029      7.6234    129.7554
  1900.7500      0.0000    674.5428      7.5297    139.3098
  1901.0000      0.0000    673.8823      7.4453    146.0010
  1901.2500      0.0000    666.5263      7.3686    147.6660
  1901.5000      0.0000    650.6307      7.3049    145.3195
  1901.7500      0.0000    626.8395      7.2580    142.6399
  1902.0000      0.0000    599.6238      7.2279    142.8397
  1902.2500      0.0000    575.2542      7.2191    146.3124
  1902.5000      0.0000    557.5675      7.2428    151.2504
  1902.7500      0.0000    545.9432      7.3046    155.5062
  1903.0000      0.0000    537.2765      7.3907    157.5972
  1903.2500      0.0000    529.2827      7.4719    157.0375
  1903.5000      0.0000    521.7559      7.5177    154.4017
  1903.7500      0.0000    515.3013      7.5072    150.7626
  1904.0000      0.0000    509.8172      7.4347    147.0205
  1904.2500      0.0000    504.7000      7.3131    144.0612
  1904.5000      0.0000    500.0580      7.1710    143.1068
  1904.7500      0.0000    497.2180      7.0430    145.0886
  1905.0000      0.0000    498.4032      6.9587    149.5424
  1905.2500      0.0000    506.3165      6.9328    154.5963
  1905.5000      0.0000    523.3206      6.9577    158.0721
  1905.7500      0.0000    549.7076      7.0042    158.3270
  1906.0000      0.0000    582.1558      7.0375    154.5690
  1906.2500      0.0000    614.3734      7.0433    147.3250
  1906.5000      0.0000    640.2538      7.0417    138.6732
  1906.7500      0.0000    656.9994      7.0698    131.5065
  1907.0000      0.0000    665.3295      7.1439    128.3080
  1907.2500      0.0000    666.8015      7.2391    130.3137
  1907.5000      0.0000    661.3543      7.3072    137.2627
  1907.7500      0.0000    648.0842      7.3109    147.3996
  1908.0000      0.0000    628.9842      7.2421    157.6088
  1908.2500      0.0000    611.3342      7.1150    164.2680
  1908.5000      0.0000    604.4658      6.9497    165.1823
  1908.7500      0.0000    612.7355      6.7657    161.2849
  1909.0000      0.0000    631.9016      6.5866    156.0162
  1909.2500      0.0000    652.8876      6.4439    152.6632
  1909.5000      0.0000    668.6848      6.3641    152.4866
  1909.7500      0.0000    677.5980      6.3516    155.0782
  1910.0000      0.0000    681.4498      6.3864    159.1380
  1910.2500      0.0000    682.5405      6.4441    162.4096
  1910.5000      0.0000    682.6245      6.5147    162.3123
  1910.7500      0.0000    683.4981      6.5958    157.9292
  1911.0000      0.0000    686.9453      6.6689    150.9631
  1911.2500      0.0000    693.2501      6.7017    144.0783
  1911.5000      0.0000    700.2186      6.6848    138.5486
  1911.7500      0.0000    704.6400      6.6555    133.9771
  1912.0000      0.0000    705.0448      6.6671    130.1246
  1912.2500      0.0000    702.7084      6.7355    128.1868
  1912.5000      0.0000    700.0681      6.8261    129.6687
  1912.7500      0.0000    698.8142      6.8917    134.3296
  1913.0000      0.0000    699.5126      6.9156    139.9155
  1913.2500      0.0000    701.8282      6.9154    144.0956
  1913.5000      0.0000    703.9950      6.9139    146.2811
  1913.7500      0.0000    702.3693      6.9171    147.2661
  1914.0000      0.0000    692.6735      6.9195    147.4882
  1914.2500      0.0000    672.8220      6.9204    146.4836
  1914.5000      0.0000    645.3353      6.9265    144.3073
  1914.7500      0.0000    616.7717      6.9422    142.6542
  1915.0000      0.0000    593.6620      6.9639    143.7485
  1915.2500      0.0000    578.2348      6.9799    148.2117
  1915.5000      0.0000    568.1072      6.9763    154.4454
  1915.7500      0.0000    560.1111      6.9450    160.2231
  1916.0000      0.0000    554.1021      6.8903    164.6602
  1916.2500      0.0000    552.9744      6.8228    168.3798
  1916.5000      0.0000    559.2992      6.7487    171.7920
  1916.7500      0.0000    572.5718      6.6686    173.5361
  1917.0000      0.0000    590.0406      6.5842    171.1427
  1917.2500      0.0000    609.4590      6.4982    163.6363
  1917.5000      0.0000    629.9893      6.4024    153.3094
  1917.7500      0.0000    651.0231      6.2753    144.3741
  1918.0000      0.0000    671.7490      6.1017    139.6869
  1918.2500      0.0000    691.9504      5.8930    139.2198
  1918.5000      0.0000    711.8937      5.6816    141.5502
  1918.7500      0.0000    731.2824      5.4975    145.5385
  1919.0000      0.0000    749.1243      5.3553    149.9003
  1919.2500      0.0000    763.9462      5.2554    152.3482
  1919.5000      0.0000    773.0132      5.1913    150.7097
  1919.7500      0.0000    773.0203      5.1571    145.0677
  1920.0000      0.0000    763.9539      5.1549    138.0961
  1920.2500      0.0000    751.0920      5.1933    133.0901
  1920.5000      0.0000    740.4402      5.2775    131.8669
  1920.7500      0.0000    732.7022      5.4007    134.1366
  1921.0000      0.0000    723.2676      5.5449    138.0641
  1921.2500      0.0000    706.6757      5.6854    141.3707
  1921.5000      0.0000    679.6647      5.8017    142.5903
  1921.7500      0.0000    642.5192      5.8899    141.6369
  1922.0000      0.0000    600.4721      5.9636    139.0773
  1922.2500      0.0000    562.7432      6.0374    135.3906
  1922.5000      0.0000    537.8102      6.1113    131.5528
  1922.7500      0.0000    529.6577      6.1751    129.5177
  1923.0000      0.0000    538.6677      6.2247    130.5151
  1923.2500      0.0000    563.6566      6.2694    132.8802
  1923.5000      0.0000    600.8264      6.3291    132.8012
  1923.7500      0.0000    641.9123      6.4226    127.6689
  1924.0000      0.0000    676.1163      6.5559    118.3402
  1924.2500      0.0000    695.3360      6.7187    108.1127
  1924.5000      0.0000    698.5890      6.8935     99.8614
  1924.7500      0.0000    692.9894      7.0584     94.2679
  1925.0000      0.0000    689.7397      7.1760     90.3704
  1925.2500      0.0000    695.2504      7.2077     87.2207
  1925.5000      0.0000    704.2805      7.1589     84.6886
  1925.7500      0.0000    704.7517      7.0861     82.8232
  1926.0000      0.0000    691.9748      7.0379     81.2094
  1926.2500      0.0000    676.3354      7.0068     79.7058
  1926.5000     -2.0000    673.9557      6.9562     79.4200
  1926.7500      0.0000    690.4618      6.8854     81.9896
  1927.0000      0.0000    716.2397      6.8623     87.5690
  1927.2500      0.0000    736.5844      6.9789     93.8637
  1927.5000      0.0000    743.3073      7.2478     97.4061
  1927.7500      0.0000    737.0950      7.5421     96.0780
  1928.0000      0.0000    723.3209      7.6812     90.8838
  1928.2500      0.0000    708.1213      7.5943     85.2831
  1928.5000      0.0000    696.4663      7.3686     82.3384
  1928.7500      0.0000    691.3147      7.1367     82.4755
  1929.0000      0.0000    693.7602      6.9611     84.0793
  1929.2500      0.0000    703.1644      6.8357     85.5970
  1929.5000      0.0000    716.4742      6.7477     86.4089
  1929.7500      0.0000    728.4446      6.7093     86.4342
  1930.0000      0.0000    734.4651      6.7410     86.0045
  1930.2500      0.0000    733.4750      6.8452     85.9090
  1930.5000      0.0000    727.3329      6.9968     86.6901
  1930.7500      0.0000    718.4348      7.1505     87.7958
  1931.0000      0.0000    709.8762      7.2544     87.8700
  1931.2500      0.0000    707.0470      7.2647     86.1171
  1931.5000      0.0000    715.2499      7.1602     83.3307
  1931.7500      0.0000    733.5988      6.9496     81.3285
  1932.0000      0.0000    753.2167      6.6658     81.1558
  1932.2500      0.0000    763.7026      6.3522     82.0535
  1932.5000      0.0000    761.0568      6.0501     82.5399
