~Version Information
VERS.                      2.0: CWLS Log ASCII Standard - VERSION 2.0
WRAP.                       NO: One line per depth step
~Well Information Block
STRT.FT               430.0000: 
STOP.FT              2074.0000: 
STEP.FT                 0.1000: 
NULL.                -999.2500: 
COMP.          Pioneer Natural Resources: COMPANY
WELL.             Fleming 11-2: WELL
FLD.           Purgatoire River: FIELD
LOC.           534' FNL & 160' FWL: LOCATION
CNTY.               Las Animas: COUNTY
SRVC.                Patterson: SERVICE COMPANY
DATE.          Tue Jun 27 10:07:47 2006: LOG DATE
UWI.           05 071 08491 00: UNIQUE WELL ID
STAT.                 Colorado: STATE
~Curve Information Block
DEPT.FT            0 000 00 00: Depth
DCAL.in                       : CDL Caliper
RHOB.g/cc                     : CDL Bulk Density
RHOC.g/cc                     : CDL Density Correction
DPOR.pu                       : CDL Density Porosity
GR.GAPI                       : Gamma Ray
NPOR.pu                       : Neutron Porosity
~Parameter Information Block
~A  Depth       DCAL        RHOB        RHOC        DPOR         GR         NPOR    
# ...
  2062.0000      7.8453      2.4807      0.0617     10.2624   -999.2500   -999.2500
  2062.1000      7.8453      2.4829      0.0235     10.1302   -999.2500   -999.2500
  2062.2000      7.8453      2.4851      0.0608      9.9949   -999.2500   -999.2500
  2062.3000      7.8476      2.4814      0.0317     10.2176   -999.2500   -999.2500
  2062.4000      7.8476      2.4710      0.0418     10.8488   -999.2500   -999.2500
  2062.5000      7.8451      2.4601      0.0283     11.5105   -999.2500   -999.2500
  2062.6000      7.8451      2.4519      0.0548     12.0059   -999.2500   -999.2500
  2062.7000      7.8451      2.4416      0.0408     12.6304   -999.2500   -999.2500
  2062.8000      7.8424      2.4314      0.0153     13.2506   -999.2500   -999.2500
  2062.9000      7.8424      2.4320      0.0227     13.2112   -999.2500   -999.2500
  2063.0000      7.8423      2.4448      0.0594     12.4348   -999.2500   -999.2500
  2063.1000      7.8423      2.4589      0.0522     11.5831   -999.2500   -999.2500
  2063.2000      7.8423      2.4638      0.0785     11.2826   -999.2500   -999.2500
  2063.3000      7.8434      2.4579      0.0567     11.6420   -999.2500   -999.2500
  2063.4000      7.8434      2.4492      0.0540     12.1719   -999.2500   -999.2500
  2063.5000      7.8448      2.4437      0.0388     12.5030   -999.2500   -999.2500
  2063.6000      7.8448      2.4350      0.0632     13.0311   -999.2500   -999.2500
  2063.7000      7.8448      2.4166      0.0515     14.1430   -999.2500   -999.2500
  2063.8000      7.8485      2.4024     -0.0073     15.0054   -999.2500   -999.2500
  2063.9000      7.8485      2.4108      0.0012     14.4975   -999.2500   -999.2500
  2064.0000      7.8540      2.4338      0.0438     13.1049   -999.2500   -999.2500
  2064.1000      7.8540      2.4565      0.0240     11.7279   -999.2500   -999.2500
  2064.2000      7.8540      2.4760      0.0525     10.5445   -999.2500   -999.2500
  2064.3000      7.8570      2.4830      0.0891     10.1234   -999.2500   -999.2500
  2064.4000      7.8570      2.4710      0.0427     10.8506   -999.2500   -999.2500
  2064.5000      7.8573      2.4536      0.0516     11.9021   -999.2500   -999.2500
  2064.6000      7.8573      2.4453      0.0249     12.4049   -999.2500   -999.2500
  2064.7000      7.8573      2.4494      0.0074     12.1604   -999.2500   -999.2500
  2064.8000      7.8551      2.4612      0.0662     11.4434   -999.2500   -999.2500
  2064.9000      7.8551      2.4688      0.0244     10.9801   -999.2500   -999.2500
  2065.0000      7.8518      2.4713      0.0331     10.8313   -999.2500   -999.2500
  2065.1000      7.8518      2.4779      0.0412     10.4277   -999.2500   -999.2500
  2065.2000      7.8518      2.4901      0.0592      9.6933   -999.2500   -999.2500
  2065.3000      7.8497      2.5055      0.0311      8.7550   -999.2500   -999.2500
  2065.4000      7.8497      2.5208      0.0792      7.8286   -999.2500   -999.2500
  2065.5000      7.8487      2.5266      0.0677      7.4783   -999.2500   -999.2500
  2065.6000      7.8487      2.5192      0.0752      7.9302   -999.2500   -999.2500
  2065.7000      7.8487      2.5052      0.0255      8.7748   -999.2500   -999.2500
  2065.8000      7.8475      2.4976      0.0301      9.2336   -999.2500   -999.2500
  2065.9000      7.8475      2.5048      0.0354      8.7998   -999.2500   -999.2500
  2066.0000      7.8462      2.5191      0.0827      7.9317   -999.2500   -999.2500
  2066.1000      7.8462      2.5192      0.0849      7.9276   -999.2500   -999.2500
  2066.2000      7.8462      2.4989      0.0448      9.1579   -999.2500   -999.2500
  2066.3000      7.8460      2.4772      0.0408     10.4750   -999.2500   -999.2500
  2066.4000      7.8460      2.4721      0.0006     10.7825   -999.2500   -999.2500
  2066.5000      7.8455      2.4840      0.0384     10.0626   -999.2500   -999.2500
  2066.6000      7.8455      2.4970      0.0471      9.2745   -999.2500   -999.2500
  2066.7000      7.8455      2.4983      0.0428      9.1962   -999.2500   -999.2500
  2066.8000      7.8445      2.4870      0.0464      9.8760   -999.2500   -999.2500
  2066.9000      7.8445      2.4732      0.0161     10.7148   -999.2500   -999.2500
  2067.0000      7.8445      2.4713      0.0363     10.8298   -999.2500   -999.2500
  2067.1000      7.8445      2.4847      0.0623     10.0191   -999.2500   -999.2500
  2067.2000      7.8445      2.5034      0.0626      8.8870   -999.2500   -999.2500
  2067.3000      7.8445      2.5134      0.0816      8.2818   -999.2500   -999.2500
  2067.4000      7.8445      2.5098      0.0538      8.4947   -999.2500   -999.2500
  2067.5000      7.8434      2.5051      0.0543      8.7807   -999.2500   -999.2500
  2067.6000      7.8434      2.5115      0.0417      8.3964   -999.2500   -999.2500
  2067.7000      7.8434      2.5241      0.0566      7.6298   -999.2500   -999.2500
  2067.8000      7.8416      2.5288      0.0607      7.3459   -999.2500   -999.2500
  2067.9000      7.8416      2.5186      0.0513      7.9624   -999.2500   -999.2500
  2068.0000      7.8383      2.5036      0.0354      8.8725   -999.2500   -999.2500
  2068.1000      7.8383      2.5019      0.0317      8.9781   -999.2500   -999.2500
  2068.2000      7.8383      2.5191      0.0585      7.9354   -999.2500   -999.2500
  2068.3000      7.8287      2.5398      0.0833      6.6771   -999.2500   -999.2500
  2068.4000      7.8287      2.5453      0.0684      6.3452   -999.2500   -999.2500
  2068.5000      7.8097      2.5382      0.0468      6.7730   -999.2500   -999.2500
  2068.6000      7.8097      2.5335      0.0628      7.0582   -999.2500   -999.2500
  2068.7000      7.8097      2.5336      0.0797      7.0562   -999.2500   -999.2500
  2068.8000      7.7851      2.5329      0.0537      7.0955   -999.2500   -999.2500
  2068.9000      7.7851      2.5254      0.0816      7.5493   -999.2500   -999.2500
  2069.0000      7.7444      2.5091      0.0470      8.5395   -999.2500   -999.2500
  2069.1000      7.7444      2.4952      0.0147      9.3789   -999.2500   -999.2500
  2069.2000      7.7444      2.4906      0.0366      9.6613   -999.2500   -999.2500
  2069.3000      7.6815      2.4829      0.0448     10.1252   -999.2500   -999.2500
  2069.4000      7.6815      2.4673      0.0059     11.0725   -999.2500   -999.2500
  2069.5000      7.6425      2.4598     -0.0071     11.5276   -999.2500   -999.2500
  2069.6000      7.6425      2.4669      0.0357     11.0997   -999.2500   -999.2500
  2069.7000      7.6425      2.4736      0.0325     10.6904   -999.2500   -999.2500
  2069.8000      7.6704      2.4688      0.0453     10.9795   -999.2500   -999.2500
  2069.9000      7.6704      2.4568      0.0219     11.7117   -999.2500   -999.2500
  2070.0000      7.7444      2.4502      0.0181     12.1079   -999.2500   -999.2500
  2070.1000      7.7444      2.4573     -0.0113     11.6766   -999.2500   -999.2500
  2070.2000      7.7444      2.4730      0.0362     10.7252   -999.2500   -999.2500
  2070.3000      7.8074      2.4877      0.0391      9.8353   -999.2500   -999.2500
  2070.4000      7.8074      2.5030      0.0286      8.9073   -999.2500   -999.2500
  2070.5000      7.8309      2.5254      0.0250      7.5527   -999.2500   -999.2500
  2070.6000      7.8309      2.5487      0.0731      6.1396   -999.2500   -999.2500
  2070.7000      7.8309      2.5593      0.0693      5.4973   -999.2500   -999.2500
  2070.8000      7.8282      2.5573      0.0724      5.6173   -999.2500   -999.2500
  2070.9000      7.8282      2.5620      0.0327      5.3341   -999.2500   -999.2500
  2071.0000      7.7954      2.6015      0.0842      2.9416   -999.2500   -999.2500
  2071.1000      7.7954      2.7037      0.0726     -3.2550   -999.2500   -999.2500
  2071.2000      7.7954      2.7431      0.0639     -5.6410   -999.2500   -999.2500
  2071.3000      7.4705      2.2961      0.5291     21.4483   -999.2500   -999.2500
  2071.4000      7.4705      1.3034      0.0000     81.6142   -999.2500   -999.2500
  2071.5000      6.0002      0.4418      0.0000    133.8313   -999.2500   -999.2500
