~Version Information
VERS.                      2.0: CWLS Log ASCII Standard - VERSION 2.0
WRAP.                       NO: One line per depth step
~Well Information Block
STRT.FT                -6.7500: 
STOP.FT              1250.5000: 
STEP.FT                 0.2500: 
NULL.                -999.2500: 
COMP.          Pioneer Natural Resources: COMPANY
WELL.          Irish Eyes 33-21: WELL
FLD.           Purgatorie River: FIELD
LOC.           1379' FSL & 2544' FEL--: LOCATION
PROV.                       CO: PROVINCE
CNTY.               Las Animas: COUNTRY
SRVC.          Patterson Wireline: SERVICE COMPANY
DATE.          Mon Jan 23 11:57:23 2006: LOG DATE
UWI.           05 071 08658 00: UNIQUE WELL ID
~Curve Information Block
DEPT.FT            0 000 00 00: Depth
CCL.                          : Casing Collar Locator
TT3.usec                      : CBL 3' Travel Time
AMP3.mV                       : CBL 3' Amplitude
GR.GAPI                       : Gamma Ray
~Parameter Information Block
~A  Depth       CCL         TT3         AMP3         GR     
# ...
   495.7500      0.0000    482.0669     21.6085    130.6021
   496.0000      0.0000    449.0278     21.5638    130.3308
   496.2500      0.0000    423.3882     21.4334    130.4839
   496.5000      0.0000    419.3314     21.2606    130.5549
   496.7500      0.0000    445.0058     21.0843    128.9888
   497.0000      0.0000    491.3759     20.9235    124.3178
   497.2500      0.0000    536.0277     20.7738    116.8534
   497.5000      0.0000    562.7510     20.6109    109.3629
   497.7500      0.0000    577.7517     20.4007    105.5137
   498.0000      0.0000    601.1915     20.1213    107.0795
   498.2500      0.0000    642.9421     19.7839    112.4863
   498.5000      0.0000    692.9842     19.4286    118.3095
   498.7500      0.0000    734.7502     19.0972    122.2166
   499.0000      0.0000    759.9116     18.8109    124.1136
   499.2500      0.0000    769.3914     18.5703    124.8866
   499.5000      0.0000    766.5224     18.3650    125.1584
   499.7500      0.0000    753.2163     18.1820    125.0301
   500.0000      0.0000    732.1041     18.0117    123.7988
   500.2500      0.0000    710.6396     17.8493    120.0499
   500.5000      0.0000    699.8495     17.6907    113.0522
   500.7500      0.0000    705.8949     17.5287    104.0516
   501.0000      0.0000    724.0394     17.3613     95.7381
   501.2500      0.0000    743.4694     17.2021     90.4672
   501.5000      0.0000    756.7197     17.0810     88.9911
   501.7500      0.0000    762.9694     17.0346     90.5032
   502.0000      0.0000    764.7557     17.0929     93.6129
   502.2500      0.0000    764.0131     17.2625     97.2844
   502.5000      0.0000    760.0546     17.5137    101.0413
   502.7500      0.0000    748.4778     17.7932    104.6297
   503.0000      0.0000    721.2520     18.0576    107.7930
   503.2500      0.0000    670.7087     18.2952    110.3076
   503.5000      0.0000    597.3220     18.5126    111.9721
   503.7500      0.0000    514.2256     18.7083    112.4662
   504.0000      0.0000    440.9066     18.8668    111.3063
   504.2500      0.0000    390.5288     18.9780    108.1336
   504.5000      0.0000    363.6664     19.0528    103.1979
   504.7500      0.0000    353.0918     19.1152     97.5469
   505.0000      0.0000    352.1632     19.1757     92.6822
   505.2500      0.0000    359.2647     19.2124     90.0883
   505.5000      0.0000    376.7853     19.1834     91.0909
   505.7500      0.0000    406.3513     19.0657     96.5816
   506.0000      0.0000    444.7867     18.8790    106.1061
   506.2500      0.0000    486.6116     18.6706    117.1728
   506.5000      0.0000    531.0857     18.4827    126.2410
   506.7500      0.0000    582.3193     18.3392    131.1254
   507.0000      0.0000    640.0998     18.2530    132.4554
   507.2500      0.0000    695.2841     18.2253    132.4835
   507.5000      0.0000    737.2280     18.2390    132.7711
   507.7500      0.0000    762.4319     18.2619    133.5907
   508.0000      0.0000    774.4944     18.2602    135.1417
   508.2500      0.0000    778.9509     18.2118    138.1643
   508.5000      0.0000    779.7094     18.1118    142.9091
   508.7500      0.0000    778.5253     17.9743    147.9946
   509.0000      0.0000    776.0573     17.8251    150.9074
   509.2500      0.0000    773.0486     17.6859    149.8889
   509.5000      0.0000    770.4739     17.5672    145.3248
   509.7500      0.0000    768.9532     17.4773    139.2858
   510.0000      0.0000    768.5316     17.4290    134.0717
   510.2500      0.0000    769.0406     17.4261    131.3923
   510.5000      0.0000    770.5233     17.4524    132.3617
   510.7500      0.0000    773.2644     17.4853    137.2386
   511.0000      0.0000    777.0838     17.5172    144.8053
   511.2500      0.0000    780.1305     17.5587    152.6372
   511.5000      0.0000    778.3849     17.6274    158.6603
   511.7500      0.0000    767.7202     17.7373    162.3434
   512.0000      0.0000    748.3940     17.8877    164.1585
   512.2500      0.0000    727.8809     18.0562    164.3273
   512.5000      0.0000    717.0067     18.2046    162.4157
   512.7500      0.0000    721.0956     18.3003    157.7020
   513.0000      0.0000    735.5740     18.3311    149.7570
   513.2500      0.0000    751.1640     18.3043    139.0822
   513.5000      0.0000    761.8560     18.2353    127.5162
   513.7500      0.0000    767.1954     18.1344    117.7537
   514.0000      0.0000    769.3506     17.9899    112.1597
   514.2500      0.0000    770.0588     17.7528    111.9332
   514.5000      0.0000    769.6041     17.3365    117.1742
   514.7500      0.0000    767.0929     16.6467    127.2721
   515.0000      0.0000    761.6951     15.6652    140.7512
   515.2500      0.0000    754.9319     14.5435    154.8897
   515.5000      0.0000    752.6367     13.5595    166.3791
   515.7500      0.0000    763.3039     12.8839    172.9601
   516.0000      0.0000    791.9002     12.4187    174.1841
   516.2500      0.0000    834.7018     11.9656    170.5968
   516.5000      0.0000    882.0590     11.4996    162.9309
   516.7500      0.0000    925.9364     11.1578    152.4168
   517.0000      0.0000    962.0436     11.0221    141.1759
   517.2500     -2.0000    984.6726     11.0522    131.5056
   517.5000      2.0000    984.0786     11.2152    124.6555
   517.7500      0.0000    953.5788     11.5834    120.4358
   518.0000      0.0000    900.6824     12.2658    117.9816
   518.2500      0.0000    847.3522     13.2459    116.7789
   518.5000      0.0000    813.0830     14.2961    117.1028
   518.7500      0.0000    797.3268     15.1110    119.7087
   519.0000      0.0000    783.2996     15.5823    125.0792
   519.2500      0.0000    759.1945     15.8884    133.0266
   519.5000      0.0000    731.9118     16.2661    142.9849
   519.7500      0.0000    718.9976     16.7681    154.0434
   520.0000      0.0000    729.6327     17.2937    164.2318
   520.2500      0.0000    755.9835     17.7729    170.6988
   520.5000      0.0000    782.2971     18.2460    171.7919
   520.7500      0.0000    797.8512     18.7917    168.6898
   521.0000      0.0000    799.5166     19.4315    164.2016
   521.2500      0.0000    785.5347     20.1137    160.1955
   521.5000      0.0000    751.0491     20.7636    156.5831
   521.7500      0.0000    691.1423     21.3401    152.2768
   522.0000      0.0000    608.7859     21.8424    146.5641
   522.2500      0.0000    518.8214     22.2755    139.8671
   522.5000      0.0000    441.1730     22.6259    133.8996
   522.7500      0.0000    388.3094     22.8807    130.8975
   523.0000      0.0000    359.5505     23.0594    131.7075
   523.2500      0.0000    346.0791     23.2130    134.3723
   523.5000      0.0000    339.1841     23.3884    135.5662
   523.7500      0.0000    334.4983     23.5929    133.9749
   524.0000      0.0000    331.4882     23.7894    131.6287
   524.2500      0.0000    330.6630     23.9262    131.4879
   524.5000      0.0000    331.2256     23.9772    134.4776
   524.7500      0.0000    331.0656     23.9595    139.2462
   525.0000      0.0000    328.7971     23.9172    143.6179
   525.2500      0.0000    325.2346     23.8887    145.3159
   525.5000      0.0000    322.5788     23.8860    142.1904
   525.7500      0.0000    322.3140     23.8991    133.2879
   526.0000      0.0000    324.0541     23.9145    120.0392
   526.2500      0.0000    326.0746     23.9250    105.8865
   526.5000      0.0000    326.5795     23.9218     94.4308
   526.7500      0.0000    324.8313     23.8850     87.5611
   527.0000      0.0000    321.7770     23.7858     84.8512
   527.2500      0.0000    319.6395     23.6017     84.5544
   527.5000      0.0000    320.4286     23.3272     85.3708
   527.7500      0.0000    324.5011     22.9757     87.4015
   528.0000      0.0000    330.4055     22.5792     91.5461
   528.2500      0.0000    336.0339     22.1845     98.2119
   528.5000      0.0000    339.9991     21.8368    106.7131
   528.7500      0.0000    342.1328     21.5524    115.5372
   529.0000      0.0000    343.0275     21.3096    122.7906
