~Version Information
VERS.                      2.0: CWLS Log ASCII Standard - VERSION 2.0
WRAP.                       NO: One line per depth step
~Well Information Block
STRT.FT               260.0000: 
STOP.FT              1230.0000: 
STEP.FT                 0.2500: 
NULL.                -999.2500: 
COMP.          Pioneer Natural Resources: COMPANY
WELL.             Mahalo 12-20: WELL
FLD.           Purgatoire River: FIELD
LOC.           1689' FNL & 479' FWL: LOCATION
CNTY.               Las Animas: COUNTY
SRVC.                Patterson: SERVICE COMPANY
DATE.          Thu Feb 23 20:25:01 2006: LOG DATE
UWI.           05 071 08700 00: UNIQUE WELL ID
STAT.                 Colorado: STATE
~Curve Information Block
DEPT.FT            0 000 00 00: Depth
SN.Ohm-m                      : IEL Short Normal
SP.mV                         : IEL Spontaneous Potential
DIR.Ohm-m                     : IEL Induction Resistivity
GR.GAPI                       : Gamma Ray
~Parameter Information Block
~A  Depth        SN          SP         DIR          GR     
# ...
   394.0000   2000.0000   2000.0000     20.0136     92.2389
   394.2500   2000.0000   2000.0000     20.1799     91.2003
   394.5000   2000.0000   2000.0000     20.3454     90.2069
   394.7500   2000.0000   2000.0000     20.5009     89.7300
   395.0000   2000.0000   2000.0000     20.6305     89.5044
   395.2500   2000.0000   2000.0000     20.7102     90.0767
   395.5000   2000.0000   2000.0000     20.7173     92.1702
   395.7500   2000.0000   2000.0000     20.6469     93.9258
   396.0000   2000.0000   2000.0000     20.5246     96.0227
   396.2500   2000.0000   2000.0000     20.4005     96.7074
   396.5000   2000.0000   2000.0000     20.3280     96.7326
   396.7500   2000.0000   2000.0000     20.3410     96.3306
   397.0000   2000.0000   2000.0000     20.4454     95.4076
   397.2500   2000.0000   2000.0000     20.6256     94.5442
   397.5000   2000.0000   2000.0000     20.8572     92.5362
   397.7500   2000.0000   2000.0000     21.1152     90.4967
   398.0000   2000.0000   2000.0000     21.3736     86.3166
   398.2500   2000.0000   2000.0000     21.6065     83.0795
   398.5000   2000.0000   2000.0000     21.7934     78.3867
   398.7500   2000.0000   2000.0000     21.9273     75.6875
   399.0000   2000.0000   2000.0000     22.0192     72.4005
   399.2500   2000.0000   2000.0000     22.0965     70.8238
   399.5000   2000.0000   2000.0000     22.1981     69.6805
   399.7500   2000.0000   2000.0000     22.3602     69.5638
   400.0000   2000.0000   2000.0000     22.5994     69.1308
   400.2500   2000.0000   2000.0000     22.9003     67.9165
   400.5000   2000.0000   2000.0000     23.2191     64.5770
   400.7500   2000.0000   2000.0000     23.5049     61.9749
   401.0000   2000.0000   2000.0000     23.7265     58.7520
   401.2500   2000.0000   2000.0000     23.8840     57.3986
   401.5000   2000.0000   2000.0000     23.9996     56.5276
   401.7500   2000.0000   2000.0000     24.0972     56.5802
   402.0000   2000.0000   2000.0000     24.1884     57.4138
   402.2500   2000.0000   2000.0000     24.2656     58.3885
   402.5000   2000.0000   2000.0000     24.3037     60.2805
   402.7500   2000.0000   2000.0000     24.2698     61.6559
   403.0000   2000.0000   2000.0000     24.1433     63.6707
   403.2500   2000.0000   2000.0000     23.9326     65.0001
   403.5000   2000.0000   2000.0000     23.6718     67.1082
   403.7500   2000.0000   2000.0000     23.3997     68.5630
   404.0000   2000.0000   2000.0000     23.1366     70.5308
   404.2500   2000.0000   2000.0000     22.8811     71.4698
   404.5000   2000.0000   2000.0000     22.6238     71.9075
   404.7500   2000.0000   2000.0000     22.3669     71.3808
   405.0000   2000.0000   2000.0000     22.1355     69.4910
   405.2500   2000.0000   2000.0000     21.9694     67.9110
   405.5000   2000.0000   2000.0000     21.9051     65.9635
   405.7500   2000.0000   2000.0000     21.9529     65.2077
   406.0000   2000.0000   2000.0000     22.0799     64.6483
   406.2500   2000.0000   2000.0000     22.2080     64.3643
   406.5000   2000.0000   2000.0000     22.2439     63.8468
   406.7500   2000.0000   2000.0000     22.1379     63.5451
   407.0000   2000.0000   2000.0000     21.9277     63.5596
   407.2500   2000.0000   2000.0000     21.7147     64.1044
   407.5000   2000.0000   2000.0000     21.5925     65.8644
   407.7500   2000.0000   2000.0000     21.5944     67.5886
   408.0000   2000.0000   2000.0000     21.6975     70.8331
   408.2500   2000.0000   2000.0000     21.8575     73.4049
   408.5000   2000.0000   2000.0000     22.0401     77.9191
   408.7500   2000.0000   2000.0000     22.2283     81.4603
   409.0000   2000.0000   2000.0000     22.4187     87.8167
   409.2500   2000.0000   2000.0000     22.6221     92.6569
   409.5000   2000.0000   2000.0000     22.8630     99.7641
   409.7500   2000.0000   2000.0000     23.1655    103.5481
   410.0000   2000.0000   2000.0000     23.5294    107.1880
   410.2500   2000.0000   2000.0000     23.9154    108.6385
   410.5000   2000.0000   2000.0000     24.2568    110.1394
   410.7500   2000.0000   2000.0000     24.4915    110.4638
   411.0000   2000.0000   2000.0000     24.5901    108.4235
   411.2500   2000.0000   2000.0000     24.5585    104.7257
   411.5000   2000.0000   2000.0000     24.4204     96.4685
   411.7500   2000.0000   2000.0000     24.1976     90.6868
   412.0000   2000.0000   2000.0000     23.9015     84.5193
   412.2500   2000.0000   2000.0000     23.5417     83.1380
   412.5000   2000.0000   2000.0000     23.1435     85.4860
   412.7500   2000.0000   2000.0000     22.7538     89.5519
   413.0000   2000.0000   2000.0000     22.4240     98.0629
   413.2500   2000.0000   2000.0000     22.1816    104.4648
   413.5000   2000.0000   2000.0000     22.0128    113.8087
   413.7500   2000.0000   2000.0000     21.8696    119.1726
   414.0000   2000.0000   2000.0000     21.6950    124.8527
   414.2500   2000.0000   2000.0000     21.4522    126.7389
   414.5000   2000.0000   2000.0000     21.1415    127.2129
   414.7500   2000.0000   2000.0000     20.7979    126.7843
   415.0000   2000.0000   2000.0000     20.4744    126.4580
   415.2500   2000.0000   2000.0000     20.2218    126.8159
   415.5000   2000.0000   2000.0000     20.0737    127.9224
   415.7500   2000.0000   2000.0000     20.0405    128.6067
   416.0000   2000.0000   2000.0000     20.1067    128.7265
   416.2500   2000.0000   2000.0000     20.2307    127.7082
   416.5000   2000.0000   2000.0000     20.3508    124.0473
   416.7500   2000.0000   2000.0000     20.4005    120.5159
   417.0000   2000.0000   2000.0000     20.3296    115.4177
   417.2500   2000.0000   2000.0000     20.1187    113.4600
   417.5000   2000.0000   2000.0000     19.7802    113.8112
   417.7500   2000.0000   2000.0000     19.3478    115.7397
   418.0000   2000.0000   2000.0000     18.8606    118.8221
   418.2500   2000.0000   2000.0000     18.3549    119.6313
   418.5000   2000.0000   2000.0000     17.8653    118.2144
   418.7500   2000.0000   2000.0000     17.4308    116.2886
   419.0000   2000.0000   2000.0000     17.0916    114.6337
   419.2500   2000.0000   2000.0000     16.8756    115.8680
   419.5000   2000.0000   2000.0000     16.7863    122.1399
   419.7500   2000.0000   2000.0000     16.7997    128.6203
   420.0000   2000.0000   2000.0000     16.8745    139.5711
   420.2500   2000.0000   2000.0000     16.9684    146.2518
   420.5000   2000.0000   2000.0000     17.0541    152.8049
   420.7500   2000.0000   2000.0000     17.1266    153.5388
   421.0000   2000.0000   2000.0000     17.1966    148.3750
   421.2500   2000.0000   2000.0000     17.2752    141.6251
   421.5000   2000.0000   2000.0000     17.3641    129.6420
   421.7500   2000.0000   2000.0000     17.4593    122.1337
   422.0000   2000.0000   2000.0000     17.5613    113.1160
   422.2500   2000.0000   2000.0000     17.6821    108.8538
   422.5000   2000.0000   2000.0000     17.8402    105.3519
   422.7500   2000.0000   2000.0000     18.0539    105.0928
   423.0000   2000.0000   2000.0000     18.3357    107.5864
   423.2500   2000.0000   2000.0000     18.6859    110.6247
   423.5000   2000.0000   2000.0000     19.0823    115.8836
   423.7500   2000.0000   2000.0000     19.4712    119.1239
   424.0000   2000.0000   2000.0000     19.7792    123.0708
   424.2500   2000.0000   2000.0000     19.9496    125.3448
   424.5000   2000.0000   2000.0000     19.9794    129.0516
   424.7500   2000.0000   2000.0000     19.9230    131.9692
   425.0000   2000.0000   2000.0000     19.8569    136.7324
   425.2500   2000.0000   2000.0000     19.8386    139.8177
   425.5000   2000.0000   2000.0000     19.8857    143.8480
   425.7500   2000.0000   2000.0000     19.9816    145.8847
   426.0000   2000.0000   2000.0000     20.0958    147.1372
   426.2500   2000.0000   2000.0000     20.2040    146.0482
   426.5000   2000.0000   2000.0000     20.2991    140.5586
   426.7500   2000.0000   2000.0000     20.3917    134.3608
   427.0000   2000.0000   2000.0000     20.5030    122.6222
   427.2500   2000.0000   2000.0000     20.6578    114.5136
