~Version Information
VERS.                      2.0: CWLS Log ASCII Standard - VERSION 2.0
WRAP.                       NO: One line per depth step
~Well Information Block
STRT.FT                -8.2500: 
STOP.FT              2119.7500: 
STEP.FT                 0.2500: 
NULL.                -999.2500: 
COMP.          Pioneer Natural Resources: COMPANY
WELL.          Hemisphere 32-24: WELL
FLD.           Purgatorie River: FIELD
LOC.           1850' FNL & 2284' FEL--: LOCATION
PROV.                       CO: PROVINCE
CNTY.               Las Animas: COUNTRY
SRVC.          Patterson Wireline: SERVICE COMPANY
DATE.          Sat Aug 27 08:06:42 2005: LOG DATE
UWI.           05 071 08440 00: UNIQUE WELL ID
~Curve Information Block
DEPT.FT            0 000 00 00: Depth
CCL.                          : Casing Collar Locator
TT3.usec                      : CBL 3' Travel Time
AMP3.mV                       : CBL 3' Amplitude
GR.GAPI                       : Gamma Ray
~Parameter Information Block
~A  Depth       CCL         TT3         AMP3         GR     
# ...
   695.2500      0.0000    759.7240      7.2456    111.7629
   695.5000      0.0000    736.0525      7.3292    122.1226
   695.7500      0.0000    719.7039      7.4556    132.0769
   696.0000      0.0000    711.1493      7.6034    140.2337
   696.2500      0.0000    706.6691      7.7435    145.3615
   696.5000      0.0000    703.3698      7.8472    146.7956
   696.7500      0.0000    703.1616      7.8942    145.0151
   697.0000      0.0000    710.5071      7.8786    141.9111
   697.2500      0.0000    726.4626      7.8180    139.8757
   697.5000      0.0000    745.5802      7.7471    140.1436
   697.7500      0.0000    758.6613      7.6967    142.0423
   698.0000      0.0000    758.8206      7.6746    143.9397
   698.2500      0.0000    746.0829      7.6705    144.7438
   698.5000      0.0000    727.4469      7.6701    144.4790
   698.7500      0.0000    712.4329      7.6597    143.8697
   699.0000      0.0000    706.9428      7.6223    143.7940
   699.2500      0.0000    709.7130      7.5428    144.6489
   699.5000      0.0000    714.1401      7.4224    145.6396
   699.7500      0.0000    714.0571      7.2814    145.0821
   700.0000      0.0000    708.2444      7.1440    142.0012
   700.2500      0.0000    699.7390      7.0214    137.0627
   700.5000      0.0000    691.8684      6.9132    131.6685
   700.7500      0.0000    685.8793      6.8193    126.8789
   701.0000      0.0000    681.5973      6.7444    123.4365
   701.2500      0.0000    678.7241      6.6918    121.6525
   701.5000      0.0000    677.0696      6.6592    120.5215
   701.7500      0.0000    676.3176      6.6410    117.6945
   702.0000      0.0000    676.0646      6.6309    111.2700
   702.2500      0.0000    675.9929      6.6232    101.6709
   702.5000      0.0000    676.0017      6.6163     91.3719
   702.7500      0.0000    676.2994      6.6158     83.0025
   703.0000      0.0000    677.4744      6.6310     78.3678
   703.2500      0.0000    680.2224      6.6643     78.8625
   703.5000      0.0000    684.5337      6.7004     85.4459
   703.7500      0.0000    688.9415      6.7076     97.5071
   704.0000      0.0000    691.2252      6.6593    112.3018
   704.2500      0.0000    690.5898      6.5599    126.0486
   704.5000      0.0000    689.1104      6.4511    135.7669
   704.7500      0.0000    690.4484      6.3880    140.4377
   705.0000      0.0000    696.9346      6.4047    140.9084
   705.2500      0.0000    707.6467      6.5000    138.7550
   705.5000      0.0000    719.0381      6.6475    135.0825
   705.7500      0.0000    727.3253      6.8144    130.3387
   706.0000      0.0000    730.2784      6.9679    125.0230
   706.2500      0.0000    727.2330      7.0741    120.0516
   706.5000      0.0000    718.6829      7.1066    116.2948
   706.7500      0.0000    706.6116      7.0590    114.1720
   707.0000      0.0000    694.3723      6.9474    113.9080
   707.2500      0.0000    685.0128      6.8011    115.7477
   707.5000      0.0000    679.5645      6.6528    119.5616
   707.7500      0.0000    677.1389      6.5345    124.4657
   708.0000      0.0000    676.2859      6.4683    129.0986
   708.2500      0.0000    675.9312      6.4564    132.1722
   708.5000      0.0000    675.4051      6.4821    132.9281
   708.7500      0.0000    674.0439      6.5229    131.4972
   709.0000      0.0000    671.0829      6.5637    128.7988
   709.2500      0.0000    666.2162      6.6009    125.7859
   709.5000      0.0000    660.5738      6.6396    122.7735
   709.7500      0.0000    656.7566      6.6846    119.5992
   710.0000      0.0000    657.0613      6.7306    116.1224
   710.2500      0.0000    661.3806      6.7628    112.3312
   710.5000      0.0000    667.2771      6.7696    108.2528
   710.7500      0.0000    672.1542      6.7524    104.0574
   711.0000      0.0000    674.9691      6.7229    100.1681
   711.2500      0.0000    676.0932      6.6961     97.2280
   711.5000      0.0000    676.3105      6.6857     95.9717
   711.7500      0.0000    676.2013      6.7017     97.0037
   712.0000      0.0000    676.0505      6.7432    100.5658
   712.2500      0.0000    675.9271      6.7948    106.4541
   712.5000      0.0000    675.7853      6.8354    113.9361
   712.7500      0.0000    675.5786      6.8556    121.4712
   713.0000      0.0000    675.3320      6.8660    126.6992
   713.2500      0.0000    675.1212      6.8842    127.3844
   713.5000      0.0000    674.9930      6.9165    122.9085
   713.7500      0.0000    674.9285      6.9528    114.7936
   714.0000      0.0000    674.8801      6.9782    105.6015
   714.2500      0.0000    674.8213      6.9842     97.5931
   714.5000      0.0000    674.7626      6.9725     92.3314
   714.7500      0.0000    674.7241      6.9513     90.5706
   715.0000      0.0000    674.6826      6.9255     91.7756
   715.2500      0.0000    674.3255      6.8909     94.0771
   715.5000      0.0000    672.6136      6.8426     95.4441
   715.7500      0.0000    667.4201      6.7919     95.2223
   716.0000      0.0000    656.3779      6.7687     94.3619
   716.2500      0.0000    639.8384      6.8031     94.2378
   716.5000      0.0000    623.6653      6.9049     95.7104
   716.7500      0.0000    616.7419      7.0572     99.0709
   717.0000      0.0000    623.1193      7.2241    103.9083
   717.2500      0.0000    637.2423      7.3700    108.7029
   717.5000      0.0000    648.1622      7.4746    111.1960
   717.7500      0.0000    646.8718      7.5363    109.6847
   718.0000      0.0000    628.8958      7.5641    104.3124
   718.2500      0.0000    593.3679      7.5698     97.5328
   718.5000      0.0000    543.7034      7.5653     93.0683
   718.7500      0.0000    489.0155      7.5607     93.5362
   719.0000      0.0000    441.4012      7.5604     98.6975
   719.2500      0.0000    409.6011      7.5611    105.9787
   719.5000      0.0000    395.8640      7.5522    112.3597
   719.7500      0.0000    398.7596      7.5239    115.8404
   720.0000      0.0000    416.9958      7.4745    116.1250
   720.2500      0.0000    449.1959      7.4123    114.6867
   720.5000      0.0000    491.1422      7.3515    113.8595
   720.7500      0.0000    535.0449      7.3105    115.1393
   721.0000      0.0000    572.2704      7.3083    118.0446
   721.2500      0.0000    596.9900      7.3536    120.6232
   721.5000      0.0000    608.1280      7.4311    121.2156
   721.7500      0.0000    608.8851      7.5072    119.8381
   722.0000      0.0000    604.4857      7.5516    117.9887
   722.2500      0.0000    599.3928      7.5563    117.2553
   722.5000      0.0000    595.6767      7.5350    118.1207
   722.7500      0.0000    593.2867      7.5079    119.7999
   723.0000      0.0000    591.5126      7.4870    120.8942
   723.2500      0.0000    590.5621      7.4677    120.4067
   723.5000      0.0000    592.6339      7.4329    118.6076
   723.7500      0.0000    601.4792      7.3664    116.8128
   724.0000      0.0000    619.7722      7.2624    116.0180
   724.2500      0.0000    645.7001      7.1235    115.9354
   724.5000      0.0000    672.2859      6.9608    115.5147
   724.7500      0.0000    691.2148      6.7993    114.1547
   725.0000      0.0000    698.2917      6.6722    112.2476
   725.2500      0.0000    695.5641      6.6029    110.7601
   725.5000      0.0000    688.6061      6.5919    110.5604
   725.7500      0.0000    682.1937      6.6233    112.0232
   726.0000      0.0000    678.1883      6.6770    114.8988
   726.2500      0.0000    676.2487      6.7335    118.3398
   726.5000      0.0000    675.4393      6.7732    121.1649
   726.7500      0.0000    675.1116      6.7803    122.3748
   727.0000      0.0000    674.9926      6.7506    121.7771
   727.2500      0.0000    674.9976      6.6945    120.2585
   727.5000      0.0000    675.0892      6.6320    119.1913
   727.7500      0.0000    675.1960      6.5875    119.2489
   728.0000      0.0000    675.2278      6.5838    119.9471
   728.2500      0.0000    675.2045      6.6326    120.4717
   728.5000      0.0000    675.4169      6.7271    120.5710
