~Version Information
VERS.                      2.0: CWLS Log ASCII Standard - VERSION 2.0
WRAP.                       NO: One line per depth step
~Well Information Block
STRT.FT               680.0000: 
STOP.FT              1585.5000: 
STEP.FT                 0.1000: 
NULL.                -999.2500: 
COMP.          Pioneer Natural Resources: COMPANY
WELL.          Screamin' 12-29: WELL
FLD.           Purgatoire River: FIELD
LOC.           2038' FNL & 612' FWL: LOCATION
CNTY.               Las Animas: COUNTY
SRVC.                Patterson: SERVICE COMPANY
DATE.          Wed Mar 29 10:01:18 2006: LOG DATE
UWI.           05 071 08661 00: UNIQUE WELL ID
STAT.                 Colorado: STATE
~Curve Information Block
DEPT.FT            0 000 00 00: Depth
DCAL.in                       : CDL Caliper
RHOB.g/cc                     : CDL Bulk Density
RHOC.g/cc                     : CDL Density Correction
DPOR.pu                       : CDL Density Porosity
GR.GAPI                       : Gamma Ray
NPOR.pu                       : Neutron Porosity
~Parameter Information Block
~A  Depth       DCAL        RHOB        RHOC        DPOR         GR         NPOR    
# ...
  1275.2000      7.9128      2.5536      0.0892      5.8434    100.1026     25.1018
  1275.3000      7.9130      2.5331      0.0552      7.0850    104.0673     25.0555
  1275.4000      7.9130      2.5225      0.0948      7.7245    111.6014     25.7972
  1275.5000      7.9134      2.5232      0.0762      7.6858    115.6848     26.8060
  1275.6000      7.9134      2.5326      0.0836      7.1151    112.0373     27.9507
  1275.7000      7.9134      2.5450      0.1006      6.3658    105.9167     29.2679
  1275.8000      7.9136      2.5572      0.0786      5.6240    102.1570     29.9918
  1275.9000      7.9136      2.5656      0.1191      5.1149    102.7734     29.6003
  1276.0000      7.9136      2.5601      0.1328      5.4510    109.3959     28.4833
  1276.1000      7.9136      2.5418      0.0963      6.5557    118.2441     27.3833
  1276.2000      7.9136      2.5281      0.1061      7.3898    122.6593     26.8651
  1276.3000      7.9135      2.5247      0.1630      7.5919    120.5474     27.0098
  1276.4000      7.9135      2.5238      0.0839      7.6465    116.7301     27.7401
  1276.5000      7.9137      2.5236      0.1043      7.6604    117.0522     28.6438
  1276.6000      7.9137      2.5214      0.0993      7.7965    121.5527     29.0542
  1276.7000      7.9137      2.5120      0.0682      8.3660    125.7961     28.9678
  1276.8000      7.9147      2.4937      0.0786      9.4755    125.7572     28.9022
  1276.9000      7.9147      2.4701      0.0537     10.9060    121.5703     29.1603
  1277.0000      7.9165      2.4536      0.0588     11.9041    117.0444     29.6530
  1277.1000      7.9165      2.4501      0.0735     12.1143    114.8193     29.7949
  1277.2000      7.9165      2.4536      0.0541     11.9049    114.4073     29.1244
  1277.3000      7.9184      2.4588      0.0437     11.5894    112.5904     28.4983
  1277.4000      7.9184      2.4609      0.0537     11.4600    106.7561     29.1279
  1277.5000      7.9198      2.4603      0.0501     11.4949    101.4499     30.3665
  1277.6000      7.9198      2.4661      0.0381     11.1464    103.3675     30.9892
  1277.7000      7.9198      2.4763      0.0738     10.5255    110.7818     31.1642
  1277.8000      7.9213      2.4737      0.0786     10.6847    117.1860     30.8629
  1277.9000      7.9213      2.4571      0.0201     11.6897    118.1675     29.6629
  1278.0000      7.9252      2.4436      0.0335     12.5093    113.9110     28.3075
  1278.1000      7.9252      2.4377      0.0444     12.8645    109.5188     27.8287
  1278.2000      7.9252      2.4276      0.0674     13.4759    109.0441     28.2234
  1278.3000      7.9317      2.4027      0.0440     14.9900    109.0067     29.0154
  1278.4000      7.9317      2.3653      0.0118     17.2535    105.7359     30.1755
  1278.5000      7.9387      2.3224     -0.0271     19.8549    103.3333     31.6246
  1278.6000      7.9387      2.2691     -0.0424     23.0839    106.1542     32.6746
  1278.7000      7.9387      2.1924     -0.0546     27.7334    109.2576     32.7308
  1278.8000      7.9442      2.0926     -0.0727     33.7827    107.5789     32.3954
  1278.9000      7.9442      1.9868     -0.0837     40.1955    103.5505     32.4571
  1279.0000      7.9500      1.8802     -0.0416     46.6545     99.0259     32.6942
  1279.1000      7.9500      1.7667     -0.1002     53.5352     92.2546     32.8379
  1279.2000      7.9500      1.6660     -0.1504     59.6334     83.0488     33.2943
  1279.3000      7.9706      1.6083     -0.1342     63.1306     74.2447     34.3313
  1279.4000      7.9706      1.5968     -0.0834     63.8275     67.3270     35.4188
  1279.5000      8.0196      1.6271     -0.0949     61.9950     65.0065     35.6607
  1279.6000      8.0196      1.7020     -0.0026     57.4546     69.6082     34.8626
  1279.7000      8.0196      1.8102      0.1080     50.8946     74.2518     34.0451
  1279.8000      8.0520      1.9356      0.1550     43.2969     73.6486     33.9036
  1279.9000      8.0520      2.0753      0.1934     34.8288     71.4901     33.8716
  1280.0000      7.9932      2.2158      0.2605     26.3150     70.0923     33.0767
  1280.1000      7.9932      2.3320      0.2461     19.2720     67.6094     31.6719
  1280.2000      7.9932      2.4178      0.2143     14.0705     65.3722     30.3671
  1280.3000      7.8821      2.4733      0.1602     10.7114     67.3089     29.5011
  1280.4000      7.8821      2.4965      0.0700      9.3002     73.2904     29.6585
  1280.5000      7.8133      2.4991      0.0501      9.1449     79.4314     30.8326
  1280.6000      7.8133      2.4966      0.0321      9.2942     83.2910     31.7516
  1280.7000      7.8133      2.5013      0.0177      9.0115     85.5929     31.5753
  1280.8000      7.7887      2.5131      0.0317      8.2977     88.8869     30.5316
  1280.9000      7.7887      2.5183      0.0513      7.9828     96.0425     29.5554
  1281.0000      7.9267      2.5164      0.0314      8.0994    105.1308     29.5650
  1281.1000      7.9267      2.5221      0.0192      7.7498    109.9644     30.4529
  1281.2000      7.9267      2.5326      0.0462      7.1155    112.0623     31.2704
  1281.3000      7.9254      2.5282      0.0490      7.3823    118.1499     31.5406
  1281.4000      7.9254      2.5030      0.0365      8.9072    123.6323     31.2505
  1281.5000      7.9250      2.4719      0.0052     10.7912    119.9199     30.3973
  1281.6000      7.9250      2.4552      0.0037     11.8061    111.1632     29.3889
  1281.7000      7.9250      2.4555      0.0152     11.7897    105.6421     29.0008
  1281.8000      7.9247      2.4568      0.0524     11.7094    105.4501     29.5168
  1281.9000      7.9247      2.4512     -0.0073     12.0496    108.2373     30.2613
  1282.0000      7.9246      2.4505      0.0199     12.0904    112.3816     30.3969
  1282.1000      7.9246      2.4645      0.0340     11.2446    116.1218     30.0248
  1282.2000      7.9246      2.4858      0.1099      9.9492    115.7257     29.9738
  1282.3000      7.9245      2.5066      0.0921      8.6931    111.4350     30.4176
  1282.4000      7.9245      2.5328      0.1282      7.1026    107.0284     30.5587
  1282.5000      7.9241      2.5674      0.2026      5.0047    104.1685     29.8320
  1282.6000      7.9241      2.6013      0.2122      2.9541    103.7274     29.0399
  1282.7000      7.9241      2.6300      0.2161      1.2102    106.1270     29.2071
  1282.8000      7.9240      2.6541      0.2132     -0.2510    108.9095     29.7381
  1282.9000      7.9240      2.6659      0.2301     -0.9621    108.1852     29.5838
  1283.0000      7.9256      2.6604      0.1624     -0.6274    106.3988     29.2287
  1283.1000      7.9256      2.6447      0.1458      0.3222    108.4021     29.1735
  1283.2000      7.9256      2.6145      0.1509      2.1530    111.5022     28.9365
  1283.3000      7.9289      2.5575      0.1001      5.6054    108.5680     28.6565
  1283.4000      7.9289      2.4905     -0.0369      9.6686    100.5375     29.0471
  1283.5000      7.9310      2.4394     -0.0130     12.7654     94.7669     29.6838
  1283.6000      7.9310      2.3997     -0.0252     15.1677     94.7813     29.5733
  1283.7000      7.9310      2.3559     -0.0422     17.8249     99.3186     28.7646
  1283.8000      7.9312      2.2973     -0.0351     21.3778    103.5758     28.2120
  1283.9000      7.9312      2.2072     -0.0656     26.8386    104.7562     28.5932
  1284.0000      7.9320      2.0820     -0.1026     34.4220    103.4593     29.7872
  1284.1000      7.9320      1.9460     -0.1198     42.6645    101.2133     31.1032
  1284.2000      7.9320      1.8218     -0.1204     50.1929    100.5348     31.7998
  1284.3000      7.9350      1.7178     -0.1421     56.4966    100.0411     31.8881
  1284.4000      7.9350      1.6426     -0.1356     61.0543     97.2855     31.8069
  1284.5000      7.9380      1.6023     -0.1338     63.4997     95.1613     31.7089
  1284.6000      7.9380      1.5977     -0.1045     63.7763     94.5892     31.7978
  1284.7000      7.9380      1.6330     -0.0572     61.6354     92.3965     32.1670
