~Version Information
VERS.                      2.0: CWLS Log ASCII Standard - VERSION 2.0
WRAP.                       NO: One line per depth step
~Well Information Block
STRT.FT               310.0000: 
STOP.FT              2298.0000: 
STEP.FT                 0.2500: 
NULL.                -999.2500: 
COMP.          Pioneer Natural Resources: COMPANY
WELL.               Relay 12-7: WELL
FLD.           Purgatoire River: FIELD
LOC.           1999' FNL & 848' FWL: LOCATION
PROV.                 Colorado: PROVINCE
CNTY.               Las Animas: COUNTRY
SRVC.                Patterson: SERVICE COMPANY
DATE.          Fri Dec 16 17:39:57 2005: LOG DATE
UWI.           05 071 08453 00: UNIQUE WELL ID
~Curve Information Block
DEPT.FT            0 000 00 00: Depth
SN.Ohm-m                      : IEL Short Normal
SP.mV                         : IEL Spontaneous Potential
DIR.Ohm-m                     : IEL Induction Resistivity
GR.GAPI                       : Gamma Ray
~Parameter Information Block
~A  Depth        SN          SP         DIR          GR     
# ...
   946.5000   2000.0000   2000.0000     12.5675    129.7388
   946.7500   2000.0000   2000.0000     12.7358    129.7002
   947.0000   2000.0000   2000.0000     12.9496    130.3911
   947.2500   2000.0000   2000.0000     13.2071    131.2008
   947.5000   2000.0000   2000.0000     13.4953    132.0108
   947.7500   2000.0000   2000.0000     13.7934    131.6275
   948.0000   2000.0000   2000.0000     14.0799    128.9564
   948.2500   2000.0000   2000.0000     14.3378    125.6784
   948.5000   2000.0000   2000.0000     14.5562    118.7810
   948.7500   2000.0000   2000.0000     14.7290    113.4424
   949.0000   2000.0000   2000.0000     14.8534    106.4397
   949.2500   2000.0000   2000.0000     14.9293    103.9913
   949.5000   2000.0000   2000.0000     14.9605    105.1231
   949.7500   2000.0000   2000.0000     14.9541    108.5971
   950.0000   2000.0000   2000.0000     14.9175    115.5627
   950.2500   2000.0000   2000.0000     14.8547    120.2823
   950.5000   2000.0000   2000.0000     14.7664    126.9619
   950.7500   2000.0000   2000.0000     14.6520    131.0452
   951.0000   2000.0000   2000.0000     14.5144    135.7590
   951.2500   2000.0000   2000.0000     14.3637    137.4560
   951.5000   2000.0000   2000.0000     14.2193    138.1869
   951.7500   2000.0000   2000.0000     14.1085    138.3593
   952.0000   2000.0000   2000.0000     14.0624    139.6389
   952.2500   2000.0000   2000.0000     14.1066    141.4017
   952.5000   2000.0000   2000.0000     14.2522    144.5555
   952.7500   2000.0000   2000.0000     14.4889    146.1951
   953.0000   2000.0000   2000.0000     14.7855    146.8740
   953.2500   2000.0000   2000.0000     15.0976    145.7943
   953.5000   2000.0000   2000.0000     15.3811    141.8511
   953.7500   2000.0000   2000.0000     15.6062    138.1675
   954.0000   2000.0000   2000.0000     15.7662    132.7655
   954.2500   2000.0000   2000.0000     15.8763    130.2467
   954.5000   2000.0000   2000.0000     15.9613    128.7403
   954.7500   2000.0000   2000.0000     16.0396    128.9314
   955.0000   2000.0000   2000.0000     16.1109    130.1426
   955.2500   2000.0000   2000.0000     16.1569    131.3886
   955.5000   2000.0000   2000.0000     16.1545    134.3947
   955.7500   2000.0000   2000.0000     16.0928    137.5878
   956.0000   2000.0000   2000.0000     15.9811    144.3757
   956.2500   2000.0000   2000.0000     15.8414    149.8387
   956.5000   2000.0000   2000.0000     15.6963    158.0345
   956.7500   2000.0000   2000.0000     15.5610    162.4989
   957.0000   2000.0000   2000.0000     15.4420    166.2888
   957.2500   2000.0000   2000.0000     15.3410    166.5912
   957.5000   2000.0000   2000.0000     15.2559    164.3543
   957.7500   2000.0000   2000.0000     15.1830    161.7299
   958.0000   2000.0000   2000.0000     15.1167    156.6527
   958.2500   2000.0000   2000.0000     15.0497    152.2819
   958.5000   2000.0000   2000.0000     14.9683    143.5686
   958.7500   2000.0000   2000.0000     14.8499    136.3607
   959.0000   2000.0000   2000.0000     14.6684    124.8902
   959.2500   2000.0000   2000.0000     14.4069    118.1644
   959.5000   2000.0000   2000.0000     14.0693    111.3070
   959.7500   2000.0000   2000.0000     13.6793    109.1320
   960.0000   2000.0000   2000.0000     13.2688    108.7398
   960.2500   2000.0000   2000.0000     12.8644    109.9413
   960.5000   2000.0000   2000.0000     12.4818    113.6992
   960.7500   2000.0000   2000.0000     12.1268    117.3917
   961.0000   2000.0000   2000.0000     11.7987    123.8779
   961.2500   2000.0000   2000.0000     11.4939    128.0919
   961.5000   2000.0000   2000.0000     11.2089    133.2103
   961.7500   2000.0000   2000.0000     10.9429    135.4944
   962.0000   2000.0000   2000.0000     10.6998    137.0282
   962.2500   2000.0000   2000.0000     10.4878    136.8960
   962.5000   2000.0000   2000.0000     10.3169    135.5134
   962.7500   2000.0000   2000.0000     10.1948    134.1346
   963.0000   2000.0000   2000.0000     10.1242    131.6074
   963.2500   2000.0000   2000.0000     10.1027    129.6169
   963.5000   2000.0000   2000.0000     10.1290    126.2578
   963.7500   2000.0000   2000.0000     10.2069    123.9258
   964.0000   2000.0000   2000.0000     10.3448    120.7067
   964.2500   2000.0000   2000.0000     10.5489    119.0481
   964.5000   2000.0000   2000.0000     10.8163    117.8288
   964.7500   2000.0000   2000.0000     11.1332    118.1469
   965.0000   2000.0000   2000.0000     11.4806    120.4920
   965.2500   2000.0000   2000.0000     11.8397    122.9486
   965.5000   2000.0000   2000.0000     12.1948    126.5675
   965.7500   2000.0000   2000.0000     12.5327    128.1978
   966.0000   2000.0000   2000.0000     12.8452    129.3344
   966.2500   2000.0000   2000.0000     13.1345    129.5678
   966.5000   2000.0000   2000.0000     13.4166    129.1940
   966.7500   2000.0000   2000.0000     13.7194    128.1339
   967.0000   2000.0000   2000.0000     14.0717    125.4584
   967.2500   2000.0000   2000.0000     14.4935    123.7329
   967.5000   2000.0000   2000.0000     14.9893    122.2684
   967.7500   2000.0000   2000.0000     15.5501    121.5514
   968.0000   2000.0000   2000.0000     16.1578    118.6688
   968.2500   2000.0000   2000.0000     16.7910    114.6682
   968.5000   2000.0000   2000.0000     17.4294    106.1729
   968.7500   2000.0000   2000.0000     18.0598    100.1561
   969.0000   2000.0000   2000.0000     18.6841     92.9280
   969.2500   2000.0000   2000.0000     19.3241     90.0798
   969.5000   2000.0000   2000.0000     20.0201     89.0966
   969.7500   2000.0000   2000.0000     20.8209     90.7567
   970.0000   2000.0000   2000.0000     21.7653     97.1524
   970.2500   2000.0000   2000.0000     22.8592    103.7380
   970.5000   2000.0000   2000.0000     24.0553    114.3910
   970.7500   2000.0000   2000.0000     25.2490    119.6395
   971.0000   2000.0000   2000.0000     26.3058    122.1473
   971.2500   2000.0000   2000.0000     27.1233    120.5019
   971.5000   2000.0000   2000.0000     27.6909    115.4211
   971.7500   2000.0000   2000.0000     28.1022    111.6126
   972.0000   2000.0000   2000.0000     28.5006    106.4499
   972.2500   2000.0000   2000.0000     28.9884    103.5725
   972.5000   2000.0000   2000.0000     29.5537     99.9585
   972.7500   2000.0000   2000.0000     30.0570     97.7158
   973.0000   2000.0000   2000.0000     30.2954     93.9175
   973.2500   2000.0000   2000.0000     30.1167     90.8714
   973.5000   2000.0000   2000.0000     29.4930     86.0115
   973.7500   2000.0000   2000.0000     28.5032     83.3993
   974.0000   2000.0000   2000.0000     27.2654     81.9332
   974.2500   2000.0000   2000.0000     25.8939     82.9643
   974.5000   2000.0000   2000.0000     24.4844     87.2641
   974.7500   2000.0000   2000.0000     23.1045     91.7629
   975.0000   2000.0000   2000.0000     21.7838    100.7259
   975.2500   2000.0000   2000.0000     20.5155    107.6794
   975.5000   2000.0000   2000.0000     19.2778    117.9205
   975.7500   2000.0000   2000.0000     18.0598    123.8051
   976.0000   2000.0000   2000.0000     16.8767    130.8981
   976.2500   2000.0000   2000.0000     15.7621    134.5436
   976.5000   2000.0000   2000.0000     14.7491    138.0676
   976.7500   2000.0000   2000.0000     13.8568    138.9064
   977.0000   2000.0000   2000.0000     13.0894    138.4181
   977.2500   2000.0000   2000.0000     12.4434    137.7713
   977.5000   2000.0000   2000.0000     11.9147    137.8737
   977.7500   2000.0000   2000.0000     11.5000    139.1453
   978.0000   2000.0000   2000.0000     11.1951    142.5175
   978.2500   2000.0000   2000.0000     10.9920    145.0115
   978.5000   2000.0000   2000.0000     10.8791    147.7698
   978.7500   2000.0000   2000.0000     10.8441    148.4179
   979.0000   2000.0000   2000.0000     10.8793    147.3200
   979.2500   2000.0000   2000.0000     10.9849    145.4691
   979.5000   2000.0000   2000.0000     11.1677    142.0625
   979.7500   2000.0000   2000.0000     11.4366    140.0354
