~Version Information
VERS.                      2.0: CWLS Log ASCII Standard - VERSION 2.0
WRAP.                       NO: One line per depth step
~Well Information Block
STRT.FT               309.8000: 
STOP.FT              2184.7000: 
STEP.FT                 0.1000: 
NULL.                -999.2500: 
COMP.          Pioneer Natural Resources: COMPANY
WELL.             AMX 13-13 Tr: WELL
FLD.           Purgatoire River: FIELD
LOC.           2401' FSL & 895' FWL--: LOCATION
PROV.                 Colorado: PROVINCE
CNTY.               Las Animas: COUNTRY
SRVC.                Patterson: SERVICE COMPANY
DATE.          Thu Dec 22 15:57:57 2005: LOG DATE
UWI.           05 071 08631 00: UNIQUE WELL ID
~Curve Information Block
DEPT.FT            0 000 00 00: Depth
DCAL.in                       : CDL Caliper
RHOB.g/cc                     : CDL Bulk Density
RHOC.g/cc                     : CDL Density Correction
DPOR.pu                       : CDL Density Porosity
GR.GAPI                       : Gamma Ray
~Parameter Information Block
~A  Depth       DCAL        RHOB        RHOC        DPOR         GR     
# ...
  1911.4000      7.9529      2.5247      0.0469      7.5915    132.2861
  1911.5000      7.9784      2.5256      0.0267      7.5404    140.0775
  1911.6000      7.9784      2.5384      0.0395      6.7613    146.6942
  1911.7000      7.9784      2.5485      0.0280      6.1539    146.0125
  1911.8000      7.9992      2.5630      0.0177      5.2750    140.7604
  1911.9000      7.9992      2.5879      0.0449      3.7662    134.9988
  1912.0000      8.0049      2.6047      0.0594      2.7466    132.1561
  1912.1000      8.0049      2.6001      0.0681      3.0234    135.0706
  1912.2000      8.0049      2.5864      0.0307      3.8527    137.2781
  1912.3000      7.9987      2.5749      0.0864      4.5502    133.8062
  1912.4000      7.9987      2.5599      0.0409      5.4599    130.0818
  1912.5000      7.9881      2.5378      0.0765      6.8014    128.0906
  1912.6000      7.9881      2.5153      0.0564      8.1667    124.9095
  1912.7000      7.9881      2.4968      0.0789      9.2865    122.5631
  1912.8000      7.9847      2.4786      0.0925     10.3907    126.2943
  1912.9000      7.9847      2.4680      0.0534     11.0302    137.3160
  1913.0000      8.0031      2.4825      0.0376     10.1513    148.6268
  1913.1000      8.0031      2.5190      0.0873      7.9389    153.1614
  1913.2000      8.0031      2.5526      0.1546      5.9022    151.0776
  1913.3000      8.0481      2.5669      0.1436      5.0367    145.2668
  1913.4000      8.0481      2.5727      0.1286      4.6823    139.6158
  1913.5000      8.1007      2.5853      0.1182      3.9198    136.1522
  1913.6000      8.1007      2.5957      0.1694      3.2931    133.3186
  1913.7000      8.1007      2.5908      0.1168      3.5878    134.3185
  1913.8000      8.1413      2.5830      0.0804      4.0601    142.1851
  1913.9000      8.1413      2.5797      0.0944      4.2628    150.5663
  1914.0000      8.1590      2.5645      0.0919      5.1801    150.6855
  1914.1000      8.1590      2.5329      0.0547      7.0954    144.6569
  1914.2000      8.1590      2.4951      0.0684      9.3901    141.8317
  1914.3000      8.1622      2.4535      0.0368     11.9099    144.8327
  1914.4000      8.1622      2.4059      0.0234     14.7910    152.3514
  1914.5000      8.1634      2.3554     -0.0293     17.8557    161.0092
  1914.6000      8.1634      2.3175     -0.0166     20.1525    164.0029
  1914.7000      8.1634      2.3105     -0.0280     20.5761    162.2087
  1914.8000      8.1677      2.3295      0.0804     19.4269    159.6169
  1914.9000      8.1677      2.3547      0.0534     17.8961    153.4739
  1915.0000      8.1794      2.3842      0.1079     16.1075    143.3989
  1915.1000      8.1794      2.4188      0.1368     14.0107    135.5153
  1915.2000      8.1794      2.4385      0.2253     12.8193    136.5645
  1915.3000      8.2024      2.4218      0.2149     13.8286    146.8083
  1915.4000      8.2024      2.3777      0.1924     16.5038    159.2501
  1915.5000      8.2407      2.3333      0.1733     19.1964    168.8329
  1915.6000      8.2407      2.3054      0.1602     20.8822    172.6924
  1915.7000      8.2407      2.2987      0.1224     21.2912    170.6672
  1915.8000      8.2765      2.3125      0.0995     20.4545    168.2667
  1915.9000      8.2765      2.3407      0.1485     18.7441    168.8463
  1916.0000      8.2930      2.3733      0.1353     16.7704    169.2947
  1916.1000      8.2930      2.3998      0.1873     15.1620    166.3055
  1916.2000      8.2930      2.4106      0.1635     14.5064    160.5711
  1916.3000      8.2998      2.3988      0.2180     15.2239    152.0692
  1916.4000      8.2998      2.3535      0.1770     17.9675    141.7668
  1916.5000      8.3092      2.2666      0.1507     23.2354    134.8429
  1916.6000      8.3092      2.1502      0.0711     30.2933    133.7097
  1916.7000      8.3092      2.0367     -0.0308     37.1702    136.2598
  1916.8000      8.3205      1.9486     -0.0721     42.5100    136.7327
  1916.9000      8.3205      1.8719     -0.0274     47.1568    132.2925
  1917.0000      8.3320      1.7915     -0.0817     52.0288    126.2112
  1917.1000      8.3320      1.7438     -0.1113     54.9228    120.5421
  1917.2000      8.3320      1.7740      0.0451     53.0889    116.8424
  1917.3000      8.3567      1.8683      0.1766     47.3754    113.7089
  1917.4000      8.3567      1.9784      0.2646     40.7052    108.2307
  1917.5000      8.3946      2.0742      0.3008     34.8947    102.8328
  1917.6000      8.3946      2.1533      0.2736     30.1028    100.7857
  1917.7000      8.3946      2.2180      0.2285     26.1791    101.9900
  1917.8000      8.3989      2.2554      0.2197     23.9142    105.1550
  1917.9000      8.3989      2.2543      0.1349     23.9828    107.7145
  1918.0000      8.3671      2.2239      0.1067     25.8265    107.0350
  1918.1000      8.3671      2.1791      0.0537     28.5407    101.9014
  1918.2000      8.3671      2.1358      0.0264     31.1631     94.0041
  1918.3000      8.4049      2.0968      0.0903     33.5261     88.9004
  1918.4000      8.4049      2.0533      0.0688     36.1653     90.3580
  1918.5000      8.5545      2.0204      0.0452     38.1587     95.2976
  1918.6000      8.5545      2.0291      0.0890     37.6331     99.9399
  1918.7000      8.5545      2.0912      0.1861     33.8660    104.3799
  1918.8000      8.7586      2.1870      0.3040     28.0629    106.8999
  1918.9000      8.7586      2.2793      0.3694     22.4668    102.7596
  1919.0000      8.9308      2.3496      0.3737     18.2035     97.6673
  1919.1000      8.9308      2.4068      0.3831     14.7399    103.5357
  1919.2000      8.9308      2.4497      0.4303     12.1404    114.0959
  1919.3000      8.9946      2.4567      0.3980     11.7137    114.2000
  1919.4000      8.9946      2.4203      0.3370     13.9211    106.6838
  1919.5000      8.8540      2.3643      0.2213     17.3150    102.6829
  1919.6000      8.8540      2.3242      0.1919     19.7461    101.6009
  1919.7000      8.8540      2.3064      0.2122     20.8242    100.3223
  1919.8000      8.5974      2.2943      0.1454     21.5563    100.7074
  1919.9000      8.5974      2.2953      0.1021     21.4954    100.7509
  1920.0000      8.4375      2.3334      0.1194     19.1886     96.9991
  1920.1000      8.4375      2.4121      0.2523     14.4154     94.3140
  1920.2000      8.4375      2.5052      0.3833      8.7784     97.0344
  1920.3000      8.3968      2.5749      0.4275      4.5493    101.0726
  1920.4000      8.3968      2.6025      0.4358      2.8800    104.3116
  1920.5000      8.4276      2.5952      0.3865      3.3197    108.3490
  1920.6000      8.4276      2.5707      0.3792      4.8088    111.4764
  1920.7000      8.4276      2.5396      0.3044      6.6898    111.6132
  1920.8000      8.4995      2.5087      0.2352      8.5610    112.0659
  1920.9000      8.4995      2.4862      0.1935      9.9280    112.7891
  1921.0000      8.5505      2.4759      0.1740     10.5494    110.9671
  1921.1000      8.5505      2.4705      0.1844     10.8786    108.6819
  1921.2000      8.5505      2.4635      0.1417     11.3046    109.5579
  1921.3000      8.5633      2.4494      0.1923     12.1582    115.5988
  1921.4000      8.5633      2.4104      0.2266     14.5199    122.6327
  1921.5000      8.5513      2.3448      0.1587     18.4945    122.6830
  1921.6000      8.5513      2.2804      0.1558     22.4011    117.0970
  1921.7000      8.5513      2.2345      0.1274     25.1797    111.2092
  1921.8000      8.5303      2.1867      0.1636     28.0798    105.7024
  1921.9000      8.5303      2.1099      0.1196     32.7308    104.0553
  1922.0000      8.5353      2.0313      0.0175     37.4953    104.7735
  1922.1000      8.5353      2.0044      0.1115     39.1303    100.7583
  1922.2000      8.5353      2.0327      0.2472     37.4116     94.3656
  1922.3000      8.5914      2.0835      0.2855     34.3348     92.7208
  1922.4000      8.5914      2.1388      0.2983     30.9842     95.0630
  1922.5000      8.6711      2.2018      0.2813     27.1638     95.3142
