~Version Information
VERS.                      2.0: CWLS Log ASCII Standard - VERSION 2.0
WRAP.                       NO: One line per depth step
~Well Information Block
STRT.FT                -7.0000: 
STOP.FT              1239.2500: 
STEP.FT                 0.2500: 
NULL.                -999.2500: 
COMP.          Pioneer Natural Resources: COMPANY
WELL.              Julie 11-30: WELL
FLD.           Purgatorie River: FIELD
LOC.           672' FNL & 1052' FWL--: LOCATION
CNTY.               Las Animas: COUNTY
SRVC.          Patterson Wireline: SERVICE COMPANY
DATE.          Tue Apr 18 11:12:35 2006: LOG DATE
UWI.           05 071 08724 00: UNIQUE WELL ID
STAT.                       CO: STATE
~Curve Information Block
DEPT.FT            0 000 00 00: Depth
CCL.                          : Casing Collar Locator
TT3.usec                      : CBL 3' Travel Time
AMP3.mV                       : CBL 3' Amplitude
GR.GAPI                       : Gamma Ray
~Parameter Information Block
~A  Depth       CCL         TT3         AMP3         GR     
# ...
   160.5000      0.0000    720.3904      8.6707     89.5832
   160.7500      0.0000    720.1936      8.6500     88.6622
   161.0000      0.0000    719.8691      8.5653     88.1025
   161.2500      0.0000    719.4609      8.4107     86.7406
   161.5000      0.0000    719.4288      8.2258     83.7653
   161.7500      0.0000    720.6821      8.0704     79.5264
   162.0000      0.0000    724.5978      7.9840     74.9688
   162.2500      0.0000    732.1902      7.9621     70.5253
   162.5000      0.0000    742.2361      7.9635     65.9005
   162.7500      0.0000    750.7243      7.9295     60.8616
   163.0000      0.0000    753.9540      7.7992     55.8523
   163.2500      0.0000    752.5086      7.5275     51.7353
   163.5000      0.0000    750.6061      7.1159     49.1517
   163.7500      0.0000    751.4919      6.6366     48.0751
   164.0000      0.0000    755.5078      6.2053     47.8049
   164.2500      0.0000    762.6345      5.9112     47.5977
   164.5000      0.0000    773.8002      5.7728     47.5178
   164.7500      2.0000    787.6680      5.7585     48.4209
   165.0000     -2.0000    797.8483      5.8318     50.7742
   165.2500      0.0000    796.5929      5.9790     53.7009
   165.5000      0.0000    782.2731      6.2136     55.5272
   165.7500      0.0000    761.7740      6.5533     55.1474
   166.0000      0.0000    744.6099      6.9725     52.6874
   166.2500      0.0000    734.8853      7.3929     49.1334
   166.5000      0.0000    729.2258      7.7525     45.6737
   166.7500      0.0000    722.3357      8.0633     43.2307
   167.0000      0.0000    713.0404      8.3739     42.1341
   167.2500      0.0000    704.1120      8.7070     41.9918
   167.5000      0.0000    698.0831      9.0538     42.0425
   167.7500      0.0000    695.0857      9.3950     41.7975
   168.0000      0.0000    693.9049      9.7057     41.3738
   168.2500      0.0000    693.5076      9.9601     41.2531
   168.5000      0.0000    693.5554     10.1467     41.8934
   168.7500      0.0000    694.4521     10.2783     43.5354
   169.0000      0.0000    697.4985     10.3819     45.9594
   169.2500      0.0000    704.4694     10.4792     48.2620
   169.5000      0.0000    715.3850     10.5766     49.2285
   169.7500      0.0000    724.7799     10.6754     48.1608
   170.0000      0.0000    721.1044     10.7845     45.2445
   170.2500      0.0000    693.8021     10.9170     41.2233
   170.5000      0.0000    643.3693     11.0768     37.0070
   170.7500      0.0000    583.3005     11.2513     33.5609
   171.0000      0.0000    531.4924     11.4148     31.8276
   171.2500      0.0000    500.9150     11.5393     32.4263
   171.5000      0.0000    496.1161     11.6072     35.3093
   171.7500      0.0000    513.2418     11.6172     39.8008
   172.0000      0.0000    540.7849     11.5803     45.1190
   172.2500      0.0000    561.6189     11.5136     50.8288
   172.5000      0.0000    558.8826     11.4403     56.7331
   172.7500      0.0000    526.4949     11.3841     62.4320
   173.0000      0.0000    476.5943     11.3560     67.0092
   173.2500      0.0000    434.6196     11.3450     69.1105
   173.5000      0.0000    425.2238     11.3248     67.6496
   173.7500      0.0000    460.0203     11.2717     62.8309
   174.0000      0.0000    531.8984     11.1869     56.3414
   174.2500      0.0000    616.6181     11.1058     50.2711
   174.5000      0.0000    683.4924     11.0780     45.9278
   174.7500      0.0000    710.8678     11.1261     43.7470
   175.0000      0.0000    695.1211     11.2184     43.9010
   175.2500      0.0000    648.8745     11.2853     46.5402
   175.5000      0.0000    594.0394     11.2628     51.4294
   175.7500      0.0000    554.9204     11.1251     57.6786
   176.0000      0.0000    551.1163     10.8854     63.9749
   176.2500      0.0000    589.1335     10.5796     69.0268
   176.5000      0.0000    657.1321     10.2509     71.9861
   176.7500      0.0000    730.5845      9.9344     72.9419
   177.0000      0.0000    786.3549      9.6486     73.0622
   177.2500      0.0000    812.4600      9.4040     73.7520
   177.5000      0.0000    807.9004      9.2132     75.4491
   177.7500      0.0000    779.0594      9.0846     77.5162
   178.0000      0.0000    737.2518      9.0098     79.3446
   178.2500      0.0000    695.4328      8.9674     81.2957
   178.5000      0.0000    661.9805      8.9443     84.3032
   178.7500      0.0000    635.3634      8.9498     88.6107
   179.0000      0.0000    606.7700      8.9973     93.2773
   179.2500      0.0000    571.1808      9.0740     97.0884
   179.5000      0.0000    535.3734      9.1343     99.4250
   179.7500      0.0000    512.4461      9.1273    100.0584
   180.0000      0.0000    509.1687      9.0274     98.8646
   180.2500      0.0000    521.1560      8.8430     96.2179
   180.5000      0.0000    540.0378      8.6047     92.9784
   180.7500      0.0000    562.6019      8.3439     89.6950
   181.0000      0.0000    590.8766      8.0801     86.3025
   181.2500      0.0000    624.5186      7.8269     82.7408
   181.5000      0.0000    656.8340      7.6044     79.3797
   181.7500      0.0000    679.7100      7.4323     76.8117
   182.0000      0.0000    690.0001      7.3095     75.6954
   182.2500      0.0000    689.7687      7.2114     76.7323
   182.5000      0.0000    682.2322      7.1126     80.1399
   182.7500      0.0000    669.7913      7.0075     84.9532
   183.0000      0.0000    655.7703      6.9081     89.2785
   183.2500      0.0000    645.5103      6.8302     91.6074
   183.5000      0.0000    643.0927      6.7834     91.8669
   183.7500      0.0000    646.9073      6.7684     91.1758
   184.0000      0.0000    650.4496      6.7770     90.7188
   184.2500      0.0000    648.0019      6.7967     90.8857
   184.5000      0.0000    637.9702      6.8224     91.3224
   184.7500      0.0000    620.3457      6.8642     91.5814
   185.0000      0.0000    593.2927      6.9420     91.6388
   185.2500      0.0000    555.0682      7.0646     92.0270
   185.5000      0.0000    510.3562      7.2124     93.6752
   185.7500      0.0000    472.9272      7.3445     97.2794
   186.0000      0.0000    457.6122      7.4291    102.2584
   186.2500      0.0000    466.5568      7.4692    106.3703
   186.5000      0.0000    485.1924      7.4976    107.0287
   186.7500      0.0000    495.0959      7.5480    103.5191
   187.0000      0.0000    490.1263      7.6346     97.8719
   187.2500      0.0000    477.9295      7.7530     93.3289
   187.5000      0.0000    468.5212      7.8890     91.8074
   187.7500      0.0000    465.9288      8.0218     92.7177
   188.0000      0.0000    469.3549      8.1286     93.8738
   188.2500      0.0000    477.6226      8.1950     93.0718
   188.5000      0.0000    490.6933      8.2239     89.1291
   188.7500      0.0000    507.1895      8.2353     82.7525
   189.0000      0.0000    521.4595      8.2563     76.9330
   189.2500      0.0000    525.4094      8.3061     75.3947
   189.5000      0.0000    514.6349      8.3856     79.6162
   189.7500      0.0000    490.9270      8.4797     87.4399
   190.0000      0.0000    458.6565      8.5703     94.7775
   190.2500      0.0000    422.4195      8.6440     98.4205
   190.5000      0.0000    388.1991      8.6941     97.4924
   190.7500      0.0000    362.1382      8.7192     93.2206
   191.0000      0.0000    346.6593      8.7217     87.9231
   191.2500      0.0000    339.6292      8.7047     83.9256
   191.5000      0.0000    337.2671      8.6721     82.8366
   191.7500      0.0000    336.7775      8.6329     85.2494
   192.0000      0.0000    336.8084      8.6024     90.5134
   192.2500      0.0000    336.8828      8.5940     96.5487
   192.5000      0.0000    336.8957      8.6103    100.3496
   192.7500      0.0000    336.8601      8.6411     99.5918
   193.0000      0.0000    336.8408      8.6707     94.3005
   193.2500      0.0000    336.8848      8.6927     86.9649
   193.5000      0.0000    337.0125      8.7171     80.8635
   193.7500      0.0000    337.3743      8.7590     78.1160
