~Version Information
VERS.                      2.0: CWLS Log ASCII Standard - VERSION 2.0
WRAP.                       NO: One line per depth step
~Well Information Block
STRT.FT               230.0000: 
STOP.FT               706.5000: 
STEP.FT                 0.1000: 
NULL.                -999.2500: 
COMP.          Pioneer Natural Resources: COMPANY
WELL.          Razor Clam 23-27: WELL
FLD.           Purgatoire River: FIELD
LOC.           2499' FSL & 2636' FWL: LOCATION
CNTY.               Las Animas: COUNTY
SRVC.                Patterson: SERVICE COMPANY
DATE.          Mon Feb 13 07:31:47 2006: LOG DATE
UWI.           05 071 08667 00: UNIQUE WELL ID
STAT.                 Colorado: STATE
~Curve Information Block
DEPT.FT            0 000 00 00: Depth
DCAL.in                       : CDL Caliper
RHOB.g/cc                     : CDL Bulk Density
RHOC.g/cc                     : CDL Density Correction
DPOR.pu                       : CDL Density Porosity
GR.GAPI                       : Gamma Ray
NPOR.pu                       : Neutron Porosity
~Parameter Information Block
~A  Depth       DCAL        RHOB        RHOC        DPOR         GR         NPOR    
# ...
   508.4000      8.0017      2.6091      0.0597      2.4765     43.5894     18.5135
   508.5000      7.9994      2.6357      0.0819      0.8676     45.7003     18.5286
   508.6000      7.9994      2.6420      0.0937      0.4841     46.0629     18.7653
   508.7000      7.9994      2.6267      0.0309      1.4131     46.1115     19.4313
   508.8000      8.0013      2.5999      0.0315      3.0380     46.9726     19.9603
   508.9000      8.0013      2.5744      0.0069      4.5789     50.2528     19.6853
   509.0000      8.0005      2.5626      0.0204      5.2964     55.3417     19.4606
   509.1000      8.0005      2.5673      0.0460      5.0100     56.6837     19.9772
   509.2000      8.0005      2.5906      0.0302      3.6008     50.4474     20.7220
   509.3000      7.9988      2.6371      0.0378      0.7822     42.2796     21.1120
   509.4000      7.9988      2.6921      0.0782     -2.5517     39.4263     21.1813
   509.5000      8.0008      2.7290      0.0687     -4.7905     40.9711     21.2300
   509.6000      8.0008      2.7398      0.1067     -5.4414     41.1478     21.3256
   509.7000      8.0008      2.7344      0.0944     -5.1139     39.9239     21.2554
   509.8000      8.0015      2.7250      0.0856     -4.5459     42.4277     20.7210
   509.9000      8.0015      2.7138      0.0547     -3.8642     46.5809     20.0720
   510.0000      8.0006      2.6952      0.0097     -2.7392     47.1848     20.1086
   510.1000      8.0006      2.6688     -0.0214     -1.1413     45.6780     20.7735
   510.2000      8.0006      2.6481     -0.1059      0.1168     45.3629     21.0114
   510.3000      8.0018      2.6530     -0.0695     -0.1834     46.2494     20.3183
   510.4000      8.0018      2.6761      0.0089     -1.5831     46.4967     19.3922
   510.5000      8.0007      2.6794      0.1166     -1.7844     47.1403     19.1141
   510.6000      8.0007      2.6471      0.0714      0.1741     50.1695     19.2933
   510.7000      8.0007      2.6108      0.0337      2.3741     53.4318     19.2709
   510.8000      7.9995      2.6036      0.0435      2.8125     54.7254     18.9739
   510.9000      7.9995      2.6098      0.0915      2.4336     54.4275     18.6347
   511.0000      7.9982      2.5962      0.0506      3.2633     54.0460     18.6826
   511.1000      7.9982      2.5730     -0.0087      4.6697     56.1075     19.0888
   511.2000      7.9982      2.5700      0.0214      4.8470     59.2484     19.3681
   511.3000      7.9970      2.5830      0.0435      4.0627     57.8190     19.6792
   511.4000      7.9970      2.5909      0.0446      3.5829     51.0436     19.9880
   511.5000      7.9998      2.5873      0.0562      3.7970     46.1598     19.8212
   511.6000      7.9998      2.5802      0.0276      4.2304     48.5756     19.5735
   511.7000      7.9998      2.5778      0.0436      4.3760     54.0342     19.9399
   511.8000      8.0001      2.5790      0.0184      4.3053     56.2233     20.6680
   511.9000      8.0001      2.5818      0.0221      4.1329     54.0330     20.9937
   512.0000      8.0016      2.5799      0.0811      4.2504     50.4078     20.6508
   512.1000      8.0016      2.5648      0.0576      5.1622     50.6676     20.1630
   512.2000      8.0016      2.5496      0.0668      6.0855     55.6230     20.2179
   512.3000      7.9997      2.5560      0.0524      5.6977     61.4127     20.3606
   512.4000      7.9997      2.5849      0.0958      3.9457     64.3867     19.7663
   512.5000      7.9989      2.6100      0.1092      2.4247     61.0426     19.0553
   512.6000      7.9989      2.6115      0.0746      2.3311     52.2312     18.9445
   512.7000      7.9989      2.6005      0.0548      3.0009     44.5295     19.1549
   512.8000      7.9992      2.5938      0.0441      3.4069     42.3955     19.5485
   512.9000      7.9992      2.5956      0.0529      3.2971     43.1504     20.1482
   513.0000      7.9985      2.5953      0.0761      3.3151     45.3478     20.4250
   513.1000      7.9985      2.5836      0.0596      4.0262     52.1897     19.8167
   513.2000      7.9985      2.5668      0.0701      5.0409     60.0390     18.9067
   513.3000      8.0035      2.5481      0.0606      6.1739     59.7807     18.8883
   513.4000      8.0035      2.5327     -0.0228      7.1076     53.5085     19.4920
   513.5000      8.0000      2.5311      0.0014      7.2048     49.7005     19.5884
   513.6000      8.0000      2.5351      0.0020      6.9612     50.7723     19.4936
   513.7000      8.0000      2.5320     -0.0259      7.1490     54.3668     19.8239
   513.8000      7.9998      2.5325     -0.0343      7.1207     55.2080     19.9558
   513.9000      7.9998      2.5533     -0.0129      5.8600     52.1353     19.5673
   514.0000      8.0010      2.5798      0.0454      4.2570     49.8335     19.1758
   514.1000      8.0010      2.5843      0.0715      3.9810     49.9399     18.8339
   514.2000      8.0010      2.5738      0.0470      4.6209     49.1432     18.5317
   514.3000      7.9930      2.5736      0.0297      4.6308     46.9600     18.6858
   514.4000      7.9930      2.5846      0.0710      3.9612     45.5056     19.0770
   514.5000      7.9976      2.5919      0.0210      3.5219     46.1976     19.3102
   514.6000      7.9976      2.5916      0.0556      3.5395     48.8786     19.4275
   514.7000      7.9976      2.5887      0.0273      3.7124     52.6888     19.4339
   514.8000      7.9985      2.5888      0.0359      3.7118     56.9549     19.4389
   514.9000      7.9985      2.5869      0.0658      3.8240     58.1585     19.4146
   515.0000      7.9979      2.5770      0.0525      4.4239     54.9375     19.1841
   515.1000      7.9979      2.5681      0.0197      4.9613     53.2144     18.8868
   515.2000      7.9979      2.5668      0.0234      5.0416     56.8758     18.8870
   515.3000      7.9994      2.5606      0.0547      5.4154     59.6831     19.1386
   515.4000      7.9994      2.5407      0.0004      6.6229     56.0711     19.2961
   515.5000      7.9983      2.5203      0.0084      7.8614     51.4362     19.4819
   515.6000      7.9983      2.5189     -0.0111      7.9467     50.7735     19.9660
   515.7000      7.9983      2.5394      0.0542      6.7010     53.9676     20.2783
   515.8000      8.0008      2.5615      0.0561      5.3663     56.0410     19.9308
   515.9000      8.0008      2.5684      0.0258      4.9451     50.3226     19.7480
   516.0000      8.0083      2.5667      0.0218      5.0491     42.5077     20.4166
   516.1000      8.0083      2.5634      0.0395      5.2472     43.0526     20.9483
   516.2000      8.0083      2.5609      0.0166      5.3996     50.0758     20.3092
   516.3000      8.0005      2.5664      0.0364      5.0654     56.0572     18.8872
   516.4000      8.0005      2.5802      0.0746      4.2322     59.3950     17.7382
   516.5000      8.0003      2.5910      0.0466      3.5762     59.7915     17.3733
   516.6000      8.0003      2.5902      0.0527      3.6215     54.8795     17.6909
   516.7000      8.0003      2.5771      0.0443      4.4200     47.3307     18.5553
   516.8000      7.9995      2.5601      0.0193      5.4515     44.0386     19.6092
   516.9000      7.9995      2.5525      0.0052      5.9082     48.7183     20.4548
   517.0000      8.0012      2.5558      0.0696      5.7089     58.6261     20.7821
   517.1000      8.0012      2.5590      0.0113      5.5124     66.5465     20.3832
   517.2000      8.0012      2.5547      0.0230      5.7781     68.2898     20.0705
   517.3000      7.9992      2.5389      0.0574      6.7341     67.1656     20.4805
   517.4000      7.9992      2.5170     -0.0071      8.0622     67.8676     21.1962
   517.5000      7.9972      2.5031     -0.0075      8.9021     69.7917     22.1603
   517.6000      7.9972      2.4984      0.0221      9.1849     71.0921     23.4160
   517.7000      7.9972      2.4821      0.0353     10.1766     72.4730     24.2942
   517.8000      7.9972      2.4304      0.0507     13.3094     76.3567     24.4808
   517.9000      7.9972      2.3367     -0.0028     18.9882     79.8481     24.9297
