~Version Information
VERS.                      2.0: CWLS Log ASCII Standard - VERSION 2.0
WRAP.                       NO: One line per depth step
~Well Information Block
STRT.FT                -6.7500: 
STOP.FT              1121.2500: 
STEP.FT                 0.2500: 
NULL.                -999.2500: 
COMP.          Pioneer Natural Resources: COMPANY
WELL.              Draco 31-21: WELL
FLD.           Purgatorie River: FIELD
LOC.           491' FNL & 2446' FEL--: LOCATION
CNTY.               Las Animas: COUNTY
SRVC.          Patterson Wireline: SERVICE COMPANY
DATE.          Mon Feb 06 09:50:04 2006: LOG DATE
UWI.           05 071 08672 00: UNIQUE WELL ID
STAT.                       CO: STATE
~Curve Information Block
DEPT.FT            0 000 00 00: Depth
CCL.                          : Casing Collar Locator
TT3.usec                      : CBL 3' Travel Time
AMP3.mV                       : CBL 3' Amplitude
GR.GAPI                       : Gamma Ray
~Parameter Information Block
~A  Depth       CCL         TT3         AMP3         GR     
# ...
   663.2500      0.0000    552.4618     12.1657     92.4859
   663.5000      0.0000    558.5399     11.9135     97.3170
   663.7500      0.0000    559.7112     11.4491    104.1863
   664.0000      0.0000    559.2217     10.8262    112.3968
   664.2500      0.0000    563.3339     10.2343    121.0160
   664.5000      0.0000    575.9659      9.8388    128.6264
   664.7500      0.0000    598.1577      9.6232    133.7942
   665.0000      0.0000    629.5967      9.4539    135.7021
   665.2500      0.0000    667.2361      9.2697    134.5953
   665.5000      0.0000    704.0096      9.1254    132.0001
   665.7500      0.0000    732.2817      9.0800    130.1750
   666.0000     -2.0000    747.7034      9.1297    130.5794
   666.2500      0.0000    747.6974      9.2560    132.8293
   666.5000      0.0000    727.7592      9.5026    135.3119
   666.7500      0.0000    683.3698      9.9870    136.4372
   667.0000      0.0000    619.2256     10.7941    135.2541
   667.2500      0.0000    556.0313     11.8126    131.7711
   667.5000      0.0000    521.7147     12.7183    127.1935
   667.7500      0.0000    530.1804     13.2114    123.2889
   668.0000      0.0000    568.7026     13.2612    121.0072
   668.2500      0.0000    607.9302     13.0673    119.7733
   668.5000      0.0000    623.9000     12.8318    118.2517
   668.7500      0.0000    612.5417     12.6295    115.6379
   669.0000      0.0000    588.2304     12.4443    112.1561
   669.2500      0.0000    570.9020     12.2433    108.6761
   669.5000      0.0000    572.4352     12.0086    106.2127
   669.7500      0.0000    592.2431     11.7441    105.5176
   670.0000      0.0000    622.5179     11.4731    106.6419
   670.2500      0.0000    654.5236     11.2233    109.0479
   670.5000      0.0000    681.0707     11.0103    112.4671
   670.7500      0.0000    697.7008     10.8397    117.1858
   671.0000      0.0000    703.9783     10.7216    122.9060
   671.2500      0.0000    702.7545     10.6740    127.8875
   671.5000      0.0000    697.4220     10.7134    130.0874
   671.7500      0.0000    689.5878     10.8487    129.0670
   672.0000      0.0000    677.7637     11.0826    126.2076
   672.2500      0.0000    656.8758     11.4103    123.1541
   672.5000      0.0000    620.3611     11.8165    120.6408
   672.7500      0.0000    566.1076     12.2760    118.8080
   673.0000      0.0000    501.4729     12.7565    117.8510
   673.2500      0.0000    440.6649     13.2169    117.8024
   673.5000      0.0000    395.8671     13.6055    118.1553
   673.7500      0.0000    371.3324     13.8719    118.2697
   674.0000      0.0000    365.1867     13.9873    118.0134
   674.2500      0.0000    374.8655     13.9510    117.8355
   674.5000      0.0000    400.3737     13.7721    118.4720
   674.7500      0.0000    442.8912     13.4511    120.5206
   675.0000      0.0000    499.9435     12.9936    123.8492
   675.2500      0.0000    562.3134     12.4469    127.3095
   675.5000      0.0000    617.7076     11.9048    129.2785
   675.7500      0.0000    658.3646     11.4570    128.5937
   676.0000      0.0000    684.0891     11.1293    125.1528
   676.2500      0.0000    698.5956     10.8791    119.9721
   676.5000      0.0000    705.2011     10.6473    114.7193
   676.7500      0.0000    706.1276     10.4078    110.8894
   677.0000      0.0000    703.5701     10.1742    109.1569
   677.2500      0.0000    699.8496      9.9731    109.3169
   677.5000      0.0000    696.7152      9.8225    110.6928
   677.7500      0.0000    694.8629      9.7311    112.6666
   678.0000      0.0000    694.0280      9.7059    115.0101
   678.2500      0.0000    693.5360      9.7519    117.7201
   678.5000      0.0000    692.7224      9.8625    120.5578
   678.7500      0.0000    691.0237     10.0108    122.9510
   679.0000      0.0000    688.2351     10.1548    124.3929
   679.2500      0.0000    684.8526     10.2580    124.6479
   679.5000      0.0000    681.7800     10.3067    123.4301
   679.7500      0.0000    679.6270     10.3097    120.2034
   680.0000      0.0000    678.4422     10.2869    114.7543
   680.2500      0.0000    677.9666     10.2589    107.9070
   680.5000      0.0000    677.8786     10.2395    101.2411
   680.7500      0.0000    677.8284     10.2282     95.9218
   681.0000      0.0000    677.2021     10.2115     91.9369
   681.2500      0.0000    674.4885     10.1762     88.3811
   681.5000      0.0000    666.2760     10.1198     84.2979
   681.7500      0.0000    646.9899     10.0487     79.4278
   682.0000      0.0000    611.4232      9.9688     74.4252
   682.2500      0.0000    560.0388      9.8863     70.2691
   682.5000      0.0000    502.1464      9.8123     67.3650
   682.7500      0.0000    451.8276      9.7622     65.3910
   683.0000      0.0000    419.6154      9.7466     64.0933
   683.2500      0.0000    408.3397      9.7651     63.8786
   683.5000      0.0000    415.5357      9.8047     65.4706
   683.7500      0.0000    437.2217      9.8442     69.3443
   684.0000      0.0000    469.6980      9.8633     75.6780
   684.2500      0.0000    510.5988      9.8476     84.3999
   684.5000      0.0000    559.0904      9.7880     95.0125
   684.7500      0.0000    612.9111      9.6876    106.5824
   685.0000      0.0000    664.2035      9.5754    117.9967
   685.2500      0.0000    699.9645      9.5057    128.0618
   685.5000      0.0000    708.3627      9.5252    135.4097
   685.7500      0.0000    686.8261      9.6296    138.7541
   686.0000      0.0000    647.3052      9.7497    137.6606
   686.2500      0.0000    613.5355      9.7790    133.0440
   686.5000      0.0000    607.3337      9.6270    126.7821
   686.7500      0.0000    633.1455      9.2573    120.9202
   687.0000      0.0000    676.5538      8.6911    116.9810
   687.2500      0.0000    717.8936      7.9867    115.3272
   687.5000      0.0000    745.9709      7.2168    114.9272
   687.7500      0.0000    760.6884      6.4471    113.9962
   688.0000      0.0000    766.7844      5.7197    111.1314
   688.2500      0.0000    766.9346      5.0487    106.1981
   688.5000      0.0000    760.1620      4.4316    100.4125
   688.7500      0.0000    745.4724      3.8638     95.2835
   689.0000      0.0000    725.6873      3.3514     91.1570
   689.2500      0.0000    706.8903      2.9190     87.0561
   689.5000      0.0000    694.4101      2.6045     81.9844
   689.7500      0.0000    690.0474      2.4393     75.9245
   690.0000      0.0000    692.5510      2.4298     69.7145
   690.2500      0.0000    698.9716      2.5550     64.6601
   690.5000      0.0000    705.2065      2.7863     62.3997
   690.7500      0.0000    707.2817      3.1161     64.3810
   691.0000      0.0000    703.6949      3.5715     70.6902
   691.2500      0.0000    695.8406      4.1940     79.3310
   691.5000      0.0000    685.1828      5.0061     87.0742
   691.7500      0.0000    669.8443      6.0008     91.2216
   692.0000      0.0000    643.9298      7.1597     90.6545
   692.2500      0.0000    601.0573      8.4693     85.8101
   692.5000      0.0000    540.7521      9.9055     78.2377
   692.7500      0.0000    472.1533     11.3971     69.8924
   693.0000      0.0000    409.5865     12.8124     62.2778
   693.2500      0.0000    363.3030     13.9992     56.1359
   693.5000      0.0000    334.7782     14.8577     51.7427
   693.7500      0.0000    319.6133     15.3869     49.0674
   694.0000      0.0000    312.6343     15.6598     47.6621
   694.2500      0.0000    310.4600     15.7552     46.8154
   694.5000      0.0000    311.5998     15.7088     46.0441
   694.7500      0.0000    315.5709     15.5226     45.3094
   695.0000      0.0000    321.8147     15.2004     44.8214
   695.2500      0.0000    329.0961     14.7675     45.0110
   695.5000      0.0000    336.0179     14.2589     46.8023
   695.7500      0.0000    342.3873     13.7015     51.4772
   696.0000      0.0000    350.4512     13.1097     59.9744
   696.2500      0.0000    365.2841     12.4985     72.2409
   696.5000      0.0000    393.5904     11.8941     86.8485
