~Version Information
VERS.                      2.0: CWLS Log ASCII Standard - VERSION 2.0
WRAP.                       NO: One line per depth step
~Well Information Block
STRT.FT                10.0000: 
STOP.FT              1187.0000: 
STEP.FT                 0.1000: 
NULL.                -999.2500: 
COMP.          Pioneer Natural Resources: COMPANY
WELL.          Whitecoat 14-36: WELL
FLD.           Purgatorie River: FIELD
LOC.           606' FSL & 260' FWL: LOCATION
PROV.                 Colorado: PROVINCE
CNTY.               Las Animas: COUNTRY
SRVC.                Patterson: SERVICE COMPANY
DATE.          Tue Dec 06 07:14:37 2005: LOG DATE
UWI.                          : UNIQUE WELL ID
~Curve Information Block
DEPT.FT            0 000 00 00: Depth
DCAL.in                       : CDL Caliper
RHOB.g/cc                     : CDL Bulk Density
RHOC.g/cc                     : CDL Density Correction
DPOR.pu                       : CDL Density Porosity
GR.GAPI                       : Gamma Ray
NPOR.pu                       : Neutron Porosity
~Parameter Information Block
~A  Depth       DCAL        RHOB        RHOC        DPOR         GR         NPOR    
# ...
    86.8000     -3.1029      2.2530      2.4710     -0.0079    131.5291     28.1406
    86.9000     -3.1029      2.2598      2.4884     -0.0078    127.4731     28.3493
    87.0000     -3.1029      2.2738      2.5238     -0.0075    122.8345     28.3160
    87.1000     -3.1029      2.2859      2.5216     -0.0073    123.9131     28.0674
    87.2000     -3.1029      2.2851      2.5438     -0.0073    130.4196     27.9070
    87.3000     -3.1029      2.2686      2.4897     -0.0076    135.4205     27.8643
    87.4000     -3.1029      2.2554      2.4555     -0.0079    135.2733     27.8654
    87.5000     -3.1029      2.2707      2.4502     -0.0076    132.1173     28.1491
    87.6000     -3.1029      2.3082      2.5148     -0.0068    128.6422     28.6828
    87.7000     -3.1029      2.3417      2.5249     -0.0062    124.6272     29.0760
    87.8000     -3.1029      2.3673      2.5350     -0.0057    118.9795     29.1821
    87.9000     -3.1029      2.3951      2.5451     -0.0051    113.7960     29.2180
    88.0000     -3.1029      2.4244      2.5344     -0.0045    113.0477     29.3624
    88.1000     -3.1029      2.4447      2.5780     -0.0041    116.6466     29.2254
    88.2000     -3.1029      2.4480      2.5686     -0.0040    118.6969     28.6119
    88.3000     -3.1029      2.4414      2.5580     -0.0042    115.7982     27.9056
    88.4000     -3.1029      2.4369      2.5702     -0.0043    112.1617     27.4264
    88.5000     -3.1029      2.4339      2.5656     -0.0043    111.2174     27.4071
    88.6000     -3.1029      2.4272      2.5406     -0.0045    112.1745     27.8562
    88.7000     -3.1029      2.4128      2.5679     -0.0047    114.7562     28.1750
    88.8000     -3.1029      2.3879      2.5432     -0.0052    118.5403     27.9202
    88.9000     -3.1029      2.3659      2.4786     -0.0057    121.1684     27.4526
    89.0000     -3.1029      2.3649      2.4956     -0.0057    121.8866     27.0510
    89.1000     -3.1029      2.3785      2.5724     -0.0054    120.7758     26.5763
    89.2000     -3.1029      2.3902      2.5219     -0.0052    116.9559     26.1186
    89.3000     -3.1029      2.3984      2.5174     -0.0050    112.7692     25.9554
    89.4000     -3.1029      2.3975      2.5457     -0.0051    114.7026     25.8991
    89.5000     -3.1029      2.3800      2.5320     -0.0054    123.6767     25.7089
    89.6000     -3.1029      2.3556      2.4897     -0.0059    130.7166     25.7227
    89.7000     -3.1029      2.3334      2.5224     -0.0063    130.9828     26.1547
    89.8000     -3.1029      2.3092      2.5065     -0.0068    130.5413     26.6314
    89.9000     -3.1029      2.2859      2.4736     -0.0073    131.6031     26.7448
    90.0000     -3.1029      2.2719      2.4762     -0.0076    130.3808     26.6155
    90.1000     -3.1029      2.2637      2.5142     -0.0077    128.3868     26.5820
    90.2000     -3.1029      2.2575      2.4773     -0.0079    128.8261     26.6565
    90.3000     -3.1029      2.2595      2.4904     -0.0078    129.7708     26.8105
    90.4000     -3.1029      2.2736      2.4852     -0.0075    128.7471     27.0468
    90.5000     -3.1029      2.2957      2.4981     -0.0071    127.6023     27.3430
    90.6000     -3.1029      2.3124      2.5426     -0.0068    127.1234     27.7358
    90.7000     -3.1029      2.3091      2.5262     -0.0068    126.4073     28.0666
    90.8000     -3.1029      2.2895      2.4978     -0.0072    126.5990     28.1863
    90.9000     -3.1029      2.2717      2.4724     -0.0076    128.3741     28.3585
    91.0000     -3.1029      2.2648      2.4984     -0.0077    129.2443     28.6644
    91.1000     -3.1029      2.2661      2.4640     -0.0077    129.2405     28.9081
    91.2000     -3.1029      2.2744      2.4946     -0.0075    132.0941     28.9518
    91.3000     -3.1029      2.2861      2.4957     -0.0073    136.6937     28.7126
    91.4000     -3.1029      2.2959      2.4998     -0.0071    138.0184     28.2863
    91.5000     -3.1029      2.3021      2.4943     -0.0070    136.0424     27.9232
    91.6000     -3.1029      2.3053      2.5040     -0.0069    134.7200     27.7273
    91.7000     -3.1029      2.3035      2.5422     -0.0069    135.5581     27.7789
    91.8000     -3.1029      2.2979      2.5158     -0.0070    136.8220     28.0636
    91.9000     -3.1029      2.2969      2.4874     -0.0071    135.7697     28.1778
    92.0000     -3.1029      2.3008      2.5170     -0.0070    133.3374     27.9607
    92.1000     -3.1029      2.3002      2.5187     -0.0070    133.0506     27.6512
    92.2000     -3.1029      2.2955      2.4887     -0.0071    134.9746     27.3812
    92.3000     -3.1029      2.2926      2.4850     -0.0072    134.7841     27.3776
    92.4000     -3.1029      2.2882      2.5199     -0.0072    129.8007     27.6063
    92.5000     -3.1029      2.2839      2.4638     -0.0073    123.7894     27.7230
    92.6000     -3.1029      2.2945      2.4658     -0.0071    123.6266     27.8571
    92.7000     -3.1029      2.3214      2.5056     -0.0066    128.9985     28.3343
    92.8000     -3.1029      2.3480      2.5146     -0.0060    132.1606     29.1426
    92.9000     -3.1029      2.3607      2.5378     -0.0058    130.6399     29.7834
    93.0000     -3.1029      2.3589      2.5117     -0.0058    126.7561     29.5318
    93.1000     -3.1029      2.3501      2.5120     -0.0060    122.1427     28.4951
    93.2000     -3.1029      2.3429      2.4794     -0.0061    120.0875     27.5973
    93.3000     -3.1029      2.3441      2.4989     -0.0061    122.6008     27.1941
    93.4000     -3.1029      2.3490      2.5404     -0.0060    128.1294     27.1100
    93.5000     -3.1029      2.3495      2.5044     -0.0060    134.3802     27.2277
    93.6000     -3.1029      2.3514      2.5003     -0.0060    137.6258     27.1586
    93.7000     -3.1029      2.3535      2.5296     -0.0059    136.2214     26.8122
    93.8000     -3.1029      2.3415      2.5282     -0.0062    133.2820     26.7119
    93.9000     -3.1029      2.3133      2.5222     -0.0067    130.9830     26.8971
    94.0000     -3.1029      2.2824      2.4844     -0.0074    129.3796     27.0365
    94.1000     -3.1029      2.2628      2.4683     -0.0077    129.0912     27.0796
    94.2000     -3.1029      2.2645      2.4495     -0.0077    130.5914     27.1885
    94.3000     -3.1029      2.2910      2.4654     -0.0072    133.0179     27.4097
    94.4000     -3.1029      2.3240      2.5475     -0.0065    134.8235     27.4850
    94.5000     -3.1029      2.3330      2.5421     -0.0063    136.4382     27.4647
    94.6000     -3.1029      2.3222      2.4677     -0.0066    139.2536     27.6959
    94.7000     -3.1029      2.3196      2.5266     -0.0066    141.1407     28.2986
    94.8000     -3.1029      2.3285      2.5293     -0.0064    139.4141     29.0929
    94.9000     -3.1029      2.3332      2.5259     -0.0063    135.0234     29.6872
    95.0000     -3.1029      2.3258      2.5249     -0.0065    131.5423     29.9197
    95.1000     -3.1029      2.3100      2.4950     -0.0068    132.8702     29.9872
    95.2000     -3.1029      2.2939      2.4750     -0.0071    137.7016     29.9105
    95.3000     -3.1029      2.2822      2.5026     -0.0074    140.6765     29.6759
    95.4000     -3.1029      2.2748      2.4688     -0.0075    140.3302     29.6249
    95.5000     -3.1029      2.2678      2.4891     -0.0076    137.7725     29.8342
    95.6000     -3.1029      2.2607      2.4498     -0.0078    133.8842     29.9706
    95.7000     -3.1029      2.2587      2.4548     -0.0078    131.0080     29.9487
    95.8000     -3.1029      2.2524      2.5160     -0.0080    130.4703     29.8300
    95.9000     -3.1029      2.2296      2.4548     -0.0084    130.9245     29.8143
    96.0000     -3.1029      2.2037      2.4329     -0.0089    129.3895     30.0783
    96.1000     -3.1029      2.1862      2.4643     -0.0093    124.5304     30.2448
    96.2000     -3.1029      2.1700      2.4370     -0.0096    118.1947     29.9714
    96.3000     -3.1029      2.1443      2.4683     -0.0101    114.1630     29.5710
