~Version Information
VERS.                      2.0: CWLS Log ASCII Standard - VERSION 2.0
WRAP.                       NO: One line per depth step
~Well Information Block
STRT.FT                -7.5000: 
STOP.FT              1336.0000: 
STEP.FT                 0.2500: 
NULL.                -999.2500: 
COMP.          Pioneer Natural Resources: COMPANY
WELL.               LPGC 32-32: WELL
FLD.           Purgatorie River: FIELD
LOC.           1937' FNL & 1661' FEL--: LOCATION
CNTY.               Las Animas: COUNTY
SRVC.          Patterson Wireline: SERVICE COMPANY
DATE.          Fri Feb 03 09:39:42 2006: LOG DATE
UWI.           05 071 08641 00: UNIQUE WELL ID
STAT.                       CO: STATE
~Curve Information Block
DEPT.FT            0 000 00 00: Depth
CCL.                          : Casing Collar Locator
TT3.usec                      : CBL 3' Travel Time
AMP3.mV                       : CBL 3' Amplitude
GR.GAPI                       : Gamma Ray
~Parameter Information Block
~A  Depth       CCL         TT3         AMP3         GR     
# ...
   696.0000      0.0000    307.3304     20.5632    154.2564
   696.2500      0.0000    307.4127     20.3892    152.2628
   696.5000      0.0000    307.5520     20.1515    149.3218
   696.7500      0.0000    307.7554     19.8757    143.3688
   697.0000      0.0000    308.0351     19.5791    134.5875
   697.2500      0.0000    308.3740     19.2799    125.3753
   697.5000      0.0000    308.7083     19.0065    118.5018
   697.7500      0.0000    308.9463     18.7962    115.6254
   698.0000      0.0000    309.0182     18.6769    117.0107
   698.2500      0.0000    308.9269     18.6442    121.6863
   698.5000      0.0000    308.7480     18.6557    127.5153
   698.7500      0.0000    308.5732     18.6530    131.7306
   699.0000      0.0000    308.4608     18.5975    132.4874
   699.2500      0.0000    308.4647     18.4892    130.2902
   699.5000      0.0000    308.7437     18.3576    127.4333
   699.7500      0.0000    309.6990     18.2351    125.7149
   700.0000      0.0000    311.9968     18.1349    124.8723
   700.2500      0.0000    316.2505     18.0474    123.2043
   700.5000      0.0000    322.3885     17.9529    119.3187
   700.7500      0.0000    329.2978     17.8385    113.1872
   701.0000      0.0000    335.3590     17.7063    105.8982
   701.2500      0.0000    339.5017     17.5692     98.8670
   701.5000      0.0000    341.7176     17.4438     93.3177
   701.7500      0.0000    342.6667     17.3425     90.0913
   702.0000      0.0000    343.0154     17.2712     89.4566
   702.2500      0.0000    343.1257     17.2314     90.8831
   702.5000      0.0000    343.1049     17.2230     93.1967
   702.7500      0.0000    342.9615     17.2354     95.3773
   703.0000      0.0000    342.7232     17.2419     97.3306
   703.2500      0.0000    342.4847     17.2117     99.9287
   703.5000      0.0000    342.3701     17.1336    104.5230
   703.7500      0.0000    342.4763     17.0221    112.2334
   704.0000      0.0000    342.8669     16.8995    122.9160
   704.2500      0.0000    343.8723     16.7775    134.4161
   704.5000      0.0000    346.6789     16.6558    143.3583
   704.7500      0.0000    353.8961     16.5259    147.2727
   705.0000      0.0000    368.6364     16.3774    146.1847
   705.2500      0.0000    390.8254     16.2127    142.4064
   705.5000      0.0000    413.3958     16.0605    138.9885
   705.7500      0.0000    424.7875     15.9616    138.0570
   706.0000      0.0000    418.3734     15.9327    140.0496
   706.2500      0.0000    398.6389     15.9523    143.8882
   706.5000      0.0000    376.4788     15.9845    147.4122
   706.7500      0.0000    360.0527     16.0105    148.0919
   707.0000      0.0000    351.2458     16.0318    144.5077
   707.2500      0.0000    348.2679     16.0524    137.6645
   707.5000      0.0000    349.1863     16.0628    130.4648
   707.7500      0.0000    353.5216     16.0491    125.6177
   708.0000      0.0000    362.6565     16.0190    124.0718
   708.2500      0.0000    379.4634     16.0142    125.0661
   708.5000      0.0000    406.0074     16.0837    127.1109
   708.7500      0.0000    439.3354     16.2388    128.9435
   709.0000      0.0000    469.5805     16.4384    130.1451
   709.2500      0.0000    484.9853     16.6182    131.2270
   709.5000      0.0000    481.2885     16.7330    133.1070
   709.7500      0.0000    466.1965     16.7747    136.4071
   710.0000      0.0000    452.5189     16.7618    141.1015
   710.2500      0.0000    445.9215     16.7193    146.5065
   710.5000      0.0000    441.6633     16.6665    151.4628
   710.7500      0.0000    434.4449     16.6112    154.8433
   711.0000      0.0000    427.0413     16.5484    156.2993
   711.2500      0.0000    425.8195     16.4637    156.6093
   711.5000      0.0000    431.3350     16.3407    157.0596
   711.7500      0.0000    439.0489     16.1671    158.1642
   712.0000      0.0000    449.4566     15.9393    158.8748
   712.2500      0.0000    471.5387     15.6692    157.1252
   712.5000      0.0000    511.8970     15.3864    151.3156
   712.7500      0.0000    562.6786     15.1255    141.6934
   713.0000      0.0000    604.6020     14.9067    130.6966
   713.2500      0.0000    622.4900     14.7286    121.6224
   713.5000      0.0000    617.2599     14.5772    116.3466
   713.7500      0.0000    603.4620     14.4370    114.4240
   714.0000      0.0000    595.9946     14.2990    114.6074
   714.2500      0.0000    599.5679     14.1632    116.7308
   714.5000      0.0000    610.4556     14.0379    121.8839
   714.7500      0.0000    624.7740     13.9354    131.1722
   715.0000      0.0000    641.2360     13.8654    144.1513
   715.2500      0.0000    658.1741     13.8278    157.8545
   715.5000      0.0000    672.6725     13.8113    167.7007
   715.7500      0.0000    682.9111     13.7992    170.3534
   716.0000      0.0000    689.1736     13.7802    165.9686
   716.2500      0.0000    693.0071     13.7551    157.5984
   716.5000      0.0000    696.9716     13.7327    148.6429
   716.7500      0.0000    704.6361     13.7191    140.9763
   717.0000      0.0000    718.8831     13.7111    134.9539
   717.2500      0.0000    739.2559     13.7020    130.3044
   717.5000      0.0000    761.4432     13.6932    126.4754
   717.7500      0.0000    780.0622     13.6965    122.4139
   718.0000      0.0000    792.1818     13.7223    116.8236
   718.2500      0.0000    798.2948     13.7674    109.1488
   718.5000      0.0000    800.6543     13.8126    100.1536
   718.7500      0.0000    801.3134     13.8376     91.3020
   719.0000      0.0000    801.3889     13.8390     83.7436
   719.2500      0.0000    801.2876     13.8340     78.0057
   719.5000      0.0000    801.0722     13.8420     74.3223
   719.7500      0.0000    800.6356     13.8668     72.9264
   720.0000      0.0000    799.4525     13.8971     74.0082
   720.2500      0.0000    795.8856     13.9199     77.4254
   720.5000      0.0000    786.3373     13.9190     82.2837
   720.7500      0.0000    765.7726     13.8552     86.8481
   721.0000      0.0000    731.3209     13.6526     89.2469
   721.2500      0.0000    686.7016     13.2474     88.5819
   721.5000      0.0000    641.5963     12.6885     85.3876
   721.7500      0.0000    606.2087     12.1548     80.9974
   722.0000      0.0000    589.1169     11.7954     76.5610
   722.2500      0.0000    598.6647     11.5715     72.6719
   722.5000      0.0000    638.0336     11.3386     69.6718
   722.7500      0.0000    696.7222     11.0468     67.9956
   723.0000      0.0000    753.9965     10.7643     68.2441
   723.2500      0.0000    794.1901     10.5493     71.2117
   723.5000     -2.0000    815.1093     10.4005     77.8552
   723.7500      2.0000    821.0013     10.3195     88.8427
   724.0000      0.0000    811.4982     10.3799    103.7076
   724.2500      0.0000    780.3139     10.7290    120.3283
   724.5000      0.0000    724.8989     11.4838    135.4060
   724.7500      0.0000    656.6850     12.5644    145.9218
   725.0000      0.0000    598.6229     13.6725    150.6868
   725.2500      0.0000    568.7314     14.5238    150.8280
   725.5000      0.0000    566.4568     15.0720    148.7963
   725.7500      0.0000    576.5636     15.4582    146.6950
   726.0000      0.0000    582.3784     15.8171    145.2336
   726.2500      0.0000    573.3771     16.1980    143.8655
   726.5000      0.0000    549.2703     16.5975    141.6885
   726.7500      0.0000    524.8216     16.9841    138.1519
   727.0000      0.0000    523.9633     17.3055    133.1536
   727.2500      0.0000    559.0071     17.5144    127.1528
   727.5000      0.0000    615.1442     17.5980    121.6983
   727.7500      0.0000    659.6002     17.5754    119.3792
   728.0000      0.0000    668.0341     17.4772    122.2720
   728.2500      0.0000    644.1219     17.3283    130.0138
   728.5000      0.0000    615.3387     17.1487    139.5755
   728.7500      0.0000    608.3506     16.9643    146.9230
   729.0000      0.0000    626.4333     16.8100    149.0801
   729.2500      0.0000    651.3902     16.7185    145.5642
