~Version Information
VERS.                      2.0: CWLS Log ASCII Standard - VERSION 2.0
WRAP.                       NO: One line per depth step
~Well Information Block
STRT.FT                 8.2500: 
STOP.FT              1156.2500: 
STEP.FT                 0.2500: 
NULL.                -999.2500: 
COMP.          Pioneer Natural Resources: COMPANY
WELL.              Davida 34-8: WELL
FLD.           Purgatoire River: FIELD
LOC.           418' FSL & 1923' FEL: LOCATION
CNTY.               Las Animas: COUNTY
SRVC.                Patterson: SERVICE COMPANY
DATE.          Thu Mar 30 09:09:42 2006: LOG DATE
UWI.           05 071 08722 00: UNIQUE WELL ID
STAT.                 Colorado: STATE
~Curve Information Block
DEPT.FT            0 000 00 00: Depth
GR.GAPI                       : Gamma Ray
CCL.                          : Casing Collar Locator
TT3.usec                      : CBL 3' Travel Time
AMP3.mV                       : CBL 3' Amplitude
~Parameter Information Block
~A  Depth        GR         CCL         TT3         AMP3    
# ...
   979.7500     82.2909      0.0000    583.1702      5.4230
   980.0000     82.1944      0.0000    600.2598      5.4246
   980.2500     82.8947      0.0000    609.7809      5.4529
   980.5000     84.6175      0.0000    605.7114      5.5032
   980.7500     87.6186      0.0000    590.8493      5.5609
   981.0000     91.4057      0.0000    573.4841      5.6127
   981.2500     94.3767      0.0000    559.4015      5.6522
   981.5000     94.9552      0.0000    546.3773      5.6773
   981.7500     93.0609      0.0000    528.1241      5.6845
   982.0000     90.1132      0.0000    502.8261      5.6689
   982.2500     87.7268      0.0000    475.3841      5.6302
   982.5000     86.5941      0.0000    452.2232      5.5749
   982.7500     86.2583      0.0000    436.4178      5.5096
   983.0000     85.5692      0.0000    427.3232      5.4317
   983.2500     83.5641      0.0000    422.6843      5.3344
   983.5000     80.2983      0.0000    420.4167      5.2214
   983.7500     76.8814      0.0000    419.2788      5.1149
   984.0000     74.6047      0.0000    418.7528      5.0421
   984.2500     74.0049      0.0000    418.6664      5.0139
   984.5000     74.6885      0.0000    418.9769      5.0180
   984.7500     75.9500      0.0000    419.7673      5.0315
   985.0000     77.4780      0.0000    421.5073      5.0392
   985.2500     79.2553      0.0000    425.6845      5.0396
   985.5000     80.7781      0.0000    435.6627      5.0357
   985.7500     80.9075      0.0000    456.5851      5.0256
   986.0000     78.9340      0.0000    492.6048      5.0043
   986.2500     75.5522      0.0000    542.1360      4.9716
   986.5000     72.4190      0.0000    595.8890      4.9351
   986.7500     70.9044      0.0000    641.4974      4.9030
   987.0000     71.4931      0.0000    671.0800      4.8793
   987.2500     74.0124      0.0000    684.3137      4.8663
   987.5000     77.8637      0.0000    685.5634      4.8682
   987.7500     81.9941      0.0000    680.0046      4.8892
   988.0000     85.0508      0.0000    672.1351      4.9293
   988.2500     86.0786      0.0000    665.6859      4.9820
   988.5000     85.3247      0.0000    663.3150      5.0358
   988.7500     84.1214      0.0000    666.0803      5.0790
   989.0000     83.5773      0.0000    673.1812      5.1067
   989.2500     83.4260      0.0000    682.2496      5.1216
   989.5000     82.4532      0.0000    690.4629      5.1296
   989.7500     79.9157      0.0000    696.0004      5.1340
   990.0000     76.1492      0.0000    698.7253      5.1358
   990.2500     71.9859      0.0000    699.6463      5.1360
   990.5000     68.2629      0.0000    699.8988      5.1361
   990.7500     66.0010      0.0000    700.0825      5.1412
   991.0000     66.3956      0.0000    700.1047      5.1578
   991.2500     70.1173      0.0000    699.2825      5.1858
   991.5000     76.7438      0.0000    696.5944      5.2126
   991.7500     85.0112      0.0000    691.2496      5.2204
   992.0000     93.3160      0.0000    683.5643      5.2008
   992.2500     99.8845      0.0000    675.4984      5.1596
   992.5000    103.1149      0.0000    670.0118      5.1072
   992.7500    102.4524      0.0000    669.1862      5.0488
   993.0000     98.7940      0.0000    672.3220      4.9856
   993.2500     93.7783      0.0000    675.2818      4.9217
   993.5000     88.9695      0.0000    671.9218      4.8652
   993.7500     85.7200      0.0000    657.2180      4.8252
   994.0000     85.0635      0.0000    630.0297      4.8099
   994.2500     87.1772      0.0000    593.2350      4.8270
   994.5000     90.9692      0.0000    551.9218      4.8793
   994.7500     94.4009      0.0000    512.2134      4.9611
   995.0000     95.5925      0.0000    480.5378      5.0603
   995.2500     93.9431      0.0000    461.7122      5.1646
   995.5000     90.2833      0.0000    457.9304      5.2676
   995.7500     86.0291      0.0000    470.4691      5.3693
   996.0000     82.2026      0.0000    500.2477      5.4712
   996.2500     78.9708      0.0000    544.1371      5.5684
   996.5000     75.9083      0.0000    591.9952      5.6474
   996.7500     72.7548      0.0000    630.9551      5.6928
   997.0000     69.8652      0.0000    654.2105      5.6977
   997.2500     67.8277      0.0000    664.7896      5.6686
   997.5000     66.8599      0.0000    670.7059      5.6277
   997.7500     66.8236      0.0000    677.3917      5.6052
   998.0000     67.5710      0.0000    684.9005      5.6212
   998.2500     68.8544      0.0000    690.5747      5.6702
   998.5000     70.0977      0.0000    692.5805      5.7235
   998.7500     70.8161      0.0000    691.0732      5.7488
   999.0000     71.2036      0.0000    687.6120      5.7275
   999.2500     71.8288      0.0000    684.2704      5.6623
   999.5000     72.8313      0.0000    682.7850      5.5721
   999.7500     73.8467      0.0000    683.7582      5.4777
  1000.0000     74.6801      0.0000    686.3398      5.3899
  1000.2500     75.6205      0.0000    688.8038      5.3129
  1000.5000     77.1076      0.0000    689.8568      5.2537
  1000.7500     79.4415      0.0000    689.6890      5.2227
  1001.0000     82.7480      0.0000    689.6458      5.2234
  1001.2500     86.7879      0.0000    690.7782      5.2457
  1001.5000     90.7267      0.0000    692.8922      5.2709
  1001.7500     93.3670      0.0000    695.0309      5.2814
  1002.0000     93.8386      0.0000    696.5143      5.2656
  1002.2500     92.3047      0.0000    697.3015      5.2210
  1002.5000     90.1345      0.0000    697.6672      5.1551
  1002.7500     89.1360      0.0000    697.8375      5.0810
  1003.0000     90.1645      0.0000    697.9097      5.0108
  1003.2500     92.2902      0.0000    697.9274      4.9524
  1003.5000     93.3885      0.0000    697.9354      4.9125
  1003.7500     91.6929      0.0000    697.9724      4.9024
  1004.0000     87.0655      0.0000    698.0423      4.9324
  1004.2500     80.9816      0.0000    698.1173      5.0006
  1004.5000     75.3557      0.0000    698.1558      5.0880
  1004.7500     71.4170      0.0000    698.0764      5.1717
  1005.0000     69.5684      0.0000    697.6992      5.2434
  1005.2500     69.7836      0.0000    696.7252      5.3136
  1005.5000     71.7245      0.0000    694.9188      5.3982
  1005.7500     74.6747      0.0000    692.6019      5.5055
  1006.0000     77.7738      0.0000    691.0606      5.6344
  1006.2500     80.3084      0.0000    691.8647      5.7808
  1006.5000     81.7488      0.0000    694.6873      5.9418
  1006.7500     81.8048      0.0000    695.4426      6.1152
  1007.0000     80.5883      0.0000    687.8466      6.2991
  1007.2500     78.4824      0.0000    668.8920      6.4866
  1007.5000     75.6973      0.0000    643.0558      6.6518
  1007.7500     72.0866      0.0000    618.7748      6.7397
  1008.0000     67.6611      0.0000    599.5159      6.6906
  1008.2500     63.2733      0.0000    580.8521      6.4985
  1008.5000     60.3783      0.0000    558.7431      6.2413
  1008.7500     59.8699      0.0000    538.4017      6.0304
  1009.0000     61.5072      0.0000    531.6528      5.9269
  1009.2500     64.6176      0.0000    545.7454      5.9138
  1009.5000     68.7863      0.0000    575.9916      5.9398
  1009.7500     73.5115      0.0000    608.7357      5.9830
  1010.0000     77.7849      0.0000    631.2065      6.0741
  1010.2500     80.5935      0.0000    639.7545      6.2611
  1010.5000     81.6305      0.0000    639.2318      6.5382
  1010.7500     81.2380      0.0000    634.7364      6.8151
  1011.0000     80.0273      0.0000    625.5464      6.9825
  1011.2500     78.7337      0.0000    608.3436      7.0064
  1011.5000     77.9411      0.0000    584.7394      6.9363
  1011.7500     77.6159      0.0000    562.9076      6.8355
  1012.0000     77.1912      0.0000    551.2656      6.7328
  1012.2500     76.2900      0.0000    551.7966      6.6336
  1012.5000     75.1822      0.0000    559.5961      6.5421
  1012.7500     74.4714      0.0000    566.9721      6.4633
  1013.0000     74.5403      0.0000    567.5786      6.3945
