~Version Information
VERS.                      2.0: CWLS Log ASCII Standard - VERSION 2.0
WRAP.                       NO: One line per depth step
~Well Information Block
STRT.FT                -7.0000: 
STOP.FT              2328.5000: 
STEP.FT                 0.2500: 
NULL.                -999.2500: 
COMP.          Pioneer Natural Resources: COMPANY
WELL.              Rolls 14-14: WELL
FLD.           Purgatorie River: FIELD
LOC.           572' FSL & 856' FWL--: LOCATION
PROV.                       CO: PROVINCE
CNTY.               Las Animas: COUNTRY
SRVC.          Patterson Wireline: SERVICE COMPANY
DATE.          Mon Aug 08 10:10:54 2005: LOG DATE
UWI.           05 071 08455 00: UNIQUE WELL ID
~Curve Information Block
DEPT.FT            0 000 00 00: Depth
CCL.                          : Casing Collar Locator
TT3.usec                      : CBL 3' Travel Time
AMP3.mV                       : CBL 3' Amplitude
GR.GAPI                       : Gamma Ray
~Parameter Information Block
~A  Depth       CCL         TT3         AMP3         GR     
# ...
  1534.0000      0.0000    661.8377      4.4062    155.6118
  1534.2500      0.0000    661.5653      4.4573    152.6590
  1534.5000      0.0000    669.2043      4.5019    151.3040
  1534.7500      0.0000    688.2252      4.5132    151.8259
  1535.0000      0.0000    717.8512      4.4833    153.1159
  1535.2500      0.0000    751.2837      4.4274    153.3935
  1535.5000      0.0000    779.9337      4.3705    151.4068
  1535.7500      0.0000    799.0146      4.3289    147.1374
  1536.0000      0.0000    809.0370      4.3022    141.4702
  1536.2500      0.0000    813.1187      4.2749    135.6892
  1536.5000      0.0000    813.6912      4.2320    131.2919
  1536.7500      0.0000    810.9219      4.1756    129.4824
  1537.0000      0.0000    803.0322      4.1233    130.3483
  1537.2500      0.0000    788.2504      4.0874    132.7251
  1537.5000      0.0000    767.6928      4.0677    134.9904
  1537.7500      0.0000    746.4885      4.0640    135.9209
  1538.0000      0.0000    730.5371      4.0824    135.1313
  1538.2500      0.0000    721.3240      4.1254    133.1166
  1538.5000      0.0000    715.0093      4.1795    130.9088
  1538.7500      0.0000    707.2627      4.2235    129.4432
  1539.0000      0.0000    697.7139      4.2479    128.8824
  1539.2500      0.0000    689.0670      4.2604    128.3187
  1539.5000      0.0000    683.4749      4.2738    126.4029
  1539.7500      0.0000    680.9622      4.2927    122.7804
  1540.0000      0.0000    680.4124      4.3131    119.0505
  1540.2500      0.0000    680.8181      4.3309    117.7613
  1540.5000      0.0000    681.5881      4.3491    119.7176
  1540.7500      0.0000    682.3738      4.3791    122.6512
  1541.0000      0.0000    683.0491      4.4323    123.5656
  1541.2500      0.0000    683.8992      4.5063    122.2397
  1541.5000      0.0000    685.6376      4.5829    121.4972
  1541.7500      0.0000    688.5857      4.6419    124.1202
  1542.0000      0.0000    691.6469      4.6769    130.2260
  1542.2500      0.0000    692.7368      4.6961    137.5385
  1542.5000      0.0000    690.5895      4.7110    143.5835
  1542.7500      0.0000    685.4990      4.7291    147.4753
  1543.0000      0.0000    679.3361      4.7538    149.8763
  1543.2500      0.0000    677.0985      4.7853    151.5478
  1543.5000      0.0000    686.6100      4.8191    152.2828
  1543.7500      0.0000    711.8691      4.8492    151.4889
  1544.0000      0.0000    746.1934      4.8720    149.5105
  1544.2500      0.0000    774.9445      4.8831    147.7718
  1544.5000      0.0000    785.5906      4.8759    147.6368
  1544.7500      0.0000    774.9999      4.8517    149.5846
  1545.0000      0.0000    749.9387      4.8273    153.1897
  1545.2500      0.0000    722.6385      4.8251    157.2310
  1545.5000      0.0000    703.2565      4.8536    159.9787
  1545.7500      0.0000    694.0243      4.9002    159.9607
  1546.0000      0.0000    691.2732      4.9393    156.8107
  1546.2500      0.0000    692.0606      4.9493    151.4492
  1546.5000      0.0000    696.0530      4.9256    145.2766
  1546.7500      0.0000    701.9541      4.8776    139.0044
  1547.0000      0.0000    706.2018      4.8180    132.5555
  1547.2500      0.0000    706.2690      4.7593    126.2592
  1547.5000      0.0000    703.1059      4.7107    121.5404
  1547.7500      0.0000    699.4189      4.6716    119.7567
  1548.0000      0.0000    696.9149      4.6341    120.4106
  1548.2500      0.0000    695.7159      4.5896    121.1236
  1548.5000      0.0000    695.4855      4.5270    119.7948
  1548.7500      0.0000    696.5655      4.4389    116.6099
  1549.0000      0.0000    699.8942      4.3374    113.4525
  1549.2500      0.0000    705.7911      4.2538    111.4514
  1549.5000      0.0000    713.3997      4.2126    109.8390
  1549.7500      0.0000    721.8156      4.2141    107.5869
  1550.0000      0.0000    730.9964      4.2434    105.5268
  1550.2500      0.0000    740.6202      4.2826    105.9384
  1550.5000      0.0000    748.5333      4.3134    109.8915
  1550.7500      0.0000    751.0449      4.3212    115.6611
  1551.0000      0.0000    744.6814      4.3025    120.1312
  1551.2500      0.0000    727.0657      4.2723    121.3292
  1551.5000      0.0000    696.0187      4.2647    119.4545
  1551.7500      0.0000    649.5546      4.3178    116.0754
  1552.0000      0.0000    589.4081      4.4466    112.7324
  1552.2500      0.0000    524.5034      4.6276    110.0799
  1552.5000      0.0000    468.1270      4.8138    108.0093
  1552.7500      0.0000    430.0408      4.9638    106.3139
  1553.0000      0.0000    411.4377      5.0620    104.9001
  1553.2500      0.0000    406.8944      5.1234    103.4637
  1553.5000      0.0000    409.9501      5.1737    101.5881
  1553.7500      0.0000    417.3473      5.2132     99.3225
  1554.0000      0.0000    429.1755      5.2128     97.2663
  1554.2500      0.0000    445.0719      5.1561     96.0878
  1554.5000      0.0000    460.2558      5.0689     96.1270
  1554.7500      0.0000    466.9148      4.9919     97.3562
  1555.0000      0.0000    461.0404      4.9423     99.6090
  1555.2500      0.0000    446.6121      4.9186    102.8648
  1555.5000      0.0000    431.6100      4.9214    107.1317
  1555.7500      0.0000    421.1965      4.9511    111.9129
  1556.0000      0.0000    415.6988      5.0021    115.8780
  1556.2500      0.0000    413.1736      5.0695    117.1664
  1556.5000      0.0000    411.9575      5.1507    114.2349
  1556.7500      0.0000    411.2801      5.2341    106.9261
  1557.0000      0.0000    410.8851      5.3003     96.9296
  1557.2500      0.0000    410.6925      5.3343     86.7992
  1557.5000      0.0000    410.6532      5.3316     78.1707
  1557.7500      0.0000    410.7306      5.2971     71.1313
  1558.0000      0.0000    410.8723      5.2443     65.4269
  1558.2500      0.0000    411.0406      5.1854     61.5973
  1558.5000      0.0000    411.2896      5.1219     60.3521
  1558.7500      0.0000    412.0294      5.0562     61.3450
  1559.0000      0.0000    414.6174      5.0033     63.2070
  1559.2500      0.0000    422.2368      4.9732     64.6767
  1559.5000      0.0000    439.9860      4.9450     65.5154
  1559.7500      0.0000    472.3356      4.8795     66.4643
  1560.0000      0.0000    518.4341      4.7550     68.3294
  1560.2500      0.0000    570.0989      4.5870     70.9574
  1560.5000      0.0000    616.2267      4.4223     73.0794
  1560.7500      0.0000    649.2850      4.3185     73.0634
  1561.0000      0.0000    667.0039      4.3061     69.9522
  1561.2500      0.0000    669.7685      4.3617     64.4040
  1561.5000      0.0000    659.1049      4.4332     58.9425
  1561.7500      0.0000    638.1151      4.4901     56.6957
  1562.0000     -2.0000    611.0037      4.5302     59.2899
  1562.2500     -2.0000    581.8246      4.5458     65.8143
  1562.5000      0.0000    555.5874      4.5228     73.6432
  1562.7500      0.0000    540.7770      4.4834     80.1089
  1563.0000      0.0000    546.8843      4.4926     83.6991
  1563.2500      0.0000    576.1144      4.5913     84.3174
  1563.5000      0.0000    618.9304      4.7358     82.8558
  1563.7500      0.0000    660.2508      4.8350     80.5772
  1564.0000      0.0000    689.6956      4.8501     78.7421
  1564.2500      0.0000    705.6373      4.8329     78.7068
  1564.5000      0.0000    711.8052      4.8611     82.2476
  1564.7500      0.0000    712.3548      4.9560     91.2802
  1565.0000      0.0000    709.9186      5.0757    106.5294
  1565.2500      0.0000    706.4818      5.1748    126.0844
  1565.5000      0.0000    704.4810      5.2456    145.5111
  1565.7500      0.0000    705.7728      5.2938    159.9274
  1566.0000      0.0000    708.9944      5.3025    166.6446
  1566.2500      0.0000    708.8052      5.2473    166.3227
  1566.5000      0.0000    699.9950      5.1406    161.8157
  1566.7500      0.0000    683.6878      5.0402    156.0589
  1567.0000      0.0000    668.2506      5.0082    150.9305
  1567.2500      0.0000    661.8600      5.0675    147.4670
