~Version Information
VERS.                      2.0: CWLS Log ASCII Standard - VERSION 2.0
WRAP.                       NO: One line per depth step
~Well Information Block
STRT.FT               460.0000: 
STOP.FT              1498.0000: 
STEP.FT                 0.1000: 
NULL.                -999.2500: 
COMP.          Pioneer Natural Resources: COMPANY
WELL.           Amore 32-09 Tr: WELL
FLD.           Purgatoire River: FIELD
LOC.           1941' FNL & 2297' FEL: LOCATION
PROV.                 Colorado: PROVINCE
CNTY.               Las Animas: COUNTRY
SRVC.                Patterson: SERVICE COMPANY
DATE.          Mon Nov 14 13:24:57 2005: LOG DATE
UWI.           05 071 08584 00: UNIQUE WELL ID
~Curve Information Block
DEPT.FT            0 000 00 00: Depth
DCAL.in                       : CDL Caliper
RHOB.g/cc                     : CDL Bulk Density
RHOC.g/cc                     : CDL Density Correction
DPOR.pu                       : CDL Density Porosity
GR.GAPI                       : Gamma Ray
NPOR.pu                       : Neutron Porosity
~Parameter Information Block
~A  Depth       DCAL        RHOB        RHOC        DPOR         GR         NPOR    
# ...
  1141.6000      7.9897      2.6267      0.0654      1.4113    119.0518     25.8780
  1141.7000      7.9897      2.6445      0.1224      0.3329    121.1646     25.4357
  1141.8000      7.9893      2.6515      0.1007     -0.0907    118.0623     24.3286
  1141.9000      7.9893      2.6529      0.0997     -0.1740    116.2740     23.5239
  1142.0000      7.9899      2.6521      0.1285     -0.1301    117.5609     23.7851
  1142.1000      7.9899      2.6479      0.0572      0.1266    116.3273     24.5447
  1142.2000      7.9899      2.6469      0.0896      0.1893    111.5570     24.9829
  1142.3000      7.9906      2.6419      0.1344      0.4895    108.5071     25.1265
  1142.4000      7.9906      2.6255      0.0591      1.4833    109.8829     25.3164
  1142.5000      7.9905      2.6090      0.0616      2.4844    112.9219     25.4901
  1142.6000      7.9905      2.5964      0.0387      3.2457    113.3107     25.2113
  1142.7000      7.9905      2.5873      0.0551      3.8021    109.9557     24.6344
  1142.8000      7.9903      2.5844      0.0414      3.9773    106.4525     24.4011
  1142.9000      7.9903      2.5867      0.0582      3.8379    107.6414     24.1918
  1143.0000      7.9910      2.5951      0.0628      3.3262    113.1089     23.4763
  1143.1000      7.9910      2.6158      0.0470      2.0721    118.5415     22.4904
  1143.2000      7.9910      2.6328      0.1011      1.0407    121.5756     21.9852
  1143.3000      7.9911      2.6136      0.0942      2.2074    123.6363     22.4648
  1143.4000      7.9911      2.5692     -0.0064      4.8963    126.0029     23.5536
  1143.5000      7.9901      2.5429      0.0141      6.4884    126.3977     24.1399
  1143.6000      7.9901      2.5468      0.0480      6.2547    123.8599     23.9330
  1143.7000      7.9901      2.5680      0.0343      4.9668    120.4177     23.9412
  1143.8000      7.9895      2.5979      0.0119      3.1566    116.2072     24.5493
  1143.9000      7.9895      2.6322      0.0733      1.0809    111.2277     25.1889
  1144.0000      7.9901      2.6658      0.1197     -0.9592    108.5163     25.3853
  1144.1000      7.9901      2.6911      0.1255     -2.4909    111.0964     24.5616
  1144.2000      7.9901      2.7032      0.1260     -3.2265    117.2281     22.9925
  1144.3000      7.9907      2.7047      0.0965     -3.3138    121.7079     21.9287
  1144.4000      7.9907      2.6999      0.1110     -3.0230    122.3381     21.7550
  1144.5000      7.9912      2.6910      0.0917     -2.4835    120.2052     21.8509
  1144.6000      7.9912      2.6784      0.0743     -1.7188    117.2679     21.8153
  1144.7000      7.9912      2.6592      0.0634     -0.5569    113.9469     21.8663
  1144.8000      7.9917      2.6262      0.0360      1.4407    111.2908     22.2737
  1144.9000      7.9917      2.5834     -0.0360      4.0367    111.9682     23.1641
  1145.0000      7.9915      2.5504     -0.0158      6.0353    116.4716     23.9582
  1145.1000      7.9915      2.5360     -0.0025      6.9098    121.7429     24.1020
  1145.2000      7.9915      2.5347      0.0199      6.9908    123.8485     24.0834
  1145.3000      7.9908      2.5418      0.0347      6.5561    122.7707     24.1019
  1145.4000      7.9908      2.5512      0.0580      5.9886    120.9470     23.8764
  1145.5000      7.9902      2.5571      0.0319      5.6295    118.3001     23.6735
  1145.6000      7.9902      2.5590      0.0841      5.5132    115.2596     24.2269
  1145.7000      7.9902      2.5570      0.0874      5.6352    114.3425     25.7337
  1145.8000      7.9909      2.5560      0.0631      5.6957    116.9302     27.0970
  1145.9000      7.9909      2.5602      0.0701      5.4445    121.2084     27.4056
  1146.0000      7.9927      2.5648      0.0537      5.1619    123.9159     27.0146
  1146.1000      7.9927      2.5665      0.0883      5.0605    125.5476     26.5053
  1146.2000      7.9927      2.5661      0.0856      5.0851    126.2031     26.2087
  1146.3000      7.9935      2.5653      0.0720      5.1360    124.3009     26.0741
  1146.4000      7.9935      2.5648      0.1073      5.1632    120.6485     26.0903
  1146.5000      7.9938      2.5633      0.0497      5.2538    117.4414     26.2020
  1146.6000      7.9938      2.5634      0.0877      5.2462    118.6984     25.9719
  1146.7000      7.9938      2.5774      0.0566      4.4009    124.1994     25.8025
  1146.8000      7.9950      2.6159      0.0631      2.0663    128.7595     26.2939
  1146.9000      7.9950      2.6596      0.1302     -0.5830    131.2102     26.8547
  1147.0000      7.9977      2.6824      0.0887     -1.9629    132.2138     26.9967
  1147.1000      7.9977      2.6908      0.1084     -2.4734    131.3421     26.9412
  1147.2000      7.9977      2.6949      0.1369     -2.7186    129.0355     26.7585
  1147.3000      7.9982      2.6975      0.0625     -2.8805    125.5867     26.1603
  1147.4000      7.9982      2.7070      0.0569     -3.4540    122.4782     25.5337
  1147.5000      7.9938      2.7161      0.0643     -4.0073    122.3515     25.9083
  1147.6000      7.9938      2.7088      0.0496     -3.5647    125.5157     27.0322
  1147.7000      7.9938      2.6900      0.0270     -2.4242    130.4935     27.6058
  1147.8000      7.9901      2.6782      0.0276     -1.7068    135.0001     27.1237
  1147.9000      7.9901      2.6799      0.0155     -1.8150    136.7786     26.5241
  1148.0000      7.9893      2.6838      0.0175     -2.0498    135.0536     26.9571
  1148.1000      7.9893      2.6727      0.0321     -1.3787    133.3776     28.4229
  1148.2000      7.9893      2.6499     -0.0491      0.0083    135.3005     29.8349
  1148.3000      7.9896      2.6273     -0.0207      1.3728    135.1704     30.1254
  1148.4000      7.9896      2.6039      0.0278      2.7944    128.9691     29.4496
  1148.5000      7.9903      2.5812     -0.0025      4.1710    123.3844     28.4172
  1148.6000      7.9903      2.5697     -0.0242      4.8640    123.8044     26.7885
  1148.7000      7.9903      2.5689     -0.0018      4.9131    129.2017     25.2163
  1148.8000      7.9905      2.5561      0.0308      5.6925    134.7208     25.0188
  1148.9000      7.9905      2.5250     -0.0365      7.5787    136.3735     25.9881
  1149.0000      7.9910      2.5072     -0.0092      8.6515    136.7001     26.6304
  1149.1000      7.9910      2.5178      0.0195      8.0123    139.5037     26.0729
  1149.2000      7.9910      2.5373      0.0707      6.8324    144.0259     25.2569
  1149.3000      7.9920      2.5515      0.0666      5.9727    147.0484     25.4064
  1149.4000      7.9920      2.5566      0.0898      5.6609    148.0689     26.2847
  1149.5000      7.9925      2.5512      0.0546      5.9876    149.0954     27.0583
  1149.6000      7.9925      2.5482      0.0506      6.1689    149.0291     27.3565
  1149.7000      7.9925      2.5569      0.0766      5.6428    146.7686     27.2603
  1149.8000      7.9929      2.5619      0.0765      5.3377    145.0566     27.3977
  1149.9000      7.9929      2.5427      0.0790      6.5046    145.8004     28.2116
  1150.0000      7.9937      2.4932      0.0531      9.5016    147.6761     29.0603
  1150.1000      7.9937      2.4201      0.0054     13.9335    146.0375     29.3323
  1150.2000      7.9937      2.3229      0.0149     19.8240    135.6914     29.2527
  1150.3000      7.9954      2.1964     -0.0238     27.4912    119.1276     29.1863
  1150.4000      7.9954      2.0603     -0.0609     35.7391    105.4792     29.1774
  1150.5000      7.9997      1.9588     -0.1207     41.8897     98.8876     29.0763
  1150.6000      7.9997      1.9159     -0.0719     44.4895     96.2481     29.3721
  1150.7000      7.9997      1.9155     -0.0423     44.5151     95.3059     30.1118
  1150.8000      8.0070      1.9416     -0.0489     42.9309     94.2169     30.1125
  1150.9000      8.0070      1.9996      0.0310     39.4200     91.7150     29.1672
  1151.0000      8.0172      2.0876      0.1453     34.0875     90.0555     28.4825
  1151.1000      8.0172      2.1841      0.2259     28.2338     91.8781     28.6431
