~Version Information
VERS.                      2.0: CWLS Log ASCII Standard - VERSION 2.0
WRAP.                       NO: One line per depth step
~Well Information Block
STRT.FT                -8.5000: 
STOP.FT              2591.0000: 
STEP.FT                 0.2500: 
NULL.                -999.2500: 
COMP.          Pioneer Natural Resources: COMPANY
WELL.             Aviator 12-4: WELL
FLD.           Purgatorie River: FIELD
LOC.           1969' FNL & 732' FWL--: LOCATION
CNTY.               Las Animas: COUNTY
SRVC.          Patterson Wireline: SERVICE COMPANY
DATE.          Wed Apr 19 09:09:26 2006: LOG DATE
UWI.           05 071 08714 00: UNIQUE WELL ID
STAT.                       CO: STATE
~Curve Information Block
DEPT.FT            0 000 00 00: Depth
CCL.                          : Casing Collar Locator
TT3.usec                      : CBL 3' Travel Time
AMP3.mV                       : CBL 3' Amplitude
GR.GAPI                       : Gamma Ray
~Parameter Information Block
~A  Depth       CCL         TT3         AMP3         GR     
# ...
  1030.0000      0.0000    693.1088      4.8962    112.1865
  1030.2500      0.0000    696.5288      5.3843    116.9310
  1030.5000      0.0000    700.7432      5.7389    118.8818
  1030.7500      0.0000    704.2099      5.9018    120.0429
  1031.0000      0.0000    705.9414      5.8535    122.9044
  1031.2500      0.0000    706.5458      5.6348    128.4285
  1031.5000      0.0000    708.2673      5.3348    135.2590
  1031.7500      0.0000    713.6827      5.0459    140.5772
  1032.0000      0.0000    723.6674      4.8251    141.6054
  1032.2500      0.0000    735.6630      4.6861    137.0240
  1032.5000      0.0000    744.3495      4.6175    128.0467
  1032.7500      0.0000    745.8036      4.6048    118.2934
  1033.0000      0.0000    741.5779      4.6404    111.8364
  1033.2500      0.0000    737.3336      4.7260    110.6043
  1033.5000      0.0000    736.6236      4.8723    113.4660
  1033.7500      0.0000    736.6671      5.0991    117.5878
  1034.0000      0.0000    731.1214      5.4278    120.4804
  1034.2500      0.0000    717.1044      5.8667    121.0337
  1034.5000      0.0000    698.6265      6.3980    119.1524
  1034.7500      0.0000    682.7738      6.9758    115.0656
  1035.0000      0.0000    673.8609      7.5385    109.3630
  1035.2500      0.0000    671.7505      8.0314    103.1480
  1035.5000      0.0000    673.2529      8.4244     97.4319
  1035.7500      0.0000    672.3754      8.7145     92.6805
  1036.0000      0.0000    660.1888      8.9144     89.3154
  1036.2500      0.0000    628.5122      9.0457     87.9456
  1036.5000      0.0000    577.1305      9.1367     88.6252
  1036.7500      0.0000    517.2253      9.2159     90.7126
  1037.0000      0.0000    464.9842      9.3005     93.9271
  1037.2500      0.0000    430.3679      9.3937     98.7171
  1037.5000      0.0000    412.2672      9.4950    105.1374
  1037.7500      0.0000    403.0475      9.6089    112.1456
  1038.0000      0.0000    395.3936      9.7400    118.6355
  1038.2500      0.0000    385.6489      9.8808    124.6253
  1038.5000      0.0000    374.0239     10.0052    130.8641
  1038.7500      0.0000    363.3327     10.0812    137.6048
  1039.0000      0.0000    356.9634     10.0922    144.1072
  1039.2500      0.0000    357.4514     10.0495    149.0161
  1039.5000      0.0000    366.3592      9.9835    150.9837
  1039.7500      0.0000    383.9766      9.9255    149.3805
  1040.0000      0.0000    408.0762      9.8972    144.8693
  1040.2500      0.0000    433.7681      9.9115    139.1771
  1040.5000      0.0000    456.2776      9.9713    134.1118
  1040.7500      0.0000    474.8544     10.0688    130.8330
  1041.0000      0.0000    494.0509     10.1897    129.8092
  1041.2500      0.0000    520.8914     10.3212    130.8656
  1041.5000      0.0000    559.6455     10.4492    133.1559
  1041.7500      0.0000    607.7429     10.5514    135.6916
  1042.0000      0.0000    656.1981     10.6028    138.1252
  1042.2500      0.0000    694.9613     10.5902    140.4345
  1042.5000      0.0000    719.3193     10.5134    141.7122
  1042.7500      0.0000    731.9163     10.3759    140.0737
  1043.0000      0.0000    738.8477     10.1834    134.3054
  1043.2500      0.0000    744.3069      9.9494    125.3988
  1043.5000      0.0000    749.1266      9.6958    116.2781
  1043.7500      0.0000    752.8899      9.4471    109.9486
  1044.0000      0.0000    754.5100      9.2247    107.6980
  1044.2500      0.0000    750.0040      9.0416    108.9513
  1044.5000      0.0000    733.1338      8.8965    112.6158
  1044.7500      0.0000    702.7850      8.7726    117.8773
  1045.0000      0.0000    669.9446      8.6456    123.3977
  1045.2500      0.0000    653.1825      8.4986    126.6231
  1045.5000      0.0000    663.6057      8.3365    125.0107
  1045.7500      0.0000    694.6179      8.1861    118.0411
  1046.0000      0.0000    727.8149      8.0779    107.7767
  1046.2500      0.0000    747.0762      8.0271     97.7281
  1046.5000      0.0000    745.1813      8.0322     91.2963
  1046.7500      0.0000    721.3414      8.0854     90.5743
  1047.0000      0.0000    680.1433      8.1739     95.6960
  1047.2500      0.0000    634.0670      8.2750    104.8938
  1047.5000      0.0000    600.7462      8.3565    115.1779
  1047.7500      0.0000    592.7433      8.3900    123.3062
  1048.0000      0.0000    609.3379      8.3672    127.0271
  1048.2500      0.0000    638.3761      8.3059    126.3938
  1048.5000      0.0000    666.0471      8.2420    123.9255
  1048.7500      0.0000    685.7582      8.2096    122.7628
  1049.0000      0.0000    698.6413      8.2273    124.2651
  1049.2500      0.0000    707.2613      8.2950    127.2965
  1049.5000      0.0000    711.3459      8.3954    129.3080
  1049.7500      0.0000    709.5076      8.4969    127.9766
  1050.0000      0.0000    701.6893      8.5634    122.8226
  1050.2500      0.0000    688.5463      8.5739    115.9350
  1050.5000      0.0000    671.9456      8.5344    110.5343
  1050.7500      0.0000    658.1228      8.4727    108.4969
  1051.0000      0.0000    656.5435      8.4190    109.6074
  1051.2500      0.0000    671.3508      8.3904    112.8328
  1051.5000      0.0000    694.5870      8.3902    117.2818
  1051.7500      0.0000    710.9177      8.4124    121.8105
  1052.0000      0.0000    709.8741      8.4440    124.8005
  1052.2500      0.0000    692.7311      8.4682    125.2578
  1052.5000      0.0000    668.4709      8.4705    124.0726
  1052.7500      0.0000    645.6044      8.4458    123.5602
  1053.0000      0.0000    628.2057      8.4030    125.1856
  1053.2500      0.0000    616.8158      8.3609    127.8821
  1053.5000      0.0000    610.3891      8.3381    129.2657
  1053.7500      0.0000    607.3568      8.3405    128.5393
  1054.0000      0.0000    606.2549      8.3578    127.5875
  1054.2500      0.0000    606.1987      8.3731    129.0748
  1054.5000      0.0000    607.0997      8.3772    133.7399
  1054.7500      0.0000    609.5524      8.3736    139.5550
  1055.0000      0.0000    614.3102      8.3721    143.2745
  1055.2500      0.0000    621.3984      8.3775    142.8097
  1055.5000      0.0000    629.5649      8.3844    138.5539
  1055.7500      0.0000    636.8403      8.3842    132.9422
  1056.0000      0.0000    641.8150      8.3788    128.8450
  1056.2500      0.0000    644.3583      8.3832    127.8676
  1056.5000      0.0000    645.3162      8.4099    129.4165
  1056.7500      0.0000    645.9310      8.4541    131.2286
  1057.0000      0.0000    647.6440      8.4984    131.2419
  1057.2500      0.0000    651.9925      8.5308    129.1699
  1057.5000      0.0000    659.8406      8.5506    126.2912
  1057.7500      0.0000    670.1392      8.5593    124.1159
  1058.0000      0.0000    679.9825      8.5522    123.4779
  1058.2500      0.0000    686.9027      8.5258    124.5816
  1058.5000      0.0000    690.9424      8.4894    127.4473
  1058.7500      0.0000    693.4973      8.4634    131.8383
  1059.0000      0.0000    694.7647      8.4634    136.6362
  1059.2500      0.0000    694.1421      8.4832    139.9541
  1059.5000      0.0000    692.8911      8.4800    140.5541
  1059.7500      0.0000    694.3144      8.3739    138.9455
  1060.0000      0.0000    700.3715      8.0980    136.6326
  1060.2500      0.0000    709.3189      7.6784    134.4926
  1060.5000      0.0000    717.6242      7.2435    132.2301
  1060.7500      0.0000    723.6244      6.9241    129.3125
  1061.0000      0.0000    728.3095      6.7635    126.2250
  1061.2500      0.0000    732.9227      6.7301    124.6536
  1061.5000      2.0000    737.4261      6.7788    126.1825
  1061.7500      0.0000    741.1048      6.8882    130.8049
  1062.0000      0.0000    742.1004      7.0651    136.7612
  1062.2500      0.0000    736.5356      7.3139    141.6108
  1062.5000      0.0000    721.7468      7.5831    143.3138
  1062.7500      0.0000    701.2518      7.7741    140.8221
  1063.0000      0.0000    683.8992      7.8422    134.4012
  1063.2500      0.0000    677.1737      7.8536    125.5387
