~Version Information
VERS.                      2.0: CWLS Log ASCII Standard - VERSION 2.0
WRAP.                       NO: One line per depth step
~Well Information Block
STRT.FT               420.0000: 
STOP.FT              2888.7000: 
STEP.FT                 0.1000: 
NULL.                -999.2500: 
COMP.          Pioneer Natural Resources: COMPANY
WELL.          Touchstone 11-32: WELL
FLD.           Purgatoire River: FIELD
LOC.           853' FNL & 407' FWL--: LOCATION
CNTY.               Las Animas: COUNTY
SRVC.                Patterson: SERVICE COMPANY
DATE.          Fri Feb 24 11:16:52 2006: LOG DATE
UWI.           05 071 08564 00: UNIQUE WELL ID
STAT.                 Colorado: STATE
~Curve Information Block
DEPT.FT            0 000 00 00: Depth
DCAL.in                       : CDL Caliper
RHOB.g/cc                     : CDL Bulk Density
RHOC.g/cc                     : CDL Density Correction
DPOR.pu                       : CDL Density Porosity
NPOR.pu                       : Neutron Porosity
GR.GAPI                       : Gamma Ray
~Parameter Information Block
~A  Depth       DCAL        RHOB        RHOC        DPOR        NPOR         GR     
# ...
  1716.0000      7.8919      2.6130      0.0201      2.2414     25.2863    122.5231
  1716.1000      7.8919      2.5914      0.0286      3.5512     25.3161    119.5744
  1716.2000      7.8919      2.5829      0.0543      4.0678     25.6501    118.2445
  1716.3000      7.8948      2.5750      0.0615      4.5479     26.1082    125.0541
  1716.4000      7.8948      2.5553      0.0122      5.7416     26.0151    132.4111
  1716.5000      7.9023      2.5319      0.0219      7.1553     25.3248    131.4324
  1716.6000      7.9023      2.5291     -0.0205      7.3253     24.7994    129.3774
  1716.7000      7.9023      2.5583      0.0434      5.5557     25.1493    130.0083
  1716.8000      7.9075      2.6001      0.0525      3.0245     26.2439    130.5317
  1716.9000      7.9075      2.6294      0.0693      1.2455     27.2950    129.0262
  1717.0000      7.9060      2.6353      0.0851      0.8893     27.6953    122.7680
  1717.1000      7.9060      2.6239      0.0619      1.5790     27.4035    113.9775
  1717.2000      7.9060      2.6114      0.0611      2.3421     26.8238    108.5671
  1717.3000      7.9026      2.5982      0.0783      3.1411     26.2985    108.7375
  1717.4000      7.9026      2.5836      0.0247      4.0249     25.8497    115.2226
  1717.5000      7.9016      2.5736      0.0543      4.6330     25.7414    123.1763
  1717.6000      7.9016      2.5552      0.0681      5.7477     26.3961    125.4210
  1717.7000      7.9016      2.5288     -0.0335      7.3450     27.6380    120.1292
  1717.8000      7.8998      2.5277     -0.0051      7.4136     28.6854    111.5004
  1717.9000      7.8998      2.5584      0.0506      5.5519     28.8419    108.5426
  1718.0000      7.8967      2.5840      0.0747      3.9978     28.2646    114.0116
  1718.1000      7.8967      2.5752      0.0699      4.5363     27.7849    120.2038
  1718.2000      7.8967      2.5464      0.0230      6.2803     27.8104    120.6043
  1718.3000      7.8956      2.5264      0.0587      7.4916     27.7889    116.5017
  1718.4000      7.8956      2.5164      0.0246      8.0997     27.2765    114.2257
  1718.5000      7.8980      2.5109      0.0177      8.4333     26.9119    118.3032
  1718.6000      7.8980      2.5193      0.0141      7.9204     27.0800    127.0219
  1718.7000      7.8980      2.5483      0.0345      6.1627     27.1365    136.8964
  1718.8000      7.9028      2.5818      0.0993      4.1347     26.5329    146.2440
  1718.9000      7.9028      2.5924      0.0884      3.4880     25.6272    150.3698
  1719.0000      7.9074      2.5714      0.0900      4.7634     25.2400    143.1929
  1719.1000      7.9074      2.5324      0.0512      7.1287     25.7784    129.0684
  1719.2000      7.9074      2.5025     -0.0019      8.9394     26.8805    117.5615
  1719.3000      7.9046      2.4938     -0.0011      9.4685     27.7029    113.7710
  1719.4000      7.9046      2.4777      0.0548     10.4443     27.8913    117.7287
  1719.5000      7.8955      2.4198      0.0325     13.9521     28.2922    120.5234
  1719.6000      7.8955      2.3236     -0.0251     19.7789     29.5047    115.7709
  1719.7000      7.8955      2.2136     -0.0633     26.4462     30.9777    107.7138
  1719.8000      7.8920      2.0986     -0.0275     33.4204     31.8940    100.1673
  1719.9000      7.8920      1.9788     -0.1406     40.6762     31.9022     94.1192
  1720.0000      7.8976      1.8763     -0.1488     46.8921     31.4870     90.7267
  1720.1000      7.8976      1.8136     -0.1749     50.6897     31.3860     91.8767
  1720.2000      7.8976      1.7861     -0.1123     52.3550     31.7700     98.6691
  1720.3000      7.9105      1.7790     -0.0861     52.7869     32.1540    107.4167
  1720.4000      7.9105      1.7942     -0.0449     51.8668     31.9398    111.9017
  1720.5000      7.9202      1.8401      0.0537     49.0844     31.4181    109.3361
  1720.6000      7.9202      1.9075      0.1682     45.0009     31.2141    101.1725
  1720.7000      7.9202      1.9759      0.2101     40.8545     31.4513     92.5889
  1720.8000      7.9154      2.0352      0.1979     37.2598     31.9248     88.8863
  1720.9000      7.9154      2.0862      0.2068     34.1698     32.1640     89.7768
  1721.0000      7.9025      2.1308      0.1449     31.4654     32.0320     92.3236
  1721.1000      7.9025      2.1668      0.1567     29.2877     32.0918     96.6697
  1721.2000      7.9025      2.1843      0.1041     28.2216     32.5177    104.1928
  1721.3000      7.8922      2.1801      0.0526     28.4804     32.9434    114.5355
  1721.4000      7.8922      2.1615      0.0637     29.6083     33.2536    124.5276
  1721.5000      7.8897      2.1431      0.0378     30.7240     33.3737    129.9646
  1721.6000      7.8897      2.1484      0.0418     30.4003     33.0933    131.7716
  1721.7000      7.8897      2.1901      0.0884     27.8731     32.4179    134.0419
  1721.8000      7.8908      2.2498      0.1273     24.2560     31.6113    135.5896
  1721.9000      7.8908      2.3010      0.1117     21.1508     30.9227    134.9365
  1722.0000      7.8944      2.3378      0.1083     18.9234     30.3878    134.8459
  1722.1000      7.8944      2.3689      0.1374     17.0337     29.8872    138.6710
  1722.2000      7.8944      2.4042      0.1255     14.8970     29.3793    144.1067
  1722.3000      7.9055      2.4414      0.1404     12.6405     28.9135    146.1201
  1722.4000      7.9055      2.4637      0.1678     11.2887     28.6054    148.1897
  1722.5000      7.9292      2.4665      0.0661     11.1198     28.7913    153.4557
  1722.6000      7.9292      2.4668      0.0474     11.1004     29.4681    155.6993
  1722.7000      7.9292      2.4681      0.0851     11.0243     30.0936    150.8275
  1722.8000      7.9470      2.4626      0.0575     11.3594     30.2186    146.3844
  1722.9000      7.9470      2.4596      0.0549     11.5406     29.9909    149.5813
  1723.0000      7.9381      2.4693      0.0501     10.9513     30.0043    155.4292
  1723.1000      7.9381      2.4798      0.0832     10.3169     30.5608    156.9291
  1723.2000      7.9381      2.4711      0.0925     10.8421     31.4146    155.6624
  1723.3000      7.9210      2.4391      0.0602     12.7844     31.7196    155.3271
  1723.4000      7.9210      2.3920      0.0489     15.6337     31.0705    155.6242
  1723.5000      7.9147      2.3375      0.0203     18.9399     30.3096    155.9936
  1723.6000      7.9147      2.2864     -0.0567     22.0358     30.0140    157.3393
  1723.7000      7.9147      2.2515     -0.0118     24.1526     30.1016    157.8015
  1723.8000      7.9196      2.2370     -0.0355     25.0315     30.7280    152.4330
  1723.9000      7.9196      2.2468      0.0109     24.4358     31.9001    143.4591
  1724.0000      7.9298      2.2735      0.0687     22.8188     32.6704    137.0862
  1724.1000      7.9298      2.3002      0.0566     21.1973     32.1871    136.1537
  1724.2000      7.9298      2.3223      0.0881     19.8614     31.0635    138.7701
  1724.3000      7.9438      2.3414      0.0840     18.7045     30.3972    139.2477
  1724.4000      7.9438      2.3548      0.1710     17.8916     30.2816    137.9901
  1724.5000      7.9588      2.3646      0.1271     17.2965     30.1495    137.8614
  1724.6000      7.9588      2.3864      0.1608     15.9788     29.8122    137.5504
  1724.7000      7.9588      2.4221      0.2176     13.8150     29.3955    136.7977
  1724.8000      7.9631      2.4496      0.2476     12.1471     28.8645    135.1118
  1724.9000      7.9631      2.4566      0.1800     11.7199     28.0693    132.1085
  1725.0000      7.9481      2.4606      0.1262     11.4775     27.2600    131.1087
  1725.1000      7.9481      2.4821      0.1309     10.1747     27.0762    131.6385
  1725.2000      7.9481      2.5170      0.1108      8.0631     27.3492    131.0153
  1725.3000      7.9381      2.5490      0.1089      6.1232     27.2194    128.9590
  1725.4000      7.9381      2.5765      0.0294      4.4553     26.8396    127.5736
  1725.5000      7.9429      2.6052      0.0572      2.7161     26.6585    128.3090
