~Version Information
 VERS.                                  2.0 : CWLS LAS VERSION
 WRAP.                                   NO : WRAPING MODE
 SWARE .                 MController 2.5.0N : SOFTWARE VERSION
~Well Information
 WELL.                            AMX 13-13 : WELL
 COMP.  Pioneer Natural Resources USA, Inc. : COMPANY
 FLD.                      Purgatoire River : FIELD
 LOC.                      NW/SW 13-32S-68W : LOCATION
 DATE.                          12/18-19/05 : DATE(S) LOGGED
 SRVC.       BLANCO Geological Services LLC : SERVICE COMPANY
 STAT.                                   CO : STATE
 CNTY.                           Las Animas : COUNTY
 CTRY.                                  USA : COUNTRY
 API.                          05-071-08630 : API NUMBER
 STRT.FT                             496.00 : START DEPTH
 STOP.FT                            2875.00 : STOP DEPTH
 STEP.FT                               1.00 : DEPTH INCREMENT
 NULL.                                -9999 : NULL VALUE
~Curve information
 DEPTH.FT                                   :
 ROP.MIN/FT                                 :
 GAS.UNITS                                  :
~ASCII Log data
# ...
      2096.0         3.52       3637.0 
      2097.0         0.50       1068.3 
      2098.0         0.60        836.1 
      2099.0         0.40        677.7 
      2100.0         0.33        630.5 
      2101.0         0.33        615.8 
      2102.0         0.30        603.9 
      2103.0         0.32        589.8 
      2104.0         0.33        573.6 
      2105.0         0.30        553.3 
      2106.0         0.27        534.8 
      2107.0         0.27        521.1 
      2108.0         0.20        514.2 
      2109.0         0.27        511.4 
      2110.0         0.27        505.1 
      2111.0         0.23        489.2 
      2112.0         0.20        481.4 
      2113.0         0.23        479.2 
      2114.0         0.23        476.1 
      2115.0         0.23        474.2 
      2116.0         0.20        475.5 
      2117.0         0.25        478.0 
      2118.0         0.27        479.8 
      2119.0         0.27        480.5 
      2120.0         0.27        484.8 
      2121.0         0.27        488.9 
      2122.0         0.23        490.8 
      2123.0         0.30        489.8 
      2124.0         0.37        485.8 
      2125.0         0.27        460.8 
      2126.0         3.52        440.0 
      2127.0         0.27       1047.3 
      2128.0         0.47       1265.5 
      2129.0         0.32       1277.0 
      2130.0         0.43       1192.3 
      2131.0         0.27        876.7 
      2132.0         0.27        737.3 
      2133.0         0.27        703.6 
      2134.0         0.33        755.5 
      2135.0         0.30        765.5 
      2136.0         0.27        749.2 
      2137.0         0.40        694.2 
      2138.0         0.50        607.3 
      2139.0         0.45        541.7 
      2140.0         0.27        512.7 
      2141.0         0.23        502.3 
      2142.0         0.30        496.4 
      2143.0         0.50        492.3 
      2144.0         0.37        478.0 
      2145.0         0.37        467.3 
      2146.0         0.27        459.5 
      2147.0         0.23        456.7 
      2148.0         0.27        454.5 
      2149.0         0.25        452.6 
      2150.0         0.27        451.7 
      2151.0         0.27        449.8 
      2152.0         0.23        446.7 
      2153.0         0.23        442.6 
      2154.0         0.23        440.0 
      2155.0         0.33        149.8 
      2156.0         3.42       1335.2 
      2157.0         0.37       1337.3 
      2158.0         0.30       1334.2 
      2159.0         0.30       1243.0 
      2160.0         0.27       1079.5 
      2161.0         0.25        900.5 
      2162.0         0.20        866.1 
      2163.0         5.08       2049.2 
      2164.0         0.33        204.8 
      2165.0         0.33        233.0 
      2166.0         0.33        254.1 
      2167.0         0.30        264.0 
      2168.0         0.28        266.5 
      2169.0         0.27        264.5 
      2170.0         0.20        266.1 
      2171.0         0.33        272.1 
      2172.0         0.33        278.8 
      2173.0         0.37        282.4 
      2174.0         0.33        285.5 
      2175.0         0.37        290.3 
      2176.0         0.40        293.6 
      2177.0         0.33        293.3 
      2178.0         0.32        277.9 
      2179.0         0.27        235.4 
      2180.0         0.20        203.9 
      2181.0         0.23        186.8 
      2182.0         0.17        174.9 
      2183.0         0.17        168.4 
      2184.0         0.20        159.2 
      2185.0         0.43        146.0 
      2186.0         4.42       1061.4 
      2187.0         0.20       1072.3 
      2188.0         0.32       1070.8 
      2189.0         0.23       1020.2 
      2190.0         0.30        948.3 
      2191.0         0.20        864.5 
      2192.0         0.30        818.0 
      2193.0         0.37        757.0 
      2194.0         0.37        711.7 
      2195.0         0.27        639.8 
      2196.0         0.30        593.3 
      2197.0         0.23        558.9 
      2198.0         0.33        543.3 
      2199.0         0.65        529.5 
      2200.0         0.43        480.8 
      2201.0         0.23        463.0 
      2202.0         0.27        458.3 
      2203.0         0.30        451.7 
      2204.0         0.27        445.8 
      2205.0         0.23        440.0 
      2206.0         0.20        181.9 
      2207.0         0.20        181.2 
      2208.0         0.20        180.8 
      2209.0         0.20        180.2 
      2210.0         0.30        178.9 
      2211.0         0.22        176.2 
      2212.0         0.17        170.3 
      2213.0         0.27        160.2 
      2214.0         0.37        142.3 
      2215.0         0.33        128.3 
      2216.0         3.18       1455.1 
      2217.0         0.73       1244.8 
      2218.0         0.40       1198.6 
      2219.0         0.37       1059.5 
      2220.0         0.43        891.1 
      2221.0         0.45        733.3 
      2222.0         0.83        796.4 
      2223.0         0.47        938.6 
      2224.0         0.47        999.5 
      2225.0         0.47       1003.0 
      2226.0         0.57        934.2 
      2227.0         0.47        760.2 
      2228.0         0.62        709.5 
      2229.0         0.47        709.8 
      2230.0         0.47        693.0 
      2231.0         0.43        684.2 
      2232.0         0.47        653.9 
      2233.0         0.47        625.2 
      2234.0         0.43        626.7 
      2235.0         0.48        624.5 
      2236.0         0.43        629.8 
      2237.0         0.43        632.3 
      2238.0         0.50        624.8 
      2239.0         0.40        621.1 
      2240.0         0.33        620.2 
      2241.0         0.27        601.4 
      2242.0         0.30        582.0 
      2243.0         0.23        556.4 
      2244.0         0.35        521.1 
      2245.0         0.23        456.1 
      2246.0         2.20       1208.6 
      2247.0         0.20       1358.9 
      2248.0         0.48       1605.1 
      2249.0         0.50       1658.3 
      2250.0         0.43       1627.6 
      2251.0         0.40       1402.3 
      2252.0         0.30       1118.3 
      2253.0         0.37        948.9 
      2254.0         0.33        791.4 
      2255.0         0.40        801.7 
      2256.0         0.43        847.0 
      2257.0         0.48        845.2 
      2258.0         0.53        783.3 
      2259.0         0.50        700.8 
      2260.0         0.40        664.5 
      2261.0         0.40        639.2 
      2262.0         0.40        616.7 
      2263.0         0.43        602.7 
      2264.0         0.45        602.0 
      2265.0         0.40        644.5 
      2266.0         0.63        666.4 
      2267.0         0.63        653.9 
      2268.0         0.47        586.4 
      2269.0         0.43        551.1 
      2270.0         0.47        535.2 
      2271.0         0.38        522.7 
      2272.0         0.33        504.2 
      2273.0         0.53        491.4 
      2274.0         0.37        478.3 
      2275.0         0.40        455.5 
      2276.0         3.68       1043.9 
      2277.0         0.30       1235.2 
      2278.0         0.30       1358.6 
      2279.0         0.27       1390.2 
      2280.0         0.28       1385.5 
      2281.0         0.30       1248.9 
      2282.0         0.27       1010.2 
      2283.0         0.30        819.8 
      2284.0         0.30        678.3 
      2285.0         0.27        598.3 
      2286.0         0.23        558.6 
      2287.0         0.23        530.5 
      2288.0         0.23        518.9 
      2289.0         0.27        536.4 
      2290.0         0.20        563.3 
      2291.0         0.23        580.5 
      2292.0         0.20        581.7 
      2293.0         0.23        570.8 
      2294.0         0.22        555.2 
      2295.0         0.20        549.8 
