~Version Information
VERS.                      2.0: CWLS Log ASCII Standard - VERSION 2.0
WRAP.                       NO: One line per depth step
~Well Information Block
STRT.FT                10.0000: 
STOP.FT              1350.5000: 
STEP.FT                 0.1000: 
NULL.                -999.2500: 
COMP.          Pioneer Natural Resources: COMPANY
WELL.              Dicks 32-5R: WELL
FLD.           Purgatorie River: FIELD
LOC.           1485' FNL & 1684' FEL: LOCATION
PROV.                 Colorado: PROVINCE
CNTY.               Las Animas: COUNTRY
SRVC.                Patterson: SERVICE COMPANY
DATE.          Fri Dec 09 10:06:15 2005: LOG DATE
UWI.                          : UNIQUE WELL ID
~Curve Information Block
DEPT.FT            0 000 00 00: Depth
DCAL.in                       : CDL Caliper
RHOB.g/cc                     : CDL Bulk Density
RHOC.g/cc                     : CDL Density Correction
DPOR.pu                       : CDL Density Porosity
GR.GAPI                       : Gamma Ray
NPOR.pu                       : Neutron Porosity
~Parameter Information Block
~A  Depth       DCAL        RHOB        RHOC        DPOR         GR         NPOR    
# ...
   278.8000     -3.1029      1.6506      2.4513     -0.0200    135.9936     24.4604
   278.9000     -3.1029      1.6604      2.4859     -0.0198    136.6232     24.1603
   279.0000     -3.1029      1.6576      2.4645     -0.0199    138.7796     24.4302
   279.1000     -3.1029      1.6520      2.4429     -0.0200    137.9067     24.7809
   279.2000     -3.1029      1.6523      2.4604     -0.0200    134.0206     24.9543
   279.3000     -3.1029      1.6538      2.4710     -0.0199    133.3544     25.1135
   279.4000     -3.1029      1.6520      2.4608     -0.0200    136.7268     25.2543
   279.5000     -3.1029      1.6526      2.4431     -0.0200    138.9575     25.0420
   279.6000     -3.1029      1.6580      2.4710     -0.0199    136.2937     24.4555
   279.7000     -3.1029      1.6590      2.4789     -0.0198    132.4330     24.0871
   279.8000     -3.1029      1.6478      2.4596     -0.0201    132.1642     24.3409
   279.9000     -3.1029      1.6322      2.4145     -0.0204    133.1783     24.6356
   280.0000     -3.1029      1.6250      2.4043     -0.0205    133.5465     24.5573
   280.1000     -3.1029      1.6272      2.4336     -0.0205    135.1777     24.3905
   280.2000     -3.1029      1.6331      2.3973     -0.0203    136.5329     24.3018
   280.3000     -3.1029      1.6439      2.4074     -0.0201    135.1469     24.2759
   280.4000     -3.1029      1.6604      2.4298     -0.0198    133.9608     24.3619
   280.5000     -3.1029      1.6740      2.4705     -0.0195    135.8175     24.4910
   280.6000     -3.1029      1.6741      2.4607     -0.0195    137.6864     24.3270
   280.7000     -3.1029      1.6619      2.4674     -0.0198    137.4242     23.9220
   280.8000     -3.1029      1.6488      2.4419     -0.0200    139.0807     23.8648
   280.9000     -3.1029      1.6441      2.4488     -0.0201    142.1272     24.1537
   281.0000     -3.1029      1.6455      2.4694     -0.0201    140.9337     24.2384
   281.1000     -3.1029      1.6477      2.4608     -0.0201    136.4373     24.0251
   281.2000     -3.1029      1.6520      2.4421     -0.0200    135.3799     23.7668
   281.3000     -3.1029      1.6588      2.4784     -0.0198    140.3811     23.6237
   281.4000     -3.1029      1.6642      2.4558     -0.0197    143.7708     23.6253
   281.5000     -3.1029      1.6636      2.4924     -0.0197    139.1761     23.6702
   281.6000     -3.1029      1.6559      2.4435     -0.0199    130.1219     23.7832
   281.7000     -3.1029      1.6455      2.4753     -0.0201    122.8425     23.8323
   281.8000     -3.1029      1.6377      2.4312     -0.0203    121.7647     23.7538
   281.9000     -3.1029      1.6364      2.4372     -0.0203    127.0606     23.9349
   282.0000     -3.1029      1.6435      2.4271     -0.0201    134.8746     24.3330
   282.1000     -3.1029      1.6547      2.4581     -0.0199    141.0480     24.4829
   282.2000     -3.1029      1.6636      2.4640     -0.0197    143.1035     24.3377
   282.3000     -3.1029      1.6688      2.4712     -0.0196    141.8933     24.3510
   282.4000     -3.1029      1.6727      2.4640     -0.0196    142.6344     24.6398
   282.5000     -3.1029      1.6729      2.4950     -0.0196    146.6607     24.8194
   282.6000     -3.1029      1.6670      2.4484     -0.0197    148.5004     24.8496
   282.7000     -3.1029      1.6620      2.4552     -0.0198    145.3159     24.8566
   282.8000     -3.1029      1.6603      2.4667     -0.0198    138.2178     24.8524
   282.9000     -3.1029      1.6529      2.4965     -0.0200    130.7063     24.8938
   283.0000     -3.1029      1.6373      2.4387     -0.0203    127.8327     24.6970
   283.1000     -3.1029      1.6218      2.4700     -0.0206    131.4766     24.0490
   283.2000     -3.1029      1.6110      2.4067     -0.0208    138.5965     23.3020
   283.3000     -3.1029      1.6052      2.4400     -0.0209    145.6222     23.2800
   283.4000     -3.1029      1.6044      2.4141     -0.0209    149.7105     24.0716
   283.5000     -3.1029      1.6110      2.3906     -0.0208    149.0613     24.6769
   283.6000     -3.1029      1.6229      2.4460     -0.0206    145.1584     24.3622
   283.7000     -3.1029      1.6303      2.4119     -0.0204    140.4729     23.6214
   283.8000     -3.1029      1.6333      2.4271     -0.0203    135.6667     23.4068
   283.9000     -3.1029      1.6419      2.3993     -0.0202    130.6915     23.5773
   284.0000     -3.1029      1.6577      2.4804     -0.0199    126.3058     23.5691
   284.1000     -3.1029      1.6705      2.4464     -0.0196    124.0355     23.3725
   284.2000     -3.1029      1.6767      2.4465     -0.0195    125.5421     23.2340
   284.3000     -3.1029      1.6783      2.4660     -0.0194    130.1804     23.2867
   284.4000     -3.1029      1.6776      2.4416     -0.0195    134.6866     23.4949
   284.5000     -3.1029      1.6778      2.4621     -0.0195    137.5932     23.8102
   284.6000     -3.1029      1.6765      2.4708     -0.0195    138.5656     23.9872
   284.7000     -3.1029      1.6678      2.4973     -0.0197    136.7206     23.9795
   284.8000     -3.1029      1.6526      2.4418     -0.0200    134.9487     24.1639
   284.9000     -3.1029      1.6367      2.4784     -0.0203    136.4639     24.6277
   285.0000     -3.1029      1.6221      2.4281     -0.0206    138.1862     25.0822
   285.1000     -3.1029      1.6122      2.4385     -0.0208    137.8231     25.3877
   285.2000     -3.1029      1.6113      2.4206     -0.0208    139.8830     25.4736
   285.3000     -3.1029      1.6168      2.4432     -0.0207    146.2326     25.2661
   285.4000     -3.1029      1.6212      2.4289     -0.0206    150.6239     25.1156
   285.5000     -3.1029      1.6206      2.4504     -0.0206    147.6338     25.2513
   285.6000     -3.1029      1.6175      2.4331     -0.0207    140.5494     25.3664
   285.7000     -3.1029      1.6184      2.4114     -0.0206    138.5255     25.3010
   285.8000     -3.1029      1.6263      2.4246     -0.0205    142.2787     25.0746
   285.9000     -3.1029      1.6390      2.4149     -0.0202    145.5346     24.5303
   286.0000     -3.1029      1.6501      2.4628     -0.0200    147.4331     24.0276
   286.1000     -3.1029      1.6530      2.4438     -0.0200    147.2815     24.1968
   286.2000     -3.1029      1.6508      2.4487     -0.0200    143.5112     24.9856
   286.3000     -3.1029      1.6528      2.4541     -0.0200    138.8404     25.9277
   286.4000     -3.1029      1.6629      2.4553     -0.0198    137.0576     26.6951
   286.5000     -3.1029      1.6789      2.4868     -0.0194    138.0267     27.2947
   286.6000     -3.1029      1.6984      2.4771     -0.0190    138.8244     27.9492
   286.7000     -3.1029      1.7225      2.4934     -0.0186    138.5302     28.8371
   286.8000     -3.1029      1.7563      2.4709     -0.0179    137.3918     29.8500
   286.9000     -3.1029      1.8073      2.4825     -0.0169    133.8697     30.5448
   287.0000     -3.1029      1.8760      2.5219     -0.0155    130.4166     30.9013
   287.1000     -3.1029      1.9525      2.5631     -0.0140    132.1951     31.1623
   287.2000     -3.1029      2.0214      2.5963     -0.0126    136.7086     31.5006
   287.3000     -3.1029      2.0627      2.6307     -0.0118    137.3938     32.2767
   287.4000     -3.1029      2.0669      2.6132     -0.0117    132.4435     33.1924
   287.5000     -3.1029      2.0441      2.5855     -0.0121    127.8799     33.5105
   287.6000     -3.1029      2.0065      2.5995     -0.0129    129.8436     32.8637
   287.7000     -3.1029      1.9596      2.5746     -0.0138    133.8736     31.4007
   287.8000     -3.1029      1.9075      2.5760     -0.0149    133.1457     30.0039
   287.9000     -3.1029      1.8477      2.5697     -0.0161    129.2713     29.2491
   288.0000     -3.1029      1.7773      2.5259     -0.0175    126.6339     28.7529
   288.1000     -3.1029      1.7110      2.4502     -0.0188    126.9121     28.0472
   288.2000     -3.1029      1.6721      2.4305     -0.0196    130.3758     26.9525
   288.3000     -3.1029      1.6609      2.4753     -0.0198    133.4933     25.6459
