~Version Information
VERS.                      2.0: CWLS Log ASCII Standard - VERSION 2.0
WRAP.                       NO: One line per depth step
~Well Information Block
STRT.FT                -8.7500: 
STOP.FT              2331.5000: 
STEP.FT                 0.2500: 
NULL.                -999.2500: 
COMP.          Pioneer Natural Resources: COMPANY
WELL.          Sparrowhawk 22-12: WELL
FLD.           Purgatorie River: FIELD
LOC.           2049' FNL & 2060' FWL--: LOCATION
CNTY.               Las Animas: COUNTY
SRVC.          Patterson Wireline: SERVICE COMPANY
DATE.          Wed Apr 12 08:53:41 2006: LOG DATE
UWI.           05 071 08484 00: UNIQUE WELL ID
STAT.                       CO: STATE
~Curve Information Block
DEPT.FT            0 000 00 00: Depth
CCL.                          : Casing Collar Locator
TT3.usec                      : CBL 3' Travel Time
AMP3.mV                       : CBL 3' Amplitude
GR.GAPI                       : Gamma Ray
~Parameter Information Block
MAXAMPL.mV              0.0000: Maximum Amplitude
~A  Depth       CCL         TT3         AMP3         GR     
# ...
  2135.2500      0.0000    301.4595     23.7969    103.6318
  2135.5000      0.0000    301.5232     24.0616     94.2858
  2135.7500      0.0000    301.1987     24.7944     83.5376
  2136.0000      0.0000    300.2013     25.9066     74.6664
  2136.2500      0.0000    297.9377     27.3116     69.7670
  2136.5000      0.0000    293.8235     28.9090     68.3455
  2136.7500      0.0000    287.8913     30.5797     68.2675
  2137.0000      0.0000    281.1472     32.1984     67.6953
  2137.2500      0.0000    275.1061     33.6510     66.0733
  2137.5000      0.0000    270.8286     34.8508     63.6779
  2137.7500      0.0000    268.4168     35.7508     60.8166
  2138.0000      0.0000    267.3220     36.3418     57.7708
  2138.2500      0.0000    266.9241     36.6359     55.1911
  2138.5000      0.0000    266.8316     36.6515     53.9845
  2138.7500      0.0000    266.8738     36.4197     54.6006
  2139.0000      0.0000    266.9943     35.9995     56.5599
  2139.2500      0.0000    267.1733     35.4779     58.8787
  2139.5000      0.0000    267.3897     34.9501     61.0787
  2139.7500      0.0000    267.6132     34.4934     63.5355
  2140.0000      0.0000    267.8144     34.1484     66.6050
  2140.2500      0.0000    267.9807     33.9119     69.8471
  2140.5000      0.0000    268.1192     33.7523     72.5550
  2140.7500      0.0000    268.2427     33.6374     74.5222
  2141.0000      0.0000    268.3536     33.5559     75.6317
  2141.2500      0.0000    268.4394     33.5188     75.1276
  2141.5000      0.0000    268.4816     33.5446     72.2058
  2141.7500      0.0000    268.4714     33.6369     67.4498
  2142.0000      0.0000    268.4215     33.7697     63.0869
  2142.2500      0.0000    268.3612     33.8967     61.3371
  2142.5000      0.0000    268.3170     33.9814     62.4906
  2142.7500      0.0000    268.2970     34.0193     64.9127
  2143.0000      0.0000    268.2905     34.0325     66.9696
  2143.2500      0.0000    268.2814     34.0464     68.4564
  2143.5000      0.0000    268.2598     34.0744     70.0245
  2143.7500      0.0000    268.2201     34.1256     71.9439
  2144.0000      0.0000    268.1516     34.2228     73.8690
  2144.2500      0.0000    268.0374     34.4044     75.3424
  2144.5000      0.0000    267.8660     34.7042     76.1084
  2144.7500      0.0000    267.6459     35.1248     76.1050
  2145.0000      0.0000    267.4066     35.6333     75.2791
  2145.2500      0.0000    267.1846     36.1780     73.4304
  2145.5000      0.0000    267.0040     36.7119     70.5004
  2145.7500      0.0000    266.8686     37.2034     67.2247
  2146.0000      0.0000    266.7686     37.6347     65.0936
  2146.2500      0.0000    266.6926     38.0002     65.1467
  2146.5000      0.0000    266.6328     38.3103     67.0189
  2146.7500      0.0000    266.5840     38.5876     69.5856
  2147.0000      0.0000    266.5415     38.8507     72.0943
  2147.2500      0.0000    266.5049     39.0925     74.0722
  2147.5000      0.0000    266.4799     39.2742     74.6929
  2147.7500      0.0000    266.4763     39.3442     73.1678
  2148.0000      0.0000    266.5009     39.2713     69.7147
  2148.2500      0.0000    266.5534     39.0640     65.6784
  2148.5000      0.0000    266.6257     38.7635     62.7792
  2148.7500      0.0000    266.7072     38.4213     62.2877
  2149.0000      0.0000    266.7935     38.0779     64.4715
  2149.2500      0.0000    266.8962     37.7415     68.4057
  2149.5000      0.0000    267.0695     37.3724     72.3553
  2149.7500      0.0000    267.4575     36.8944     74.8095
  2150.0000      0.0000    268.3552     36.2251     75.6465
  2150.2500      0.0000    270.2177     35.2838     76.2834
  2150.5000      0.0000    273.4982     33.9696     78.2931
  2150.7500      0.0000    278.3816     32.1695     81.8240
  2151.0000      0.0000    284.5911     29.8802     85.5637
  2151.2500      0.0000    291.3099     27.3788     88.0693
  2151.5000      0.0000    297.2825     25.1770     88.7899
  2151.7500      0.0000    301.4268     23.6425     87.8696
  2152.0000      0.0000    303.6744     22.7020     85.2793
  2152.2500      0.0000    304.9026     22.0594     80.4533
  2152.5000      0.0000    305.8994     21.5970     73.1047
  2152.7500      0.0000    306.7786     21.3779     64.4438
  2153.0000      0.0000    307.4005     21.3853     57.1207
  2153.2500     -2.0000    307.8508     21.4797     53.4613
  2153.5000      2.0000    308.3641     21.5901     53.8367
  2153.7500      0.0000    308.9141     21.8955     56.7942
  2154.0000      0.0000    308.8322     22.8294     60.4307
  2154.2500      0.0000    306.8937     24.7818     63.4879
  2154.5000      0.0000    302.2392     27.6206     65.5735
  2154.7500      0.0000    295.4058     30.5871     67.0013
  2155.0000      0.0000    288.0265     32.8806     68.7727
  2155.2500      0.0000    281.4415     34.3081     72.3739
  2155.5000      0.0000    276.0528     35.2336     78.7582
  2155.7500      0.0000    271.8798     36.0258     87.2338
  2156.0000      0.0000    269.0097     36.7300     95.8703
  2156.2500      0.0000    267.4181     37.1619    103.1796
  2156.5000      0.0000    266.8239     37.1274    108.8380
  2156.7500      0.0000    266.8919     36.5682    112.7406
  2157.0000      0.0000    267.4890     35.6009    114.1919
  2157.2500      0.0000    268.8074     34.4458    112.3695
  2157.5000      0.0000    271.3507     33.2782    107.1585
  2157.7500      0.0000    275.6366     32.1326     99.3743
  2158.0000      0.0000    281.6128     30.9444     90.6084
  2158.2500      0.0000    288.3027     29.6670     82.9879
  2158.5000      0.0000    294.2456     28.3349     78.4793
  2158.7500      0.0000    298.4366     27.0320     77.8629
  2159.0000      0.0000    300.8202     25.8289     80.3768
  2159.2500      0.0000    301.9812     24.7551     84.3806
  2159.5000      0.0000    302.5546     23.8140     88.1438
  2159.7500      0.0000    302.8946     23.0165     90.1477
  2160.0000      0.0000    303.0755     22.3990     89.3485
  2160.2500      0.0000    303.0686     21.9959     85.7290
  2160.5000      0.0000    302.9207     21.7850     80.4807
  2160.7500      0.0000    302.7822     21.6784     75.2221
  2161.0000      0.0000    302.7729     21.5994     70.9314
  2161.2500      0.0000    302.8651     21.5705     67.7374
  2161.5000      0.0000    302.9191     21.7067     65.6108
  2161.7500      0.0000    302.8112     22.1158     64.8753
  2162.0000      0.0000    302.5072     22.8173     65.9992
  2162.2500      0.0000    302.0486     23.7426     69.0956
  2162.5000      0.0000    301.5175     24.7775     73.5722
  2162.7500      0.0000    301.0151     25.7962     78.2709
  2163.0000      0.0000    300.6379     26.6807     82.2474
  2163.2500      0.0000    300.4432     27.3376     85.3604
  2163.5000      0.0000    300.4236     27.7153     87.7474
  2163.7500      0.0000    300.5154     27.8126     89.0237
  2164.0000      0.0000    300.6419     27.6691     88.7242
  2164.2500      0.0000    300.7643     27.3377     87.4560
  2164.5000      0.0000    300.9048     26.8588     86.8028
  2164.7500      0.0000    301.1541     26.2522     87.8804
  2165.0000      0.0000    301.7154     25.5165     90.4115
  2165.2500      0.0000    303.0096     24.6328     93.1495
  2165.5000      0.0000    305.6792     23.5802     94.6434
  2165.7500      0.0000    310.1925     22.3711     93.6741
  2166.0000      0.0000    316.0695     21.0859     89.7517
  2166.2500      0.0000    321.4830     19.8664     83.6519
  2166.5000      0.0000    324.1011     18.8551     77.1942
  2166.7500      0.0000    322.7809     18.1289     72.0457
  2167.0000      0.0000    318.4796     17.6854     68.6473
  2167.2500      0.0000    313.4104     17.4807     66.4083
  2167.5000      0.0000    309.4211     17.4692     64.7960
  2167.7500      0.0000    307.2114     17.6092     63.9796
  2168.0000      0.0000    306.7184     17.8579     64.6476
  2168.2500      0.0000    307.6888     18.1883     67.6231
  2168.5000      0.0000    309.6518     18.6181     73.4989
