~Version Information
VERS.                      2.0: CWLS Log ASCII Standard - VERSION 2.0
WRAP.                       NO: One line per depth step
~Well Information Block
STRT.FT               459.3000: 
STOP.FT              1604.7000: 
STEP.FT                 0.1000: 
NULL.                -999.2500: 
COMP.          Pioneer Natural Resources: COMPANY
WELL.          Grand Prix 13-12 Tr: WELL
FLD.           Purgatoire River: FIELD
LOC.           2595' FSL & 1277' FWL--: LOCATION
CNTY.               Las Animas: COUNTY
SRVC.                Patterson: SERVICE COMPANY
DATE.          Tue Apr 04 07:18:28 2006: LOG DATE
UWI.           05 071 08711 00: UNIQUE WELL ID
STAT.                 Colorado: STATE
~Curve Information Block
DEPT.FT            0 000 00 00: Depth
DCAL.in                       : CDL Caliper
RHOB.g/cc                     : CDL Bulk Density
RHOC.g/cc                     : CDL Density Correction
DPOR.pu                       : CDL Density Porosity
GR.GAPI                       : Gamma Ray
~Parameter Information Block
~A  Depth       DCAL        RHOB        RHOC        DPOR         GR     
# ...
  1288.1000      7.7964      2.6143      0.1070      2.1622    127.2456
  1288.2000      7.7964      2.6048      0.0715      2.7423    116.5191
  1288.3000      7.7900      2.5959      0.0347      3.2771    107.4115
  1288.4000      7.7900      2.6015      0.0748      2.9399    109.3174
  1288.5000      7.8014      2.6204      0.0667      1.7921    117.1331
  1288.6000      7.8014      2.6444      0.0610      0.3393    121.8054
  1288.7000      7.8014      2.6576      0.1116     -0.4628    122.5881
  1288.8000      7.8113      2.6456      0.0881      0.2651    123.6303
  1288.9000      7.8113      2.6229      0.0236      1.6411    124.5830
  1289.0000      7.8107      2.6174      0.0499      1.9742    122.7343
  1289.1000      7.8107      2.6281      0.0427      1.3282    120.9596
  1289.2000      7.8107      2.6333      0.0320      1.0147    122.0843
  1289.3000      7.8108      2.6248      0.0175      1.5293    122.1638
  1289.4000      7.8108      2.6123      0.0062      2.2823    118.6646
  1289.5000      7.8218      2.6013      0.0453      2.9542    115.3389
  1289.6000      7.8218      2.5826      0.0240      4.0872    116.0740
  1289.7000      7.8218      2.5609     -0.0278      5.4020    121.4672
  1289.8000      7.8339      2.5520      0.0148      5.9388    126.9358
  1289.9000      7.8339      2.5538      0.0003      5.8304    125.3489
  1290.0000      7.8362      2.5578      0.0217      5.5892    118.6931
  1290.1000      7.8362      2.5627     -0.0093      5.2914    115.2534
  1290.2000      7.8362      2.5638      0.0788      5.2258    115.4485
  1290.3000      7.8355      2.5615     -0.0014      5.3663    113.7046
  1290.4000      7.8355      2.5728      0.0397      4.6818    111.4785
  1290.5000      7.8277      2.6003      0.0473      3.0104    114.2658
  1290.6000      7.8277      2.6242      0.0949      1.5620    121.5097
  1290.7000      7.8277      2.6239      0.1037      1.5841    125.4300
  1290.8000      7.8082      2.5982      0.0905      3.1382    120.3694
  1290.9000      7.8082      2.5738      0.0153      4.6191    109.9023
  1291.0000      7.7915      2.5738      0.0853      4.6169     99.8421
  1291.1000      7.7915      2.5887      0.0828      3.7179     93.9879
  1291.2000      7.7915      2.6045      0.0635      2.7585     93.3539
  1291.3000      7.7883      2.6169      0.0774      2.0086     94.5968
  1291.4000      7.7883      2.6174      0.0776      1.9761     95.2030
  1291.5000      7.7898      2.6057      0.0755      2.6877     94.2149
  1291.6000      7.7898      2.5912      0.0642      3.5617     92.0047
  1291.7000      7.7898      2.5840      0.0816      4.0006     91.4213
  1291.8000      7.7849      2.5923      0.0672      3.4979     91.8991
  1291.9000      7.7849      2.6134      0.0779      2.2167     92.2340
  1292.0000      7.7810      2.6362      0.1081      0.8365     94.6458
  1292.1000      7.7810      2.6518      0.1160     -0.1068     98.9443
  1292.2000      7.7810      2.6460      0.1131      0.2431    102.5734
  1292.3000      7.7877      2.6142      0.0610      2.1716    105.0418
  1292.4000      7.7877      2.5778      0.0342      4.3782    106.6844
  1292.5000      7.7977      2.5613      0.0366      5.3781    106.8484
  1292.6000      7.7977      2.5706      0.0577      4.8139    106.0512
  1292.7000      7.7977      2.5963      0.0696      3.2539    104.6509
  1292.8000      7.7979      2.6198      0.1090      1.8277    104.0083
  1292.9000      7.7979      2.6277      0.0800      1.3509    105.2149
  1293.0000      7.7982      2.6271      0.0531      1.3887    107.1046
  1293.1000      7.7982      2.6298      0.0640      1.2268    108.2417
  1293.2000      7.7982      2.6362      0.0779      0.8371    106.2866
  1293.3000      7.8005      2.6396      0.0774      0.6294    102.4911
  1293.4000      7.8005      2.6315      0.0149      1.1195    101.5197
  1293.5000      7.8018      2.6148      0.0275      2.1346    101.0506
  1293.6000      7.8018      2.6010      0.0396      2.9678     96.7138
  1293.7000      7.8018      2.5958      0.0265      3.2819     92.2223
  1293.8000      7.8025      2.5985      0.0664      3.1231     92.8073
  1293.9000      7.8025      2.6058      0.0365      2.6801     98.3978
  1294.0000      7.8012      2.6124      0.0466      2.2791    106.2756
  1294.1000      7.8012      2.6150      0.0339      2.1214    112.2704
  1294.2000      7.8012      2.6164      0.0841      2.0392    112.9068
  1294.3000      7.7982      2.6201      0.0819      1.8115    110.4012
  1294.4000      7.7982      2.6271      0.0698      1.3876    109.2600
  1294.5000      7.7933      2.6330      0.1164      1.0273    108.0646
  1294.6000      7.7933      2.6375      0.0659      0.7563    103.1848
  1294.7000      7.7933      2.6542      0.0748     -0.2519     98.6902
  1294.8000      7.7865      2.6799      0.1607     -1.8137     99.0692
  1294.9000      7.7865      2.6847      0.1424     -2.1003    103.2928
  1295.0000      7.7860      2.6604      0.0639     -0.6275    109.5294
  1295.1000      7.7860      2.6340      0.0471      0.9711    113.8528
  1295.2000      7.7860      2.6260      0.0373      1.4568    112.1077
  1295.3000      7.7949      2.6357      0.0615      0.8644    107.8832
  1295.4000      7.7949      2.6527      0.0867     -0.1665    106.0548
  1295.5000      7.8055      2.6554      0.1119     -0.3272    105.3855
  1295.6000      7.8055      2.6281      0.0480      1.3267    105.6323
  1295.7000      7.8055      2.5832      0.0368      4.0476    107.1701
  1295.8000      7.8087      2.5465     -0.0077      6.2750    105.0477
  1295.9000      7.8087      2.5321      0.0113      7.1429     97.5921
  1296.0000      7.8033      2.5381      0.0117      6.7823     91.2200
  1296.1000      7.8033      2.5553      0.0549      5.7407     90.7242
  1296.2000      7.8033      2.5714      0.0273      4.7648     94.3497
  1296.3000      7.7982      2.5744      0.0727      4.5808     98.1173
  1296.4000      7.7982      2.5566      0.0531      5.6616     99.4268
  1296.5000      7.7941      2.5295      0.0352      7.3000     97.1227
  1296.6000      7.7941      2.5224     -0.0078      7.7319     91.4435
  1296.7000      7.7941      2.5429      0.0515      6.4906     85.1143
  1296.8000      7.7833      2.5636      0.1182      5.2370     82.2612
  1296.9000      7.7833      2.5629      0.0713      5.2800     83.3439
  1297.0000      7.7710      2.5519      0.0535      5.9461     85.1540
  1297.1000      7.7710      2.5510     -0.0002      5.9998     86.0184
  1297.2000      7.7710      2.5664      0.0708      5.0640     87.1794
  1297.3000      7.7713      2.5912      0.1019      3.5664     89.6030
  1297.4000      7.7713      2.6133      0.0992      2.2224     92.7097
  1297.5000      7.7860      2.6140      0.1276      2.1825     93.7429
  1297.6000      7.7860      2.5846      0.0816      3.9663     91.3770
  1297.7000      7.7860      2.5510      0.0346      6.0015     88.6429
  1297.8000      7.8043      2.5449      0.0208      6.3712     88.1286
  1297.9000      7.8043      2.5619      0.0957      5.3394     86.6047
  1298.0000      7.8114      2.5724      0.0949      4.7016     82.3809
  1298.1000      7.8114      2.5651      0.0925      5.1470     79.3740
  1298.2000      7.8114      2.5582      0.0349      5.5648     80.6578
  1298.3000      7.8104      2.5695      0.0764      4.8788     86.0035
  1298.4000      7.8104      2.5945      0.0919      3.3613     91.7360
  1298.5000      7.8055      2.6145      0.1340      2.1495     93.5355
  1298.6000      7.8055      2.6063      0.1216      2.6507     90.6641
  1298.7000      7.8055      2.5767      0.0371      4.4420     88.4149
  1298.8000      7.8027      2.5698     -0.0115      4.8606     93.3804
  1298.9000      7.8027      2.5921      0.1139      3.5102    102.8985
  1299.0000      7.8070      2.5995      0.0814      3.0636    107.9960
  1299.1000      7.8070      2.5794      0.0346      4.2785    105.9216
  1299.2000      7.8070      2.5575      0.0316      5.6049    100.1217
