~Version Information
VERS.                      2.0: CWLS Log ASCII Standard - VERSION 2.0
WRAP.                       NO: One line per depth step
~Well Information Block
STRT.FT               459.3000: 
STOP.FT              1604.7000: 
STEP.FT                 0.1000: 
NULL.                -999.2500: 
COMP.          Pioneer Natural Resources: COMPANY
WELL.          Grand Prix 13-12 Tr: WELL
FLD.           Purgatoire River: FIELD
LOC.           2595' FSL & 1277' FWL--: LOCATION
CNTY.               Las Animas: COUNTY
SRVC.                Patterson: SERVICE COMPANY
DATE.          Tue Apr 04 07:18:28 2006: LOG DATE
UWI.           05 071 08711 00: UNIQUE WELL ID
STAT.                 Colorado: STATE
~Curve Information Block
DEPT.FT            0 000 00 00: Depth
DCAL.in                       : CDL Caliper
RHOB.g/cc                     : CDL Bulk Density
RHOC.g/cc                     : CDL Density Correction
DPOR.pu                       : CDL Density Porosity
GR.GAPI                       : Gamma Ray
~Parameter Information Block
~A  Depth       DCAL        RHOB        RHOC        DPOR         GR     
# ...
  1500.9000      7.7921      2.5833      0.0825      4.0402     66.6343
  1501.0000      7.7873      2.5801      0.0668      4.2367     70.0578
  1501.1000      7.7873      2.5639      0.0283      5.2155     75.2873
  1501.2000      7.7873      2.5539      0.0514      5.8251     80.4603
  1501.3000      7.7841      2.5490      0.0672      6.1185     78.6216
  1501.4000      7.7841      2.5439      0.0426      6.4312     71.5605
  1501.5000      7.7832      2.5420      0.0256      6.5439     69.3810
  1501.6000      7.7832      2.5399      0.0496      6.6733     72.1937
  1501.7000      7.7832      2.5321      0.0309      7.1480     73.0470
  1501.8000      7.7835      2.5278      0.0146      7.4085     70.7064
  1501.9000      7.7835      2.5327      0.0406      7.1083     67.3125
  1502.0000      7.7851      2.5440      0.0332      6.4240     64.0014
  1502.1000      7.7851      2.5562      0.0734      5.6842     60.7502
  1502.2000      7.7851      2.5583      0.0766      5.5602     57.0469
  1502.3000      7.7856      2.5535      0.0445      5.8462     53.8237
  1502.4000      7.7856      2.5588      0.0410      5.5273     52.1001
  1502.5000      7.7847      2.5744      0.0416      4.5797     52.0262
  1502.6000      7.7847      2.5839      0.0728      4.0088     53.6300
  1502.7000      7.7847      2.5790      0.0466      4.3040     55.6472
  1502.8000      7.7836      2.5743      0.0478      4.5894     58.3420
  1502.9000      7.7836      2.5783      0.0591      4.3446     64.6981
  1503.0000      7.7806      2.5792      0.0356      4.2882     76.9899
  1503.1000      7.7806      2.5711      0.0681      4.7834     93.1644
  1503.2000      7.7806      2.5599      0.0400      5.4593    107.0505
  1503.3000      7.7716      2.5497      0.0759      6.0779    114.4793
  1503.4000      7.7716      2.5366      0.0403      6.8710    117.9053
  1503.5000      7.7577      2.5154      0.0567      8.1569    123.7379
  1503.6000      7.7577      2.4865      0.0358      9.9072    132.8291
  1503.7000      7.7577      2.4649     -0.0168     11.2182    140.5275
  1503.8000      7.7489      2.4645      0.0469     11.2441    146.4614
  1503.9000      7.7489      2.4719      0.0836     10.7961    153.2579
  1504.0000      7.7574      2.4697      0.0464     10.9256    158.4222
  1504.1000      7.7574      2.4694      0.0308     10.9475    159.5540
  1504.2000      7.7574      2.4876      0.0496      9.8421    159.6411
  1504.3000      7.7794      2.5162      0.1073      8.1098    163.3074
  1504.4000      7.7794      2.5386      0.0711      6.7501    171.0973
  1504.5000      7.7948      2.5563      0.0844      5.6766    176.5257
  1504.6000      7.7948      2.5714      0.1228      4.7663    174.4711
  1504.7000      7.7948      2.5726      0.1376      4.6933    170.1612
  1504.8000      7.7900      2.5600      0.1418      5.4548    169.6813
  1504.9000      7.7900      2.5503      0.1141      6.0394    171.5272
  1505.0000      7.7738      2.5558      0.1305      5.7080    168.5530
  1505.1000      7.7738      2.5748      0.1423      4.5576    156.9442
  1505.2000      7.7738      2.5924      0.1410      3.4885    144.0757
  1505.3000      7.7722      2.5917      0.1014      3.5363    133.4473
  1505.4000      7.7722      2.5760      0.0741      4.4838    123.3988
  1505.5000      7.7848      2.5677      0.0095      4.9876    116.0144
  1505.6000      7.7848      2.5774      0.0636      4.3978    111.2830
  1505.7000      7.7848      2.5897      0.0761      3.6532    107.1148
  1505.8000      7.7870      2.5909      0.0571      3.5804    103.7468
  1505.9000      7.7870      2.5909      0.0191      3.5837    101.4554
  1506.0000      7.7742      2.6030      0.0343      2.8509     99.7453
  1506.1000      7.7742      2.6174      0.0665      1.9770     95.8186
  1506.2000      7.7742      2.6173      0.0606      1.9846     87.9934
  1506.3000      7.7610      2.6069      0.0319      2.6138     83.2369
  1506.4000      7.7610      2.6006      0.0808      2.9934     88.1709
  1506.5000      7.7437      2.6041      0.0745      2.7807     95.1463
  1506.6000      7.7437      2.6247      0.1064      1.5306     92.7694
  1506.7000      7.7437      2.6645      0.1192     -0.8758     84.9699
  1506.8000      7.7177      2.6997      0.2063     -3.0093     84.3673
  1506.9000      7.7177      2.7060      0.1604     -3.3916     92.3443
  1507.0000      7.7103      2.6887      0.1424     -2.3471    100.5586
  1507.1000      7.7103      2.6597      0.1365     -0.5896    104.3827
  1507.2000      7.7103      2.6258      0.0461      1.4667    101.6421
  1507.3000      7.7399      2.6023      0.0190      2.8891     94.4400
  1507.4000      7.7399      2.5970      0.0180      3.2103     88.8010
  1507.5000      7.7781      2.5996      0.0488      3.0551     87.8861
  1507.6000      7.7781      2.6040      0.0417      2.7900     89.9224
  1507.7000      7.7781      2.6122      0.0665      2.2931     92.6330
  1507.8000      7.7989      2.6146      0.0645      2.1483     96.7018
  1507.9000      7.7989      2.5980      0.0656      3.1528    104.3496
  1508.0000      7.8008      2.5701      0.0275      4.8441    111.6620
  1508.1000      7.8008      2.5573      0.0252      5.6192    112.1242
  1508.2000      7.8008      2.5731      0.0319      4.6635    109.8455
  1508.3000      7.7930      2.6053      0.0472      2.7105    113.9463
  1508.4000      7.7930      2.6332      0.0541      1.0208    121.8023
  1508.5000      7.7860      2.6396      0.0799      0.6297    123.7956
  1508.6000      7.7860      2.6191      0.0734      1.8706    118.6013
  1508.7000      7.7860      2.5893      0.0476      3.6807    113.3736
  1508.8000      7.7848      2.5778      0.0337      4.3770    112.9974
  1508.9000      7.7848      2.5903      0.0634      3.6199    113.6061
  1509.0000      7.7896      2.6076      0.0913      2.5697    113.1017
  1509.1000      7.7896      2.6111      0.0852      2.3577    115.6889
  1509.2000      7.7896      2.6007      0.0334      2.9877    120.2007
  1509.3000      7.8039      2.5829      0.0674      4.0668    121.4596
  1509.4000      7.8039      2.5582      0.0464      5.5644    120.0871
  1509.5000      7.8207      2.5414     -0.0136      6.5832    121.2016
  1509.6000      7.8207      2.5461      0.0452      6.2941    125.5643
  1509.7000      7.8207      2.5551      0.0612      5.7496    130.1183
  1509.8000      7.8293      2.5518      0.0524      5.9505    135.6275
  1509.9000      7.8293      2.5415      0.0464      6.5786    140.2089
  1510.0000      7.8353      2.5333      0.0465      7.0753    137.8750
  1510.1000      7.8353      2.5326      0.0466      7.1126    131.4771
  1510.2000      7.8353      2.5372      0.0475      6.8355    129.6475
  1510.3000      7.8391      2.5411      0.0514      6.5987    133.6242
  1510.4000      7.8391      2.5445      0.0544      6.3933    136.9439
  1510.5000      7.8329      2.5467      0.0668      6.2598    132.0029
  1510.6000      7.8329      2.5475      0.0218      6.2096    119.5147
  1510.7000      7.8329      2.5534      0.0370      5.8567    116.2744
  1510.8000      7.8221      2.5626      0.0634      5.2983    129.0196
  1510.9000      7.8221      2.5659      0.0542      5.0981    140.3543
  1511.0000      7.8115      2.5604      0.0801      5.4322    141.0011
  1511.1000      7.8115      2.5499      0.0218      6.0696    136.5351
  1511.2000      7.8115      2.5468      0.0427      6.2518    132.1396
  1511.3000      7.8012      2.5609      0.0490      5.3985    130.6008
  1511.4000      7.8012      2.5848      0.0634      3.9502    128.3232
  1511.5000      7.7938      2.6089      0.0400      2.4894    122.5390
  1511.6000      7.7938      2.6246      0.1046      1.5417    115.9529
  1511.7000      7.7938      2.6145      0.0723      2.1509    111.1696
  1511.8000      7.7923      2.5812      0.0359      4.1725    111.3585
  1511.9000      7.7923      2.5556      0.0083      5.7183    116.2652
  1512.0000      7.7943      2.5574      0.0561      5.6134    120.0190
