~Version Information
VERS.                      2.0: CWLS Log ASCII Standard - VERSION 2.0
WRAP.                       NO: One line per depth step
~Well Information Block
STRT.FT                -6.2500: 
STOP.FT              2245.0000: 
STEP.FT                 0.0500: 
NULL.                -999.2500: 
COMP.          Pioneer Natural Resources: COMPANY
WELL.          Roadster 41-33 Kv: WELL
FLD.           Purgatoire River: FIELD
LOC.           903' FNL & 248' FEL--: LOCATION
PROV.                 Colorado: PROVINCE
CNTY.               Las Animas: COUNTRY
SRVC.                Patterson: SERVICE COMPANY
DATE.          Tue Jan 17 11:20:00 2006: LOG DATE
UWI.           05 071 08615 00: UNIQUE WELL ID
~Curve Information Block
DEPT.FT            0 000 00 00: Depth
CCL.                          : Casing Collar Locator
TT3.usec                      : CBL 3' Travel Time
AMP3.mV                       : CBL 3' Amplitude
GR.GAPI                       : Gamma Ray
~Parameter Information Block
~A  Depth       CCL         TT3         AMP3         GR     
# ...
   891.5500      0.0000    748.2021      4.6747    158.6416
   891.6000      0.0000    748.2021      4.6747    158.6416
   891.6500      0.0000    748.2021      4.6747    158.6416
   891.7000      0.0000    748.2021      4.6747    158.6416
   891.7500      0.0000    756.2084      4.6975    154.6773
   891.8000      0.0000    756.2084      4.6975    154.6773
   891.8500      0.0000    756.2084      4.6975    154.6773
   891.9000      0.0000    756.2084      4.6975    154.6773
   891.9500      0.0000    756.2084      4.6975    154.6773
   892.0000      0.0000    760.5567      4.7330    145.5779
   892.0500      0.0000    760.5567      4.7330    145.5779
   892.1000      0.0000    760.5567      4.7330    145.5779
   892.1500      0.0000    760.5567      4.7330    145.5779
   892.2000      0.0000    760.5567      4.7330    145.5779
   892.2500      0.0000    760.0503      4.7570    134.8079
   892.3000      0.0000    760.0503      4.7570    134.8079
   892.3500      0.0000    760.0503      4.7570    134.8079
   892.4000      0.0000    760.0503      4.7570    134.8079
   892.4500      0.0000    760.0503      4.7570    134.8079
   892.5000      0.0000    756.9325      4.7645    126.6110
   892.5500      0.0000    756.9325      4.7645    126.6110
   892.6000      0.0000    756.9325      4.7645    126.6110
   892.6500      0.0000    756.9325      4.7645    126.6110
   892.7000      0.0000    756.9325      4.7645    126.6110
   892.7500      0.0000    754.0042      4.7660    124.5675
   892.8000      0.0000    754.0042      4.7660    124.5675
   892.8500      0.0000    754.0042      4.7660    124.5675
   892.9000      0.0000    754.0042      4.7660    124.5675
   892.9500      0.0000    754.0042      4.7660    124.5675
   893.0000      0.0000    752.2233      4.7681    129.6358
   893.0500      0.0000    752.2233      4.7681    129.6358
   893.1000      0.0000    752.2233      4.7681    129.6358
   893.1500      0.0000    752.2233      4.7681    129.6358
   893.2000      0.0000    752.2233      4.7681    129.6358
   893.2500      0.0000    750.9028      4.7632    139.1438
   893.3000      0.0000    750.9028      4.7632    139.1438
   893.3500      0.0000    750.9028      4.7632    139.1438
   893.4000      0.0000    750.9028      4.7632    139.1438
   893.4500      0.0000    750.9028      4.7632    139.1438
   893.5000      0.0000    749.1014      4.7376    148.5923
   893.5500      0.0000    749.1014      4.7376    148.5923
   893.6000      0.0000    749.1014      4.7376    148.5923
   893.6500      0.0000    749.1014      4.7376    148.5923
   893.7000      0.0000    749.1014      4.7376    148.5923
   893.7500      0.0000    746.5546      4.6882    155.0087
   893.8000      0.0000    746.5546      4.6882    155.0087
   893.8500      0.0000    746.5546      4.6882    155.0087
   893.9000      0.0000    746.5546      4.6882    155.0087
   893.9500      0.0000    746.5546      4.6882    155.0087
   894.0000      0.0000    743.8480      4.6299    157.9601
   894.0500      0.0000    743.8480      4.6299    157.9601
   894.1000      0.0000    743.8480      4.6299    157.9601
   894.1500      0.0000    743.8480      4.6299    157.9601
   894.2000      0.0000    743.8480      4.6299    157.9601
   894.2500      0.0000    741.8130      4.5885    157.7109
   894.3000      0.0000    741.8130      4.5885    157.7109
   894.3500      0.0000    741.8130      4.5885    157.7109
   894.4000      0.0000    741.8130      4.5885    157.7109
   894.4500      0.0000    741.8130      4.5885    157.7109
   894.5000      0.0000    740.4988      4.5837    154.3000
   894.5500      0.0000    740.4988      4.5837    154.3000
   894.6000      0.0000    740.4988      4.5837    154.3000
   894.6500      0.0000    740.4988      4.5837    154.3000
   894.7000      0.0000    740.4988      4.5837    154.3000
   894.7500      0.0000    738.9966      4.6152    148.8439
   894.8000      0.0000    738.9966      4.6152    148.8439
   894.8500      0.0000    738.9966      4.6152    148.8439
   894.9000      0.0000    738.9966      4.6152    148.8439
   894.9500      0.0000    738.9966      4.6152    148.8439
   895.0000      0.0000    736.7389      4.6614    143.8799
   895.0500      0.0000    736.7389      4.6614    143.8799
   895.1000      0.0000    736.7389      4.6614    143.8799
   895.1500      0.0000    736.7389      4.6614    143.8799
   895.2000      0.0000    736.7389      4.6614    143.8799
   895.2500      0.0000    734.5607      4.6946    141.5026
   895.3000      0.0000    734.5607      4.6946    141.5026
   895.3500      0.0000    734.5607      4.6946    141.5026
   895.4000      0.0000    734.5607      4.6946    141.5026
   895.4500      0.0000    734.5607      4.6946    141.5026
   895.5000      0.0000    733.8557      4.7011    141.9787
   895.5500      0.0000    733.8557      4.7011    141.9787
   895.6000      0.0000    733.8557      4.7011    141.9787
   895.6500      0.0000    733.8557      4.7011    141.9787
   895.7000      0.0000    733.8557      4.7011    141.9787
   895.7500      0.0000    734.9841      4.6898    144.2849
   895.8000      0.0000    734.9841      4.6898    144.2849
   895.8500      0.0000    734.9841      4.6898    144.2849
   895.9000      0.0000    734.9841      4.6898    144.2849
   895.9500      0.0000    734.9841      4.6898    144.2849
   896.0000      0.0000    737.2229      4.6832    146.9892
   896.0500      0.0000    737.2229      4.6832    146.9892
   896.1000      0.0000    737.2229      4.6832    146.9892
   896.1500      0.0000    737.2229      4.6832    146.9892
   896.2000      0.0000    737.2229      4.6832    146.9892
   896.2500      0.0000    739.9518      4.6986    148.6952
   896.3000      0.0000    739.9518      4.6986    148.6952
   896.3500      0.0000    739.9518      4.6986    148.6952
   896.4000      0.0000    739.9518      4.6986    148.6952
   896.4500      0.0000    739.9518      4.6986    148.6952
   896.5000      0.0000    743.0295      4.7353    148.7917
   896.5500      0.0000    743.0295      4.7353    148.7917
   896.6000      0.0000    743.0295      4.7353    148.7917
   896.6500      0.0000    743.0295      4.7353    148.7917
   896.7000      0.0000    743.0295      4.7353    148.7917
   896.7500      0.0000    746.1801      4.7727    148.0233
   896.8000      0.0000    746.1801      4.7727    148.0233
   896.8500      0.0000    746.1801      4.7727    148.0233
   896.9000      0.0000    746.1801      4.7727    148.0233
   896.9500      0.0000    746.1801      4.7727    148.0233
   897.0000      0.0000    748.8247      4.7842    147.7875
   897.0500      0.0000    748.8247      4.7842    147.7875
   897.1000      0.0000    748.8247      4.7842    147.7875
   897.1500      0.0000    748.8247      4.7842    147.7875
   897.2000      0.0000    748.8247      4.7842    147.7875
   897.2500      0.0000    750.5768      4.7592    148.8528
   897.3000      0.0000    750.5768      4.7592    148.8528
   897.3500      0.0000    750.5768      4.7592    148.8528
   897.4000      0.0000    750.5768      4.7592    148.8528
   897.4500      0.0000    750.5768      4.7592    148.8528
   897.5000      0.0000    751.5054      4.7120    150.9284
   897.5500      0.0000    751.5054      4.7120    150.9284
   897.6000      0.0000    751.5054      4.7120    150.9284
   897.6500      0.0000    751.5054      4.7120    150.9284
   897.7000      0.0000    751.5054      4.7120    150.9284
   897.7500      0.0000    751.9030      4.6673    153.0497
   897.8000      0.0000    751.9030      4.6673    153.0497
   897.8500      0.0000    751.9030      4.6673    153.0497
   897.9000      0.0000    751.9030      4.6673    153.0497
   897.9500      0.0000    751.9030      4.6673    153.0497
   898.0000      0.0000    752.0127      4.6360    153.9674
   898.0500      0.0000    752.0127      4.6360    153.9674
   898.1000      0.0000    752.0127      4.6360    153.9674
   898.1500      0.0000    752.0127      4.6360    153.9674
   898.2000      0.0000    752.0127      4.6360    153.9674
