~Version Information
VERS.                      2.0: CWLS Log ASCII Standard - VERSION 2.0
WRAP.                       NO: One line per depth step
~Well Information Block
STRT.FT                -9.2500: 
STOP.FT              1854.7500: 
STEP.FT                 0.2500: 
NULL.                -999.2500: 
COMP.          Pioneer Natural Resources: COMPANY
WELL.          State Wildlife 32-16 Tr: WELL
FLD.           Purgatoire River: FIELD
LOC.           1838' FNL & 1850' FEL--: LOCATION
STAT.                       CO: State
CNTY.               Las Animas: COUNTY
CTRY. USA : Country
SECT. 16 : Section
TOWN. 32S : Township
RANG. 66W : Range
SRVC.          Patterson Wireline: SERVICE COMPANY
DATE.          Tue Nov 22 10:17:13 2005: LOG DATE
API.           05 071 08568 00: UNIQUE WELL ID
~Curve Information Block
DEPT.FT            0 000 00 00: Depth
CCL.                          : Casing Collar Locator
TT3.usec                      : CBL 3' Travel Time
AMP3.mV                       : CBL 3' Amplitude
GR.GAPI                       : Gamma Ray
~Parameter Information Block
~A  Depth       CCL         TT3         AMP3         GR     
# ...
  1833.2500      0.0000    727.0984      7.6698    152.5598
  1833.5000      0.0000    726.9272      7.6111    148.2797
  1833.7500      0.0000    726.6855      7.5744    147.8144
  1834.0000      0.0000    726.4067      7.5925    149.9705
  1834.2500      0.0000    726.1314      7.6937    152.9955
  1834.5000      0.0000    725.8904      7.8710    155.7349
  1834.7500      0.0000    725.7161      8.0645    157.9580
  1835.0000      0.0000    725.6478      8.1910    159.8154
  1835.2500      0.0000    725.7067      8.1971    161.1371
  1835.5000      0.0000    725.8628      8.0854    161.1344
  1835.7500      0.0000    726.0411      7.8980    158.6139
  1836.0000      0.0000    726.1628      7.6834    152.9064
  1836.2500      0.0000    726.1927      7.4755    145.1868
  1836.5000      0.0000    726.1537      7.2999    138.5392
  1836.7500      0.0000    726.0949      7.1924    136.0377
  1837.0000      0.0000    726.0467      7.1958    138.5454
  1837.2500      0.0000    726.0090      7.3257    144.2635
  1837.5000      0.0000    725.9759      7.5449    150.2179
  1837.7500      0.0000    725.9612      7.7831    154.3535
  1838.0000      0.0000    725.9977      7.9826    156.5729
  1838.2500      0.0000    726.1072      8.1216    158.1171
  1838.5000      0.0000    726.2678      8.2024    160.2389
  1838.7500      0.0000    726.4131      8.2268    163.5321
  1839.0000      0.0000    726.4785      8.1875    168.0637
  1839.2500      0.0000    726.4529      8.0796    173.4776
  1839.5000      0.0000    726.3794      7.9248    178.6052
  1839.7500      0.0000    726.2999      7.7794    181.0470
  1840.0000      0.0000    726.2122      7.7058    177.3569
  1840.2500      0.0000    726.0933      7.7261    164.1276
  1840.5000      0.0000    725.9535      7.8048    139.7891
  1840.7500      0.0000    725.8492      7.8813    106.4725
  1841.0000      0.0000    725.8397      7.9193     70.4160
  1841.2500      0.0000    725.9352      7.9285     39.3521
  1841.5000      0.0000    726.0834      7.9486     18.1685
  1841.7500      0.0000    726.2013      8.0159      6.8114
  1842.0000      0.0000    726.2258      8.1350      2.0472
  1842.2500      0.0000    726.1514      8.2790      0.4881
  1842.5000      0.0000    726.0267      8.4143      0.0908
  1842.7500      0.0000    725.9108      8.5219      0.0125
  1843.0000      0.0000    725.8295      8.5919      0.0000
  1843.2500      0.0000    725.7786      8.6039   -999.2500
  1843.5000      0.0000    725.7556      8.5290   -999.2500
  1843.7500      0.0000    725.7777      8.3663   -999.2500
  1844.0000      0.0000    725.8746      8.1747   -999.2500
  1844.2500      0.0000    726.0666      8.0656   -999.2500
  1844.5000      0.0000    726.2789      8.1550   -999.2500
  1844.7500      0.0000    726.1954      8.5138   -999.2500
  1845.0000      0.0000    724.6609      9.1353   -999.2500
  1845.2500      0.0000    718.1326      9.9124   -999.2500
  1845.5000      0.0000    698.1634     10.5943   -999.2500
  1845.7500      0.0000    650.7173     10.7654   -999.2500
  1846.0000      0.0000    562.5700      9.9864   -999.2500
  1846.2500      0.0000    434.6885      8.1330   -999.2500
  1846.5000      0.0000    289.9987      5.6297   -999.2500
  1846.7500      0.0000    162.4140      3.2322   -999.2500
  1847.0000      0.0000     74.7659      1.5125   -999.2500
  1847.2500      0.0000     27.8635      0.5698   -999.2500
  1847.5000      0.0000      8.3147      0.1713   -999.2500
  1847.7500      0.0000      1.9688      0.0408   -999.2500
  1848.0000      0.0000      0.3643      0.0076   -999.2500
  1848.2500      0.0000      0.0484      0.0010   -999.2500
  1848.5000      0.0000   -999.2500   -999.2500   -999.2500
  1848.7500      0.0000   -999.2500   -999.2500   -999.2500
  1849.0000      0.0000   -999.2500   -999.2500   -999.2500
  1849.2500      0.0000   -999.2500   -999.2500   -999.2500
  1849.5000      0.0000   -999.2500   -999.2500   -999.2500
  1849.7500      0.0000   -999.2500   -999.2500   -999.2500
  1850.0000      0.0000   -999.2500   -999.2500   -999.2500
  1850.2500      0.0000   -999.2500   -999.2500   -999.2500
  1850.5000      0.0000   -999.2500   -999.2500   -999.2500
  1850.7500      0.0000   -999.2500   -999.2500   -999.2500
  1851.0000      0.0000   -999.2500   -999.2500   -999.2500
  1851.2500      0.0000   -999.2500   -999.2500   -999.2500
  1851.5000      0.0000   -999.2500   -999.2500   -999.2500
  1851.7500      0.0000   -999.2500   -999.2500   -999.2500
  1852.0000      0.0000   -999.2500   -999.2500   -999.2500
  1852.2500      0.0000   -999.2500   -999.2500   -999.2500
  1852.5000      0.0000   -999.2500   -999.2500   -999.2500
  1852.7500      0.0000   -999.2500   -999.2500   -999.2500
  1853.0000      0.0000   -999.2500   -999.2500   -999.2500
  1853.2500      0.0000   -999.2500   -999.2500   -999.2500
  1853.5000      0.0000   -999.2500   -999.2500   -999.2500
  1853.7500      0.0000   -999.2500   -999.2500   -999.2500
  1854.0000   -999.2500   -999.2500   -999.2500   -999.2500
  1854.2500   -999.2500   -999.2500   -999.2500   -999.2500
  1854.5000   -999.2500   -999.2500   -999.2500   -999.2500
  1854.7500   -999.2500   -999.2500   -999.2500   -999.2500
