~Version Information
VERS.                      2.0: CWLS Log ASCII Standard - VERSION 2.0
WRAP.                       NO: One line per depth step
~Well Information Block
STRT.FT                 2.0000: 
STOP.FT               698.7500: 
STEP.FT                 0.2500: 
NULL.                -999.2500: 
COMP.          XTO Energy Inc.: COMPANY
WELL.          Golden Eagle 20-14: WELL
FLD.           Purgatrorie River: FIELD
LOC.           587' FSL & 2478' FWL--: LOCATION
STAT.                       CO: State
CNTY.               Las Animas: COUNTY
CTRY. USA : Country
SECT. 20 : Section
TOWN. 33S : Township
RANG. 67W : Range
SRVC.          Patterson Wireline: SERVICE COMPANY
DATE.          Sat Dec 10 16:49:08 2005: LOG DATE
API.           05 071 08614 00: UNIQUE WELL ID
~Curve Information Block
DEPT.FT            0 000 00 00: Depth
MINMK.                        : Magnetic Mark Ticks
TEMP.degF                     : Downhole Temperature
DTMP.degF                     : Delta Temperature
~Parameter Information Block
~A  Depth      MINMK        TEMP        DTMP    
# ...
   461.2500      0.0000     64.2162      0.1128
   461.5000      0.0000     64.2445      0.1177
   461.7500      0.0000     64.2734      0.1190
   462.0000      0.0000     64.3024      0.1168
   462.2500      0.0000     64.3318      0.1178
   462.5000      0.0000     64.3615      0.1188
   462.7500      0.0000     64.3915      0.1235
   463.0000      0.0000     64.4215      0.1245
   463.2500      0.0000     64.4518      0.1254
   463.5000      0.0000     64.4822      0.1262
   463.7500      0.0000     64.5205      0.1272
   464.0000      0.0000     64.5513      0.1281
   464.2500      0.0000     64.5826      0.1292
   464.5000      0.0000     64.6140      0.1345
   464.7500      0.0000     64.6459      0.1320
   465.0000      0.0000     64.6778      0.1334
   465.2500      0.0000     64.7103      0.1346
   465.5000      0.0000     64.7513      0.1360
   465.7500      0.0000     64.7845      0.1373
   466.0000      0.0000     64.8182      0.1386
   466.2500      0.0000     64.8519      0.1399
   466.5000      0.0000     64.8859      0.1370
   466.7500      0.0000     64.9204      0.1382
   467.0000      0.0000     64.9550      0.1391
   467.2500      0.0000     64.9900      0.1449
   467.5000      0.0000     65.0253      0.1460
   467.7500      0.0000     65.0609      0.1470
   468.0000      0.0000     65.0965      0.1482
   468.2500      0.0000     65.1417      0.1490
   468.5000      0.0000     65.1780      0.1500
   468.7500      0.0000     65.2145      0.1508
   469.0000      0.0000     65.2513      0.1518
   469.2500      0.0000     65.2881      0.1529
   469.5000      0.0000     65.3253      0.1538
   469.7500      0.0000     65.3625      0.1548
   470.0000      0.0000     65.4001      0.1556
   470.2500      0.0000     65.4475      0.1565
   470.5000      0.0000     65.4856      0.1572
   470.7500      0.0000     65.5240      0.1582
   471.0000      0.0000     65.5624      0.1637
   471.2500      0.0000     65.6011      0.1596
   471.5000      0.0000     65.6398      0.1601
   471.7500      0.0000     65.6789      0.1606
   472.0000      0.0000     65.7276      0.1611
   472.2500      0.0000     65.7668      0.1616
   472.5000      0.0000     65.8058      0.1620
   472.7500      0.0000     65.8452      0.1673
   473.0000      0.0000     65.8847      0.1629
   473.2500      0.0000     65.9242      0.1636
   473.5000      0.0000     65.9638      0.1592
   473.7500      0.0000     66.0135      0.1650
   474.0000      0.0000     66.0535      0.1659
   474.2500      0.0000     66.0939      0.1668
   474.5000      0.0000     66.1242      0.1678
   474.7500      0.0000     66.1753      0.1639
   475.0000      0.0000     66.2164      0.1649
   475.2500      0.0000     66.2578      0.1659
   475.5000      0.0000     66.2994      0.1773
   475.7500      0.0000     66.3412      0.1732
   476.0000      0.0000     66.3832      0.1743
   476.2500      0.0000     66.4258      0.1753
   476.5000      0.0000     66.4788      0.1762
   476.7500      0.0000     66.5218      0.1773
   477.0000      0.0000     66.5650      0.1838
   477.2500      0.0000     66.6085      0.1846
   477.5000      0.0000     66.6519      0.1803
   477.7500      0.0000     66.6957      0.1809
   478.0000      0.0000     66.7509      0.1813
   478.2500      0.0000     66.7950      0.1818
   478.5000      0.0000     66.8394      0.1821
   478.7500      0.0000     66.8835      0.1823
   479.0000      0.0000     66.9277      0.1767
   479.2500      0.0000     66.9721      0.1820
   479.5000      0.0000     67.0161      0.1817
   479.7500      0.0000     67.0603      0.1814
   480.0000      0.0000     67.1044      0.1809
   480.2500      0.0000     67.1590      0.1749
   480.5000      0.0000     67.2027      0.1796
   480.7500      0.0000     67.2462      0.1787
   481.0000      0.0000     67.2895      0.1778
   481.2500      0.0000     67.3218      0.1714
   481.5000      0.0000     67.3753      0.1702
   481.7500      0.0000     67.4178      0.1692
   482.0000      0.0000     67.4599      0.1729
   482.2500      0.0000     67.5018      0.1768
   482.5000      0.0000     67.5432      0.1698
   482.7500      0.0000     67.5846      0.1680
   483.0000      0.0000     67.6353      0.1661
   483.2500      0.0000     67.6754      0.1639
   483.5000      0.0000     67.7149      0.1661
   483.7500      0.0000     67.7538      0.1632
   484.0000      0.0000     67.7921      0.1553
   484.2500      0.0000     67.8296      0.1522
   484.5000      0.0000     67.8754      0.1489
   484.7500      0.0000     67.9111      0.1453
   485.0000      0.0000     67.9459      0.1416
   485.2500      0.0000     67.9797      0.1378
   485.5000      0.0000     68.0126      0.1291
   485.7500      0.0000     68.0443      0.1249
   486.0000      0.0000     68.0753      0.1205
   486.2500      0.0000     68.1052      0.1186
   486.5000      0.0000     68.1337      0.1133
   486.7500      0.0000     68.1609      0.1077
   487.0000      0.0000     68.1868      0.1016
   487.2500      0.0000     68.2169      0.0951
   487.5000      0.0000     68.2391      0.0883
   487.7500      0.0000     68.2598      0.0812
   488.0000      0.0000     68.2785      0.0738
   488.2500      0.0000     68.2953      0.0632
   488.5000      0.0000     68.3102      0.0563
   488.7500      0.0000     68.3233      0.0484
   489.0000      0.0000     68.3343      0.0404
   489.2500      0.0000     68.3434      0.0325
   489.5000      0.0000     68.3518      0.0243
   489.7500      0.0000     68.3565      0.0163
   490.0000      0.0000     68.3594      0.0084
   490.2500      0.0000     68.3603      0.0008
   490.5000      0.0000     68.3588     -0.0073
   490.7500      0.0000     68.3558     -0.0144
   491.0000      0.0000     68.3512     -0.0211
   491.2500      0.0000     68.3449     -0.0277
   491.5000      0.0000     68.3372     -0.0336
   491.7500      0.0000     68.3278     -0.0393
   492.0000      0.0000     68.3171     -0.0469
   492.2500      0.0000     68.3050     -0.0522
   492.5000      0.0000     68.2917     -0.0571
   492.7500      0.0000     68.2771     -0.0617
   493.0000      0.0000     68.2574     -0.0660
   493.2500      0.0000     68.2406     -0.0699
   493.5000      0.0000     68.2229     -0.0736
   493.7500      0.0000     68.2043     -0.0769
   494.0000      0.0000     68.1851     -0.0779
   494.2500      0.0000     68.1651     -0.0836
   494.5000      0.0000     68.1445     -0.0861
   494.7500      0.0000     68.1233     -0.0885
   495.0000      0.0000     68.1015     -0.0938
   495.2500      0.0000     68.0734     -0.0959
   495.5000      0.0000     68.0507     -0.0980
   495.7500      0.0000     68.0273     -0.0998
   496.0000      0.0000     67.9974     -0.1016
   496.2500      0.0000     67.9732     -0.1003
   496.5000      0.0000     67.9485     -0.1019
   496.7500      0.0000     67.9237     -0.1032
   497.0000      0.0000     67.8983     -0.1014
   497.2500      0.0000     67.8727     -0.1025
   497.5000      0.0000     67.8469     -0.1034
   497.7500      0.0000     67.8209     -0.1043
   498.0000      0.0000     67.7947     -0.1049
   498.2500      0.0000     67.7683     -0.1088
   498.5000      0.0000     67.7417     -0.1092
   498.7500      0.0000     67.7151     -0.1095
   499.0000      0.0000     67.6885     -0.1095
   499.2500      0.0000     67.6551     -0.1095
   499.5000      0.0000     67.6285     -0.1093
   499.7500      0.0000     67.6019     -0.1090
   500.0000      0.0000     67.5757     -0.1085
   500.2500      0.0000     67.5493     -0.1078
   500.5000      0.0000     67.5231     -0.1071
   500.7500      0.0000     67.4971     -0.1062
   501.0000      0.0000     67.4715     -0.1054
   501.2500      0.0000     67.4396     -0.1044
   501.5000      0.0000     67.4143     -0.1032
   501.7500      0.0000     67.3896     -0.1021
   502.0000      0.0000     67.3649     -0.1036
   502.2500      0.0000     67.3405     -0.0992
   502.5000      0.0000     67.3167     -0.0978
   502.7500      0.0000     67.2929     -0.0964
