~Version Information
VERS.                      2.0: CWLS Log ASCII Standard - VERSION 2.0
WRAP.                       NO: One line per depth step
~Well Information Block
STRT.FT               625.0000: 
STOP.FT              2053.7500: 
STEP.FT                 0.2500: 
NULL.                -999.2500: 
COMP.          Pioneer Natural Resources: COMPANY
WELL.            Zink 44-10 Tr: WELL
FLD.           Purgatoire River: FIELD
LOC.           486' FSL & 554' FEL--: LOCATION
PROV.                 Colorado: PROVINCE
CNTY.               Las Animas: COUNTRY
SRVC.                Patterson: SERVICE COMPANY
DATE.          Sun Jul 24 06:18:01 2005: LOG DATE
UWI.           05 071 08446 00: UNIQUE WELL ID
~Curve Information Block
DEPT.FT            0 000 00 00: Depth
SN.Ohm-m                      : IEL Short Normal
SP.mV                         : IEL Spontaneous Potential
DIR.Ohm-m                     : IEL Induction Resistivity
GR.GAPI                       : Gamma Ray
~Parameter Information Block
~A  Depth        SN          SP         DIR          GR     
# ...
  2032.0000     10.9536     94.1466      8.9860   -999.2500
  2032.2500     11.1634     93.8850      9.2681   -999.2500
  2032.5000     11.4470     93.5906      9.5813   -999.2500
  2032.7500     11.8734     93.2613      9.9436   -999.2500
  2033.0000     12.4942     92.8978     10.3810   -999.2500
  2033.2500     13.3276     92.5040     10.9202   -999.2500
  2033.5000     14.3546     92.0855     11.5811   -999.2500
  2033.7500     15.5255     91.6493     12.3711   -999.2500
  2034.0000     16.7785     91.2023     13.2800   -999.2500
  2034.2500     18.0581     90.7507     14.2771   -999.2500
  2034.5000     19.3162     90.3000     15.3125   -999.2500
  2034.7500     20.4968     89.8543     16.3240   -999.2500
  2035.0000     21.5258     89.4171     17.2473   -999.2500
  2035.2500     22.3264     88.9930     18.0267   -999.2500
  2035.5000     22.8473     88.5886     18.6208   -999.2500
  2035.7500     23.0786     88.2149     19.0033   -999.2500
  2036.0000     23.0417     87.8866     19.1622   -999.2500
  2036.2500     22.7651     87.6212     19.0970   -999.2500
  2036.5000     22.2653     87.4349     18.8135   -999.2500
  2036.7500     21.5483     87.3370     18.3178   -999.2500
  2037.0000     20.6291     87.3256     17.6170   -999.2500
  2037.2500     19.5514     87.3854     16.7296   -999.2500
  2037.5000     18.3814     87.4896     15.6995   -999.2500
  2037.7500     17.1801     87.6060     14.5956   -999.2500
  2038.0000     15.9830     87.7037     13.4963   -999.2500
  2038.2500     14.8054     87.7605     12.4665   -999.2500
  2038.5000     13.6621     87.7651     11.5441   -999.2500
  2038.7500     12.5776     87.7179     10.7402   -999.2500
  2039.0000     11.5822     87.6264     10.0489   -999.2500
  2039.2500     10.7026     87.5012      9.4583   -999.2500
  2039.5000      9.9604     87.3526      8.9585   -999.2500
  2039.7500      9.3744     87.1882      8.5430   -999.2500
  2040.0000      8.9598     87.0133      8.2084   -999.2500
  2040.2500      8.7211     86.8319      7.9520   -999.2500
  2040.5000      8.6441     86.6479      7.7719   -999.2500
  2040.7500      8.6961     86.4658      7.6954   -999.2500
  2041.0000      8.8327     86.2913      7.6649   -999.2500
  2041.2500      9.0085     86.1300      7.7087   -999.2500
  2041.5000      9.1907     85.9871      7.8230   -999.2500
  2041.7500      9.3657     85.8660      8.0012   -999.2500
  2042.0000      9.5349     85.7673      8.2341   -999.2500
  2042.2500      9.7064     85.6887      8.5136   -999.2500
  2042.5000      9.8923     85.6249      8.8336   -999.2500
  2042.7500     10.1101     85.5684      9.1932   -999.2500
  2043.0000     10.3838     85.5115      9.6023   -999.2500
  2043.2500     10.7407     85.4476     10.0951   -999.2500
  2043.5000     11.2029     85.3733     10.7545   -999.2500
  2043.7500     11.7716     85.2887     11.7488   -999.2500
  2044.0000     12.4122     85.1972     13.3927   -999.2500
  2044.2500     13.0571     85.1034     16.1392   -999.2500
  2044.5000     13.6287     85.0115     21.4129   -999.2500
  2044.7500     14.0706     84.9227     32.0358   -999.2500
  2045.0000     14.3648     84.8310     57.0050   -999.2500
  2045.2500     14.5265     84.7281    141.2885   -999.2500
  2045.5000     14.5823     84.5973   8647.0771   -999.2500
  2045.7500     14.5507     84.4136 100000.0000   -999.2500
  2046.0000     14.4396     84.1379 100000.0000   -999.2500
  2046.2500     14.2616     83.7090 100000.0000   -999.2500
  2046.5000     14.0463     83.0315 100000.0000   -999.2500
  2046.7500     13.8383     81.9628 100000.0000   -999.2500
  2047.0000     13.6809     80.3059 100000.0000   -999.2500
  2047.2500     13.5983     77.8147 100000.0000   -999.2500
  2047.5000     13.5872     74.2201 100000.0000   -999.2500
  2047.7500     13.6199     69.2794 100000.0000   -999.2500
  2048.0000     13.6436     62.8428 100000.0000   -999.2500
  2048.2500     13.5588     54.9206 100000.0000   -999.2500
  2048.5000     13.1718     45.7271 100000.0000   -999.2500
  2048.7500     12.1775     35.6812 100000.0000   -999.2500
  2049.0000     10.2886     25.3529 100000.0000   -999.2500
  2049.2500      7.5212     15.3675 100000.0000   -999.2500
  2049.5000      4.3698      6.2921 100000.0000   -999.2500
  2049.7500      1.5771     -1.4600 100000.0000   -999.2500
  2050.0000     -0.3493     -7.6828 100000.0000   -999.2500
  2050.2500     -1.3835    -12.3763 100000.0000   -999.2500
  2050.5000     -1.8157    -15.7026 100000.0000   -999.2500
  2050.7500     -1.9563    -17.9173 100000.0000   -999.2500
  2051.0000     -1.9919    -19.3027 100000.0000   -999.2500
  2051.2500     -1.9989    -20.1169 100000.0000   -999.2500
  2051.5000   -999.2500    -20.5664 100000.0000   -999.2500
  2051.7500   -999.2500    -20.7996 100000.0000   -999.2500
  2052.0000   -999.2500    -20.9132  12411.8584   -999.2500
  2052.2500   -999.2500    -20.9652   3777.8591   -999.2500
  2052.5000   -999.2500    -20.9875   2826.2053   -999.2500
  2052.7500   -999.2500    -20.9966   2559.9221   -999.2500
  2053.0000   -999.2500   -999.2500   2477.7075   -999.2500
  2053.2500   -999.2500   -999.2500   2454.0327   -999.2500
  2053.5000   -999.2500   -999.2500   2448.0569   -999.2500
  2053.7500   -999.2500   -999.2500 100000.0000   -999.2500
