~Version Information
VERS.                      2.0: CWLS Log ASCII Standard - VERSION 2.0
WRAP.                       NO: One line per depth step
~Well Information Block
STRT.FT                -5.5000: 
STOP.FT               791.0000: 
STEP.FT                 0.2500: 
NULL.                -999.2500: 
COMP.          Pioneer Natural Resources: COMPANY
WELL.           Beringer 33-18: WELL
FLD.           Purgatoire River: FIELD
LOC.           2356' FSL & 2338' FEL--: LOCATION
CNTY.               Las Animas: COUNTY
SRVC.                Patterson: SERVICE COMPANY
DATE.          Mon Apr 03 11:39:01 2006: LOG DATE
UWI.           05 071 08725 00: UNIQUE WELL ID
STAT.                 Colorado: STATE
~Curve Information Block
DEPT.FT            0 000 00 00: Depth
CCL.                          : Casing Collar Locator
TT3.usec                      : CBL 3' Travel Time
AMP3.mV                       : CBL 3' Amplitude
GR.GAPI                       : Gamma Ray
~Parameter Information Block
~A  Depth       CCL         TT3         AMP3         GR     
# ...
   664.5000      0.0000    776.8486     12.2026     79.3835
   664.7500      0.0000    761.5825     13.0724     83.3017
   665.0000      0.0000    743.4182     14.3191     85.8156
   665.2500      0.0000    734.6901     15.0842     86.3766
   665.5000      0.0000    724.5583     16.0526     88.0096
   665.7500      0.0000    716.9196     16.5138     89.9841
   666.0000      0.0000    697.5392     16.8360     93.2495
   666.2500      0.0000    676.2813     16.7964     95.3360
   666.5000      0.0000    632.6503     16.4343     99.3813
   666.7500      0.0000    600.8258     16.0580    103.3661
   667.0000      0.0000    561.9956     15.3634    110.7899
   667.2500      0.0000    548.3627     14.8198    115.6131
   667.5000      0.0000    550.1888     13.8786    120.8155
   667.7500      0.0000    564.2704     13.1838    122.2367
   668.0000      0.0000    596.8099     12.1016    120.9136
   668.2500      0.0000    621.1893     11.3860    118.1281
   668.5000      0.0000    656.1274     10.3497    112.5371
   668.7500      0.0000    677.1020      9.6908    108.6107
   669.0000      0.0000    705.0573      8.7641    103.0671
   669.2500      0.0000    721.3855      8.1973     99.7833
   669.5000      0.0000    741.4742      7.4392     95.9433
   669.7500      0.0000    751.2093      7.0039     94.7080
   670.0000      0.0000    760.1819      6.4716     96.1858
   670.2500      0.0000    763.1497      6.2044     99.3650
   670.5000      0.0000    764.9133      5.9376    104.1222
   670.7500      0.0000    765.1815      5.8433    104.1761
   671.0000      0.0000    765.1161      5.8043     96.7567
   671.2500      0.0000    764.9921      5.8238     88.4269
   671.5000      0.0000    764.7957      5.8722     77.6019
   671.7500      0.0000    764.6597      5.8930     75.0156
   672.0000      0.0000    764.5519      5.8882     79.4356
   672.2500      0.0000    764.7132      5.8641     85.8795
   672.5000      0.0000    765.5566      5.8171     95.8224
   672.7500      0.0000    766.3011      5.7955    101.0312
   673.0000      0.0000    766.0891      5.8016    107.0622
   673.2500      0.0000    763.6779      5.8305    110.4031
   673.5000      0.0000    755.5129      5.8753    113.2420
   673.7500      0.0000    748.0145      5.8763    112.4113
   674.0000      0.0000    737.2701      5.8051    106.8022
   674.2500      0.0000    732.1612      5.7150    101.5601
   674.5000      0.0000    728.3431      5.5540     94.4346
   674.7500      0.0000    727.9540      5.4516     91.1357
   675.0000      0.0000    729.7924      5.3199     88.9601
   675.2500      0.0000    732.2717      5.2450     89.8146
   675.5000      0.0000    736.9044      5.1536     95.1265
   675.7500      0.0000    739.6301      5.1126    100.5276
   676.0000      0.0000    741.2816      5.0778    107.5578
   676.2500      0.0000    740.1434      5.0589    109.1883
   676.5000      0.0000    735.7686      5.0156    106.0034
   676.7500      0.0000    732.3074      4.9768    101.5234
   677.0000      0.0000    728.3106      4.9198     94.6697
   677.2500      0.0000    726.7616      4.8917     91.2181
   677.5000      0.0000    725.0457      4.8719     88.2635
   677.7500      0.0000    723.4128      4.8756     87.7941
   678.0000      0.0000    719.8609      4.9123     88.8917
   678.2500      0.0000    717.4959      4.9598     89.8095
   678.5000      0.0000    715.5596      5.0547     88.9275
   678.7500      0.0000    715.4760      5.1164     86.0688
   679.0000      0.0000    715.9095      5.1751     79.7302
   679.2500      0.0000    715.9894      5.1839     75.9673
   679.5000      0.0000    716.4962      5.1608     73.6894
   679.7500      0.0000    717.9045      5.1323     74.7655
   680.0000      0.0000    721.3051      5.0825     78.5182
   680.2500      0.0000    722.9861      5.0476     80.8473
   680.5000      0.0000    722.3742      4.9991     82.7364
   680.7500      0.0000    719.9976      4.9783     83.4671
   681.0000      0.0000    715.7942      4.9825     85.2322
   681.2500      0.0000    713.9264      5.0090     86.6575
   681.5000      0.0000    713.3223      5.0488     86.8279
   681.7500      0.0000    713.9404      5.0462     84.4470
   682.0000      0.0000    714.9097      4.9854     77.9195
   682.2500      0.0000    715.0449      4.9318     73.5543
   682.5000      0.0000    715.3967      4.8960     70.2999
   682.7500      0.0000    717.1523      4.9220     71.1062
   683.0000      0.0000    723.4937      5.0072     76.3054
   683.2500      0.0000    729.1758      5.0524     81.6238
   683.5000      0.0000    735.8057      5.0504     90.3184
   683.7500      0.0000    737.1249      5.0115     95.1036
   684.0000      0.0000    734.7083      4.9612     98.6897
   684.2500      0.0000    731.8338      4.9653     98.2563
   684.5000      0.0000    728.2939      5.0315     94.0952
   684.7500      0.0000    726.9636      5.0914     89.9450
   685.0000      0.0000    726.2856      5.1558     83.1654
   685.2500      0.0000    726.8819      5.1698     78.6453
   685.5000      0.0000    730.8665      5.1615     71.9045
   685.7500      0.0000    736.6038      5.1491     67.6346
   686.0000      0.0000    749.8640      5.1294     62.2792
   686.2500      0.0000    760.2252      5.1219     59.5684
   686.5000      0.0000    773.5820      5.1436     56.2949
   686.7500      0.0000    778.7109      5.1885     54.4076
   687.0000      0.0000    779.0876      5.2758     52.4555
   687.2500      0.0000    774.9900      5.3158     52.0658
   687.5000      0.0000    765.0656      5.3107     52.4601
   687.7500      0.0000    758.0542      5.2671     52.7956
   688.0000      0.0000    750.3525      5.1854     52.9053
   688.2500      0.0000    748.3651      5.1521     52.7560
   688.5000      0.0000    750.2523      5.1598     52.3057
   688.7500      0.0000    753.6578      5.1884     51.9105
   689.0000      0.0000    759.1896      5.2121     51.3611
   689.2500      0.0000    761.8543      5.1930     51.0206
   689.5000      0.0000    763.4399      5.1172     50.4336
   689.7500      0.0000    763.0871      5.0563     50.2119
   690.0000      0.0000    761.5787      4.9888     50.9949
   690.2500      0.0000    760.8274      4.9730     52.4419
   690.5000      0.0000    761.2542      4.9903     55.0448
   690.7500      0.0000    762.4647      5.0148     56.1782
   691.0000      0.0000    763.9034      5.0417     56.1623
   691.2500      0.0000    763.3613      5.0417     55.2888
   691.5000      0.0000    759.6265      5.0131     54.2052
   691.7500      0.0000    755.9647      4.9826     54.6410
   692.0000      0.0000    750.6653      4.9358     57.9863
   692.2500      0.0000    747.7855      4.9112     61.9851
   692.5000      0.0000    744.2510      4.8946     69.9208
   692.7500      0.0000    742.5624      4.9033     75.7798
   693.0000      0.0000    742.4542      4.9489     83.8537
   693.2500      0.0000    744.6641      4.9926     88.1601
   693.5000      0.0000    750.4117      5.0492     93.6570
   693.7500      0.0000    754.1753      5.0636     97.8426
   694.0000      0.0000    756.6134      5.0351    106.2372
   694.2500      0.0000    754.7831      4.9843    112.7903
   694.5000      0.0000    745.9000      4.8825    121.9441
   694.7500      0.0000    736.5475      4.8212    126.5605
   695.0000      0.0000    721.2076      4.7795    130.3350
   695.2500      0.0000    713.1555      4.7937    130.4098
   695.5000      0.0000    707.8666      4.8568    126.9180
   695.7500      0.0000    708.8763      4.9012    123.1290
   696.0000      0.0000    714.6550      4.9335    117.9023
   696.2500      0.0000    719.6994      4.9269    115.7062
   696.5000      0.0000    727.1273      4.8980    113.6405
   696.7500      0.0000    730.9983      4.8890    111.8024
   697.0000      0.0000    733.1304      4.9231    106.8862
   697.2500      0.0000    731.4156      4.9856    102.4180
   697.5000      0.0000    725.5581      5.1307     95.6992
   697.7500      0.0000    721.4117      5.2417     92.2644
