~Version Information
 VERS.                                  2.0 : CWLS LAS VERSION
 WRAP.                                   NO : WRAPING MODE
 SWARE .                 MController 2.5.0N : SOFTWARE VERSION
~Well Information
 WELL.                       Weissach 32-32 : WELL
 COMP.    Pioneer Natural Resources USA Inc : COMPANY
 FLD.                      Purgatoire River : FIELD
 LOC.                SW/NE Sec 32 T33S R65W : LOCATION
 DATE.                             09/24/05 : DATE(S) LOGGED
 SRVC.       BLANCO Geological Services LLC : SERVICE COMPANY
 STAT.                                   CO : STATE
 CNTY.                           Las Animas : COUNTY
 CTRY.                                  USA : COUNTRY
 API.                       05-071-08523-00 : API NUMBER
 STRT.FT                             178.00 : START DEPTH
 STOP.FT                             811.00 : STOP DEPTH
 STEP.FT                               1.00 : DEPTH INCREMENT
 NULL.                                -9999 : NULL VALUE
~Curve information
 DEPTH.FT                                   :
 ROP.MIN/FT                                 :
 GAS.UNITS                                  :
~ASCII Log data
       178.0     -9999.00          4.2 
       179.0         1.08          4.5 
       180.0         0.17          5.1 
       181.0         0.10          4.8 
       182.0         0.13          4.5 
       183.0         0.50          4.4 
       184.0         0.13          4.5 
       185.0         0.47          4.5 
       186.0         0.07          4.4 
       187.0         0.57          4.4 
       188.0         0.13          4.2 
       189.0         0.27          4.5 
       190.0         0.07          4.5 
       191.0         2.18          5.8 
       192.0         0.17          4.6 
       193.0         0.87          4.4 
       194.0         0.58          4.5 
       195.0         0.17          4.3 
       196.0         0.17          4.9 
       197.0         0.33          4.8 
       198.0         0.17          4.5 
       199.0         0.43          5.1 
       200.0         0.73          5.0 
       201.0         0.13          5.0 
       202.0         0.10          4.7 
       203.0         0.37          4.7 
       204.0         1.08          4.7 
       205.0         0.17          4.6 
       206.0         0.33          5.5 
       207.0         0.13          5.1 
       208.0         1.47          5.4 
       209.0         0.23          4.8 
       210.0         0.07          4.6 
       211.0         0.42          4.9 
       212.0         0.13          4.9 
       213.0         0.87          4.8 
       214.0         0.17          4.7 
       215.0         0.40          4.8 
       216.0         0.10          4.6 
       217.0         0.27          5.0 
       218.0         0.70          5.0 
       219.0         0.13          5.7 
       220.0         0.17          5.0 
       221.0         0.13          4.9 
       222.0         0.13          5.0 
       223.0         0.15          5.0 
       224.0         0.13          4.8 
       225.0         0.13          5.3 
       226.0         0.13          5.1 
       227.0         0.13          6.1 
       228.0         0.13          5.9 
       229.0         0.13          6.6 
       230.0         0.13          7.5 
       231.0         0.13          8.4 
       232.0         0.13          8.2 
       233.0         0.13          7.5 
       234.0         0.13          6.9 
       235.0         0.13          7.1 
       236.0         0.13          6.2 
       237.0         0.13          5.9 
       238.0         0.13          5.5 
       239.0         0.17          5.6 
       240.0         0.13          5.7 
       241.0         0.13          5.1 
       242.0         0.13          5.2 
       243.0         0.17          5.4 
       244.0         0.13          5.1 
       245.0         0.17          4.7 
       246.0         0.17          4.7 
       247.0         0.28          4.9 
       248.0         0.10          4.8 
       249.0         0.43          4.7 
       250.0         0.47          5.5 
       251.0         0.07          4.8 
       252.0         1.00          5.2 
       253.0         0.17          4.9 
       254.0         0.27          4.9 
       255.0         0.10          4.9 
       256.0         0.52          5.3 
       257.0         0.17          5.4 
       258.0         0.20          4.7 
       259.0         0.17          5.3 
       260.0         0.17          4.8 
       261.0         0.23          5.1 
       262.0         0.23          4.4 
       263.0         0.23          4.8 
       264.0         0.23          4.9 
       265.0         0.23          4.9 
       266.0         0.23          5.0 
       267.0         0.23          4.7 
       268.0         0.23          5.1 
       269.0         0.23          4.8 
       270.0         0.17          4.8 
       271.0         0.20          4.9 
       272.0         0.22          4.8 
       273.0         0.20          5.1 
       274.0         0.23          5.0 
       275.0         0.17          5.0 
       276.0         0.20          5.4 
       277.0         0.20          4.9 
       278.0         0.20          5.0 
       279.0         0.20          5.0 
       280.0         0.13          5.1 
       281.0         0.17          5.1 
       282.0         0.17          5.8 
       283.0         0.17          5.1 
       284.0         0.13          4.9 
       285.0         0.97          5.7 
       286.0         0.13          5.1 
       287.0         0.18          5.2 
       288.0         0.50          5.6 
       289.0         0.10          5.0 
       290.0         1.60          5.9 
       291.0         0.37          5.9 
       292.0         0.13          5.1 
       293.0         0.17          5.0 
       294.0         0.13          4.7 
       295.0         0.13          5.2 
       296.0         0.18          5.1 
       297.0         0.13          5.0 
       298.0         0.17          5.3 
       299.0         0.13          4.9 
       300.0         0.13          5.2 
       301.0         0.13          5.2 
       302.0         0.17          5.2 
       303.0         0.13          5.6 
       304.0         0.13          5.0 
       305.0         0.13          6.1 
       306.0         0.10          5.3 
       307.0         0.13          5.2 
       308.0         0.13          5.5 
       309.0         0.10          5.6 
       310.0         0.13          5.6 
       311.0         0.13          6.2 
       312.0         0.10          6.0 
       313.0         0.13          5.9 
       314.0         0.13          6.6 
       315.0         0.10          6.2 
       316.0         0.13          7.2 
       317.0         0.17          7.0 
       318.0         0.13          7.2 
       319.0         0.17          6.7 
       320.0         0.13          7.3 
       321.0         0.22          7.6 
       322.0         3.03          7.1 
       323.0         0.15          5.7 
       324.0         0.13          5.6 
       325.0         0.13          5.4 
       326.0         0.17          5.3 
       327.0         0.13          5.1 
       328.0         0.13          5.4 
       329.0         0.17          5.2 
       330.0         0.13          5.5 
       331.0         0.13          6.3 
       332.0         0.17          5.8 
       333.0         0.13          6.5 
       334.0         0.13          6.5 
       335.0         0.17          6.8 
       336.0         0.27          8.0 
       337.0         0.53          8.3 
       338.0         0.27          8.0 
       339.0         0.20          7.8 
       340.0         0.20          7.6 
       341.0         0.22          8.2 
       342.0         0.17          7.1 
       343.0         0.20          7.4 
       344.0         0.13          6.5 
       345.0         0.17          7.3 
       346.0         0.17          7.8 
       347.0         0.20         10.0 
       348.0         0.30         10.6 
       349.0         0.23         11.0 
       350.0         0.13         12.5 
       351.0         0.17         14.0 
       352.0         3.22         16.3 
       353.0         0.33          5.7 
       354.0         0.33          8.2 
       355.0         0.33         13.7 
       356.0         0.27         15.8 
       357.0         0.23         14.7 
       358.0         0.25         14.0 
       359.0         0.23         11.8 
       360.0         0.23         11.2 
       361.0         0.23         10.2 
       362.0         0.27          9.4 
       363.0         0.23          8.7 
       364.0         0.23          8.7 
       365.0         0.20          8.2 
       366.0         0.27          8.3 
       367.0         0.23          8.0 
       368.0         0.23          8.6 
       369.0         0.23          8.1 
       370.0         0.27          7.8 
       371.0         0.28          7.8 
       372.0         0.30          7.6 
       373.0         0.30          8.5 
       374.0         0.30          8.0 
       375.0         0.27          7.6 
       376.0         0.27          8.3 
       377.0         0.27          7.7 
