~Version Information
VERS.                      2.0: CWLS Log ASCII Standard - VERSION 2.0
WRAP.                       NO: One line per depth step
~Well Information Block
STRT.FT                -5.5000: 
STOP.FT              2262.7500: 
STEP.FT                 0.2500: 
NULL.                -999.2500: 
COMP.          Pioneer Natural Resources: COMPANY
WELL.             Baa Baa 34-1: WELL
FLD.           Purgatorie River: FIELD
LOC.           617' FSL & 2289' FEL------: LOCATION
STAT.                       CO: State
CNTY.               Las Animas: COUNTY
CTRY. USA : Country
SECT. 1 : Section
TOWN. 33S : Township
RANG. 67W : Range
SRVC.          Patterson Wireline: SERVICE COMPANY
DATE.          Mon Sep 12 14:08:52 2005: LOG DATE
API.           05 071 08502 00: UNIQUE WELL ID
~Curve Information Block
DEPT.FT            0 000 00 00: Depth
LTEN.lb                       : Surface Line Tension
CCL.                          : Casing Collar Locator
TT3.usec                      : CBL 3' Travel Time
AMP3.mV                       : CBL 3' Amplitude
GR.GAPI                       : Gamma Ray
~Parameter Information Block
~A  Depth       LTEN        CCL         TT3         AMP3         GR     
# ...
   750.5000  -4535.8604      0.0000    801.1110      9.3201     83.8769
   750.7500  -4535.8604      0.0000    796.2931      9.2787     88.2839
   751.0000  -4534.5283      0.0000    787.6953      9.2068     93.5068
   751.2500  -4534.5283      0.0000    773.0629      9.1240     97.5787
   751.5000  -4538.5244      0.0000    753.3651      9.0602     99.5995
   751.7500  -4538.5244      0.0000    734.2737      9.0309     99.6631
   752.0000  -4535.8604      0.0000    723.4218      9.0260     98.0491
   752.2500  -4533.1958      0.0000    725.3004      9.0206     95.0916
   752.5000  -4531.8638      0.0000    739.0525      8.9964     91.6685
   752.7500  -4535.8604      0.0000    761.1149      8.9529     89.1753
   753.0000  -4537.1924      0.0000    789.3271      8.9013     88.7388
   753.2500  -4535.8604      0.0000    824.5091      8.8489     90.5190
   753.5000  -4533.1958      0.0000    867.7052      8.7922     93.4823
   753.7500  -4533.1958      0.0000    915.1844      8.7272     95.6687
   754.0000  -4533.1958      0.0000    957.8355      8.6592     95.3013
   754.2500  -4539.8569      0.0000    988.0897      8.6008     92.3206
   754.5000  -4529.1997      0.0000   1005.4836      8.5611     88.5669
   754.7500  -4533.1958      0.0000   1012.4323      8.5417     86.0775
   755.0000  -4533.1958      0.0000   1007.5891      8.5422     85.5643
   755.2500  -4535.8604      0.0000    987.6625      8.5646     86.6937
   755.5000  -4535.8604      0.0000    953.7421      8.6076     89.0737
   755.7500  -4531.8638      0.0000    912.3893      8.6599     92.5001
   756.0000  -4535.8604      0.0000    871.9139      8.7038     96.6434
   756.2500  -4538.5244      0.0000    839.0430      8.7282    100.9273
   756.5000  -4537.1924      0.0000    817.0726      8.7417    104.8212
   756.7500  -4538.5244      0.0000    805.2489      8.7680    108.2371
   757.0000  -4533.1958      0.0000    800.2010      8.8272    111.4962
   757.2500  -4538.5244      0.0000    798.4561      8.9197    114.8422
   757.5000  -4533.1958      0.0000    797.8962      9.0288    118.1776
   757.7500  -4533.1958      0.0000    797.7418      9.1353    121.3674
   758.0000  -4534.5283      0.0000    798.0013      9.2276    124.6429
   758.2500  -4533.1958      0.0000    799.1736      9.3055    128.4722
   758.5000  -4534.5283      0.0000    802.0978      9.3802    133.0247
   758.7500  -4534.5283      0.0000    807.5591      9.4679    137.8925
   759.0000  -4534.5283      0.0000    815.4572      9.5797    142.1892
   759.2500  -4535.8604      0.0000    824.2262      9.7147    144.8367
   759.5000  -4531.8638      0.0000    831.2355      9.8633    145.1268
   759.7500  -4534.5283      0.0000    833.8026     10.0138    143.1802
   760.0000  -4538.5244      0.0000    830.0180     10.1561    139.7151
   760.2500  -4533.1958      0.0000    819.7646     10.2805    135.7218
   760.5000  -4535.8604      0.0000    806.2127     10.3753    132.5986
   760.7500  -4530.5317      0.0000    795.5601     10.4268    131.6940
   761.0000  -4534.5283      0.0000    792.9520     10.4219    132.8181
   761.2500  -4535.8604      0.0000    797.8696     10.3451    133.6896
   761.5000  -4531.8638      0.0000    804.5826     10.1707    131.7949
   761.7500  -4533.1958      0.0000    806.9283      9.8578    126.7748
   762.0000  -4534.5283      0.0000    801.5804      9.3687    120.4297
   762.2500  -4534.5283      0.0000    788.4375      8.6993    114.6513
   762.5000  -4534.5283      0.0000    771.1523      7.8950    110.1955
   762.7500  -4535.8604      0.0000    757.0477      7.0340    107.0810
   763.0000  -4539.8569      0.0000    753.0608      6.1946    104.9221
   763.2500  -4535.8604      0.0000    760.3185      5.4374    102.6518
   763.5000  -4533.1958      0.0000    773.7999      4.8068     98.8040
   763.7500  -4535.8604      0.0000    787.1428      4.3335     92.6562
   764.0000  -4538.5244      0.0000    796.5441      4.0276     85.1822
   764.2500  -4534.5283      0.0000    801.0062      3.8750     78.8940
   764.5000  -4533.1958      0.0000    801.2925      3.8487     76.4841
   764.7500  -4537.1924      0.0000    799.2908      3.9261     79.2355
   765.0000  -4533.1958      0.0000    797.2153      4.1005     86.6310
   765.2500  -4538.5244      0.0000    796.6563      4.3807     97.3410
   765.5000  -4533.1958      0.0000    798.1766      4.7789    110.1273
   765.7500  -4534.5283      0.0000    801.2994      5.2910    123.5835
   766.0000  -4534.5283      0.0000    804.4369      5.8830    135.6067
   766.2500  -4534.5283      0.0000    805.1257      6.4933    144.0367
   766.5000  -4537.1924      0.0000    800.7181      7.0489    148.1679
   766.7500  -4533.1958      0.0000    788.9437      7.4882    149.2815
   767.0000  -4529.1997      0.0000    768.5043      7.7815    149.3575
   767.2500  -4530.5317      0.0000    740.5867      7.9370    149.2309
   767.5000  -4531.8638      0.0000    710.0375      7.9855    148.1144
   767.7500  -4533.1958      0.0000    683.4963      7.9541    144.8584
   768.0000  -4535.8604      0.0000    665.3608      7.8483    139.5112
   768.2500  -4538.5244      0.0000    655.9399      7.6501    133.6263
   768.5000  -4537.1924      0.0000    653.7048      7.3296    129.1715
   768.7500  -4535.8604      0.0000    658.7320      6.8734    127.1098
   769.0000  -4533.1958      0.0000    673.2764      6.3281    126.7121
   769.2500  -4537.1924      0.0000    698.4868      5.8163    126.1510
   769.5000  -4538.5244      0.0000    730.7692      5.4782    124.0151
   769.7500  -4534.5283      0.0000    762.4943      5.3763    120.4245
   770.0000  -4535.8604      0.0000    786.8282      5.4575    116.7472
   770.2500  -4537.1924      0.0000    801.5860      5.6070    114.3834
   770.5000  -4537.1924     -2.0000    808.9069      5.7298    113.7616
   770.7500  -4533.1958      2.0000    812.2338      5.7924    114.2005
   771.0000  -4533.1958      0.0000    813.5726      5.8168    114.5665
   771.2500  -4537.1924      0.0000    812.8217      5.8591    114.1197
   771.5000  -4534.5283      0.0000    809.1450      5.9929    112.9955
   771.7500  -4530.5317      0.0000    802.8616      6.2786    112.2256
   772.0000  -4533.1958      0.0000    796.1124      6.7129    113.3415
   772.2500  -4534.5283      0.0000    791.5889      7.2114    117.4624
   772.5000  -4531.8638      0.0000    790.5018      7.6636    124.1336
   772.7500  -4537.1924      0.0000    791.7521      8.0003    131.1352
   773.0000  -4534.5283      0.0000    792.9185      8.2069    136.0384
   773.2500  -4538.5244      0.0000    791.5259      8.2988    138.1366
   773.5000  -4533.1958      0.0000    785.5197      8.3054    138.6377
   773.7500  -4538.5244      0.0000    773.7574      8.2636    139.0045
   774.0000  -4534.5283      0.0000    757.0101      8.2062    139.3878
   774.2500  -4533.1958      0.0000    738.2101      8.1535    138.8883
   774.5000  -4533.1958      0.0000    721.0452      8.1143    137.3007
   774.7500  -4535.8604      0.0000    707.8616      8.0914    136.0582
   775.0000  -4534.5283      0.0000    698.3820      8.0833    136.7457
   775.2500  -4535.8604      0.0000    690.4164      8.0861    138.7850
   775.5000  -4533.1958      0.0000    682.9742      8.0967    139.5636
   775.7500  -4534.5283      0.0000    678.6716      8.1131    137.3688
   776.0000  -4534.5283      0.0000    681.7756      8.1305    133.5260
   776.2500  -4535.8604      0.0000    693.9454      8.1379    130.8493
   776.5000  -4534.5283      0.0000    712.9670      8.1253    130.4275
   776.7500  -4535.8604      0.0000    735.0018      8.0920    130.9997
   777.0000  -4535.8604      0.0000    756.5222      8.0488    131.2374
   777.2500  -4535.8604      0.0000    774.5378      8.0120    131.2768
   777.5000  -4534.5283      0.0000    787.0670      7.9952    131.6023
   777.7500  -4535.8604      0.0000    794.0477      8.0037    131.4864
   778.0000  -4535.8604      0.0000    797.0809      8.0355    129.5352
   778.2500  -4533.1958      0.0000    798.0905      8.0884    125.6576
