~Version Information
VERS.                      2.0: CWLS Log ASCII Standard - VERSION 2.0
WRAP.                       NO: One line per depth step
~Well Information Block
STRT.FT               615.0000: 
STOP.FT              1607.0000: 
STEP.FT                 0.1000: 
NULL.                -999.2500: 
COMP.          Pioneer Natural Resources: COMPANY
WELL.          Galloway 32-13 Tr: WELL
FLD.           Purgatoire River: FIELD
LOC.           1910' FNL & 2002' FEL: LOCATION
PROV.                 Colorado: PROVINCE
CNTY.               Las Animas: COUNTRY
SRVC.                Patterson: SERVICE COMPANY
DATE.          Mon Nov 14 07:13:22 2005: LOG DATE
UWI.           05 071 08608 00: UNIQUE WELL ID
~Curve Information Block
DEPT.FT            0 000 00 00: Depth
DCAL.in                       : CDL Caliper
RHOB.g/cc                     : CDL Bulk Density
RHOC.g/cc                     : CDL Density Correction
DPOR.pu                       : CDL Density Porosity
GR.GAPI                       : Gamma Ray
NPOR.pu                       : Neutron Porosity
~Parameter Information Block
~A  Depth       DCAL        RHOB        RHOC        DPOR         GR         NPOR    
# ...
  1075.8000      7.9293      2.6229      0.0276      1.6454     98.0684     27.1830
  1075.9000      7.9293      2.6185      0.0866      1.9090    108.9071     26.7379
  1076.0000      7.9498      2.6110     -0.0018      2.3634    119.1499     25.8045
  1076.1000      7.9498      2.6024     -0.0069      2.8862    121.5278     25.1715
  1076.2000      7.9498      2.5979      0.0198      3.1582    120.5440     24.8905
  1076.3000      7.9723      2.6032     -0.0363      2.8342    120.8524     24.4523
  1076.4000      7.9723      2.6119      0.0342      2.3070    122.3552     23.8774
  1076.5000      7.9494      2.6090      0.0333      2.4852    125.4067     23.6315
  1076.6000      7.9494      2.5956      0.0283      3.2945    129.6336     24.0095
  1076.7000      7.9494      2.5836     -0.0180      4.0233    132.1188     24.8874
  1076.8000      7.9470      2.5771      0.0577      4.4156    128.9675     25.9529
  1076.9000      7.9470      2.5748      0.0312      4.5574    120.2588     26.8440
  1077.0000      7.9429      2.5733      0.0435      4.6463    113.9111     27.1039
  1077.1000      7.9429      2.5646      0.0513      5.1740    116.2211     26.8597
  1077.2000      7.9429      2.5538     -0.0132      5.8330    122.6447     26.3248
  1077.3000      7.8992      2.5556      0.0062      5.7231    124.1843     25.5007
  1077.4000      7.8992      2.5682      0.0230      4.9604    120.2109     24.7297
  1077.5000      7.8778      2.5801      0.0481      4.2347    116.7296     24.7164
  1077.6000      7.8778      2.5853      0.0511      3.9220    116.6194     25.8350
  1077.7000      7.8778      2.5881      0.0298      3.7504    119.8184     26.9159
  1077.8000      7.8736      2.5906      0.0829      3.6015    124.3680     26.8615
  1077.9000      7.8736      2.5818      0.0418      4.1363    124.3120     26.5524
  1078.0000      7.9076      2.5676      0.0266      4.9936    118.8693     27.1831
  1078.1000      7.9076      2.5730      0.0393      4.6637    113.4260     28.1999
  1078.2000      7.9076      2.5969      0.0603      3.2196    108.9033     28.1120
  1078.3000      7.9018      2.6081      0.0698      2.5375    105.3183     26.9471
  1078.4000      7.9018      2.5987      0.0180      3.1110    106.7191     25.6726
  1078.5000      7.9408      2.5926      0.0163      3.4801    113.2076     24.5339
  1078.6000      7.9408      2.5990      0.0145      3.0934    118.5718     23.8869
  1078.7000      7.9408      2.6022      0.0692      2.8972    119.7132     24.0649
  1078.8000      7.9228      2.5965      0.0257      3.2396    120.7220     24.3974
  1078.9000      7.9228      2.5953      0.0549      3.3181    121.2786     24.3352
  1079.0000      7.8805      2.6000      0.0999      3.0305    115.5233     24.1869
  1079.1000      7.8805      2.5983      0.0809      3.1345    106.8575     24.4713
  1079.2000      7.8805      2.5884      0.0777      3.7314    103.0154     24.8245
  1079.3000      7.8541      2.5820      0.0157      4.1182    104.5576     24.3741
  1079.4000      7.8541      2.5913      0.0472      3.5576    108.9516     23.9500
  1079.5000      7.8854      2.6147      0.0937      2.1398    113.7033     24.5055
  1079.6000      7.8854      2.6328      0.1280      1.0408    117.0259     25.0904
  1079.7000      7.8854      2.6306      0.0985      1.1734    118.7179     25.0209
  1079.8000      7.8801      2.6247      0.0448      1.5352    118.0269     25.1696
  1079.9000      7.8801      2.6347      0.0620      0.9289    113.6638     25.8012
  1080.0000      7.8266      2.6442      0.1262      0.3545    108.9034     25.8796
  1080.1000      7.8266      2.6322      0.0842      1.0766    109.5740     25.4588
  1080.2000      7.8266      2.6049      0.0497      2.7337    114.8288     25.6204
  1080.3000      7.8314      2.5740      0.0305      4.6036    118.8750     25.9267
  1080.4000      7.8314      2.5453      0.0537      6.3454    120.0127     25.7456
  1080.5000      7.8860      2.5274      0.0232      7.4324    117.8884     25.5848
  1080.6000      7.8860      2.5293      0.0257      7.3152    114.2420     25.7840
  1080.7000      7.8860      2.5436      0.0477      6.4511    114.1888     26.3309
  1080.8000      7.9495      2.5561      0.0627      5.6879    117.6370     26.7682
  1080.9000      7.9495      2.5702      0.0468      4.8378    118.9968     26.6250
  1081.0000      7.9922      2.5899      0.1338      3.6439    113.7240     26.3667
  1081.1000      7.9922      2.6018      0.1357      2.9187    102.5491     26.5807
  1081.2000      7.9922      2.5993      0.1259      3.0709     93.8353     27.2575
  1081.3000      7.9870      2.5873      0.1632      3.8018     93.3580     27.9280
  1081.4000      7.9870      2.5749      0.1392      4.5500     96.6792     28.0874
  1081.5000      7.9144      2.5772      0.0810      4.4135    100.3034     27.7252
  1081.6000      7.9144      2.5909      0.1561      3.5801    105.1029     26.8092
  1081.7000      7.9144      2.5888      0.1667      3.7063    108.6012     25.4560
  1081.8000      7.8663      2.5595      0.1124      5.4860    107.8893     25.2040
  1081.9000      7.8663      2.5258      0.0771      7.5298    105.4154     26.1654
  1082.0000      7.8670      2.5119      0.0761      8.3714    103.8224     26.3699
  1082.1000      7.8670      2.5160      0.0860      8.1228    102.4126     25.5006
  1082.2000      7.8670      2.5240      0.0811      7.6392    100.4182     24.6376
  1082.3000      7.8844      2.5285      0.1230      7.3622     99.2412     24.1874
  1082.4000      7.8844      2.5326      0.0630      7.1124     99.0074     24.2362
  1082.5000      7.9097      2.5501      0.0751      6.0570    100.3221     24.8687
  1082.6000      7.9097      2.5869      0.1383      3.8219    105.1053     25.7705
  1082.7000      7.9097      2.6283      0.1309      1.3138    111.5293     26.3359
  1082.8000      7.8998      2.6531      0.1616     -0.1860    115.0496     26.1448
  1082.9000      7.8998      2.6447      0.1166      0.3200    111.9794     25.7963
  1083.0000      7.8951      2.6031      0.1006      2.8412    106.1325     26.1404
  1083.1000      7.8951      2.5607      0.0026      5.4147    104.9277     27.1062
  1083.2000      7.8951      2.5552     -0.0003      5.7476    109.7794     27.7111
  1083.3000      7.8961      2.5728      0.0582      4.6760    114.4147     27.4225
  1083.4000      7.8961      2.5842     -0.0013      3.9872    114.3451     26.8301
  1083.5000      7.9189      2.5955      0.0364      3.3019    112.1420     26.3909
  1083.6000      7.9189      2.6030      0.0867      2.8460    110.3663     26.2846
  1083.7000      7.9189      2.5859      0.0332      3.8858    109.6709     26.7215
  1083.8000      7.9382      2.5552      0.0249      5.7452    109.4246     27.5561
  1083.9000      7.9382      2.5423     -0.0070      6.5286    108.8359     27.9051
  1084.0000      7.9525      2.5536      0.0530      5.8447    111.7495     27.1266
  1084.1000      7.9525      2.5670      0.0710      5.0299    119.5122     26.0145
  1084.2000      7.9525      2.5658      0.0080      5.1036    124.4957     25.7317
  1084.3000      7.9502      2.5586     -0.0445      5.5403    123.3070     26.2543
  1084.4000      7.9502      2.5621     -0.0002      5.3301    122.8493     26.8456
  1084.5000      7.9319      2.5743      0.0407      4.5904    126.3273     26.9805
  1084.6000      7.9319      2.5810      0.0739      4.1823    129.9722     26.7591
  1084.7000      7.9319      2.5841      0.1122      3.9956    132.9921     26.7297
  1084.8000      7.9805      2.5945      0.0843      3.3610    135.7054     26.9467
  1084.9000      7.9805      2.6067      0.1093      2.6254    137.7087     27.2644
  1085.0000      7.9386      2.6079      0.0368      2.5541    142.9375     27.8380
  1085.1000      7.9386      2.6004      0.0371      3.0045    149.9459     28.3234
  1085.2000      7.9386      2.5863      0.0262      3.8635    150.7351     28.1957
  1085.3000      7.9387      2.5656     -0.0635      5.1134    144.3783     27.6727
