~Version Information
 VERS.                                  2.0 : CWLS LAS VERSION
 WRAP.                                   NO : WRAPING MODE
 SWARE .                 MController 2.5.0J : SOFTWARE VERSION
~Well Information
 WELL.                        DUDE 43-34 TR : WELL
 COMP.    PIONEER NATURAL RESOURCES USA INC : COMPANY
 FLD.                      PURGATOIRE RIVER : FIELD
 LOC.                NE/SE SEC 34 T32S R67W : LOCATION
 DATE.                          01/25-26/06 : DATE(S) LOGGED
 SRVC.       BLANCO GEOLOGICAL SERVICES LLC : SERVICE COMPANY
 STAT.                             COLORADO : STATE
 CNTY.                           LAS ANIMAS : COUNTY
 CTRY.                                  USA : COUNTRY
 API.                       05-071-08676-00 : API NUMBER
 STRT.FT                             485.00 : START DEPTH
 STOP.FT                            1765.00 : STOP DEPTH
 STEP.FT                               1.00 : DEPTH INCREMENT
 NULL.                                -9999 : NULL VALUE
~Curve information
 DEPTH.FT                                   :
 ROP.MIN/FT                                 :
 GAS.UNITS                                  :
~ASCII Log data
# ...
      1485.0         0.23         60.0 
      1486.0         0.17         54.6 
      1487.0         0.20         53.4 
      1488.0         0.27         51.9 
      1489.0         0.38         48.3 
      1490.0         0.23         41.5 
      1491.0         0.23         38.9 
      1492.0         0.20         38.9 
      1493.0         0.20         40.3 
      1494.0         0.23         45.3 
      1495.0         0.20         51.7 
      1496.0         4.65        190.4 
      1497.0         0.37        104.8 
      1498.0         0.13        102.3 
      1499.0         0.15        100.1 
      1500.0         0.20         96.8 
      1501.0         0.20         92.2 
      1502.0         0.13         87.2 
      1503.0         0.13         84.3 
      1504.0         0.13         81.1 
      1505.0         0.33         78.7 
      1506.0         0.30         71.4 
      1507.0         0.27         67.6 
      1508.0         0.30         63.2 
      1509.0         0.33         60.5 
      1510.0         0.37         61.0 
      1511.0         0.33         67.4 
      1512.0         0.23         69.9 
      1513.0         0.28         66.7 
      1514.0         0.20         60.8 
      1515.0         0.20         58.7 
      1516.0         0.23         52.3 
      1517.0         0.20         45.8 
      1518.0         0.17         40.6 
      1519.0         0.23         39.2 
      1520.0         0.20         40.1 
      1521.0         0.20         43.1 
      1522.0         0.20         53.5 
      1523.0         0.13         62.1 
      1524.0         0.13         72.5 
      1525.0         0.23         93.2 
      1526.0         3.95        232.6 
      1527.0         0.32         66.8 
      1528.0         0.33         68.8 
      1529.0         0.27         70.2 
      1530.0         0.23         70.6 
      1531.0         0.17         70.2 
      1532.0         0.20         69.7 
      1533.0         0.17         68.4 
      1534.0         0.17         67.3 
      1535.0         0.13         66.1 
      1536.0         0.13         64.7 
      1537.0         0.10         63.7 
      1538.0         0.10         63.0 
      1539.0         0.17         65.7 
      1540.0         0.20         66.0 
      1541.0         0.20         61.2 
      1542.0         0.20         58.8 
      1543.0         0.17         57.3 
      1544.0         0.17         55.6 
      1545.0         0.18         50.9 
      1546.0         0.10         46.7 
      1547.0         0.10         43.0 
      1548.0         0.13         40.9 
      1549.0         0.13         39.6 
      1550.0         0.13         37.4 
      1551.0         0.17         37.9 
      1552.0         0.17         39.5 
      1553.0         0.20         43.2 
      1554.0         0.33         61.3 
      1555.0         0.27         81.6 
      1556.0         4.05        206.1 
      1557.0         0.63         92.2 
      1558.0         0.17         91.2 
      1559.0         0.32         86.2 
      1560.0         0.23         77.3 
      1561.0         0.27         72.2 
      1562.0         0.20         66.7 
      1563.0         0.17         64.5 
      1564.0         0.20         63.0 
      1565.0         0.20         62.2 
      1566.0         0.20         61.4 
      1567.0         0.20         61.1 
      1568.0         0.20         60.7 
      1569.0         0.20         59.8 
      1570.0         0.20         59.1 
      1571.0         0.13         58.2 
      1572.0         0.20         57.4 
      1573.0         0.20         57.0 
      1574.0         0.23         56.8 
      1575.0         0.28         59.8 
      1576.0         0.23         60.8 
      1577.0         0.27         58.5 
      1578.0         0.27         57.2 
      1579.0         0.27         54.8 
      1580.0         0.23         48.0 
      1581.0         0.23         41.3 
      1582.0         0.27         36.8 
      1583.0         0.47         40.8 
      1584.0         0.37         60.1 
      1585.0         0.27         84.4 
      1586.0         3.12        123.1 
      1587.0         0.33         59.3 
      1588.0         0.55         57.6 
      1589.0         0.63         58.9 
      1590.0         0.23         57.1 
      1591.0         0.23         53.4 
      1592.0         0.23         47.7 
      1593.0         0.20         45.7 
      1594.0         0.20         48.0 
      1595.0         0.17         51.2 
      1596.0         0.17         53.2 
      1597.0         0.23         56.7 
      1598.0         2.25         59.1 
      1599.0         0.40         56.7 
      1600.0         0.30         56.1 
      1601.0         0.37         51.4 
      1602.0         0.27         54.9 
      1603.0         0.23         61.6 
      1604.0         0.25         64.3 
      1605.0         0.20         63.9 
      1606.0         0.17         63.1 
      1607.0         0.13         64.2 
      1608.0         0.17         68.1 
      1609.0         0.17         77.0 
      1610.0         0.17         94.6 
      1611.0         0.13        108.0 
      1612.0         0.13        125.6 
      1613.0         0.13        148.9 
      1614.0         0.30        199.2 
      1615.0         0.27        240.7 
      1616.0         3.35        274.1 
      1617.0         0.40         79.3 
      1618.0         0.30         76.6 
      1619.0         0.33         76.6 
      1620.0         0.32         73.0 
      1621.0         0.27         71.4 
      1622.0         0.27         69.1 
      1623.0         0.23         67.4 
      1624.0         0.23         65.9 
      1625.0         0.33         64.5 
      1626.0         0.33         63.4 
      1627.0         0.23         60.8 
      1628.0         0.47         61.8 
      1629.0         0.33         64.9 
      1630.0         0.30         67.3 
      1631.0         0.32         73.2 
      1632.0         0.30         77.4 
      1633.0         0.23         71.6 
      1634.0         0.27         68.7 
      1635.0         0.17         64.9 
      1636.0         0.13         61.3 
      1637.0         0.13         57.2 
      1638.0         0.13         53.8 
      1639.0         0.17         49.3 
      1640.0         0.17         49.4 
      1641.0         0.20         55.6 
      1642.0         0.27         70.5 
      1643.0         0.27         93.9 
      1644.0         0.23        131.4 
      1645.0         0.30        181.3 
      1646.0         2.25        228.9 
      1647.0         0.37         85.5 
      1648.0         0.37         73.3 
      1649.0         0.37         67.1 
      1650.0         0.42         66.5 
      1651.0         0.40         61.0 
      1652.0         0.47         57.8 
      1653.0         0.23         59.6 
      1654.0         0.30         60.5 
      1655.0         0.57         60.7 
      1656.0         0.23         58.7 
      1657.0         0.23         57.7 
      1658.0         0.27         56.7 
      1659.0         0.23         56.4 
      1660.0         0.28         56.9 
      1661.0         0.27         58.0 
      1662.0         0.27         58.3 
      1663.0         0.23         58.5 
      1664.0         0.27         57.6 
      1665.0         0.27         55.8 
      1666.0         0.27         56.7 
      1667.0         0.33         55.3 
      1668.0         0.30         52.9 
      1669.0         0.30         49.7 
      1670.0         0.33         44.9 
      1671.0         0.27         39.8 
      1672.0         0.28         45.6 
      1673.0         0.27         56.8 
      1674.0         0.40         93.7 
      1675.0         0.43        154.1 
      1676.0         2.62        194.0 
      1677.0         0.37         67.3 
      1678.0         0.13         57.0 
      1679.0         0.30         56.6 
      1680.0         0.33         61.4 
      1681.0         0.37         65.6 
      1682.0         0.83         67.7 
      1683.0         0.30         59.5 
      1684.0         0.55         66.5 
