~Version Information
VERS.                      2.0: CWLS Log ASCII Standard - VERSION 2.0
WRAP.                       NO: One line per depth step
~Well Information Block
STRT.FT                 0.0000: 
STOP.FT              1426.7500: 
STEP.FT                 0.2500: 
NULL.                -999.2500: 
COMP.          Pioneer Natural Resources: COMPANY
WELL.            Bordeaux 42-2: WELL
FLD.           Purgatorie River: FIELD
LOC.           1963' FNL & 1148' FEL: LOCATION
PROV.                 Colorado: PROVINCE
CNTY.               Las Animas: COUNTRY
SRVC.                Patterson: SERVICE COMPANY
DATE.          Fri Dec 02 09:28:20 2005: LOG DATE
UWI.                          : UNIQUE WELL ID
~Curve Information Block
DEPT.FT            0 000 00 00: Depth
CCL.                          : Casing Collar Locator
TT3.usec                      : CBL 3' Travel Time
AMP3.mV                       : CBL 3' Amplitude
GR.GAPI                       : Gamma Ray
~Parameter Information Block
~A  Depth       CCL         TT3         AMP3         GR     
# ...
   569.5000      0.0000    553.3889     13.5756    133.4481
   569.7500      0.0000    522.5679     13.7824    129.8039
   570.0000      0.0000    552.3331     13.8876    123.8098
   570.2500      0.0000    606.7282     13.8851    115.9057
   570.5000      0.0000    637.8439     13.7726    106.4785
   570.7500      0.0000    644.0221     13.5946     96.5446
   571.0000      0.0000    646.2487     13.4081     87.7936
   571.2500      0.0000    647.3898     13.2395     81.6735
   571.5000      0.0000    643.6505     13.0922     78.4851
   571.7500      0.0000    625.7791     12.9663     77.4603
   572.0000      0.0000    574.8340     12.8587     77.5871
   572.2500      0.0000    502.6334     12.7681     78.2416
   572.5000      0.0000    454.8448     12.7094     79.2884
   572.7500      0.0000    451.5904     12.6932     80.9861
   573.0000      0.0000    474.0647     12.6800     83.7492
   573.2500      0.0000    505.6401     12.5998     87.5272
   573.5000      0.0000    543.6291     12.4273     91.2858
   573.7500      0.0000    581.8328     12.2063     93.4891
   574.0000      0.0000    610.7776     12.0096     93.4230
   574.2500      0.0000    618.6658     11.9002     91.9554
   574.5000      0.0000    586.9362     11.9015     90.8742
   574.7500      0.0000    517.6957     11.9792     91.4948
   575.0000      0.0000    451.5469     12.0534     93.8764
   575.2500      0.0000    431.6809     12.0418     97.1584
   575.5000      0.0000    468.5949     11.9201    100.3417
   575.7500      0.0000    542.2663     11.7415    102.7243
   576.0000      0.0000    615.6550     11.5776    104.0477
   576.2500      0.0000    653.3978     11.4627    104.7191
   576.5000      0.0000    652.2626     11.4061    105.8692
   576.7500      0.0000    646.4131     11.4183    108.6677
   577.0000      0.0000    663.7426     11.5087    113.1703
   577.2500      0.0000    693.7870     11.6615    117.8922
   577.5000      0.0000    714.6102     11.8137    120.9262
   577.7500      0.0000    722.2268     11.8786    121.5991
   578.0000      0.0000    723.5795     11.8147    120.8923
   578.2500      0.0000    723.6192     11.6671    120.2769
   578.5000      0.0000    723.7161     11.5295    120.3676
   578.7500      0.0000    723.7283     11.4726    120.6230
   579.0000      0.0000    722.2535     11.5088    120.1607
   579.2500      0.0000    714.0935     11.6048    118.7422
   579.5000      0.0000    688.6282     11.7097    116.8447
   579.7500      0.0000    639.8416     11.7716    114.8793
   580.0000      0.0000    585.0649     11.7500    112.7151
   580.2500      0.0000    560.3649     11.6421    110.1061
   580.5000      0.0000    584.8821     11.4788    107.3831
   580.7500      0.0000    639.0735     11.2906    105.5646
   581.0000      0.0000    685.3720     11.1106    105.6785
   581.2500      0.0000    699.3929     10.9770    107.8158
   581.5000      0.0000    672.0399     10.8950    110.8923
   581.7500      0.0000    604.7806     10.8358    113.5103
   582.0000      0.0000    525.7091     10.7800    115.0314
   582.2500      0.0000    486.7249     10.7271    115.5987
   582.5000      0.0000    518.0744     10.6756    115.3480
   582.7500      0.0000    593.8423     10.6236    114.1001
   583.0000      0.0000    655.4139     10.5900    111.8575
   583.2500      0.0000    661.6703     10.6056    109.1390
   583.5000      0.0000    609.1417     10.6701    106.6107
   583.7500      0.0000    525.1711     10.7609    104.4845
   584.0000      0.0000    447.9527     10.8772    102.3521
   584.2500      0.0000    397.5912     11.0334     99.5872
   584.5000      0.0000    370.4878     11.2384     96.0657
   584.7500      0.0000    357.1791     11.4951     92.6815
   585.0000      0.0000    351.6871     11.7815     90.8646
   585.2500      0.0000    350.2525     12.0416     91.0975
   585.5000      0.0000    350.6787     12.2338     92.0672
   585.7500      0.0000    352.9913     12.3673     91.9157
   586.0000      0.0000    359.7608     12.4642     90.4525
   586.2500      0.0000    374.0956     12.5204     89.6569
   586.5000      0.0000    394.1053     12.5268     91.7981
   586.7500      0.0000    410.7750     12.4884     97.2687
   587.0000      0.0000    418.0294     12.3978    104.1086
   587.2500      0.0000    427.6559     12.2463    109.3228
   587.5000      0.0000    465.9908     12.0741    110.9723
   587.7500      0.0000    543.1164     11.9396    109.5686
   588.0000      0.0000    631.2816     11.8524    107.3751
   588.2500      0.0000    692.6216     11.7826    106.0426
   588.5000      0.0000    718.4966     11.6889    105.2053
   588.7500      0.0000    724.5764     11.5370    103.5948
   589.0000      0.0000    724.9886     11.3358    101.0546
   589.2500      0.0000    724.6869     11.1427     99.0619
   589.5000      0.0000    724.2082     10.9980     99.5196
   589.7500      0.0000    722.8792     10.8796    103.3181
   590.0000      0.0000    719.7935     10.7473    109.8904
   590.2500      0.0000    715.5552     10.5891    117.7822
   590.5000      0.0000    713.3469     10.4182    125.3743
   590.7500      0.0000    715.3043     10.2539    131.1584
   591.0000      0.0000    719.2506     10.0983    133.9364
   591.2500      0.0000    722.1568      9.9307    133.3741
   591.5000      0.0000    723.8246      9.7418    130.2687
   591.7500      0.0000    726.1163      9.5654    125.9710
   592.0000      0.0000    731.0423      9.4615    121.6897
   592.2500      0.0000    737.6109      9.4645    118.3867
   592.5000      0.0000    737.6130      9.5483    116.6145
   592.7500      0.0000    719.6365      9.6498    115.9355
   593.0000      0.0000    686.5101      9.7256    114.9740
   593.2500      0.0000    660.6622      9.7718    112.5845
   593.5000      0.0000    653.5010      9.8094    108.9523
   593.7500      0.0000    646.7521      9.8661    105.3820
   594.0000      0.0000    628.0813      9.9367    102.9711
   594.2500      0.0000    615.3195      9.9743    101.5367
   594.5000      0.0000    625.5482      9.9454     99.9051
   594.7500      0.0000    652.0081      9.8475     97.3571
   595.0000      0.0000    680.5438      9.6690     94.6232
   595.2500      0.0000    703.1025      9.4215     93.1534
   595.5000      0.0000    716.2206      9.1959     93.3856
   595.7500      0.0000    720.2153      9.1080     93.9370
   596.0000      0.0000    717.7748      9.2182     92.5451
   596.2500      0.0000    711.9308      9.5325     87.8164
   596.5000      0.0000    706.2853     10.0219     80.3255
   596.7500      0.0000    704.0738     10.6039     72.4878
   597.0000      0.0000    706.4959     11.1511     67.4757
   597.2500      0.0000    712.3223     11.5828     67.7052
   597.5000      0.0000    718.3003     11.9303     73.5636
   597.7500      0.0000    721.9109     12.2878     83.1956
   598.0000      0.0000    723.3096     12.7265     93.6633
   598.2500      0.0000    723.7678     13.2640    102.5889
   598.5000      0.0000    724.0475     13.8775    108.9429
   598.7500      0.0000    724.3729     14.4943    112.7278
   599.0000      0.0000    724.8173     14.9767    114.3890
   599.2500      0.0000    725.3329     15.2093    114.6046
   599.5000      0.0000    725.7330     15.1899    114.2178
   599.7500      0.0000    725.9717     14.9608    113.9927
   600.0000      0.0000    726.1650     14.5646    114.3609
   600.2500      0.0000    726.2405     14.1058    115.4879
   600.5000      0.0000    726.0408     13.7112    117.5057
   600.7500      0.0000    725.6649     13.4408    120.4603
   601.0000      0.0000    725.3408     13.2943    123.9913
   601.2500      0.0000    725.2162     13.2342    127.2833
   601.5000      0.0000    725.3580     13.1972    129.4523
   601.7500      0.0000    725.6673     13.1500    129.8766
   602.0000      0.0000    724.9862     13.1226    128.1839
   602.2500      0.0000    718.5018     13.1471    124.3479
   602.5000      0.0000    697.6161     13.2125    119.1640
   602.7500      0.0000    664.0807     13.3054    114.4154
