~Version Information
VERS.                      2.0: CWLS Log ASCII Standard - VERSION 2.0
WRAP.                       NO: One line per depth step
~Well Information Block
STRT.FT                -8.2500: 
STOP.FT              1729.7500: 
STEP.FT                 0.2500: 
NULL.                -999.2500: 
COMP.          Pioneer Natural Resources: COMPANY
WELL.            Dude 43-34 Tr: WELL
FLD.           Purgatorie River: FIELD
LOC.           2083' FSL & 1042' FEL--: LOCATION
PROV.                       CO: PROVINCE
CNTY.               Las Animas: COUNTRY
SRVC.          Patterson Wireline: SERVICE COMPANY
DATE.          Tue Jan 31 09:23:54 2006: LOG DATE
UWI.           05 071 08676 00: UNIQUE WELL ID
~Curve Information Block
DEPT.FT            0 000 00 00: Depth
CCL.                          : Casing Collar Locator
TT3.usec                      : CBL 3' Travel Time
AMP3.mV                       : CBL 3' Amplitude
GR.GAPI                       : Gamma Ray
~Parameter Information Block
~A  Depth       CCL         TT3         AMP3         GR     
# ...
  1599.7500      0.0000    466.9100      3.2333    166.0016
  1600.0000      0.0000    479.1995      3.2721    170.0577
  1600.2500      0.0000    503.8856      3.2837    172.3222
  1600.5000      0.0000    540.6468      3.2712    170.8576
  1600.7500      0.0000    583.1670      3.2554    164.2380
  1601.0000      0.0000    621.6542      3.2556    152.7687
  1601.2500      0.0000    648.2954      3.2718    138.3875
  1601.5000      0.0000    659.1702      3.2879    123.3241
  1601.7500      0.0000    652.2407      3.2903    108.9680
  1602.0000      0.0000    627.8685      3.2818     95.9650
  1602.2500      0.0000    593.4651      3.2742     84.7798
  1602.5000      0.0000    563.6851      3.2716     75.7419
  1602.7500      0.0000    549.7008      3.2677     68.9589
  1603.0000      0.0000    547.2581      3.2634     64.6992
  1603.2500      0.0000    539.6619      3.2795     63.6333
  1603.5000      0.0000    514.4393      3.3410     66.2286
  1603.7500      0.0000    475.0521      3.4501     71.8295
  1604.0000      0.0000    436.6117      3.5777     78.4712
  1604.2500      0.0000    414.2329      3.6833     83.7716
  1604.5000      0.0000    416.6639      3.7396     86.2940
  1604.7500      0.0000    446.0460      3.7418     86.2930
  1605.0000      0.0000    497.5974      3.7020     85.1901
  1605.2500      0.0000    558.9139      3.6375     84.4780
  1605.5000      0.0000    613.8127      3.5618     85.4739
  1605.7500      0.0000    650.0402      3.4837     89.7648
  1606.0000      0.0000    663.7548      3.4111     98.7195
  1606.2500      0.0000    657.6404      3.3530    111.9197
  1606.5000      0.0000    637.3295      3.3138    126.5933
  1606.7500      0.0000    610.1104      3.2891    139.2405
  1607.0000      0.0000    583.5383      3.2702    147.9152
  1607.2500      0.0000    561.2889      3.2511    152.9485
  1607.5000      0.0000    540.9995      3.2310    155.7203
  1607.7500      0.0000    519.4122      3.2117    156.9401
  1608.0000      0.0000    499.4132      3.1945    156.1347
  1608.2500      0.0000    489.7995      3.1778    152.7086
  1608.5000      0.0000    498.4204      3.1573    147.1804
  1608.7500      0.0000    526.1942      3.1305    141.1295
  1609.0000      0.0000    566.0731      3.1006    136.0572
  1609.2500      0.0000    606.8332      3.0762    132.3861
  1609.5000      0.0000    639.2272      3.0676    129.4988
  1609.7500      0.0000    659.9424      3.0852    126.8632
  1610.0000      0.0000    670.6017      3.1346    125.1697
  1610.2500      0.0000    674.2903      3.2090    126.0894
  1610.5000      0.0000    673.4383      3.2879    130.6322
  1610.7500      0.0000    669.2584      3.3497    137.7009
  1611.0000      0.0000    661.1542      3.3865    144.3810
  1611.2500      0.0000    646.7108      3.4056    148.0564
  1611.5000      0.0000    624.7361      3.4166    148.6920
  1611.7500      0.0000    600.4449      3.4191    148.8313
  1612.0000      0.0000    586.1330      3.4051    150.6465
  1612.2500      0.0000    592.5787      3.3700    153.2743
  1612.5000      0.0000    618.5060      3.3222    154.0255
  1612.7500      0.0000    650.8293      3.2782    151.9101
  1613.0000      0.0000    675.6767      3.2459    148.7604
  1613.2500      0.0000    687.5286      3.2156    147.0796
  1613.5000      0.0000    689.1542      3.1730    147.9561
  1613.7500      0.0000    686.5703      3.1225    150.9342
  1614.0000      0.0000    684.7859      3.0912    154.5561
  1614.2500      0.0000    685.8461      3.1047    156.5921
  1614.5000      0.0000    689.0086      3.1567    154.6990
  1614.7500      0.0000    692.5901      3.2065    147.9206
  1615.0000      0.0000    695.6584      3.2045    137.7377
  1615.2500      0.0000    697.9421      3.1287    127.2800
  1615.5000      0.0000    698.8459      3.0052    119.3033
  1615.7500      0.0000    697.4908      2.8965    114.8863
  1616.0000      0.0000    693.9066      2.8512    113.6154
  1616.2500      0.0000    689.8781      2.8542    114.2714
  1616.5000      0.0000    688.4222      2.8460    115.1278
  1616.7500      0.0000    691.9482      2.8103    114.2083
  1617.0000      0.0000    700.1663      2.8175    110.0123
  1617.2500      0.0000    709.6575      2.9523    102.3116
  1617.5000      0.0000    716.3936      3.2124     92.4969
  1617.7500      0.0000    719.1990      3.5007     83.3295
  1618.0000     -2.0000    720.0525      3.7042     77.9085
  1618.2500      0.0000    720.5168      3.7702     78.1493
  1618.5000      0.0000    718.9126      3.7167     83.7881
  1618.7500      0.0000    711.7235      3.5867     92.5587
  1619.0000      0.0000    696.5907      3.3990    101.2829
  1619.2500      0.0000    672.5040      3.1511    107.3577
  1619.5000      0.0000    638.1199      2.8735    110.0126
  1619.7500      0.0000    592.2230      2.6471    110.4688
  1620.0000      0.0000    537.0417      2.5462    110.7022
  1620.2500      0.0000    480.7003      2.5803    111.8291
  1620.5000      0.0000    434.4961      2.7020    113.5029
  1620.7500      0.0000    405.8942      2.8521    114.7755
  1621.0000      0.0000    394.1262      2.9872    115.4500
  1621.2500      0.0000    392.6774      3.0856    116.1212
  1621.5000      0.0000    394.9159      3.1443    116.8109
  1621.7500      0.0000    397.1344      3.1740    116.3492
  1622.0000      0.0000    398.1826      3.1896    113.7094
  1622.2500      0.0000    398.2357      3.2021    109.5049
  1622.5000      0.0000    398.1942      3.2134    105.6863
  1622.7500      0.0000    399.1543      3.2184    104.0809
  1623.0000      0.0000    401.6107      3.2117    105.4309
  1623.2500      0.0000    405.0642      3.1924    109.3310
  1623.5000      0.0000    408.6555      3.1618    114.4635
  1623.7500      0.0000    412.0391      3.1190    118.9200
  1624.0000      0.0000    415.5734      3.0621    120.9257
  1624.2500      0.0000    419.8420      2.9937    119.8875
  1624.5000      0.0000    424.9998      2.9246    116.9932
  1624.7500      0.0000    430.4425      2.8715    114.8716
  1625.0000      0.0000    435.3707      2.8507    116.3567
  1625.2500      0.0000    440.0213      2.8709    122.8263
  1625.5000      0.0000    446.1707      2.9277    133.2232
  1625.7500      0.0000    456.0591      3.0070    144.7227
  1626.0000      0.0000    471.0228      3.0913    154.4742
  1626.2500      0.0000    490.8666      3.1650    160.7679
  1626.5000      0.0000    513.0695      3.2167    163.0845
  1626.7500      0.0000    532.0629      3.2399    161.8473
  1627.0000      0.0000    541.4343      3.2326    158.3026
  1627.2500      0.0000    539.0318      3.1964    153.8932
  1627.5000      0.0000    529.4689      3.1369    149.1469
  1627.7500      0.0000    521.1621      3.0620    143.3615
  1628.0000      0.0000    521.8601      2.9793    135.5884
  1628.2500      0.0000    535.6030      2.8960    125.7199
  1628.5000      0.0000    560.1828      2.8232    114.6437
  1628.7500      0.0000    587.2419      2.7723    103.7156
  1629.0000      0.0000    608.4868      2.7486     94.2363
  1629.2500      0.0000    622.9006      2.7468     87.3300
  1629.5000      0.0000    635.3904      2.7543     84.0683
  1629.7500      0.0000    648.1809      2.7574     85.2784
  1630.0000      0.0000    656.4136      2.7454     90.9981
  1630.2500      0.0000    652.5847      2.7139    100.3079
  1630.5000      0.0000    633.1971      2.6676    111.6856
  1630.7500      0.0000    601.2114      2.6190    123.1972
  1631.0000      0.0000    564.5175      2.5854    132.4270
  1631.2500      0.0000    533.0379      2.5809    136.8696
  1631.5000      0.0000    515.7452      2.6087    135.0745
  1631.7500      0.0000    518.1612      2.6587    127.6960
  1632.0000      0.0000    540.5817      2.7120    117.3271
  1632.2500      0.0000    577.3112      2.7495    107.0738
  1632.5000      0.0000    618.1559      2.7616     99.3365
  1632.7500      0.0000    652.7362      2.7525     95.9000
  1633.0000      0.0000    674.9976      2.7339     98.2796
