~Version Information
VERS.                      2.0: CWLS Log ASCII Standard - VERSION 2.0
WRAP.                       NO: One line per depth step
~Well Information Block
STRT.FT                -7.7500: 
STOP.FT              1519.0000: 
STEP.FT                 0.2500: 
NULL.                -999.2500: 
COMP.          Pioneer Natural Resources: COMPANY
WELL.          Mow 8-14-33-67 Tr: WELL
FLD.           Purgatorie River: FIELD
LOC.           2258' FNL & 929' FEL--: LOCATION
CNTY.               Las Animas: COUNTY
SRVC.          Patterson Wireline: SERVICE COMPANY
DATE.          Thu Feb 02 10:06:28 2006: LOG DATE
UWI.           05 071 08684 00: UNIQUE WELL ID
STAT.                       CO: STATE
~Curve Information Block
DEPT.FT            0 000 00 00: Depth
MINMK.                        : Magnetic Mark Ticks
CCL.                          : Casing Collar Locator
TT3.usec                      : CBL 3' Travel Time
AMP3.mV                       : CBL 3' Amplitude
GR.GAPI                       : Gamma Ray
~Parameter Information Block
~A  Depth      MINMK        CCL         TT3         AMP3         GR     
# ...
   804.2500      0.0000      0.0000    263.0128     80.7206     87.2494
   804.5000      0.0000      0.0000    263.0134     80.8460     87.2025
   804.7500      0.0000      0.0000    263.0176     80.8657     89.0024
   805.0000      0.0000      0.0000    263.0224     80.8447     91.1925
   805.2500      0.0000      0.0000    263.0258     80.8465     91.7664
   805.5000      0.0000      0.0000    263.0276     80.8939     89.7795
   805.7500      0.0000      0.0000    263.0293     80.9713     85.8390
   806.0000      0.0000      0.0000    263.0316     81.0492     81.2001
   806.2500      0.0000      0.0000    263.0341     81.1064     76.8952
   806.5000      0.0000      0.0000    263.0352     81.1375     73.6500
   806.7500      0.0000      0.0000    263.0330     81.1495     71.8877
   807.0000      0.0000      0.0000    263.0268     81.1502     71.5191
   807.2500      0.0000      0.0000    263.0175     81.1414     72.1594
   807.5000      0.0000      0.0000    263.0070     81.1188     73.7702
   807.7500      0.0000      0.0000    262.9983     81.0788     76.7794
   808.0000      0.0000      0.0000    262.9937     81.0249     81.5026
   808.2500      0.0000      0.0000    262.9939     80.9651     87.7617
   808.5000      0.0000      0.0000    262.9973     80.9024     94.9946
   808.7500      0.0000      0.0000    263.0011     80.8312    102.1261
   809.0000      0.0000      0.0000    263.0021     80.7478    107.3235
   809.2500      0.0000      0.0000    262.9985     80.6617    108.6304
   809.5000      0.0000      0.0000    262.9902     80.5893    105.3431
   809.7500      0.0000      0.0000    262.9801     80.5368     98.7127
   810.0000      0.0000      0.0000    262.9727     80.4959     91.2058
   810.2500      0.0000      0.0000    262.9711     80.4554     85.0253
   810.5000      0.0000      0.0000    262.9761     80.4073     81.1379
   810.7500      0.0000      0.0000    262.9856     80.3442     79.3687
   811.0000      0.0000      0.0000    262.9959     80.2641     79.0818
   811.2500      0.0000      0.0000    263.0039     80.1817     79.7235
   811.5000      0.0000      0.0000    263.0081     80.1229     80.9546
   811.7500      0.0000      0.0000    263.0096     80.1077     82.4020
   812.0000      0.0000      0.0000    263.0106     80.1457     83.3399
   812.2500      0.0000      0.0000    263.0120     80.2419     82.9938
   812.5000      0.0000      0.0000    263.0136     80.3920     81.4877
   812.7500      0.0000      0.0000    263.0151     80.5702     80.0809
   813.0000      0.0000      0.0000    263.0166     80.7311     80.0081
   813.2500      0.0000      0.0000    263.0179     80.8322     81.3587
   813.5000      0.0000      0.0000    263.0175     80.8591     83.5219
   813.7500      0.0000      0.0000    263.0126     80.8344     86.5392
   814.0000      0.0000      0.0000    263.0011     80.8027     91.4614
   814.2500      0.0000      0.0000    262.9843     80.7994     99.1006
   814.5000      0.0000      0.0000    262.9673     80.8273    108.5906
   814.7500      0.0000      0.0000    262.9554     80.8635    117.5154
   815.0000      0.0000      0.0000    262.9498     80.8852    123.7282
   815.2500      0.0000      0.0000    262.9480     80.8835    127.0593
   815.5000      0.0000      0.0000    262.9470     80.8567    129.0844
   815.7500      0.0000      0.0000    262.9455     80.8024    131.0780
   816.0000      0.0000      0.0000    262.9436     80.7210    132.3864
   816.2500      0.0000      0.0000    262.9413     80.6212    131.3391
   816.5000      0.0000      0.0000    262.9383     80.5170    127.7951
   816.7500      0.0000      0.0000    262.9346     80.4195    124.0081
   817.0000      0.0000      0.0000    262.9301     80.3375    122.3815
   817.2500      0.0000      0.0000    262.9236     80.2832    122.7972
   817.5000      0.0000      0.0000    262.9141     80.2709    122.7192
   817.7500      0.0000      0.0000    262.9022     80.3049    119.6791
   818.0000      0.0000      0.0000    262.8901     80.3733    113.3005
   818.2500      0.0000      0.0000    262.8810     80.4538    105.2356
   818.5000      0.0000      0.0000    262.8771     80.5238     97.6817
   818.7500      0.0000      0.0000    262.8792     80.5689     92.1468
   819.0000      0.0000      0.0000    262.8867     80.5896     89.4000
   819.2500      0.0000      0.0000    262.8984     80.5987     89.8519
   819.5000      0.0000      0.0000    262.9125     80.6089     93.1182
   819.7500      0.0000      0.0000    262.9274     80.6240     97.2666
   820.0000      0.0000      0.0000    262.9412     80.6426     99.5373
   820.2500      0.0000      0.0000    262.9520     80.6656     98.5044
   820.5000      0.0000      0.0000    262.9581     80.6956     95.2570
   820.7500      0.0000      0.0000    262.9594     80.7318     92.0427
   821.0000      0.0000      0.0000    262.9581     80.7690     89.7880
   821.2500      0.0000      0.0000    262.9580     80.7976     87.2933
   821.5000      0.0000      0.0000    262.9620     80.8027     82.9558
   821.7500      0.0000      0.0000    262.9711     80.7604     76.8676
   822.0000      0.0000      0.0000    262.9855     80.6266     70.8409
   822.2500      0.0000      0.0000    263.0106     80.2795     66.6783
   822.5000      0.0000      0.0000    263.0697     79.4293     64.9626
   822.7500      0.0000      0.0000    263.2264     77.6016     65.3772
   823.0000      0.0000      0.0000    263.5959     74.3968     67.5604
   823.2500      0.0000      0.0000    264.3046     69.9693     71.3688
   823.5000      0.0000      0.0000    265.3891     65.1867     76.4612
   823.7500      0.0000      0.0000    266.7130     61.0530     81.8229
   824.0000      0.0000      0.0000    268.0078     57.9830     85.7947
   824.2500      0.0000      0.0000    269.0244     55.8325     86.7122
   824.5000      0.0000      0.0000    269.6641     54.4165     83.7842
   824.7500      0.0000      0.0000    269.9896     53.6520     77.6116
   825.0000      0.0000      0.0000    270.1378     53.3508     69.9146
   825.2500      0.0000      0.0000    270.2322     53.2284     62.7627
   825.5000      0.0000      0.0000    270.3539     53.1181     57.9081
   825.7500      0.0000      0.0000    270.5332     53.1425     56.2572
   826.0000      0.0000      0.0000    270.7015     53.7706     57.4500
   826.2500      0.0000      0.0000    270.6410     55.6201     60.1217
   826.5000      0.0000      0.0000    270.0694     58.9044     63.0387
   826.7500      0.0000      0.0000    268.8834     63.0525     66.1476
   827.0000      0.0000      0.0000    267.3198     67.1565     70.3811
   827.2500      0.0000      0.0000    265.8151     70.7186     76.3576
   827.5000      0.0000      0.0000    264.7010     73.6976     83.5803
   827.7500      0.0000      0.0000    264.0475     76.0549     91.1594
   828.0000      0.0000      0.0000    263.7382     77.6657     98.7762
   828.2500      0.0000      0.0000    263.6192     78.5663    106.3665
   828.5000      0.0000      0.0000    263.5827     79.0003    113.3828
   828.7500      0.0000      0.0000    263.5748     79.2281    119.2589
   829.0000      0.0000      0.0000    263.5732     79.3884    124.3052
   829.2500      0.0000      0.0000    263.5681     79.5108    129.3430
   829.5000      0.0000      0.0000    263.5562     79.5785    134.7828
   829.7500      0.0000      0.0000    263.5400     79.5825    140.6893
   830.0000      0.0000      0.0000    263.5253     79.5367    147.2120
   830.2500      0.0000      0.0000    263.5168     79.4649    154.1758
   830.5000      1.0000      0.0000    263.5149     79.3908    160.4409
   830.7500      0.0000      0.0000    263.5164     79.3401    164.2012
   831.0000      0.0000      0.0000    263.5172     79.3393    164.0452
   831.2500      0.0000      0.0000    263.5144     79.4025    159.9326
   831.5000      0.0000      0.0000    263.5076     79.5220    153.6156
   831.7500      0.0000      0.0000    263.4978     79.6791    148.0517
   832.0000      0.0000      0.0000    263.4854     79.8630    145.6072
