~Version Information
VERS.                      2.0: CWLS Log ASCII Standard - VERSION 2.0
WRAP.                       NO: One line per depth step
~Well Information Block
STRT.FT               -16.2500: 
STOP.FT               938.7500: 
STEP.FT                 0.2500: 
NULL.                -999.2500: 
COMP.          XTO Energy Inc.: COMPANY
WELL.          Golden Eagle 20-04: WELL
FLD.           Purgatrorie River: FIELD
LOC.           702' FNL & 487' FWL--: LOCATION
STAT.                       CO: PROVINCE
CNTY.               Las Animas: COUNTY
CTRY. USA : Country
SECT. 20 : Section 
TOWN. 33S : Township
RANG. 67W : Range
SRVC.          Patterson Wireline: SERVICE COMPANY
DATE.          Mon Dec 05 10:32:54 2005: LOG DATE
API.           05 071 08599 00: UNIQUE WELL ID
~Curve Information Block
DEPT.FT            0 000 00 00: Depth
CCL.                          : Casing Collar Locator
TT3.usec                      : CBL 3' Travel Time
AMP3.mV                       : CBL 3' Amplitude
GR.GAPI                       : Gamma Ray
~Parameter Information Block
~A  Depth       CCL         TT3         AMP3         GR     
# ...
   720.7500      0.0000    681.0624      1.8584     83.7476
   721.0000      0.0000    678.2092      1.8884     79.0121
   721.2500      0.0000    674.5574      1.9448     78.6437
   721.5000      0.0000    669.4500      2.0434     82.7311
   721.7500      0.0000    663.2297      2.1800     90.0286
   722.0000      0.0000    657.5425      2.3268     98.3787
   722.2500      0.0000    654.3851      2.4501    105.2799
   722.5000      0.0000    654.5884      2.5376    108.9612
   722.7500      0.0000    657.4088      2.6081    109.5117
   723.0000      0.0000    661.4262      2.6954    108.8475
   723.2500      0.0000    665.1774      2.8220    109.2717
   723.5000      0.0000    667.0101      2.9899    112.0441
   723.7500      0.0000    665.5162      3.1879    117.0141
   724.0000      0.0000    660.7614      3.3995    122.9437
   724.2500      0.0000    654.5524      3.6078    128.1637
   724.5000      0.0000    649.0923      3.8059    131.5518
   724.7500      0.0000    645.5853      4.0023    133.2886
   725.0000      0.0000    644.0245      4.2082    134.5853
   725.2500      0.0000    643.7774      4.4178    136.6656
   725.5000      0.0000    644.1550      4.6118    139.8123
   725.7500      0.0000    644.6821      4.7735    143.0990
   726.0000      0.0000    645.1462      4.8938    145.1953
   726.2500      0.0000    645.5859      4.9657    145.6600
   726.5000      0.0000    646.2959      4.9828    145.1720
   726.7500      0.0000    647.6938      4.9434    144.2989
   727.0000      0.0000    649.8665      4.8567    142.4495
   727.2500      0.0000    652.1085      4.7454    138.3881
   727.5000      0.0000    653.1993      4.6449    131.6843
   727.7500      0.0000    652.5009      4.5937    123.4538
   728.0000      0.0000    650.7382      4.6146    115.7001
   728.2500      0.0000    649.5467      4.7001    109.9798
   728.5000      0.0000    650.3248      4.8160    106.7151
   728.7500      0.0000    653.3286      4.9226    105.6997
   729.0000      0.0000    657.3079      4.9932    106.7108
   729.2500      0.0000    659.9796      5.0170    109.4077
   729.5000      0.0000    659.5446      4.9932    113.1262
   729.7500      0.0000    656.1678      4.9276    117.1521
   730.0000      0.0000    651.7723      4.8316    121.0434
   730.2500      0.0000    648.3256      4.7185    124.5944
   730.5000      0.0000    646.5418      4.6028    127.6376
   730.7500      0.0000    646.0154      4.5005    129.9234
   731.0000      0.0000    646.0483      4.4262    131.1776
   731.2500      0.0000    646.1739      4.3872    131.3576
   731.5000      0.0000    646.2004      4.3784    130.9137
   731.7500      0.0000    646.0880      4.3838    130.6252
   732.0000      0.0000    645.8709      4.3815    131.0210
   732.2500      0.0000    645.6187      4.3548    131.9525
   732.5000      0.0000    645.3856      4.3013    132.7988
   732.7500      0.0000    645.1844      4.2255    133.0634
   733.0000      0.0000    645.0569      4.1234    132.6569
   733.2500      0.0000    645.2156      3.9845    131.8134
   733.5000      0.0000    646.1637      3.8129    131.0759
   733.7500      0.0000    648.6517      3.6338    131.1824
   734.0000      0.0000    653.2988      3.4758    132.3220
   734.2500      0.0000    659.9482      3.3500    133.3827
   734.5000      0.0000    667.3587      3.2478    132.4315
   734.7500      0.0000    673.8115      3.1532    128.2608
   735.0000      0.0000    678.2111      3.0573    121.4320
   735.2500      0.0000    680.5859      2.9655    113.9097
   735.5000      0.0000    681.6501      2.8951    107.8718
   735.7500      0.0000    682.1160      2.8628    104.6278
   736.0000      0.0000    682.3859      2.8737    104.1510
   736.2500      0.0000    682.6204      2.9198    105.2338
   736.5000      0.0000    682.8955      2.9903    106.1328
   736.7500      0.0000    683.2675      3.0853    105.6939
   737.0000      0.0000    683.7338      3.2148    104.3519
   737.2500      0.0000    684.1796      3.3786    103.6314
   737.5000      0.0000    684.4087      3.5498    104.2738
   737.7500      0.0000    684.2343      3.6932    105.4471
   738.0000      0.0000    683.5046      3.8015    106.2415
   738.2500      0.0000    681.9780      3.9027    107.3304
   738.5000      0.0000    679.1859      4.0328    110.3859
   738.7500      0.0000    674.6367      4.2113    115.9856
   739.0000      0.0000    668.4294      4.4330    122.7537
   739.2500      0.0000    661.6434      4.6677    128.8757
   739.5000      0.0000    655.8184      4.8728    133.8283
   739.7500      0.0000    651.9270      5.0229    138.0278
   740.0000      0.0000    649.9847      5.1251    141.4776
   740.2500      0.0000    649.6603      5.1994    143.7101
   740.5000      0.0000    651.0472      5.2515    144.7923
   740.7500      0.0000    654.6199      5.2807    145.5751
   741.0000      0.0000    660.3359      5.3077    146.7896
   741.2500      0.0000    666.8909      5.3741    148.1219
   741.5000      0.0000    672.2224      5.5022    148.3328
   741.7500      0.0000    675.0336      5.6593    146.5180
   742.0000      0.0000    675.8020      5.7750    143.3301
   742.2500      0.0000    676.1635      5.7984    140.6316
   742.5000      0.0000    677.3293      5.7359    139.7483
   742.7500      0.0000    679.1938      5.6381    140.2382
   743.0000      0.0000    680.8351      5.5608    140.3669
   743.2500      0.0000    681.4669      5.5369    138.6563
   743.5000      0.0000    680.8510      5.5711    135.1004
   743.7500      0.0000    679.3029      5.6489    131.1775
   744.0000      0.0000    677.6631      5.7458    128.6992
   744.2500      0.0000    676.9638      5.8315    128.5337
   744.5000      0.0000    677.6690      5.8750    130.5434
   744.7500      0.0000    679.2437      5.8571    134.5496
   745.0000      0.0000    680.6318      5.7819    140.6888
   745.2500      0.0000    681.0183      5.6784    148.4612
   745.5000      0.0000    680.1345      5.5875    155.9981
   745.7500      0.0000    678.2487      5.5356    160.9880
   746.0000      0.0000    676.1370      5.5180    162.4086
   746.2500      0.0000    674.6955      5.5072    161.1070
   746.5000      0.0000    674.1895      5.4728    158.7711
   746.7500      0.0000    674.1211      5.3888    156.5413
   747.0000      0.0000    674.1290      5.2391    154.4799
   747.2500      0.0000    674.6262      5.0274    151.9231
   747.5000      0.0000    676.1661      4.7754    148.0147
   747.7500      0.0000    678.5479      4.5077    142.1398
   748.0000      0.0000    680.9761      4.2494    134.5229
   748.2500      0.0000    682.8564      4.0330    126.6005
   748.5000      0.0000    684.1334      3.8898    120.2969
   748.7500      0.0000    685.0433      3.8239    116.5980
   749.0000      0.0000    685.8078      3.8049    114.8729
   749.2500      0.0000    686.5095      3.7902    113.7209
   749.5000      0.0000    687.1016      3.7560    112.7038
   749.7500      0.0000    687.4862      3.7092    113.0652
   750.0000      0.0000    687.6187      3.6798    116.1932
   750.2500      0.0000    687.5413      3.7006    121.4196
   750.5000      0.0000    687.3219      3.7826    126.1760
   750.7500      0.0000    686.9750      3.9068    128.3859
   751.0000      0.0000    686.4288      4.0396    127.8585
   751.2500      0.0000    685.5066      4.1540    125.5432
   751.5000      0.0000    683.8362      4.2386    122.6794
   751.7500      0.0000    680.7773      4.2936    120.5835
   752.0000      0.0000    675.6803      4.3277    119.9590
   752.2500      0.0000    668.5708      4.3561    120.2593
   752.5000      0.0000    660.6325      4.3900    120.8008
   752.7500      0.0000    653.7109      4.4225    122.4352
   753.0000      0.0000    649.1254      4.4327    126.7198
   753.2500      0.0000    646.9837      4.4102    133.1035
   753.5000      0.0000    646.5378      4.3733    138.2155
   753.7500      0.0000    646.9619      4.3560    138.7439
   754.0000      0.0000    647.8337      4.3806    134.5776
