~Version Information
VERS.                      2.0: CWLS Log ASCII Standard - VERSION 2.0
WRAP.                       NO: One line per depth step
~Well Information Block
STRT.FT                -7.5000: 
STOP.FT               988.5000: 
STEP.FT                 0.2500: 
NULL.                -999.2500: 
COMP.          Pioneer Natural Resources: COMPANY
WELL.          Stags Leap 13-30: WELL
FLD.           Purgatorie River: FIELD
LOC.           1813' FSL & 117' FWL--: LOCATION
PROV.                       CO: PROVINCE
CNTY.               Las Animas: COUNTRY
SRVC.          Patterson Wireline: SERVICE COMPANY
DATE.          Tue Dec 13 11:29:26 2005: LOG DATE
UWI.           05 071 08595 00: UNIQUE WELL ID
~Curve Information Block
DEPT.FT            0 000 00 00: Depth
CCL.                          : Casing Collar Locator
TT3.usec                      : CBL 3' Travel Time
AMP3.mV                       : CBL 3' Amplitude
GR.GAPI                       : Gamma Ray
~Parameter Information Block
~A  Depth       CCL         TT3         AMP3         GR     
# ...
    59.5000      0.0000    931.8757      5.7805     94.1123
    59.7500      0.0000    946.0513      5.7851     92.6575
    60.0000      0.0000    962.1124      5.7121     92.1291
    60.2500      0.0000    969.1077      5.5792     91.5154
    60.5000      0.0000    961.4487      5.4175     90.4733
    60.7500      0.0000    942.9948      5.2569     90.0167
    61.0000      0.0000    923.2203      5.1191     91.5890
    61.2500      0.0000    909.6265      5.0170     95.6161
    61.5000      0.0000    903.0212      4.9516    101.0933
    61.7500      0.0000    898.9617      4.9096    106.1886
    62.0000      0.0000    893.2878      4.8735    108.8924
    62.2500      0.0000    885.9506      4.8361    107.7388
    62.5000      0.0000    880.1429      4.8049    102.8906
    62.7500      0.0000    879.7266      4.7916     96.6112
    63.0000      0.0000    887.6091      4.7999     91.9938
    63.2500      0.0000    904.3254      4.8192     90.7635
    63.5000      0.0000    926.9061      4.8310     92.2241
    63.7500      0.0000    949.4849      4.8264     94.3080
    64.0000      0.0000    965.5942      4.8183     95.4883
    64.2500      0.0000    972.1553      4.8354     95.4654
    64.5000      0.0000    973.4096      4.9011     94.1947
    64.7500      0.0000    978.4235      5.0215     91.1013
    65.0000      0.0000    990.7134      5.1873     85.8650
    65.2500      0.0000   1001.9750      5.3812     79.5262
    65.5000      0.0000   1000.6380      5.5823     74.2514
    65.7500      0.0000    985.8674      5.7679     72.0751
    66.0000      0.0000    968.6219      5.9145     73.7948
    66.2500      0.0000    959.4182      6.0050     78.6324
    66.5000      0.0000    959.5819      6.0419     84.7256
    66.7500      0.0000    964.0697      6.0530     90.1025
    67.0000      0.0000    967.8091      6.0749     93.4819
    67.2500      0.0000    968.5417      6.1316     94.4866
    67.5000      0.0000    967.3303      6.2305     93.3979
    67.7500      0.0000    967.0089      6.3724     90.8861
    68.0000      0.0000    967.6502      6.5520     87.9021
    68.2500      0.0000    964.5656      6.7491     85.4433
    68.5000      0.0000    953.9267      6.9272     83.9298
    68.7500      0.0000    939.8862      7.0489     82.6946
    69.0000      0.0000    933.8389      7.0973     80.4089
    69.2500      0.0000    945.8223      7.0864     76.4046
    69.5000      0.0000    975.7557      7.0498     71.7327
    69.7500      0.0000   1012.0341      7.0154     68.7229
    70.0000      0.0000   1039.5146      6.9883     69.2180
    70.2500      0.0000   1049.4423      6.9588     73.0952
    70.5000      0.0000   1041.8253      6.9259     78.3531
    70.7500      0.0000   1021.7812      6.9090     82.4787
    71.0000      0.0000    996.8416      6.9327     83.9644
    71.2500      0.0000    975.3063      6.9984     83.1931
    71.5000      0.0000    962.7486      7.0773     82.1608
    71.7500      0.0000    959.3993      7.1324     82.9537
    72.0000      0.0000    961.9407      7.1484     86.0843
    72.2500      0.0000    968.0573      7.1380     90.1888
    72.5000      0.0000    979.1586      7.1248     93.2232
    72.7500      0.0000    998.7833      7.1243     93.9128
    73.0000      0.0000   1027.9816      7.1426     92.3145
    73.2500      0.0000   1061.9724      7.1837     89.2650
    73.5000      0.0000   1091.7189      7.2513     85.3365
    73.7500      0.0000   1108.5885      7.3435     80.4802
    74.0000      0.0000   1107.8490      7.4506     74.8959
    74.2500      0.0000   1090.1653      7.5509     69.8910
    74.5000      0.0000   1062.0339      7.6114     67.3225
    74.7500      0.0000   1033.4346      7.6029     68.1025
    75.0000      0.0000   1012.5856      7.5225     71.4897
    75.2500      0.0000   1003.1847      7.3960     75.7739
    75.5000      0.0000   1006.8907      7.2518     79.3246
    75.7500      0.0000   1025.0220      7.0987     81.0406
    76.0000      0.0000   1054.6984      6.9305     80.4214
    76.2500      0.0000   1084.9373      6.7473     77.6656
    76.5000      0.0000   1100.2247      6.5701     73.5652
    76.7500      0.0000   1090.0751      6.4317     69.1870
    77.0000      0.0000   1057.0605      6.3536     65.7000
    77.2500      0.0000   1017.0177      6.3296     64.0368
    77.5000      0.0000    989.7828      6.3336     64.0978
    77.7500      0.0000    986.1738      6.3435     64.5633
    78.0000      0.0000   1001.6846      6.3535     64.1375
    78.2500      0.0000   1021.1954      6.3673     62.8798
    78.5000      0.0000   1029.2228      6.3801     61.9343
    78.7500      0.0000   1019.2786      6.3629     62.1729
    79.0000      0.0000    997.8602      6.2699     63.4766
    79.2500      0.0000    978.7214      6.0790     64.9940
    79.5000      0.0000    970.5101      5.8397     65.6062
    79.7500      0.0000    970.7560      5.6591     64.3675
    80.0000      0.0000    972.2213      5.6059     61.1131
    80.2500      0.0000    971.3231      5.6412     56.7831
    80.5000      0.0000    968.8440      5.6777     52.7830
    80.7500      0.0000    966.4785      5.6872     49.7603
    81.0000      0.0000    965.7596      5.7028     47.2045
    81.2500      2.0000    968.0351      5.7467     44.5322
    81.5000     -2.0000    973.7723      5.8083     42.3509
    81.7500      0.0000    982.0388      5.8835     42.1691
    82.0000      0.0000    988.7360      6.0078     44.8038
    82.2500      0.0000    985.3833      6.2425     49.4649
    82.5000      0.0000    965.1333      6.6133     54.6808
    82.7500      0.0000    931.9464      7.0417     59.7684
    83.0000      0.0000    898.8495      7.3642     64.8678
    83.2500      0.0000    876.0651      7.4621     69.6080
    83.5000      0.0000    864.5127      7.3586     72.5148
    83.7500      0.0000    859.8103      7.1678     72.2009
    84.0000      0.0000    857.6639      6.9865     68.6695
    84.2500      0.0000    855.2054      6.8590     63.0557
    84.5000      0.0000    850.9783      6.8010     56.6609
    84.7500      0.0000    845.6964      6.8210     50.6765
    85.0000      0.0000    842.5513      6.9275     46.1940
    85.2500      0.0000    845.4758      7.1286     43.6987
    85.5000      0.0000    855.7436      7.4247     42.6444
    85.7500      0.0000    869.8474      7.7983     41.9249
    86.0000      0.0000    881.7498      8.2162     40.8653
    86.2500      0.0000    887.7122      8.6398     39.7593
    86.5000      0.0000    888.4376      9.0407     39.5467
    86.7500      0.0000    886.9219      9.4106     40.8670
    87.0000      0.0000    885.4600      9.7510     43.3765
    87.2500      0.0000    884.7354     10.0460     46.1285
    87.5000      0.0000    884.5206     10.2545     48.5153
    87.7500      0.0000    884.4611     10.3338     50.4385
    88.0000      0.0000    884.3723     10.2677     51.6343
    88.2500      0.0000    884.1620     10.0737     51.4694
    88.5000      0.0000    883.5951      9.8003     49.6743
    88.7500      0.0000    882.0927      9.5154     46.9095
    89.0000      0.0000    878.6798      9.2803     44.3013
    89.2500      0.0000    872.2445      9.1218     42.4936
    89.5000      0.0000    862.2238      9.0282     41.3314
    89.7500      0.0000    849.4138      8.9692     40.5074
    90.0000      0.0000    836.0679      8.9185     40.4200
    90.2500      0.0000    824.7461      8.8593     42.1672
    90.5000      0.0000    816.6331      8.7774     46.4822
    90.7500      0.0000    810.9517      8.6594     52.7377
    91.0000      0.0000    806.1293      8.5036     59.2307
    91.2500      0.0000    801.2016      8.3289     64.5314
    91.5000      0.0000    795.8763      8.1696     68.4512
    91.7500      0.0000    789.8015      8.0581     71.6212
    92.0000      0.0000    782.3173      8.0051     74.2246
    92.2500      0.0000    772.7062      7.9895     75.5716
    92.5000      0.0000    760.6235      7.9691     75.2058
    92.7500      0.0000    746.8789      7.9117     74.0586
