~Version Information
VERS.                      2.0: CWLS Log ASCII Standard - VERSION 2.0
WRAP.                       NO: One line per depth step
~Well Information Block
STRT.FT               -16.2500: 
STOP.FT               938.7500: 
STEP.FT                 0.2500: 
NULL.                -999.2500: 
COMP.          XTO Energy Inc.: COMPANY
WELL.          Golden Eagle 20-04: WELL
FLD.           Purgatrorie River: FIELD
LOC.           702' FNL & 487' FWL--: LOCATION
STAT.                       CO: PROVINCE
CNTY.               Las Animas: COUNTY
CTRY. USA : Country
SECT. 20 : Section 
TOWN. 33S : Township
RANG. 67W : Range
SRVC.          Patterson Wireline: SERVICE COMPANY
DATE.          Mon Dec 05 10:32:54 2005: LOG DATE
API.           05 071 08599 00: UNIQUE WELL ID
~Curve Information Block
DEPT.FT            0 000 00 00: Depth
CCL.                          : Casing Collar Locator
TT3.usec                      : CBL 3' Travel Time
AMP3.mV                       : CBL 3' Amplitude
GR.GAPI                       : Gamma Ray
~Parameter Information Block
~A  Depth       CCL         TT3         AMP3         GR     
# ...
   486.2500      0.0000    547.5214      8.1653    139.5004
   486.5000      0.0000    554.8695      8.0063    138.7826
   486.7500      0.0000    569.3868      7.6709    138.6334
   487.0000      0.0000    588.2277      7.1007    139.6764
   487.2500      0.0000    607.6804      6.2838    142.0423
   487.5000      0.0000    624.4451      5.2890    144.9771
   487.7500      0.0000    636.7542      4.2695    146.8365
   488.0000      0.0000    644.4860      3.4122    145.7753
   488.2500      0.0000    648.6221      2.8517    140.7360
   488.5000      0.0000    650.4677      2.6064    131.7581
   488.7500      0.0000    651.0347      2.5882    119.7390
   489.0000      0.0000    650.9105      2.6716    106.5472
   489.2500      0.0000    650.4600      2.7639     95.0761
   489.5000      0.0000    649.9944      2.8287     88.1569
   489.7500      0.0000    649.7409      2.8647     86.9990
   490.0000      0.0000    649.7637      2.8797     90.7397
   490.2500      0.0000    649.9470      2.8914     97.2096
   490.5000      0.0000    650.1105      2.9468    103.8697
   490.7500      0.0000    650.1627      3.1263    108.5393
   491.0000      0.0000    650.0436      3.5092    110.1303
   491.2500      0.0000    649.4012      4.1121    109.1118
   491.5000      0.0000    647.2469      4.8501    107.1204
   491.7500      0.0000    642.3031      5.5657    105.7786
   492.0000      0.0000    634.5374      6.1161    105.6996
   492.2500      0.0000    626.6946      6.4447    106.7549
   492.5000      0.0000    623.2109      6.5831    109.1333
   492.7500      0.0000    626.3942      6.6054    113.4283
   493.0000      0.0000    634.1243      6.5883    119.2776
   493.2500      0.0000    642.0586      6.5902    124.4601
   493.5000      0.0000    647.3872      6.6427    126.2991
   493.7500      0.0000    649.9397      6.7541    124.3591
   494.0000      0.0000    650.6671      6.9306    121.1473
   494.2500      0.0000    649.9690      7.1915    119.4890
   494.5000      0.0000    646.9942      7.5529    119.6802
   494.7500      0.0000    640.0110      7.9904    120.0143
   495.0000      0.0000    628.0887      8.4367    119.5196
   495.2500      0.0000    613.4772      8.8156    118.9100
   495.5000      0.0000    601.9547      9.0594    118.8455
   495.7500      0.0000    599.3157      9.1007    118.5131
   496.0000      0.0000    606.7811      8.8893    116.6287
   496.2500      0.0000    620.2160      8.4332    113.2085
   496.5000      0.0000    633.7419      7.8076    109.6910
   496.7500      0.0000    643.6640      7.1253    107.4913
   497.0000      0.0000    649.4529      6.5005    106.7552
   497.2500      0.0000    652.2921      6.0102    106.6164
   497.5000      0.0000    653.4398      5.6741    106.6713
   497.7500      0.0000    653.6186      5.4800    107.7810
   498.0000      0.0000    653.1619      5.4361    110.9021
   498.2500      0.0000    652.2808      5.5862    115.3745
   498.5000      0.0000    651.1686      5.9646    119.1075
   498.7500      0.0000    650.0491      6.5311    120.6415
   499.0000      0.0000    649.1754      7.1523    120.6849
   499.2500      0.0000    648.7380      7.6632    121.5497
   499.5000      0.0000    648.7361      7.9645    125.2531
   499.7500      0.0000    648.9785      8.0670    132.1151
   500.0000      0.0000    649.2407      8.0581    140.8286
   500.2500      0.0000    649.4207      8.0364    149.5053
   500.5000      0.0000    649.5560      8.0805    156.5844
   500.7500      0.0000    649.7198      8.2556    161.0668
   501.0000      0.0000    649.9194      8.6060    162.3240
   501.2500      0.0000    650.0762      9.1101    159.9156
   501.5000      0.0000    650.0767      9.6587    153.6926
   501.7500      0.0000    649.7274     10.1092    144.1638
   502.0000      0.0000    648.5657     10.3756    132.7071
   502.2500      0.0000    645.6530     10.4646    121.1716
   502.5000      0.0000    639.9415     10.4395    111.0403
   502.7500      0.0000    631.6718     10.3678    102.8612
   503.0000      0.0000    623.7151     10.2906     96.4187
   503.2500      0.0000    620.4315     10.2203     91.2634
   503.5000      0.0000    623.9763     10.1563     86.9015
   503.7500      0.0000    632.1322     10.1028     82.7753
   504.0000      0.0000    640.5056     10.0716     78.5893
   504.2500      0.0000    646.2130     10.0708     74.8272
   504.5000      0.0000    648.9733     10.0938     72.6140
   504.7500      0.0000    649.7538     10.1205     72.8942
   505.0000      0.0000    649.4765     10.1258     75.8048
   505.2500      0.0000    648.7549     10.0920     80.7643
   505.5000      0.0000    648.0215     10.0227     86.9119
   505.7500      0.0000    647.5046      9.9446     93.4143
   506.0000      0.0000    647.1945      9.8914     99.5550
   506.2500      0.0000    646.9495      9.8798    104.8874
   506.5000      0.0000    646.6790      9.9025    109.4972
   506.7500      0.0000    646.4053      9.9396    113.8425
   507.0000      0.0000    646.2095      9.9748    117.9832
   507.2500      0.0000    646.1449     10.0039    121.0935
   507.5000      0.0000    646.1786     10.0300    122.1290
   507.7500      0.0000    646.1215     10.0538    121.0368
   508.0000      0.0000    645.5391     10.0701    118.9701
   508.2500      0.0000    643.5785     10.0728    117.1046
   508.5000      0.0000    639.0202     10.0606    115.4640
   508.7500      0.0000    630.9015     10.0375    113.2969
   509.0000      0.0000    619.5591     10.0099    110.5663
   509.2500      0.0000    607.0338      9.9848    108.5653
   509.5000      0.0000    596.1881      9.9675    108.7982
   509.7500      0.0000    589.2367      9.9621    111.5557
   510.0000      0.0000    586.4954      9.9717    115.8498
   510.2500      0.0000    585.5596      9.9950    120.3007
   510.5000      0.0000    581.9302     10.0187    123.5650
   510.7500      0.0000    572.4222     10.0107    124.4017
   511.0000      0.0000    559.4258      9.9275    122.4324
   511.2500      0.0000    551.0109      9.7347    119.0225
   511.5000      0.0000    555.2761      9.4266    116.5343
   511.7500      0.0000    573.7778      9.0257    116.2354
   512.0000      0.0000    599.9983      8.5705    117.3425
   512.2500      0.0000    624.0797      8.1060    118.1264
   512.5000      0.0000    639.5656      7.6810    117.4430
   512.7500      0.0000    646.2374      7.3415    115.3495
   513.0000      0.0000    647.6861      7.1181    112.8513
   513.2500      0.0000    647.4156      7.0146    111.0571
   513.5000      0.0000    647.1424      7.0088    110.3273
   513.7500      0.0000    647.2363      7.0693    110.2710
   514.0000      0.0000    647.5685      7.1760    110.4406
   514.2500      0.0000    647.9434      7.3288    110.7326
   514.5000      0.0000    648.2325      7.5333    111.1889
   514.7500      0.0000    648.4075      7.7740    111.7008
   515.0000      0.0000    648.5223      8.0078    111.9177
   515.2500      0.0000    648.6537      8.1897    111.3722
   515.5000      0.0000    648.8464      8.3098    109.9526
   515.7500      0.0000    649.0992      8.3976    108.3479
   516.0000      0.0000    649.3837      8.4890    107.7466
   516.2500      0.0000    649.6794      8.5926    108.8428
   516.5000      0.0000    649.9954      8.6907    111.1906
   516.7500      0.0000    650.3517      8.7652    113.6349
   517.0000      0.0000    650.7299      8.8187    115.4230
   517.2500      0.0000    651.0503      8.8680    116.9291
   517.5000      0.0000    651.2137      8.9192    119.3395
   517.7500      0.0000    651.1782      8.9560    123.5514
   518.0000      0.0000    651.0005      8.9548    129.1786
   518.2500      0.0000    650.7987      8.9132    134.5134
   518.5000      0.0000    650.6653      8.8576    137.6698
   518.7500      0.0000    650.6218      8.8203    138.0280
   519.0000      0.0000    650.6414      8.8110    136.6338
   519.2500      0.0000    650.6824      8.8143    135.2499
   519.5000      0.0000    650.6914      8.8117    135.0251
