~Version Information
VERS.                      2.0: CWLS Log ASCII Standard - VERSION 2.0
WRAP.                       NO: One line per depth step
~Well Information Block
STRT.FT               -12.0000: 
STOP.FT              1266.5000: 
STEP.FT                 0.2500: 
NULL.                -999.2500: 
COMP.          Pioneer Natural Resources: COMPANY
WELL.          Hot Tomatoes 22-20: WELL
FLD.           Purgatorie River: FIELD
LOC.           2120' FNL & 2585' FWL: LOCATION
CNTY.               Las Animas: COUNTY
SRVC.                Patterson: SERVICE COMPANY
DATE.          Thu Mar 02 13:59:39 2006: LOG DATE
UWI.           05 071 08701 00: UNIQUE WELL ID
STAT.                       CO: STATE
~Curve Information Block
DEPT.FT            0 000 00 00: Depth
GR.GAPI                       : Gamma Ray
CCL.                          : Casing Collar Locator
TT3.usec                      : CBL 3' Travel Time
AMP3.mV                       : CBL 3' Amplitude
~Parameter Information Block
~A  Depth        GR         CCL         TT3         AMP3    
# ...
    55.0000     92.3878      0.0000    752.2559     10.8813
    55.2500     91.4316      0.0000    752.4860     10.9157
    55.5000     87.2217      0.0000    752.7793     10.9306
    55.7500     81.5653      0.0000    753.1241     10.8924
    56.0000     76.5213      0.0000    753.4769     10.7764
    56.2500     73.4692      0.0000    753.7983     10.5911
    56.5000     72.7113      0.0000    754.0791     10.3714
    56.7500     73.6215      0.0000    754.3076     10.1489
    57.0000     75.1068      0.0000    754.4474      9.9337
    57.2500     76.2487      0.0000    754.4704      9.7235
    57.5000     76.8598      0.0000    754.3850      9.5224
    57.7500     77.3689      0.0000    754.2199      9.3476
    58.0000     78.0866      0.0000    754.0023      9.2173
    58.2500     78.7904      0.0000    753.7657      9.1288
    58.5000     79.1572      0.0000    753.5707      9.0556
    58.7500     79.2566      0.0000    753.4976      8.9754
    59.0000     79.4241      0.0000    753.5956      8.9000
    59.2500     79.8616      0.0000    753.8320      8.8600
    59.5000     80.3987      0.0000    754.0968      8.8569
    59.7500     80.5310      0.0000    754.2633      8.8454
    60.0000     79.8245      0.0000    754.2549      8.7720
    60.2500     78.4395      0.0000    754.0861      8.6253
    60.5000     77.0215      0.0000    753.8553      8.4477
    60.7500     75.9315      0.0000    753.7151      8.2983
    61.0000     74.9717      0.0000    753.8531      8.2026
    61.2500     74.0254      0.0000    754.5505      8.1390
    61.5000     73.5019      0.0000    756.1937      8.0817
    61.7500     73.8646      0.0000    758.9994      8.0499
    62.0000     75.1091      0.0000    762.4963      8.0931
    62.2500     76.8957      0.0000    765.3777      8.2241
    62.5000     78.7848      0.0000    766.2222      8.3901
    62.7500     80.1407      0.0000    764.6523      8.5182
    63.0000     80.2853      0.0000    761.9681      8.5733
    63.2500     79.0267      0.0000    760.6060      8.5710
    63.5000     76.7977      0.0000    762.5145      8.5643
    63.7500     74.2560      0.0000    767.4417      8.6310
    64.0000     72.0548      0.0000    772.6245      8.8469
    64.2500     70.8927      0.0000    774.5590      9.2379
    64.5000     71.2089      0.0000    771.6277      9.7499
    64.7500     72.6287      0.0000    765.2360     10.2759
    65.0000     74.0837      0.0000    758.4200     10.7225
    65.2500     74.7712      0.0000    753.4822     11.0578
    65.5000     74.9574      0.0000    750.8907     11.3094
    65.7500     75.6894      0.0000    749.8953     11.5245
    66.0000     77.6490      0.0000    749.6082     11.7313
    66.2500     80.3306      0.0000    749.5042     11.9380
    66.5000     82.4216      0.0000    749.3458     12.1628
    66.7500     82.9262      0.0000    748.6795     12.4402
    67.0000     81.9108      0.0000    746.1047     12.7804
    67.2500     80.4176      0.0000    738.6495     13.1435
    67.5000     79.7218      0.0000    722.8926     13.4722
    67.7500     80.2805      0.0000    699.2156     13.7156
    68.0000     81.3125      0.0000    675.9666     13.7982
    68.2500     81.6825      0.0000    666.1099     13.6183
    68.5000     81.0364      0.0000    676.1042     13.1425
    68.7500     79.8097      0.0000    699.3703     12.4909
    69.0000     78.4954      0.0000    722.9149     11.8769
    69.2500     77.2331      0.0000    738.3295     11.4496
    69.5000     75.7802      0.0000    744.6479     11.1907
    69.7500     73.7207      0.0000    743.5245     10.9417
    70.0000     71.0570      0.0000    734.7621     10.5377
    70.2500     68.6863      0.0000    716.9989      9.9570
    70.5000     67.8946      0.0000    692.6916      9.3527
    70.7500     69.2451      0.0000    671.4502      8.9240
    71.0000     72.1363      0.0000    664.8291      8.7742
    71.2500     75.3608      0.0000    675.2016      8.8932
    71.5000     77.7553      0.0000    692.5559      9.2082
    71.7500     78.4724      0.0000    704.8646      9.6146
    72.0000     77.3187      0.0000    709.2004     10.0006
    72.2500     75.0047      0.0000    710.5467     10.2915
    72.5000     72.7002     -1.7477    712.3741     10.4907
    72.7500     71.2863      0.0000    710.5012     10.7107
    73.0000     71.1646      0.0000    694.9524     11.1638
    73.2500     72.3860      0.0000    657.8497     12.0201
    73.5000     74.5000      0.0000    601.8236     13.1647
    73.7500     76.5596      0.0000    541.2158     14.1616
    74.0000     77.7249      0.0000    492.8383     14.6233
    74.2500     77.8158      0.0000    463.9122     14.6013
    74.5000     77.2926      0.0000    447.8008     14.4945
    74.7500     76.9560      0.0000    431.0585     14.6318
    75.0000     77.5340      0.0000    405.7626     15.0567
    75.2500     79.1495      0.0000    375.4722     15.6412
    75.5000     81.1799      0.0000    349.3639     16.2563
    75.7500     82.8876      0.0000    332.8392     16.8239
    76.0000     84.0595      0.0000    324.9398     17.2926
    76.2500     84.8195      0.0000    321.9841     17.6251
    76.5000     85.1569      0.0000    321.0733     17.8093
    76.7500     85.0141      0.0000    320.8274     17.8775
    77.0000     84.5487      0.0000    320.7878     17.9014
    77.2500     84.0029      0.0000    320.8560     17.9543
    77.5000     83.5246      0.0000    321.0190     18.0682
    77.7500     83.1935      0.0000    321.2876     18.2193
    78.0000     82.9964      0.0000    321.6436     18.3505
    78.2500     82.7667      0.0000    322.0345     18.4144
    78.5000     82.4088      0.0000    322.3900     18.4044
    78.7500     82.1640      0.0000    322.6464     18.3405
    79.0000     82.4546      0.0000    322.7822     18.2151
    79.2500     83.5259      0.0000    322.8436     17.9642
    79.5000     85.4392      0.0000    322.9427     17.5336
    79.7500     88.1195      0.0000    323.2234     16.9770
    80.0000     90.9887      0.0000    324.1281     16.4515
    80.2500     92.8776      0.0000    327.0414     16.0936
    80.5000     92.9409      0.0000    334.9278     15.9178
    80.7500     91.6715      0.0000    351.2269     15.8349
    81.0000     90.5318      0.0000    375.5970     15.7434
    81.2500     90.4711      0.0000    399.7594     15.5983
    81.5000     90.9384      0.0000    411.1568     15.4175
    81.7500     90.3219      0.0000    404.8181     15.2339
    82.0000     87.3503      0.0000    390.5876     15.0444
    82.2500     82.2548      0.0000    385.4881     14.8089
    82.5000     76.6505      0.0000    398.7420     14.4976
    82.7500     72.2473      0.0000    424.9726     14.1264
    83.0000     69.6955      0.0000    450.8279     13.7411
    83.2500     68.5828      0.0000    466.2043     13.3886
    83.5000     68.2970      0.0000    467.9724     13.1122
    83.7500     68.7604      0.0000    456.1264     12.9506
    84.0000     70.3919      0.0000    432.3261     12.9162
    84.2500     73.4070      0.0000    402.2654     12.9864
    84.5000     77.1960      0.0000    374.3848     13.1295
    84.7500     80.5866      0.0000    354.4557     13.3382
    85.0000     82.8861      0.0000    342.8304     13.6277
    85.2500     84.5446      0.0000    336.4118     13.9984
    85.5000     86.5773      0.0000    332.0530     14.4051
    85.7500     89.3615      0.0000    328.3448     14.7826
    86.0000     92.0725      0.0000    325.3119     15.1184
    86.2500     93.2318      0.0000    323.2310     15.4835
    86.5000     91.9206      0.0000    322.0015     15.9661
    86.7500     88.7139      0.0000    321.3146     16.5839
    87.0000     85.3260      0.0000    320.9142     17.2915
    87.2500     83.1248      0.0000    320.6705     18.0705
    87.5000     82.1659      0.0000    320.5349     18.9764
    87.7500     81.8785      0.0000    320.4854     20.0670
    88.0000     82.2836      0.0000    320.4871     21.2665
    88.2500     83.9732      0.0000    320.4928     22.3130
