~Version Information
VERS.                      2.0: CWLS Log ASCII Standard - VERSION 2.0
WRAP.                       NO: One line per depth step
~Well Information Block
STRT.FT               491.0000: 
STOP.FT              1909.5000: 
STEP.FT                 0.1000: 
NULL.                -999.2500: 
COMP.          Pioneer Natural Resources: COMPANY
WELL.            Corazon 13-10: WELL
FLD.           Purgatoire River: FIELD
LOC.           2510' FSL & 439' FWL: LOCATION
PROV.                 Colorado: PROVINCE
CNTY.               Las Animas: COUNTRY
SRVC.                Patterson: SERVICE COMPANY
DATE.          Thu Dec 01 07:28:46 2005: LOG DATE
UWI.           05 071 08613 00: UNIQUE WELL ID
~Curve Information Block
DEPT.FT            0 000 00 00: Depth
DCAL.in                       : CDL Caliper
RHOB.g/cc                     : CDL Bulk Density
RHOC.g/cc                     : CDL Density Correction
DPOR.pu                       : CDL Density Porosity
GR.GAPI                       : Gamma Ray
NPOR.pu                       : Neutron Porosity
~Parameter Information Block
~A  Depth       DCAL        RHOB        RHOC        DPOR         GR         NPOR    
# ...
  1518.2000      7.9729      2.5631      0.0317      5.2641     81.9254     23.3105
  1518.3000      7.9853      2.5656      0.0567      5.1125     85.1941     24.1940
  1518.4000      7.9853      2.5601      0.0066      5.4499     85.4764     24.4235
  1518.5000      7.9266      2.5546      0.0272      5.7832     83.7836     24.1432
  1518.6000      7.9266      2.5492     -0.0067      6.1071     83.9521     23.4891
  1518.7000      7.9266      2.5407      0.0592      6.6224     86.9591     22.3926
  1518.8000      7.9188      2.5328      0.0189      7.1018     88.9946     21.1764
  1518.9000      7.9188      2.5325      0.0195      7.1203     87.5485     20.7947
  1519.0000      7.9155      2.5296      0.0603      7.2982     87.2522     22.0443
  1519.1000      7.9155      2.5159      0.0127      8.1269     88.9448     23.9163
  1519.2000      7.9155      2.5084      0.0069      8.5810     86.8932     24.0971
  1519.3000      7.9230      2.5229     -0.0169      7.7028     81.4071     22.3426
  1519.4000      7.9230      2.5568      0.0211      5.6481     77.0333     20.5083
  1519.5000      7.9896      2.5931      0.0965      3.4497     73.6760     19.7128
  1519.6000      7.9896      2.6196      0.0426      1.8426     71.1337     19.8063
  1519.7000      7.9896      2.6349      0.0937      0.9148     72.5704     20.2386
  1519.8000      7.9747      2.6343      0.1206      0.9529     75.8822     20.9771
  1519.9000      7.9747      2.6190      0.0884      1.8796     75.7448     21.9629
  1520.0000      7.9081      2.5941      0.0938      3.3884     73.6623     21.9727
  1520.1000      7.9081      2.5629      0.0519      5.2799     73.5362     20.8356
  1520.2000      7.9081      2.5372      0.0055      6.8359     74.3627     20.0588
  1520.3000      7.8835      2.5251      0.0251      7.5685     72.7524     20.0158
  1520.4000      7.8835      2.5226     -0.0266      7.7240     69.3869     20.3117
  1520.5000      7.8769      2.5254      0.0204      7.5505     68.4796     20.7319
  1520.6000      7.8769      2.5313     -0.0161      7.1913     70.0131     21.0931
  1520.7000      7.8769      2.5472     -0.0087      6.2286     70.3893     21.3882
  1520.8000      7.8934      2.5774      0.0881      4.4000     69.4124     21.6808
  1520.9000      7.8934      2.6083      0.1370      2.5264     69.6626     21.5509
  1521.0000      7.8867      2.6293      0.1281      1.2561     71.7626     20.8899
  1521.1000      7.8867      2.6409      0.1207      0.5496     74.2863     20.5378
  1521.2000      7.8867      2.6378      0.1274      0.7375     75.4460     20.6284
  1521.3000      7.8755      2.6175      0.0825      1.9669     73.6627     20.2712
  1521.4000      7.8755      2.5960      0.0632      3.2716     70.6002     19.6182
  1521.5000      7.8746      2.5873      0.0570      3.7992     70.6313     19.4002
  1521.6000      7.8746      2.5881      0.0771      3.7529     73.1179     19.7822
  1521.7000      7.8746      2.5801      0.0584      4.2343     73.8468     20.6125
  1521.8000      7.8812      2.5565      0.0266      5.6696     70.9093     21.3446
  1521.9000      7.8812      2.5358     -0.0070      6.9224     65.8397     21.5773
  1522.0000      7.8969      2.5321     -0.0011      7.1463     61.4173     21.5869
  1522.1000      7.8969      2.5362      0.0376      6.8995     59.1378     21.7484
  1522.2000      7.8969      2.5320      0.0230      7.1521     59.5168     21.9684
  1522.3000      7.8820      2.5209      0.0151      7.8248     63.0806     21.5484
  1522.4000      7.8820      2.5156      0.0137      8.1437     67.4367     20.2039
  1522.5000      7.8818      2.5196      0.0101      7.9033     68.7392     18.8862
  1522.6000      7.8818      2.5275     -0.0015      7.4245     67.2303     18.4228
  1522.7000      7.8818      2.5343      0.0042      7.0144     64.5894     18.7416
  1522.8000      7.8829      2.5416      0.0120      6.5686     62.3146     19.2250
  1522.9000      7.8829      2.5524      0.0539      5.9133     62.8584     19.0752
  1523.0000      7.8702      2.5600      0.0706      5.4565     62.2842     18.3196
  1523.1000      7.8702      2.5578      0.0558      5.5859     56.7296     17.5473
  1523.2000      7.8702      2.5527     -0.0032      5.8992     51.0311     16.8066
  1523.3000      7.8786      2.5562      0.0002      5.6862     47.6920     16.0002
  1523.4000      7.8786      2.5680     -0.0359      4.9709     46.7050     15.3045
  1523.5000      7.8914      2.5789      0.0110      4.3101     49.5198     14.8418
  1523.6000      7.8914      2.5795      0.0165      4.2699     53.2036     14.9355
  1523.7000      7.8914      2.5681     -0.0043      4.9647     55.0146     15.7436
  1523.8000      7.8946      2.5561     -0.0370      5.6930     55.2767     16.6706
  1523.9000      7.8946      2.5549      0.0276      5.7608     52.7310     16.9992
  1524.0000      7.8993      2.5576      0.0502      5.6003     50.0523     16.8644
  1524.1000      7.8993      2.5580      0.0100      5.5785     51.7959     17.2195
  1524.2000      7.8993      2.5667      0.0106      5.0509     55.9380     18.4245
  1524.3000      7.9028      2.5847      0.0429      3.9552     58.1222     20.0004
  1524.4000      7.9028      2.5939      0.0637      3.4014     56.8681     21.2881
  1524.5000      7.9282      2.5869      0.0185      3.8262     54.6053     21.5491
  1524.6000      7.9282      2.5786      0.0018      4.3248     52.5107     20.8298
  1524.7000      7.9282      2.5816      0.0156      4.1451     50.7459     20.2029
  1524.8000      7.9610      2.5942      0.0334      3.3795     52.8711     19.8479
  1524.9000      7.9610      2.6071     -0.0242      2.5977     58.4157     18.9694
  1525.0000      7.9562      2.6054      0.0766      2.7025     61.9401     17.8276
  1525.1000      7.9562      2.5860      0.0501      3.8779     63.5649     17.3106
  1525.2000      7.9562      2.5752     -0.0003      4.5325     70.6533     17.5155
  1525.3000      7.9247      2.5856      0.1033      3.9037     71.8119     18.1409
  1525.4000      7.9247      2.5917      0.0618      3.5351     76.2055     18.9476
  1525.5000      7.9265      2.5730      0.0471      4.6678     84.5272     19.8103
  1525.6000      7.9265      2.5386     -0.0034      6.7538     89.5086     20.6167
  1525.7000      7.9265      2.5097     -0.0050      8.5047     88.8690     21.2163
  1525.8000      7.9158      2.4936     -0.0046      9.4784     87.9572     21.5884
  1525.9000      7.9158      2.4931     -0.0255      9.5061     90.1434     21.4903
  1526.0000      7.9195      2.5149     -0.0002      8.1850     94.2237     20.9590
  1526.1000      7.9195      2.5428      0.0711      6.4963     99.5466     20.4696
  1526.2000      7.9195      2.5463      0.0446      6.2819    113.7143     20.1739
  1526.3000      7.8956      2.5271      0.0466      7.4460    114.9529     19.9584
  1526.4000      7.8956      2.5102      0.0344      8.4725    107.1650     19.7755
  1526.5000      7.8965      2.5082     -0.0088      8.5923     98.1568     19.9551
  1526.6000      7.8965      2.5201     -0.0069      7.8742     98.3909     20.3154
  1526.7000      7.8965      2.5345      0.0794      7.0011    108.3127     20.0104
  1526.8000      7.9296      2.5393      0.0230      6.7063    114.5815     19.6073
  1526.9000      7.9296      2.5360      0.0240      6.9120    107.3552     19.8768
  1527.0000      7.9224      2.5327      0.0286      7.1069     96.8930     20.0443
  1527.1000      7.9224      2.5317      0.0652      7.1710     96.6281     19.3950
  1527.2000      7.9224      2.5244      0.0159      7.6103    105.1190     18.5902
  1527.3000      7.9146      2.5118      0.0054      8.3729    111.1117     18.4567
  1527.4000      7.9146      2.5106      0.0153      8.4501    112.2938     19.1017
  1527.5000      7.9127      2.5263      0.0348      7.4964    112.6694     20.2618
  1527.6000      7.9127      2.5441      0.0174      6.4193    111.9851     21.2612
  1527.7000      7.9127      2.5549      0.0174      5.7646    110.8491     21.0814
