~Version Information
 VERS.                                  2.0 : CWLS LAS VERSION
 WRAP.                                   NO : WRAPING MODE
 SWARE .                 MController 2.5.0J : SOFTWARE VERSION
~Well Information
 WELL.                         Norton 9-14R : WELL
 COMP.                Petrogulf Corporation : COMPANY
 FLD.                       Purgatoire River: FIELD
 LOC.                SW/SW Sec 9 T33S R67W  : LOCATION
 DATE.                            10/5-6/05 : DATE(S) LOGGED
 SRVC.       BLANCO Geological Services LLC : SERVICE COMPANY
 STAT.                                   CO : STATE
 CNTY.                           Las Animas : COUNTY
 CTRY.                                  USA : COUNTRY
 API.                       05-071-08444-00 : API NUMBER
 STRT.FT                              56.00 : START DEPTH
 STOP.FT                            1880.00 : STOP DEPTH
 STEP.FT                               1.00 : DEPTH INCREMENT
 NULL.                                -9999 : NULL VALUE
~Curve information
 DEPTH.FT                                   :
 ROP.MIN/FT                                 :
 GAS.UNITS                                  :
~ASCII Log data
# ...
       656.0         2.07         52.3 
       657.0         0.20         52.0 
       658.0         0.10         55.1 
       659.0         0.10         60.3 
       660.0         0.07         64.1 
       661.0         0.10         69.5 
       662.0         0.13         74.8 
       663.0         0.13         78.8 
       664.0         0.32         83.2 
       665.0         0.30         84.5 
       666.0         0.33         84.4 
       667.0         0.27         82.9 
       668.0         0.33         81.1 
       669.0         0.40         79.0 
       670.0         0.30         72.5 
       671.0         0.27         59.6 
       672.0         0.30         53.7 
       673.0         0.33         60.5 
       674.0         0.28         66.8 
       675.0         0.27         64.2 
       676.0         0.33         43.1 
       677.0         0.33         26.1 
       678.0         0.20         24.9 
       679.0         0.10         25.7 
       680.0         0.07         26.4 
       681.0         0.10         26.8 
       682.0         0.13         27.9 
       683.0         0.13         29.6 
       684.0         0.10         30.3 
       685.0         0.10         31.7 
       686.0         1.05         57.8 
       687.0         0.13         98.4 
       688.0         0.20        149.9 
       689.0         0.17        166.4 
       690.0         0.30        168.0 
       691.0         0.30        157.0 
       692.0         0.30        136.4 
       693.0         0.33        119.5 
       694.0         0.30        105.3 
       695.0         0.33         95.0 
       696.0         0.55         86.0 
       697.0         0.37         75.7 
       698.0         0.33         71.0 
       699.0         0.37         68.1 
       700.0         0.30         65.4 
       701.0         0.33         63.7 
       702.0         0.23         62.4 
       703.0         0.27         61.8 
       704.0         0.28         61.0 
       705.0         0.30         60.6 
       706.0         0.27         60.0 
       707.0         0.30         59.5 
       708.0         0.33         59.4 
       709.0         0.27         59.1 
       710.0         0.23         59.0 
       711.0         0.23         58.6 
       712.0         0.17         58.6 
       713.0         0.20         58.4 
       714.0         0.17         58.3 
       715.0         0.13         57.9 
       716.0         2.65        101.9 
       717.0         0.23        105.6 
       718.0         0.23        106.0 
       719.0         0.25        104.6 
       720.0         0.17        101.4 
       721.0         0.13         98.2 
       722.0         0.07         95.5 
       723.0         0.10         94.1 
       724.0         0.10         92.1 
       725.0         0.10         90.0 
       726.0         0.13         87.5 
       727.0         0.20         84.9 
       728.0         0.20         81.1 
       729.0         0.13         78.5 
       730.0         0.13         76.8 
       731.0         0.07         74.7 
       732.0         0.10         73.7 
       733.0         0.10         72.4 
       734.0         0.10         70.9 
       735.0         0.20         70.1 
       736.0         0.23         68.0 
       737.0         0.30         66.4 
       738.0         0.23         65.3 
       739.0         0.25         64.0 
       740.0         0.23         62.6 
       741.0         0.33         61.8 
       742.0         0.30         60.7 
       743.0         0.20         59.5 
       744.0         0.13         58.6 
       745.0         0.20         58.1 
       746.0         1.33         56.9 
       747.0         0.23         53.4 
       748.0         0.23         61.6 
       749.0         0.28         79.7 
       750.0         0.23         89.3 
       751.0         0.27         94.1 
       752.0         0.27         94.4 
       753.0         0.23         93.3 
       754.0         0.20         90.1 
       755.0         0.20         86.7 
       756.0         0.27         83.2 
       757.0         0.40         79.2 
       758.0         0.40         73.5 
       759.0         0.33         68.7 
       760.0         0.38         66.1 
       761.0         0.33         64.9 
       762.0         0.40         63.9 
       763.0         0.40         61.9 
       764.0         0.37         59.4 
       765.0         0.53         56.9 
       766.0         0.43         54.2 
       767.0         0.43         53.5 
       768.0         0.45         52.6 
       769.0         0.43         52.1 
       770.0         0.40         51.8 
       771.0         0.53         51.9 
       772.0         0.37         52.1 
       773.0         0.33         52.4 
       774.0         0.40         52.6 
       775.0         0.33         52.0 
       776.0         1.72         50.7 
       777.0         0.20         48.1 
       778.0         0.27         61.8 
       779.0         0.50         83.7 
       780.0         0.50         85.4 
       781.0         0.55         84.9 
       782.0         0.30         81.4 
       783.0         0.37         78.1 
       784.0         0.40         73.3 
       785.0         0.50         68.9 
       786.0         0.40         63.7 
       787.0         0.33         60.2 
       788.0         0.40         58.2 
       789.0         0.45         56.0 
       790.0         0.17         53.8 
       791.0         0.13         53.4 
       792.0         0.13         52.9 
       793.0         0.23         52.2 
       794.0         0.17         51.6 
       795.0         0.17         51.2 
       796.0         0.13         50.7 
       797.0         0.27         50.3 
       798.0         0.37         49.6 
       799.0         0.10         49.3 
       800.0         0.10         49.4 
       801.0         0.13         50.0 
       802.0         0.13         50.3 
       803.0         0.17         50.7 
       804.0         0.13         51.2 
       805.0         0.13         51.8 
       806.0         2.78         65.8 
       807.0         0.37         17.8 
       808.0         0.37         25.6 
       809.0         0.38         33.9 
       810.0         0.40         36.4 
       811.0         0.33         38.9 
       812.0         0.43         45.0 
       813.0         0.47         46.4 
       814.0         0.43         46.0 
       815.0         0.47         45.5 
       816.0         0.43         45.0 
       817.0         0.48         45.1 
       818.0         0.23         45.3 
       819.0         0.23         45.3 
       820.0         0.20         45.2 
       821.0         0.30         45.6 
       822.0         0.23         45.6 
       823.0         0.23         45.6 
       824.0         0.23         44.8 
       825.0         0.27         43.9 
       826.0         0.30         43.7 
       827.0         0.20         44.4 
       828.0         0.20         44.7 
       829.0         0.17         44.8 
       830.0         0.15         46.1 
       831.0         0.17         47.1 
       832.0         0.17         47.7 
       833.0         0.27         48.8 
       834.0         0.27         50.5 
       835.0         0.30         51.4 
       836.0         2.85        179.7 
       837.0         0.33         85.6 
       838.0         0.30         82.1 
       839.0         0.23         75.6 
       840.0         0.33         67.8 
       841.0         0.27         58.3 
       842.0         0.27         53.8 
       843.0         0.30         51.8 
       844.0         0.23         51.5 
       845.0         0.28         51.9 
       846.0         0.30         52.1 
       847.0         0.30         52.9 
       848.0         0.40         53.0 
       849.0         0.40         52.2 
       850.0         0.47         50.7 
       851.0         0.27         48.8 
       852.0         0.37         48.2 
       853.0         0.37         46.8 
       854.0         0.27         48.1 
       855.0         0.15         48.8 
