~Version Information
VERS.                      2.0: CWLS Log ASCII Standard - VERSION 2.0
WRAP.                       NO: One line per depth step
~Well Information Block
STRT.FT                -8.5000: 
STOP.FT              2591.0000: 
STEP.FT                 0.2500: 
NULL.                -999.2500: 
COMP.          Pioneer Natural Resources: COMPANY
WELL.             Aviator 12-4: WELL
FLD.           Purgatorie River: FIELD
LOC.           1969' FNL & 732' FWL--: LOCATION
CNTY.               Las Animas: COUNTY
SRVC.          Patterson Wireline: SERVICE COMPANY
DATE.          Wed Apr 19 09:09:26 2006: LOG DATE
UWI.           05 071 08714 00: UNIQUE WELL ID
STAT.                       CO: STATE
~Curve Information Block
DEPT.FT            0 000 00 00: Depth
CCL.                          : Casing Collar Locator
TT3.usec                      : CBL 3' Travel Time
AMP3.mV                       : CBL 3' Amplitude
GR.GAPI                       : Gamma Ray
~Parameter Information Block
~A  Depth       CCL         TT3         AMP3         GR     
# ...
  2068.5000      0.0000    636.5089      1.5537     31.0808
  2068.7500      0.0000    644.3015      1.5762     32.7744
  2069.0000      0.0000    656.6537      1.6018     35.0720
  2069.2500      0.0000    670.4417      1.6326     38.2472
  2069.5000      0.0000    680.7245      1.6614     41.9013
  2069.7500      0.0000    682.9653      1.6783     45.0467
  2070.0000      0.0000    674.1859      1.6819     47.2419
  2070.2500      0.0000    651.7941      1.6844     49.2068
  2070.5000      0.0000    613.2129      1.7052     52.0555
  2070.7500      0.0000    559.3339      1.7586     56.1825
  2071.0000      0.0000    498.2691      1.8466     60.9980
  2071.2500      0.0000    443.0559      1.9581     65.3160
  2071.5000      0.0000    404.1554      2.0739     67.9561
  2071.7500      0.0000    384.2828      2.1741     68.5335
  2072.0000      0.0000    379.3957      2.2467     68.0160
  2072.2500      0.0000    382.8206      2.2937     68.1343
  2072.5000      0.0000    388.7098      2.3270     69.7890
  2072.7500      0.0000    393.6681      2.3554     72.0773
  2073.0000      0.0000    396.7307      2.3765     73.0619
  2073.2500      0.0000    398.3248      2.3816     71.4968
  2073.5000      0.0000    399.1673      2.3684     67.8105
  2073.7500      0.0000    399.7629      2.3461     63.5487
  2074.0000      0.0000    400.3767      2.3289     60.1777
  2074.2500      0.0000    401.1472      2.3256     58.4426
  2074.5000      0.0000    402.3777      2.3324     58.3093
  2074.7500      0.0000    405.3790      2.3363     59.0236
  2075.0000      0.0000    413.9485      2.3313     59.6372
  2075.2500      0.0000    434.5543      2.3382     60.0017
  2075.5000      0.0000    471.9298      2.4026     60.9099
  2075.7500      0.0000    520.8326      2.5635     62.6773
  2076.0000      0.0000    562.9321      2.8349     64.0348
  2076.2500      0.0000    577.0495      3.2216     63.2590
  2076.5000      0.0000    555.9612      3.7327     60.1994
  2076.7500      0.0000    512.5673      4.3555     56.4246
  2077.0000      0.0000    469.3456      5.0275     53.4849
  2077.2500      2.0000    443.2342      5.6533     51.6688
  2077.5000      0.0000    440.0387      6.1546     50.3780
  2077.7500      0.0000    458.8707      6.5249     49.1062
  2078.0000      0.0000    496.9626      6.8526     47.9136
  2078.2500      0.0000    548.3231      7.2583     47.2982
  2078.5000      0.0000    600.0930      7.7636     47.7871
  2078.7500      0.0000    635.5754      8.2524     49.5305
  2079.0000      0.0000    645.2867      8.6131     52.2369
  2079.2500      0.0000    634.3435      8.8830     55.4340
  2079.5000      0.0000    615.4305      9.2022     58.6125
  2079.7500      0.0000    594.4245      9.6610     61.1575
  2080.0000      0.0000    567.0982     10.2404     62.5127
  2080.2500      0.0000    530.4749     10.8722     62.5499
  2080.5000      0.0000    492.1378     11.5079     61.5673
  2080.7500      0.0000    464.8391     12.1236     59.9961
  2081.0000      0.0000    453.6653     12.6996     58.2978
  2081.2500      0.0000    450.5653     13.2228     56.9067
  2081.5000      0.0000    441.8987     13.6909     55.9154
  2081.7500      0.0000    421.2123     14.1043     54.9668
  2082.0000      0.0000    393.9276     14.4639     53.7604
  2082.2500      0.0000    370.0428     14.7904     52.4867
  2082.5000      0.0000    354.8696     15.1266     51.5476
  2082.7500      0.0000    347.2487     15.5093     51.1613
  2083.0000      0.0000    343.3767     15.9483     51.5432
  2083.2500      0.0000    340.0192     16.4366     53.0610
  2083.5000      0.0000    335.3710     16.9696     55.7579
  2083.7500      0.0000    329.0580     17.5495     58.8775
  2084.0000      0.0000    322.0090     18.1750     61.1272
  2084.2500      0.0000    315.7382     18.8332     61.4678
  2084.5000      0.0000    311.2874     19.5106     59.8512
  2084.7500      0.0000    308.6871     20.2119     57.4506
  2085.0000      0.0000    307.3149     20.9612     56.0522
  2085.2500      0.0000    306.5149     21.7747     56.8226
  2085.5000      0.0000    305.8902     22.6300     59.5426
  2085.7500      0.0000    305.2809     23.4629     63.3295
  2086.0000      0.0000    304.6701     24.1901     68.1887
  2086.2500      0.0000    304.1225     24.7315     75.3821
  2086.5000      0.0000    303.7359     25.0215     86.0061
  2086.7500      0.0000    303.5895     25.0163     99.6687
  2087.0000      0.0000    303.7120     24.6964    114.8998
  2087.2500      0.0000    304.0998     24.0563    130.0798
  2087.5000      0.0000    304.7744     23.1041    143.3881
  2087.7500      0.0000    305.8498     21.8910    152.8961
  2088.0000      0.0000    307.6208     20.5387    157.7953
  2088.2500      0.0000    310.6100     19.2098    159.0944
  2088.5000      0.0000    315.3571     18.0352    158.5570
  2088.7500      0.0000    321.8974     17.0650    157.3726
  2089.0000      0.0000    329.6775     16.2752    155.9613
  2089.2500      0.0000    338.7464     15.6077    154.2581
  2089.5000      0.0000    351.8182     15.0058    151.8770
  2089.7500      0.0000    374.8363     14.4280    148.6850
  2090.0000      0.0000    413.2628     13.8454    145.4755
  2090.2500      0.0000    464.9686     13.2454    143.4242
  2090.5000      0.0000    516.2562     12.6447    142.7118
  2090.7500      0.0000    547.4492     12.0914    142.4517
  2091.0000      0.0000    545.3168     11.6406    142.2307
  2091.2500      0.0000    512.3168     11.3163    143.0006
  2091.5000      0.0000    465.5272     11.0915    146.0011
  2091.7500      0.0000    426.4500     10.8993    151.1577
  2092.0000      0.0000    408.8585     10.6673    156.8759
  2092.2500      0.0000    412.4703     10.3546    161.0249
  2092.5000      0.0000    425.4854      9.9695    161.5819
  2092.7500      0.0000    433.6454      9.5558    156.7566
  2093.0000      0.0000    430.2088      9.1633    145.8665
  2093.2500      0.0000    419.8226      8.8289    130.7637
  2093.5000      0.0000    414.2466      8.5709    115.6547
  2093.7500      0.0000    425.2816      8.3877    104.6929
  2094.0000      0.0000    459.6057      8.2567     99.5587
  2094.2500      0.0000    515.0477      8.1452     99.0535
  2094.5000      0.0000    579.5542      8.0274    100.5620
  2094.7500      0.0000    636.9015      7.8978    101.9877
  2095.0000      0.0000    676.4102      7.7693    102.7967
  2095.2500      0.0000    697.5303      7.6628    103.7801
  2095.5000      0.0000    706.0276      7.5938    106.1784
  2095.7500      0.0000    707.7018      7.5695    110.8734
  2096.0000      0.0000    705.2678      7.5934    117.7210
  2096.2500      0.0000    698.6743      7.6682    125.3435
  2096.5000      0.0000    686.4808      7.7911    131.9395
  2096.7500      0.0000    666.7229      7.9487    136.5338
  2097.0000      0.0000    637.5562      8.1177    139.4167
  2097.2500      0.0000    598.7087      8.2733    141.5954
  2097.5000      0.0000    553.1942      8.3971    143.9786
  2097.7500      0.0000    506.9933      8.4795    146.6069
  2098.0000      0.0000    466.5555      8.5177    148.2632
  2098.2500      0.0000    436.5524      8.5132    147.2212
  2098.5000      0.0000    418.8901      8.4689    142.9790
  2098.7500      0.0000    412.1660      8.3881    137.3033
  2099.0000      0.0000    412.0911      8.2762    133.2198
  2099.2500      0.0000    414.0667      8.1413    132.7221
  2099.5000      0.0000    416.4920      7.9918    135.5184
  2099.7500      0.0000    421.5399      7.8362    139.8875
  2100.0000      0.0000    432.5250      7.6845    144.1450
  2100.2500      0.0000    451.1597      7.5443    147.0945
  2100.5000      0.0000    477.8510      7.4127    147.9314
  2100.7500      0.0000    512.9359      7.2786    146.5121
  2101.0000      0.0000    554.5820      7.1435    143.5046
  2101.2500      0.0000    594.6112      7.0399    139.9474
  2101.5000      0.0000    619.0636      7.0239    136.8445
  2101.7500      0.0000    616.4141      7.1390    135.1700
