~Version Information
VERS.                      2.0: CWLS Log ASCII Standard - VERSION 2.0
WRAP.                       NO: One line per depth step
~Well Information Block
STRT.FT               970.0000: 
STOP.FT              1882.0000: 
STEP.FT                 0.2500: 
NULL.                -999.2500: 
COMP.          Petrogulf Corporation: COMPANY
WELL.             Norton 9-14R: WELL
FLD.           Purgatorie River: FIELD
LOC.           725' FSL & 1103' FWL: LOCATION
PROV.                 Colorado: PROVINCE
CNTY.               Las Animas: COUNTRY
SRVC.                Patterson: SERVICE COMPANY
DATE.          Thu Oct 06 16:10:47 2005: LOG DATE
UWI.                          : UNIQUE WELL ID
~Curve Information Block
DEPT.FT            0 000 00 00: Depth
SP.mV                         : DIL Spontaneous Potential
RILD.Ohm-m                    : DIL Deep Resistivity
RILM.Ohm-m                    : DIL Medium Resistivity
RLL3.Ohm-m                    : DIL Shallow Resistivity
GR.GAPI                       : Gamma Ray
~Parameter Information Block
~A  Depth        SP         RILD        RILM        RLL3         GR     
# ...
  1558.0000    178.5120      8.9133      9.1322     10.1259    128.7239
  1558.2500    178.2508      9.3508      9.6509     10.7756    130.7689
  1558.5000    177.9329      9.8131     10.2657     12.0263    132.8913
  1558.7500    177.5750     10.2847     10.9788     14.0298    131.7455
  1559.0000    177.1989     10.7485     11.7815     16.8631    124.4009
  1559.2500    176.8266     11.1894     12.6501     20.4395    116.2920
  1559.5000    176.4842     11.5966     13.5425     24.3701    102.3137
  1559.7500    176.2035     11.9643     14.3994     27.9166     93.7176
  1560.0000    176.0113     12.2892     15.1507     30.1992     83.9561
  1560.2500    175.9145     12.5671     15.7275     30.6169     79.8438
  1560.5000    175.8950     12.7914     16.0780     29.1916     76.7653
  1560.7500    175.9214     12.9531     16.1789     26.5617     76.0329
  1561.0000    175.9681     13.0458     16.0406     23.6350     75.3008
  1561.2500    176.0294     13.0692     15.7028     21.1331     74.6068
  1561.5000    176.1196     13.0311     15.2249     19.2808     74.2598
  1561.7500    176.2596     12.9450     14.6732     17.8085     75.5470
  1562.0000    176.4582     12.8258     14.1098     16.2843     80.3731
  1562.2500    176.7003     12.6864     13.5854     14.5366     84.9634
  1562.5000    176.9522     12.5364     13.1355     12.7992     92.7897
  1562.7500    177.1801     12.3813     12.7798     11.4770     98.4788
  1563.0000    177.3633     12.2240     12.5244     10.8245    107.6702
  1563.2500    177.4926     12.0659     12.3642     10.8462    113.6814
  1563.5000    177.5623     11.9103     12.2856     11.4013    120.9614
  1563.7500    177.5733     11.7646     12.2697     12.3100    124.1953
  1564.0000    177.5420     11.6398     12.2954     13.3695    126.8818
  1564.2500    177.4999     11.5485     12.3427     14.3416    127.2426
  1564.5000    177.4762     11.4998     12.3954     15.0006    124.6910
  1564.7500    177.4791     11.4974     12.4426     15.2397    120.5225
  1565.0000    177.4940     11.5386     12.4783     15.1492    111.7328
  1565.2500    177.4999     11.6159     12.5004     14.9717    105.8713
  1565.5000    177.4880     11.7185     12.5085     14.9265     99.9149
  1565.7500    177.4655     11.8333     12.5034     15.0243     98.4169
  1566.0000    177.4442     11.9454     12.4863     15.0465     98.6907
  1566.2500    177.4292     12.0414     12.4596     14.7542     99.4391
  1566.5000    177.4167     12.1130     12.4272     14.1521    100.7190
  1566.7500    177.4011     12.1605     12.3941     13.5276    102.1827
  1567.0000    177.3837     12.1917     12.3665     13.2059    106.3277
  1567.2500    177.3746     12.2186     12.3512     13.2624    110.2459
  1567.5000    177.3842     12.2525     12.3554     13.4726    116.0063
  1567.7500    177.4098     12.3027     12.3867     13.5286    118.4050
  1568.0000    177.4273     12.3763     12.4529     13.3125    118.9565
  1568.2500    177.3983     12.4784     12.5617     12.9858    118.0636
  1568.5000    177.2876     12.6107     12.7199     12.8320    116.9089
  1568.7500    177.0814     12.7695     12.9320     13.0203    116.6761
  1569.0000    176.7892     12.9458     13.1991     13.5255    116.1115
  1569.2500    176.4327     13.1288     13.5179     14.2579    114.9126
  1569.5000    176.0340     13.3112     13.8801     15.2122    111.7104
  1569.7500    175.6172     13.4928     14.2729     16.4197    108.6770
  1570.0000    175.2161     13.6796     14.6797     17.7661    102.1020
  1570.2500    174.8689     13.8793     15.0827     18.9487     96.0144
  1570.5000    174.5990     14.0970     15.4647     19.6697     85.4939
  1570.7500    174.3990     14.3314     15.8119     19.8482     79.1750
  1571.0000    174.2380     14.5762     16.1150     19.6325     72.8941
  1571.2500    174.0819     14.8206     16.3699     19.2501     70.8653
  1571.5000    173.9095     15.0518     16.5766     18.8683     69.6900
  1571.7500    173.7173     15.2565     16.7378     18.5519     69.3484
  1572.0000    173.5159     15.4228     16.8577     18.2912     68.7483
  1572.2500    173.3165     15.5428     16.9402     18.0517     68.2227
  1572.5000    173.1109     15.6148     16.9891     17.8126     67.7357
  1572.7500    172.8583     15.6424     17.0078     17.5828     68.0772
  1573.0000    172.4987     15.6339     17.0002     17.3975     70.0106
  1573.2500    171.9849     15.6008     16.9708     17.2980     71.9913
  1573.5000    171.3113     15.5577     16.9259     17.2975     74.9292
  1573.7500    170.5239     15.5208     16.8727     17.3507     76.3718
  1574.0000    169.7067     15.5051     16.8203     17.3650     77.7670
  1574.2500    168.9531     15.5211     16.7781     17.2604     78.4361
  1574.5000    168.3317     15.5726     16.7557     17.0324     79.0089
  1574.7500    167.8618     15.6565     16.7614     16.7617     78.7968
  1575.0000    167.5145     15.7650     16.8013     16.5702     77.3557
  1575.2500    167.2440     15.8888     16.8777     16.5643     75.8920
  1575.5000    167.0272     16.0197     16.9887     16.8017     73.5995
  1575.7500    166.8823     16.1526     17.1286     17.2776     72.2546
  1576.0000    166.8536     16.2846     17.2885     17.9198     70.6697
  1576.2500    166.9810     16.4138     17.4584     18.6008     69.8457
  1576.5000    167.2756     16.5379     17.6284     19.1783     68.4236
  1576.7500    167.7126     16.6544     17.7910     19.5490     66.9191
  1577.0000    168.2374     16.7628     17.9418     19.6881     63.7714
  1577.2500    168.7783     16.8656     18.0794     19.6552     61.7159
  1577.5000    169.2621     16.9669     18.2047     19.5585     60.1951
  1577.7500    169.6298     17.0695     18.3196     19.4844     60.6502
  1578.0000    169.8485     17.1709     18.4251     19.4398     63.0112
  1578.2500    169.9136     17.2623     18.5205     19.3697     64.9762
  1578.5000    169.8449     17.3316     18.6036     19.2371     67.5355
  1578.7500    169.6794     17.3690     18.6701     19.0797     68.8402
  1579.0000    169.4631     17.3718     18.7153     18.9819     70.3511
  1579.2500    169.2369     17.3460     18.7354     18.9966     71.0738
  1579.5000    169.0281     17.3024     18.7284     19.0865     71.6863
  1579.7500    168.8495     17.2520     18.6954     19.1355     72.0355
  1580.0000    168.7052     17.2021     18.6407     19.0337     73.4098
  1580.2500    168.5943     17.1555     18.5713     18.7657     75.1372
  1580.5000    168.5158     17.1127     18.4954     18.4181     77.6896
  1580.7500    168.4755     17.0744     18.4210     18.1049     77.9429
  1581.0000    168.4879     17.0435     18.3545     17.8953     74.6130
  1581.2500    168.5624     17.0232     18.3000     17.8001     70.3015
  1581.5000    168.6862     17.0145     18.2596     17.7954     62.8421
  1581.7500    168.8211     17.0141     18.2336     17.8462     58.4510
  1582.0000    168.9198     17.0166     18.2221     17.9216     54.0116
  1582.2500    168.9444     17.0181     18.2256     18.0055     52.7494
  1582.5000    168.8732     17.0208     18.2457     18.1018     53.2209
  1582.7500    168.6996     17.0332     18.2848     18.2242     54.6098
  1583.0000    168.4319     17.0660     18.3460     18.3746     56.9043
  1583.2500    168.0973     17.1276     18.4326     18.5270     57.8704
  1583.5000    167.7390     17.2206     18.5478     18.6370     58.2129
  1583.7500    167.3994     17.3428     18.6944     18.6737     57.9493
  1584.0000    167.0991     17.4901     18.8748     18.6525     57.0332
  1584.2500    166.8274     17.6594     19.0910     18.6431     55.9893
  1584.5000    166.5567     17.8518     19.3447     18.7436     53.7654
  1584.7500    166.2686     18.0712     19.6370     19.0295     52.0485
  1585.0000    165.9710     18.3225     19.9683     19.5081     49.5606
  1585.2500    165.6939     18.6080     20.3390     20.1122     48.0915
  1585.5000    165.4696     18.9262     20.7486     20.7417     46.1912
  1585.7500    165.3147     19.2721     21.1969     21.3267     45.1868
