~Version Information
VERS.                      2.0: CWLS Log ASCII Standard - VERSION 2.0
WRAP.                       NO: One line per depth step
~Well Information Block
STRT.FT               880.0000: 
STOP.FT              1995.0000: 
STEP.FT                 0.2500: 
NULL.                -999.2500: 
COMP.          Petrogulf Corporation: COMPANY
WELL.          Collister 17-31R: WELL
FLD.           Purgatorie River: FIELD
LOC.           962' FNL & 1520' FEL: LOCATION
PROV.                 Colorado: PROVINCE
CNTY.               Las Animas: COUNTRY
SRVC.                Patterson: SERVICE COMPANY
DATE.          Mon Sep 26 09:32:26 2005: LOG DATE
UWI.                          : UNIQUE WELL ID
~Curve Information Block
DEPT.FT            0 000 00 00: Depth
SP.mV                         : DIL Spontaneous Potential
RILD.Ohm-m                    : DIL Deep Resistivity
RILM.Ohm-m                    : DIL Medium Resistivity
RLL3.Ohm-m                    : DIL Shallow Resistivity
GR.GAPI                       : Gamma Ray
~Parameter Information Block
~A  Depth        SP         RILD        RILM        RLL3         GR     
# ...
  1020.0000    170.5883     17.5477     16.4499     21.3386    134.0988
  1020.2500    169.2541     18.1954     18.0680     22.4818    137.9443
  1020.5000    167.9108     19.5617     19.7895     25.0477    120.9714
  1020.7500    166.1801     20.5200     21.8011     30.6443    114.1278
  1021.0000    164.3019     21.9909     23.5576     40.2896    124.1149
  1021.2500    162.5501     23.2106     27.1621     45.8652    119.5944
  1021.5000    160.8023     24.4223     29.8444     49.3884     90.5433
  1021.7500    159.0417     25.9453     32.3826     53.0629     89.1497
  1022.0000    157.3039     27.1792     35.4853     56.6896     84.5358
  1022.2500    155.9413     27.9644     36.5931     59.3112     80.2330
  1022.5000    154.5488     29.2999     37.2469     62.4415     88.3784
  1022.7500    153.1151     30.0273     39.7955     56.5617     91.7074
  1023.0000    152.0275     30.3200     38.4167     47.6169     82.2160
  1023.2500    151.0497     29.9826     37.9385     45.6158     82.9113
  1023.5000    150.3247     29.4360     37.6244     42.3110     91.7499
  1023.7500    149.7212     29.0657     36.9195     45.2746     94.6926
  1024.0000    149.5775     28.0748     33.7288     42.6862     96.4620
  1024.2500    149.6351     27.1634     30.4666     36.8489    103.4702
  1024.5000    149.7959     25.9464     28.7557     31.9577    120.4331
  1024.7500    149.5513     24.9656     26.4319     26.3539    123.1699
  1025.0000    149.2347     23.8271     24.4151     24.2910    115.6138
  1025.2500    148.8050     22.5120     22.8995     21.1816    121.0203
  1025.5000    148.3228     21.8221     21.2407     22.0071    105.6656
  1025.7500    147.8360     21.6114     20.6317     22.1506    110.5352
  1026.0000    147.5039     21.3109     19.5420     22.7565    140.2474
  1026.2500    147.5308     20.9784     18.6702     22.3594    153.0618
  1026.5000    147.4495     21.0166     18.1434     20.3218    134.5385
  1026.7500    147.0811     20.7775     17.5676     19.1393    123.9479
  1027.0000    146.9593     20.7838     17.3943     18.6798    121.6113
  1027.2500    146.9029     21.3419     17.4278     16.7251    119.8186
  1027.5000    146.7062     21.6803     18.3036     18.5355    134.2539
  1027.7500    146.9929     22.7584     19.5664     22.1570    155.5752
  1028.0000    147.0706     23.1328     21.5889     30.2425    147.8974
  1028.2500    147.2562     23.7958     23.5525     40.7804    129.7271
  1028.5000    147.5720     25.2688     25.4888     47.2989    107.9134
  1028.7500    148.0916     26.2411     27.0933     50.4972    125.5569
  1029.0000    148.6795     27.2961     28.1803     48.4857     85.7025
  1029.2500    149.3215     28.5710     30.2492     47.5763     71.5315
  1029.5000    149.9077     30.3387     31.9672     47.8608     95.6144
  1029.7500    150.0959     31.9431     34.1383     45.4061     94.9119
  1030.0000    150.2680     34.7741     36.4726     43.5560     79.8211
  1030.2500    149.9989     37.0873     39.1862     45.8929     62.9908
  1030.5000    149.6388     37.8805     38.9263     50.5592     54.3750
  1030.7500    149.0983     39.7844     41.1141     50.0223     71.2290
  1031.0000    148.4540     40.4983     41.5576     52.8822     85.0175
  1031.2500    147.9068     41.3141     43.0243     55.2743     57.1395
  1031.5000    147.0991     41.5070     42.3056     53.5415     54.9193
  1031.7500    145.9679     42.9284     40.8184     49.6687     54.5618
  1032.0000    144.6024     43.3604     42.6827     49.5830     51.9601
  1032.2500    143.4731     41.5263     44.0205     51.6057     46.6821
  1032.5000    142.6574     41.3042     41.7929     52.3292     65.0144
  1032.7500    141.9661     42.5504     40.7476     51.2260     59.3016
  1033.0000    141.4971     41.5536     41.3635     50.3718     65.9941
  1033.2500    141.4114     43.5338     41.2573     49.2201     73.1073
  1033.5000    141.4865     43.0940     41.1223     50.0580     60.3087
  1033.7500    141.9517     42.3169     42.2096     49.2876     60.2381
  1034.0000    142.2295     42.6918     43.0146     48.4070     60.6977
  1034.2500    142.2212     43.6428     42.9615     48.9650     53.8797
  1034.5000    142.0907     44.8318     43.6196     49.9430     54.2523
  1034.7500    141.6415     44.1520     43.3889     49.6003     52.4994
  1035.0000    141.2911     45.6031     43.1406     51.1654     57.0509
  1035.2500    140.9596     46.3412     43.7390     52.1749     46.1655
  1035.5000    140.2503     45.4808     45.9388     53.7078     50.2622
  1035.7500    139.3645     45.9530     48.4258     55.0647     56.2212
  1036.0000    138.4693     45.6697     46.8757     58.6490     48.0774
  1036.2500    137.5697     47.4818     47.9029     62.9332     49.9482
  1036.5000    137.3447     48.3081     48.2339     65.6877     63.8385
  1036.7500    137.1566     49.9995     49.4845     65.5711     57.7887
  1037.0000    136.7106     49.3963     49.8545     62.0698     65.6452
  1037.2500    136.3305     50.1315     51.1927     60.6635     61.4205
  1037.5000    136.4734     51.5560     53.5639     58.5288     56.0727
  1037.7500    136.6052     50.9274     53.0909     59.6623     39.7825
  1038.0000    136.8317     52.2254     54.4892     65.3219     47.1483
  1038.2500    136.9623     53.5670     54.6740     71.1881     44.5238
  1038.5000    137.4309     54.2431     59.0644     70.9587     43.4252
  1038.7500    138.1415     56.7783     62.2366     69.0367     38.4820
  1039.0000    138.7989     55.0978     60.9751     71.5037     40.5421
  1039.2500    139.4680     55.9926     59.0726     73.3959     46.4599
  1039.5000    140.0689     56.0456     60.9993     76.4697     68.1001
  1039.7500    140.8278     57.7867     61.7064     75.8510     56.0267
  1040.0000    141.7436     57.3637     56.1697     80.4159     54.3777
  1040.2500    142.6827     56.9403     60.0763     80.8367     62.8298
  1040.5000    144.0794     54.3063     58.7371     76.9654     51.0020
  1040.7500    145.6346     54.8494     57.1549     71.8238     50.8396
  1041.0000    147.2663     54.8400     55.4943     66.8863     45.7037
  1041.2500    148.7870     53.3999     53.2058     63.0043     51.1953
  1041.5000    150.1756     54.3744     52.8540     58.3146     47.1427
  1041.7500    151.4096     56.9436     52.3744     55.3280     59.6306
  1042.0000    152.4561     55.4881     52.1760     56.2669     55.6441
  1042.2500    153.2437     51.4789     51.1460     56.8258     66.0851
  1042.5000    154.1157     51.9699     50.7792     54.0322     47.6681
  1042.7500    155.2263     51.2222     52.1245     52.5897     36.4173
  1043.0000    156.3034     51.5585     51.8248     54.3894     59.5959
  1043.2500    157.4267     50.9558     51.3559     58.6946     64.4743
  1043.5000    158.2221     52.4233     51.6323     59.7757     57.1726
  1043.7500    158.8469     50.4991     50.1067     61.0272     46.6799
  1044.0000    159.4376     49.5137     48.5076     57.5542     54.1082
  1044.2500    159.7522     49.3622     47.7995     53.6654     55.8056
  1044.5000    160.0044     48.5584     47.2932     51.3537     50.2834
  1044.7500    160.0152     46.4444     46.9239     51.2351     62.3677
  1045.0000    160.3262     46.3030     47.2600     50.6396     69.3447
  1045.2500    160.7853     42.8011     47.9906     54.8685     57.9517
  1045.5000    161.6035     42.0377     46.3806     56.0216     73.1979
  1045.7500    162.5336     39.9434     42.3797     58.8133     64.0860
  1046.0000    163.2233     40.0531     38.1232     54.0275     61.4007
  1046.2500    163.5255     38.6719     35.5587     42.5870     65.3622
  1046.5000    163.9227     40.2414     34.0200     34.1715     65.2810
  1046.7500    164.2421     39.4016     32.6604     31.5169     78.7042
  1047.0000    164.4289     39.9647     32.5199     28.6858    102.3101
  1047.2500    164.4159     40.3366     32.4832     27.4114    118.2009
  1047.5000    164.4457     40.0272     31.1300     27.8826    124.3069
  1047.7500    164.2609     39.0331     32.2080     25.5512    112.6538
