~Version Information
VERS.                      2.0: CWLS Log ASCII Standard - VERSION 2.0
WRAP.                       NO: One line per depth step
~Well Information Block
STRT.FT               262.8000: 
STOP.FT              1134.7000: 
STEP.FT                 0.1000: 
NULL.                -999.2500: 
COMP.          Pioneer Natural Resources: COMPANY
WELL.          Black Cat 13-32 Tr: WELL
FLD.           Purgatoire River: FIELD
LOC.           1679' FSL & 1150' FWL--: LOCATION
CNTY.               Las Animas: COUNTY
SRVC.                Patterson: SERVICE COMPANY
DATE.          Tue Mar 07 12:42:54 2006: LOG DATE
UWI.           05 071 08721 00: UNIQUE WELL ID
STAT.                 Colorado: STATE
~Curve Information Block
DEPT.FT            0 000 00 00: Depth
DCAL.in                       : CDL Caliper
RHOB.g/cc                     : CDL Bulk Density
RHOC.g/cc                     : CDL Density Correction
DPOR.pu                       : CDL Density Porosity
GR.GAPI                       : Gamma Ray
~Parameter Information Block
~A  Depth       DCAL        RHOB        RHOC        DPOR         GR     
# ...
   554.0000      7.8901      2.5230     -0.0058      7.6993    131.2834
   554.1000      7.8901      2.5263     -0.0256      7.4985    129.0798
   554.2000      7.8901      2.5595      0.0051      5.4820    127.4385
   554.3000      7.8922      2.5961      0.0905      3.2648    127.2588
   554.4000      7.8922      2.6060      0.0629      2.6650    129.3283
   554.5000      7.8922      2.5934      0.0447      3.4279    132.5725
   554.6000      7.8922      2.5785      0.0311      4.3341    135.5358
   554.7000      7.8922      2.5658      0.0375      5.1045    136.9959
   554.8000      7.8930      2.5500      0.0496      6.0596    134.3342
   554.9000      7.8930      2.5319      0.0396      7.1547    129.9692
   555.0000      7.8982      2.5203     -0.0098      7.8634    130.0298
   555.1000      7.8982      2.5159     -0.0049      8.1286    133.3390
   555.2000      7.8982      2.5145      0.0194      8.2149    135.4672
   555.3000      7.9063      2.5256     -0.0250      7.5412    137.7348
   555.4000      7.9063      2.5485      0.0704      6.1507    138.5479
   555.5000      7.9120      2.5631      0.0164      5.2679    132.3610
   555.6000      7.9120      2.5660      0.0392      5.0893    123.8191
   555.7000      7.9120      2.5626      0.0604      5.2962    121.6844
   555.8000      7.9147      2.5498      0.0630      6.0712    124.3991
   555.9000      7.9147      2.5333      0.0077      7.0711    125.2411
   556.0000      7.9158      2.5238      0.0265      7.6476    122.0087
   556.1000      7.9158      2.5185      0.0387      7.9695    118.0434
   556.2000      7.9158      2.5177     -0.0269      8.0193    115.9845
   556.3000      7.9162      2.5306     -0.0008      7.2386    116.2845
   556.4000      7.9162      2.5521      0.0404      5.9341    117.4686
   556.5000      7.9148      2.5723      0.0458      4.7093    116.8388
   556.6000      7.9148      2.5908      0.0556      3.5891    113.6562
   556.7000      7.9148      2.6059      0.0950      2.6716    110.1636
   556.8000      7.9078      2.6078      0.0895      2.5580    108.8478
   556.9000      7.9078      2.5895      0.0648      3.6638    106.0588
   557.0000      7.8978      2.5651      0.0109      5.1463    102.3106
   557.1000      7.8978      2.5593      0.0486      5.4970    104.9121
   557.2000      7.8978      2.5674      0.0674      5.0040    112.6906
   557.3000      7.8915      2.5672      0.0379      5.0199    118.9260
   557.4000      7.8915      2.5614      0.0066      5.3708    121.8233
   557.5000      7.8895      2.5612      0.0304      5.3836    121.4546
   557.6000      7.8895      2.5606      0.0444      5.4207    117.6632
   557.7000      7.8895      2.5560     -0.0295      5.6942    114.2028
   557.8000      7.8905      2.5601     -0.0468      5.4457    113.0162
   557.9000      7.8905      2.5760     -0.0062      4.4826    110.2035
   558.0000      7.8917      2.5872      0.0339      3.8089    105.4376
   558.1000      7.8917      2.5875      0.0239      3.7854    104.9267
   558.2000      7.8917      2.5897      0.0003      3.6527    108.9848
   558.3000      7.8910      2.5977      0.0030      3.1673    112.9080
   558.4000      7.8910      2.6010      0.0166      2.9692    115.6573
   558.5000      7.8885      2.5935      0.0275      3.4251    114.7837
   558.6000      7.8885      2.5830      0.0053      4.0586    107.3588
   558.7000      7.8885      2.5824     -0.0048      4.0962     96.8545
   558.8000      7.8870      2.5838      0.0483      4.0146     91.1108
   558.9000      7.8870      2.5731     -0.0075      4.6581     93.0214
   559.0000      7.8871      2.5662     -0.0224      5.0762     99.4917
   559.1000      7.8871      2.5787      0.0169      4.3182    107.2572
   559.2000      7.8871      2.5977     -0.0081      3.1697    110.9497
   559.3000      7.8867      2.6012      0.0624      2.9591    107.3091
   559.4000      7.8867      2.5811      0.0206      4.1779    101.1112
   559.5000      7.8856      2.5569     -0.0298      5.6426     98.3761
   559.6000      7.8856      2.5518      0.0006      5.9498     99.2306
   559.7000      7.8856      2.5677     -0.0081      4.9858    102.6755
   559.8000      7.8855      2.5923      0.0487      3.4999    105.6960
   559.9000      7.8855      2.6101      0.0294      2.4211    104.4294
   560.0000      7.8869      2.6153      0.0093      2.1029    102.7323
   560.1000      7.8869      2.6071      0.0526      2.5971    107.1641
   560.2000      7.8869      2.5861      0.0015      3.8706    114.7143
   560.3000      7.8873      2.5615     -0.0062      5.3642    115.8245
   560.4000      7.8873      2.5439      0.0062      6.4278    111.6098
   560.5000      7.8868      2.5442     -0.0107      6.4142    111.0199
   560.6000      7.8868      2.5718     -0.0293      4.7383    113.8633
   560.7000      7.8868      2.6131      0.0779      2.2353    113.9037
   560.8000      7.8882      2.6300      0.0467      1.2096    110.4133
   560.9000      7.8882      2.6100      0.0314      2.4250    108.2526
   561.0000      7.8901      2.5758     -0.0104      4.4993    107.3296
   561.1000      7.8901      2.5512     -0.0222      5.9908    105.5107
   561.2000      7.8901      2.5422      0.0063      6.5362    105.6103
   561.3000      7.8906      2.5412     -0.0123      6.5948    108.0163
   561.4000      7.8906      2.5398     -0.0154      6.6815    108.8243
   561.5000      7.8892      2.5364     -0.0231      6.8831    106.0929
   561.6000      7.8892      2.5377     -0.0342      6.8084    100.6327
   561.7000      7.8892      2.5486     -0.0060      6.1483     95.8106
   561.8000      7.8881      2.5661      0.0226      5.0877     92.9423
   561.9000      7.8881      2.5811      0.0214      4.1774     91.3738
   562.0000      7.8875      2.5797      0.0836      4.2608     93.2544
   562.1000      7.8875      2.5626      0.0363      5.2967     96.2831
   562.2000      7.8875      2.5556      0.0516      5.7196     95.9505
   562.3000      7.8838      2.5738      0.0474      4.6166     94.8162
   562.4000      7.8838      2.6053      0.0618      2.7072     95.2917
   562.5000      7.8785      2.6293      0.1096      1.2529     93.8473
   562.6000      7.8785      2.6351      0.1277      0.9032     87.6436
   562.7000      7.8785      2.6218      0.1188      1.7097     80.9725
   562.8000      7.8812      2.5936      0.0575      3.4161     80.6363
   562.9000      7.8812      2.5684      0.0415      4.9429     86.3713
   563.0000      7.8916      2.5605      0.0522      5.4218     91.9262
   563.1000      7.8916      2.5666      0.0432      5.0533     95.2815
   563.2000      7.8916      2.5810      0.0608      4.1842     97.8057
   563.3000      7.9015      2.6007      0.0404      2.9875     98.2542
   563.4000      7.9015      2.6173      0.0321      1.9840     96.8119
   563.5000      7.9108      2.6199      0.0484      1.8226     97.6555
   563.6000      7.9108      2.6091      0.0390      2.4761    103.3306
   563.7000      7.9108      2.5951      0.0196      3.3264    109.8753
   563.8000      7.9175      2.5846      0.0206      3.9620    111.9461
   563.9000      7.9175      2.5758      0.0202      4.4988    107.9346
   564.0000      7.9189      2.5702      0.0015      4.8376     99.5684
   564.1000      7.9189      2.5806     -0.0117      4.2035     94.0786
   564.2000      7.9189      2.6099      0.0370      2.4290     97.2456
   564.3000      7.9170      2.6363      0.0729      0.8299    103.3937
   564.4000      7.9170      2.6389      0.0354      0.6742    106.2931
   564.5000      7.9170      2.6192      0.0626      1.8637    108.6718
   564.6000      7.9170      2.5916      0.0614      3.5422    112.9620
   564.7000      7.9170      2.5748      0.0209      4.5597    115.9570
   564.8000      7.9193      2.5775      0.0006      4.3929    115.1925
   564.9000      7.9193      2.5878      0.0439      3.7719    114.1987
   565.0000      7.9191      2.5897      0.0781      3.6528    118.0435
   565.1000      7.9191      2.5863      0.0343      3.8605    125.5819
