~Version Information
VERS.                      2.0: CWLS Log ASCII Standard - VERSION 2.0
WRAP.                       NO: One line per depth step
~Well Information Block
STRT.FT               770.0000: 
STOP.FT              2171.0000: 
STEP.FT                 0.1000: 
NULL.                -999.2500: 
COMP.          Pioneer Natural Resources: COMPANY
WELL.              Kermit 32-7: WELL
FLD.           Purgatoire River: FIELD
LOC.           2002' FNL & 2103' FEL: LOCATION
PROV.                 Colorado: PROVINCE
CNTY.               Las Animas: COUNTRY
SRVC.                Patterson: SERVICE COMPANY
DATE.          Thu Jan 12 03:02:28 2006: LOG DATE
UWI.           05 071 08647 00: UNIQUE WELL ID
~Curve Information Block
DEPT.FT            0 000 00 00: Depth
DCAL.in                       : CDL Caliper
RHOB.g/cc                     : CDL Bulk Density
RHOC.g/cc                     : CDL Density Correction
DPOR.pu                       : CDL Density Porosity
GR.GAPI                       : Gamma Ray
NPOR.pu                       : Neutron Porosity
~Parameter Information Block
~A  Depth       DCAL        RHOB        RHOC        DPOR         GR         NPOR    
# ...
  2152.4000      7.7888      2.4353      0.0335     13.0132     77.6777     25.1300
  2152.5000      7.7982      2.4367      0.0169     12.9255     77.3989     25.2290
  2152.6000      7.7982      2.4484      0.0718     12.2170     80.1430     25.2701
  2152.7000      7.7982      2.4573      0.0962     11.6775     84.6018     25.0448
  2152.8000      7.8014      2.4597      0.0783     11.5325     87.7098     24.7307
  2152.9000      7.8014      2.4649      0.0596     11.2201     86.1671     25.0790
  2153.0000      7.8047      2.4749      0.0835     10.6097     81.4751     25.8195
  2153.1000      7.8047      2.4790      0.0847     10.3620     74.6567     25.9857
  2153.2000      7.8047      2.4708      0.0688     10.8608     67.1776     25.2837
  2153.3000      7.7922      2.4593      0.0401     11.5586     63.2872     24.1795
  2153.4000      7.7922      2.4569      0.0722     11.7050     64.3261     23.2916
  2153.5000      7.7865      2.4658      0.0758     11.1656     64.1488     22.7201
  2153.6000      7.7865      2.4779      0.0950     10.4305     51.4143     22.7993
  2153.7000      7.7865      2.4846      0.0769     10.0217     27.7097     23.7477
  2153.8000      7.7748      2.4854      0.0697      9.9729      9.0120     24.7307
  2153.9000      7.7748      2.4788      0.0821     10.3755      1.6652     25.2245
  2154.0000      7.7840      2.4609      0.0459     11.4586      0.1689     25.2575
  2154.1000      7.7840      2.4348      0.1115     13.0444      0.0090     24.6695
  2154.2000      7.7840      2.4120      0.0225     14.4264      0.0000     23.9856
  2154.3000      7.7874      2.4102      0.0308     14.5323   -999.2500     23.6831
  2154.4000      7.7874      2.4247      0.0668     13.6554   -999.2500     23.5457
  2154.5000      7.7861      2.4326      0.0517     13.1778   -999.2500     23.4664
  2154.6000      7.7861      2.4291      0.0380     13.3870   -999.2500     23.6352
  2154.7000      7.7861      2.4248      0.0351     13.6505   -999.2500     24.3367
  2154.8000      7.7885      2.4230      0.0537     13.7602   -999.2500     24.9185
  2154.9000      7.7885      2.4184      0.0403     14.0364   -999.2500     24.6583
  2155.0000      7.8004      2.4136      0.0492     14.3245   -999.2500     24.6490
  2155.1000      7.8004      2.4220     -0.0087     13.8207   -999.2500     25.2868
  2155.2000      7.8004      2.4457      0.0505     12.3828   -999.2500     25.3270
  2155.3000      7.7935      2.4660      0.0769     11.1486   -999.2500     24.1678
  2155.4000      7.7935      2.4765      0.0864     10.5170   -999.2500     22.6645
  2155.5000      7.7829      2.4888      0.1085      9.7673   -999.2500     21.9247
  2155.6000      7.7829      2.5012      0.0917      9.0155   -999.2500     21.9448
  2155.7000      7.7829      2.5052      0.0810      8.7755   -999.2500     21.7829
  2155.8000      7.7705      2.5051      0.0708      8.7821   -999.2500     20.8280
  2155.9000      7.7705      2.5017      0.0801      8.9860   -999.2500     19.7751
  2156.0000      7.7761      2.4894      0.0609      9.7340   -999.2500     19.9173
  2156.1000      7.7761      2.4744      0.0456     10.6449   -999.2500     22.5459
  2156.2000      7.7761      2.4642      0.0699     11.2595   -999.2500     29.7200
  2156.3000      7.7715      2.4558      0.0361     11.7711   -999.2500     40.2553
  2156.4000      7.7715      2.4527      0.0125     11.9595   -999.2500     47.7498
  2156.5000      7.7670      2.4557      0.0665     11.7728   -999.2500     50.4505
  2156.6000      7.7670      2.4508      0.0608     12.0752   -999.2500     50.9808
  2156.7000      7.7670      2.4428     -0.0261     12.5567   -999.2500     51.0370
  2156.8000      7.7607      2.4544      0.0381     11.8541   -999.2500     51.0402
  2156.9000      7.7607      2.4740      0.1255     10.6642   -999.2500   -999.2500
  2157.0000      7.7756      2.4722      0.0616     10.7788   -999.2500   -999.2500
  2157.1000      7.7756      2.4509      0.0291     12.0659   -999.2500   -999.2500
  2157.2000      7.7756      2.4322      0.0218     13.1986   -999.2500   -999.2500
  2157.3000      7.7842      2.4260     -0.0014     13.5732   -999.2500   -999.2500
  2157.4000      7.7842      2.4290      0.0567     13.3911   -999.2500   -999.2500
  2157.5000      7.7852      2.4378      0.0224     12.8630   -999.2500   -999.2500
  2157.6000      7.7852      2.4473      0.0650     12.2824   -999.2500   -999.2500
  2157.7000      7.7852      2.4470      0.0545     12.3006   -999.2500   -999.2500
  2157.8000      7.7895      2.4421      0.0130     12.6022   -999.2500   -999.2500
  2157.9000      7.7895      2.4557      0.0060     11.7748   -999.2500   -999.2500
  2158.0000      7.7934      2.4921      0.0835      9.5683   -999.2500   -999.2500
  2158.1000      7.7934      2.5270      0.0946      7.4554   -999.2500   -999.2500
  2158.2000      7.7934      2.5404      0.0891      6.6444   -999.2500   -999.2500
  2158.3000      7.7943      2.5342      0.0767      7.0159   -999.2500   -999.2500
  2158.4000      7.7943      2.5203      0.0328      7.8591   -999.2500   -999.2500
  2158.5000      7.7881      2.5086      0.0896      8.5667   -999.2500   -999.2500
  2158.6000      7.7881      2.5012      0.0605      9.0180   -999.2500   -999.2500
  2158.7000      7.7881      2.4933      0.0911      9.4941   -999.2500   -999.2500
  2158.8000      7.7856      2.4847      0.0506     10.0176   -999.2500   -999.2500
  2158.9000      7.7856      2.4795      0.0907     10.3355   -999.2500   -999.2500
  2159.0000      7.7798      2.4768      0.0748     10.4984   -999.2500   -999.2500
  2159.1000      7.7798      2.4787      0.0310     10.3813   -999.2500   -999.2500
  2159.2000      7.7798      2.4881      0.0705      9.8138   -999.2500   -999.2500
  2159.3000      7.7799      2.4962      0.0533      9.3239   -999.2500   -999.2500
  2159.4000      7.7799      2.4931      0.0866      9.5098   -999.2500   -999.2500
  2159.5000      7.7833      2.4874      0.0125      9.8550   -999.2500   -999.2500
  2159.6000      7.7833      2.4995      0.0447      9.1204   -999.2500   -999.2500
  2159.7000      7.7833      2.5251      0.0892      7.5714   -999.2500   -999.2500
  2159.8000      7.7834      2.5390      0.0972      6.7286   -999.2500   -999.2500
  2159.9000      7.7834      2.5331      0.0948      7.0874   -999.2500   -999.2500
  2160.0000      7.7692      2.5214      0.0763      7.7958   -999.2500   -999.2500
  2160.1000      7.7692      2.5170      0.0808      8.0635   -999.2500   -999.2500
  2160.2000      7.7692      2.5149      0.0999      8.1851   -999.2500   -999.2500
  2160.3000      7.7746      2.5085      0.0632      8.5741   -999.2500   -999.2500
  2160.4000      7.7746      2.5049      0.0599      8.7912   -999.2500   -999.2500
  2160.5000      7.7748      2.5081      0.0833      8.5993   -999.2500   -999.2500
  2160.6000      7.7748      2.5113      0.0402      8.4062   -999.2500   -999.2500
  2160.7000      7.7748      2.5092      0.0427      8.5356   -999.2500   -999.2500
  2160.8000      7.7699      2.5010      0.0574      9.0280   -999.2500   -999.2500
  2160.9000      7.7699      2.4880      0.0794      9.8180   -999.2500   -999.2500
  2161.0000      7.7761      2.4705      0.0530     10.8783   -999.2500   -999.2500
  2161.1000      7.7761      2.4571      0.0336     11.6937   -999.2500   -999.2500
  2161.2000      7.7761      2.4602      0.0622     11.5035   -999.2500   -999.2500
  2161.3000      7.7823      2.4785      0.0520     10.3922   -999.2500   -999.2500
  2161.4000      7.7823      2.4952      0.1322      9.3818   -999.2500   -999.2500
  2161.5000      7.7812      2.4939      0.0734      9.4633   -999.2500   -999.2500
  2161.6000      7.7812      2.4791      0.0564     10.3570   -999.2500   -999.2500
  2161.7000      7.7812      2.4707      0.0336     10.8679   -999.2500   -999.2500
  2161.8000      7.7864      2.4783      0.0705     10.4062   -999.2500   -999.2500
  2161.9000      7.7864      2.4889      0.0808      9.7609   -999.2500   -999.2500
