~Version Information
VERS.                      2.0: CWLS Log ASCII Standard - VERSION 2.0
WRAP.                       NO: One line per depth step
~Well Information Block
STRT.FT               330.0000: 
STOP.FT              1923.5000: 
STEP.FT                 0.1000: 
NULL.                -999.2500: 
COMP.          Pioneer Natural Resources: COMPANY
WELL.          State Wildlife 32-16 Tr: WELL
FLD.           Purgatoire River: FIELD
LOC.           1838' FNL & 1850' FEL: LOCATION
STAT.                 Colorado: State
CNTY.               Las Animas: COUNTY
CTRY. USA : Country
SECT. 16 : Section
TOWN. 32S : Township
RANG. 66W : Range
SRVC.                Patterson: SERVICE COMPANY
DATE.          Mon Nov 14 07:20:48 2005: LOG DATE
API.           05 071 08568 00: UNIQUE WELL ID
~Curve Information Block
DEPT.FT            0 000 00 00: Depth
DCAL.in                       : CDL Caliper
RHOB.g/cc                     : CDL Bulk Density
RHOC.g/cc                     : CDL Density Correction
DPOR.pu                       : CDL Density Porosity
GR.GAPI                       : Gamma Ray
NPOR.pu                       : Neutron Porosity
~Parameter Information Block
~A  Depth       DCAL        RHOB        RHOC        DPOR         GR         NPOR    
# ...
  1270.8000      7.9239      2.4803      0.0306     10.2848    144.9577     27.3210
  1270.9000      7.9239      2.4962      0.0221      9.3241    140.8166     27.6812
  1271.0000      7.9276      2.5343      0.0490      7.0125    142.0515     27.8703
  1271.1000      7.9276      2.5860      0.0833      3.8770    140.6045     28.0702
  1271.2000      7.9276      2.6391      0.0836      0.6611    137.0820     28.3681
  1271.3000      7.8842      2.6830      0.1486     -2.0023    136.7984     28.6972
  1271.4000      7.8842      2.7068      0.1821     -3.4446    140.7208     29.0099
  1271.5000      7.8776      2.7073      0.1584     -3.4756    141.9975     29.3455
  1271.6000      7.8776      2.6951      0.1327     -2.7310    135.9706     29.5065
  1271.7000      7.8776      2.6789      0.1193     -1.7505    125.7966     29.3171
  1271.8000      7.8602      2.6578      0.0931     -0.4726    118.2437     28.8519
  1271.9000      7.8602      2.6361     -0.0325      0.8440    117.9648     28.0895
  1272.0000      7.8711      2.6185      0.0132      1.9096    121.2145     27.0694
  1272.1000      7.8711      2.5984      0.0499      3.1246    121.3455     26.2112
  1272.2000      7.8711      2.5837     -0.0166      4.0187    119.3220     25.8364
  1272.3000      7.9420      2.5877      0.0604      3.7768    120.2271     25.6458
  1272.4000      7.9420      2.5932      0.1031      3.4402    124.6732     25.2476
  1272.5000      7.9224      2.5883      0.0992      3.7404    129.7751     24.9037
  1272.6000      7.9224      2.5892      0.1048      3.6834    132.4737     24.8984
  1272.7000      7.9224      2.5982      0.1471      3.1395    134.5162     24.8436
  1272.8000      7.8844      2.5969      0.1146      3.2212    140.7870     24.3488
  1272.9000      7.8844      2.5787      0.1135      4.3235    146.0047     23.8381
  1273.0000      7.8626      2.5572      0.0449      5.6217    141.6567     23.8567
  1273.1000      7.8626      2.5524      0.0663      5.9163    130.7596     24.0593
  1273.2000      7.8626      2.5613      0.1048      5.3755    120.9119     24.1409
  1273.3000      7.8804      2.5621      0.0922      5.3257    118.6505     24.3338
  1273.4000      7.8804      2.5510      0.0620      6.0010    126.0286     24.7176
  1273.5000      7.8944      2.5426      0.0609      6.5093    137.7056     25.2329
  1273.6000      7.8944      2.5436      0.0558      6.4489    148.9143     25.8423
  1273.7000      7.8944      2.5511      0.0556      5.9926    157.8701     26.2467
  1273.8000      7.8965      2.5620      0.0664      5.3311    161.9166     26.1607
  1273.9000      7.8965      2.5734      0.1172      4.6435    157.6988     26.0999
  1274.0000      7.8759      2.5859      0.1226      3.8826    145.9063     26.3457
  1274.1000      7.8759      2.6025      0.1388      2.8784    131.0877     26.1679
  1274.2000      7.8759      2.6146      0.1391      2.1428    119.2445     25.1976
  1274.3000      7.8643      2.6057      0.1175      2.6862    115.3842     23.7393
  1274.4000      7.8643      2.5694      0.1348      4.8843    117.6121     22.1020
  1274.5000      7.8550      2.5129      0.0874      8.3103    119.8676     20.6902
  1274.6000      7.8550      2.4435      0.0606     12.5173    120.3559     19.6711
  1274.7000      7.8550      2.3714     -0.0345     16.8875    122.0935     18.8449
  1274.8000      7.8685      2.3213     -0.0482     19.9225    126.7478     18.3632
  1274.9000      7.8685      2.3105     -0.0343     20.5776    130.6368     18.5795
  1275.0000      7.8820      2.3237      0.0301     19.7751    131.6725     19.4320
  1275.1000      7.8820      2.3232      0.1210     19.8076    131.0604     20.4516
  1275.2000      7.8820      2.2964      0.0701     21.4325    129.1809     21.0871
  1275.3000      7.8858      2.2798      0.0692     22.4373    130.2416     21.4542
  1275.4000      7.8858      2.3035      0.1242     20.9982    137.4096     21.8336
  1275.5000      7.8543      2.3578      0.2062     17.7089    144.5836     22.0913
  1275.6000      7.8543      2.4250      0.2034     13.6372    146.4585     22.1657
  1275.7000      7.8543      2.4972      0.2373      9.2617    145.3422     22.2748
  1275.8000      7.8011      2.5634      0.2912      5.2501    144.2940     22.8598
  1275.9000      7.8011      2.6044      0.3404      2.7649    144.3092     24.0090
  1276.0000      7.8108      2.6079      0.3059      2.5532    147.6104     24.9274
  1276.1000      7.8108      2.5749      0.2925      4.5524    155.5836     24.7860
  1276.2000      7.8108      2.5081      0.2291      8.6018    165.5988     23.8576
  1276.3000      7.8183      2.4208      0.0789     13.8930    172.2783     22.8987
  1276.4000      7.8183      2.3414     -0.0022     18.7028    172.0616     22.1105
  1276.5000      7.8334      2.2860     -0.0077     22.0588    167.1631     21.4597
  1276.6000      7.8334      2.2590     -0.0626     23.6999    161.8745     20.8829
  1276.7000      7.8334      2.2548      0.0342     23.9493    154.7665     20.0445
  1276.8000      7.8485      2.2428      0.0463     24.6778    144.5822     18.9062
  1276.9000      7.8485      2.1997      0.0390     27.2907    134.7558     17.7362
  1277.0000      7.9533      2.1396     -0.0061     30.9331    126.7019     16.6006
  1277.1000      7.9533      2.0805      0.0221     34.5158    119.7099     15.4577
  1277.2000      7.9533      2.0184      0.0340     38.2780    113.3245     14.3170
  1277.3000      7.9759      1.9524     -0.0449     42.2816    107.1868     13.4731
  1277.4000      7.9759      1.8927     -0.0164     45.8997    102.6014     13.1718
  1277.5000      7.9730      1.8346      0.0517     49.4168     99.9076     13.3190
  1277.6000      7.9730      1.7717      0.0200     53.2313     97.9579     13.8678
  1277.7000      7.9730      1.7318     -0.0283     55.6496     96.6155     14.8398
  1277.8000      7.8939      1.7478      0.0658     54.6763     95.7954     16.1334
  1277.9000      7.8939      1.8174      0.1488     50.4621     92.5979     17.7211
  1278.0000      7.8652      1.9292      0.1563     43.6862     86.5557     19.6820
  1278.1000      7.8652      2.0717      0.2351     35.0487     82.5874     21.7004
  1278.2000      7.8652      2.2034      0.2721     27.0679     80.9237     23.3920
  1278.3000      7.8270      2.2911      0.2448     21.7541     77.6354     24.6106
  1278.4000      7.8270      2.3662      0.1675     17.2020     72.8107     25.4816
  1278.5000      7.7988      2.4704      0.2195     10.8843     69.6016     26.2579
  1278.6000      7.7988      2.5756      0.2270      4.5090     69.0580     27.0886
  1278.7000      7.7988      2.6334      0.1407      1.0052     67.6419     27.9535
  1278.8000      7.8619      2.6562     -0.0113     -0.3751     61.9566     28.4248
  1278.9000      7.8619      2.6827      0.0013     -1.9811     56.2748     28.2035
  1279.0000      7.9019      2.7145      0.0063     -3.9077     56.4722     27.3544
  1279.1000      7.9019      2.7286      0.0450     -4.7620     60.6639     26.0903
  1279.2000      7.9019      2.7160      0.0321     -3.9982     63.8162     24.7826
  1279.3000      7.8847      2.6814      0.0324     -1.9059     63.6240     23.4360
  1279.4000      7.8847      2.6263     -0.0117      1.4337     61.1668     22.0355
  1279.5000      7.8727      2.5521     -0.0194      5.9344     57.2367     21.3141
  1279.6000      7.8727      2.4708     -0.0969     10.8617     52.5371     21.5865
  1279.7000      7.8727      2.4112     -0.1607     14.4704     50.4892     21.8520
  1279.8000      7.8800      2.3905     -0.0918     15.7257     52.7565     21.3987
  1279.9000      7.8800      2.3849     -0.0251     16.0678     56.9463     20.6491
  1280.0000      7.8763      2.3627     -0.0329     17.4141     59.9742     20.2071
  1280.1000      7.8763      2.3233     -0.0264     19.7997     60.0336     20.4160
  1280.2000      7.8763      2.2969     -0.0061     21.3999     59.4971     21.3139
  1280.3000      7.8848      2.3127      0.0592     20.4412     62.9369     22.3437
