~Version Information
VERS.                      2.0: CWLS Log ASCII Standard - VERSION 2.0
WRAP.                       NO: One line per depth step
~Well Information Block
STRT.FT                -6.7500: 
STOP.FT              2256.0000: 
STEP.FT                 0.2500: 
NULL.                -999.2500: 
COMP.          Pioneer Natural Resources: COMPANY
WELL.               Relay 12-7: WELL
FLD.           Purgatorie River: FIELD
LOC.           1999' FNL & 848' FWL--: LOCATION
PROV.                       CO: PROVINCE
CNTY.               Las Animas: COUNTRY
SRVC.          Patterson Wireline: SERVICE COMPANY
DATE.          Thu Dec 22 09:06:31 2005: LOG DATE
UWI.           05 071 08453 00: UNIQUE WELL ID
~Curve Information Block
DEPT.FT            0 000 00 00: Depth
CCL.                          : Casing Collar Locator
TT3.usec                      : CBL 3' Travel Time
AMP3.mV                       : CBL 3' Amplitude
GR.GAPI                       : Gamma Ray
~Parameter Information Block
~A  Depth       CCL         TT3         AMP3         GR     
# ...
  1936.2500      0.0000    357.4864      3.4375     66.5870
  1936.5000      0.0000    357.3732      3.3801     66.2300
  1936.7500      0.0000    359.9396      3.3324     67.6008
  1937.0000      0.0000    365.1850      3.3116     70.2229
  1937.2500      0.0000    372.7990      3.3270     73.6034
  1937.5000      0.0000    381.5934      3.3690     77.7796
  1937.7500      0.0000    389.9255      3.4139     82.7179
  1938.0000      0.0000    396.7625      3.4418     87.7217
  1938.2500      0.0000    402.3540      3.4503     91.9608
  1938.5000      0.0000    408.0334      3.4528     95.2218
  1938.7500      0.0000    415.5015      3.4649     97.6275
  1939.0000      0.0000    425.7075      3.4910     98.9025
  1939.2500      0.0000    437.4088      3.5187     98.4319
  1939.5000      0.0000    446.6059      3.5276     95.9504
  1939.7500      0.0000    448.6391      3.5073     91.8949
  1940.0000      0.0000    442.1354      3.4673     87.1627
  1940.2500      0.0000    430.5577      3.4263     82.5173
  1940.5000      0.0000    419.1715      3.3930     78.0878
  1940.7500      0.0000    411.0518      3.3623     73.5845
  1941.0000      0.0000    406.3100      3.3278     69.0375
  1941.2500      0.0000    403.8692      3.2935     64.9719
  1941.5000      0.0000    402.8812      3.2700     61.8190
  1941.7500      0.0000    402.8754      3.2603     59.6746
  1942.0000      0.0000    403.5103      3.2546     58.8915
  1942.2500      0.0000    404.6350      3.2414     60.4064
  1942.5000      0.0000    406.5750      3.2213     64.8416
  1942.7500      0.0000    410.4048      3.2061     71.2628
  1943.0000      0.0000    417.8958      3.2072     77.3041
  1943.2500      0.0000    431.2373      3.2276     80.7936
  1943.5000      0.0000    452.6170      3.2687     81.2161
  1943.7500      0.0000    483.2263      3.3358     79.5993
  1944.0000      0.0000    521.2967      3.4280     77.2358
  1944.2500      0.0000    560.7064      3.5203     74.6436
  1944.5000      0.0000    592.4294      3.5724     71.5704
  1944.7500      0.0000    608.2095      3.5713     67.8488
  1945.0000      0.0000    604.0899      3.5618     64.2240
  1945.2500      0.0000    582.5307      3.6125     62.0236
  1945.5000      0.0000    551.7495      3.7460     61.8631
  1945.7500      0.0000    521.3491      3.9123     62.9627
  1946.0000      0.0000    498.4277      4.0355     63.7017
  1946.2500      2.0000    488.6287      4.0742     62.5852
  1946.5000      0.0000    497.4432      4.0427     59.1288
  1946.7500      0.0000    525.4589      3.9901     54.4302
  1947.0000      0.0000    562.8312      3.9636     50.6907
  1947.2500      0.0000    592.8715      3.9786     49.7106
  1947.5000      0.0000    603.1357      4.0159     51.8236
  1947.7500      0.0000    593.2527      4.0483     56.0966
  1948.0000      0.0000    573.1432      4.0670     61.0094
  1948.2500      0.0000    554.4857      4.0797     64.9384
  1948.5000      0.0000    543.0521      4.0912     66.6470
  1948.7500      0.0000    537.3263      4.0929     65.8137
  1949.0000      0.0000    532.1080      4.0694     63.2667
  1949.2500      0.0000    522.4711      4.0120     60.6008
  1949.5000      0.0000    506.4851      3.9250     59.1164
  1949.7500      0.0000    486.9316      3.8238     58.8358
  1950.0000      0.0000    471.2834      3.7286     58.8057
  1950.2500      0.0000    469.2805      3.6581     58.5454
  1950.5000      0.0000    488.5251      3.6254     58.7412
  1950.7500      0.0000    529.1508      3.6347     60.1062
  1951.0000      0.0000    581.2579      3.6813     61.9811
  1951.2500      0.0000    629.6819      3.7515     62.7599
  1951.5000      0.0000    663.1650      3.8264     61.6301
  1951.7500      0.0000    678.7352      3.8876     59.3701
  1952.0000      0.0000    677.9748      3.9220     57.5676
  1952.2500      0.0000    661.6160      3.9267     57.6005
  1952.5000      0.0000    629.3230      3.9100     60.1458
  1952.7500      0.0000    584.0419      3.8899     64.7729
  1953.0000      0.0000    534.4645      3.8837     69.8209
  1953.2500      0.0000    491.3026      3.8964     73.3859
  1953.5000      0.0000    460.9454      3.9177     74.8007
  1953.7500      0.0000    443.4274      3.9317     74.8519
  1954.0000      0.0000    435.7469      3.9275     74.5796
  1954.2500      0.0000    435.5814      3.9048     74.3888
  1954.5000      0.0000    441.5932      3.8689     74.3999
  1954.7500      0.0000    451.0168      3.8255     75.0620
  1955.0000      0.0000    458.1083      3.7797     76.8686
  1955.2500      0.0000    456.8482      3.7393     79.6220
  1955.5000      0.0000    446.3991      3.7136     82.3391
  1955.7500      0.0000    433.0488      3.7081     83.8448
  1956.0000      0.0000    425.3776      3.7221     83.3905
  1956.2500      0.0000    427.3256      3.7502     81.0337
  1956.5000      0.0000    435.6220      3.7856     77.6986
  1956.7500      0.0000    443.2250      3.8231     74.6425
  1957.0000      0.0000    445.1141      3.8589     72.5530
  1957.2500      0.0000    440.9624      3.8902     71.2053
  1957.5000      0.0000    433.0645      3.9161     70.0467
  1957.7500      0.0000    423.5359      3.9393     68.9070
  1958.0000      0.0000    413.9424      3.9628     68.1287
  1958.2500      0.0000    405.8573      3.9847     68.2315
  1958.5000      0.0000    400.3598      3.9978     69.4444
  1958.7500      0.0000    397.3437      3.9951     71.3319
  1959.0000      0.0000    395.7562      3.9724     72.9270
  1959.2500      0.0000    394.2790      3.9282     73.5381
  1959.5000      0.0000    391.6795      3.8652     73.3258
  1959.7500      0.0000    387.1101      3.7934     72.8764
  1960.0000      0.0000    380.6768      3.7276     72.5304
  1960.2500      0.0000    373.8160      3.6797     72.4088
  1960.5000      0.0000    368.6335      3.6525     72.6758
  1960.7500      0.0000    366.4732      3.6422     73.2394
  1961.0000      0.0000    367.1682      3.6436     73.3322
  1961.2500      0.0000    370.0162      3.6518     72.1069
  1961.5000      0.0000    375.7145      3.6588     69.9258
  1961.7500      0.0000    387.4196      3.6491     68.4227
  1962.0000      0.0000    409.8150      3.6043     68.7762
  1962.2500      0.0000    446.4320      3.5175     70.2988
  1962.5000      0.0000    496.3572      3.4048     71.1418
  1962.7500      0.0000    552.6439      3.2982     70.1327
  1963.0000      0.0000    604.7970      3.2232     67.6257
  1963.2500      0.0000    644.1930      3.1829     64.6646
  1963.5000      0.0000    667.8304      3.1599     61.6722
  1963.7500      0.0000    677.8129      3.1262     58.2734
  1964.0000      0.0000    678.5219      3.0519     54.3730
  1964.2500      0.0000    674.5071      2.9139     50.9596
  1964.5000      0.0000    669.6458      2.7066     49.3667
  1964.7500      0.0000    666.5211      2.4478     49.7432
  1965.0000      0.0000    665.6506      2.1728     50.7578
  1965.2500      0.0000    665.2921      1.9203     51.0646
  1965.5000      0.0000    662.6274      1.7192     50.6047
  1965.7500      0.0000    656.0365      1.5798     50.1576
  1966.0000      0.0000    646.6866      1.4937     50.1833
  1966.2500      0.0000    637.8555      1.4478     50.5986
  1966.5000      0.0000    632.7706      1.4402     51.2077
  1966.7500      0.0000    632.9383      1.4796     51.6965
  1967.0000      0.0000    637.5309      1.5679     51.5017
  1967.2500      0.0000    643.4886      1.6886     50.4567
  1967.5000      0.0000    646.9752      1.8158     49.6822
  1967.7500      0.0000    646.1929      1.9320     51.2459
  1968.0000      0.0000    642.9068      2.0359     56.5530
  1968.2500      0.0000    640.6490      2.1376     65.1038
  1968.5000      0.0000    641.5624      2.2483     74.8620
  1968.7500      0.0000    645.0728      2.3727     83.7196
  1969.0000      0.0000    648.7689      2.5083     90.5867
  1969.2500      0.0000    649.3644      2.6531     95.4099
  1969.5000      0.0000    642.5703      2.8111     98.7125
