~Version Information
VERS.                      2.0: CWLS Log ASCII Standard - VERSION 2.0
WRAP.                       NO: One line per depth step
~Well Information Block
STRT.FT               555.0000: 
STOP.FT              2283.0000: 
STEP.FT                 0.2500: 
NULL.                -999.2500: 
COMP.          Pioneer Natural Resources: COMPANY
WELL.          Roadster 41-33 Kv: WELL
FLD.           Purgatoire River: FIELD
LOC.           903' FNL & 248' FEL: LOCATION
PROV.                 Colorado: PROVINCE
CNTY.               Las Animas: COUNTRY
SRVC.                Patterson: SERVICE COMPANY
DATE.          Wed Dec 14 23:52:42 2005: LOG DATE
UWI.           05 071 08615 00: UNIQUE WELL ID
~Curve Information Block
DEPT.FT            0 000 00 00: Depth
SN.Ohm-m                      : IEL Short Normal
SP.mV                         : IEL Spontaneous Potential
DIR.Ohm-m                     : IEL Induction Resistivity
GR.GAPI                       : Gamma Ray
~Parameter Information Block
~A  Depth        SN          SP         DIR          GR     
# ...
  1225.0000     13.5456     13.3462     12.1411    139.2835
  1225.2500     13.9907     13.2932     12.4033    136.6738
  1225.5000     14.4400     13.2809     12.7584    132.4544
  1225.7500     14.8503     13.3078     13.2239    130.0416
  1226.0000     15.2804     13.3590     13.8093    128.1561
  1226.2500     15.8875     13.4169     14.5125    128.3967
  1226.5000     16.8426     13.4707     15.3232    130.3735
  1226.7500     18.2446     13.5158     16.2310    131.6380
  1227.0000     20.0866     13.5507     17.2342    131.0047
  1227.2500     22.2762     13.5826     18.3384    127.8490
  1227.5000     24.6821     13.6327     19.5415    118.6787
  1227.7500     27.1664     13.7304     20.8138    110.2428
  1228.0000     29.5755     13.8963     22.0927     96.2704
  1228.2500     31.7362     14.1277     23.3036     87.6537
  1228.5000     33.5027     14.3987     24.4005     77.8561
  1228.7500     34.8108     14.6695     25.3908     73.6109
  1229.0000     35.6747     14.8978     26.3222     69.3435
  1229.2500     36.1362     15.0533     27.2395     66.9662
  1229.5000     36.2079     15.1300     28.1454     63.6231
  1229.7500     35.8853     15.1484     28.9871     61.8284
  1230.0000     35.2614     15.1428     29.6804     60.1607
  1230.2500     34.5601     15.1422     30.1560     59.6728
  1230.5000     33.9783     15.1568     30.4018     59.8450
  1230.7500     33.5712     15.1770     30.4695     60.7518
  1231.0000     33.3017     15.1825     30.4405     63.5088
  1231.2500     33.1258     15.1553     30.3787     66.0173
  1231.5000     33.0218     15.0912     30.3072     69.7245
  1231.7500     32.9776     15.0005     30.2218     71.4821
  1232.0000     33.0022     14.8996     30.1179     72.2903
  1232.2500     33.1405     14.7977     29.9979     71.5532
  1232.5000     33.4160     14.6915     29.8462     69.2669
  1232.7500     33.7900     14.5675     29.5922     67.8164
  1233.0000     34.2114     14.4112     29.1013     67.2385
  1233.2500     34.6224     14.2194     28.2167     68.1882
  1233.5000     34.9110     14.0056     26.8479     70.5764
  1233.7500     34.9576     13.7965     25.0539     71.6996
  1234.0000     34.7516     13.6204     23.0485     71.0869
  1234.2500     34.4167     13.4952     21.1108     68.8453
  1234.5000     34.1056     13.4218     19.4804     63.6365
  1234.7500     33.8904     13.3851     18.3161     60.1984
  1235.0000     33.7432     13.3605     17.7370     57.4415
  1235.2500     33.5965     13.3242     17.9266     57.7618
  1235.5000     33.4042     13.2631     19.3315     60.2290
  1235.7500     33.1467     13.1798     23.2275     61.7307
  1236.0000     32.8402     13.0906     34.5791     61.9292
  1236.2500     32.5711     13.0175    105.6987     60.6448
  1236.5000     32.4713     12.9778 100000.0000     57.8601
  1236.7500     32.6308     12.9754 100000.0000     56.2586
  1237.0000     33.0159     12.9996 100000.0000     54.9156
  1237.2500     33.4534     13.0314 100000.0000     54.7415
  1237.5000     33.7159     13.0518 100000.0000     55.4790
  1237.7500     33.6734     13.0443 100000.0000     56.7011
  1238.0000     33.3816     12.9962 100000.0000     59.7979
  1238.2500     33.0199     12.8999 100000.0000     62.7256
  1238.5000     32.7473     12.7576 100000.0000     68.3836
  1238.7500     32.6145     12.5794 100000.0000     72.9594
  1239.0000     32.5872     12.3774 100000.0000     80.4811
  1239.2500     32.6148     12.1567 100000.0000     85.1302
  1239.5000     32.6533     11.9125 100000.0000     89.7590
  1239.7500     32.6535     11.6330 100000.0000     90.5883
  1240.0000     32.5754     11.3033 100000.0000     88.9058
  1240.2500     32.4380     10.9086 100000.0000     87.1689
  1240.5000     32.3268     10.4331 100000.0000     86.5813
  1240.7500     32.3085      9.8591 100000.0000     88.5691
  1241.0000     32.3528      9.1655 100000.0000     94.5484
  1241.2500     32.3372      8.3291 100000.0000     99.1288
  1241.5000     32.1205      7.3256 100000.0000    104.3799
  1241.7500     31.6597      6.1298 100000.0000    106.0641
  1242.0000     31.0402      4.7165 100000.0000    106.1314
  1242.2500     30.3487      3.0603 100000.0000    105.2342
  1242.5000     29.5920      1.1346      8.0535    103.8415
  1242.7500     28.7326     -1.0927      1.7164    103.4808
  1243.0000     27.7266     -3.6685      0.7669    104.1787
  1243.2500     26.5171     -6.6625      0.4238    105.3846
  1243.5000     25.0036    -10.1692      0.2625    108.1047
  1243.7500     23.0460    -14.3016      0.1840    110.5400
  1244.0000     20.5030    -19.1787      0.1536    115.0313
  1244.2500     17.2679    -24.8991      0.1594    117.9864
  1244.5000     13.3852    -31.4911      0.2059    120.0099
  1244.7500      9.2588    -38.8503      0.3156    118.1593
  1245.0000      5.6371    -46.7016      0.5393    109.3532
  1245.2500      3.1454    -54.6285      1.0061    100.1123
  1245.5000      1.8307    -62.1807      2.1057     83.7494
  1245.7500      1.2868    -69.0210      5.0950     72.6562
  1246.0000      1.0991    -75.0281     13.6709     57.4607
  1246.2500      1.0509    -80.2819     25.5467     48.8306
  1246.5000      1.0570    -84.9467     19.2726     38.4858
  1246.7500      1.0749    -89.1555     11.6234     33.2794
  1247.0000      1.0842    -92.9830      8.0974     27.6792
  1247.2500      1.0822    -96.4913      6.6456     25.2247
  1247.5000      1.0694    -99.7750      6.2998     23.3534
  1247.7500      1.0472   -102.9700      6.8012     23.3348
  1248.0000      1.0236   -106.2338      8.3290     24.9347
  1248.2500      1.0119   -109.7066     11.7429     26.7512
  1248.5000      1.0169   -113.4395     20.2665     30.1678
  1248.7500      1.0308   -117.2773     52.6802     33.0084
  1249.0000      1.0500   -120.7259   1230.2183     38.6747
  1249.2500      1.0750   -122.8860    673.2745     43.5661
  1249.5000      1.0978   -122.5769     38.4697     52.2802
  1249.7500      1.1164   -118.7070     13.7207     58.7237
  1250.0000      1.1360   -110.7563      7.7994     69.3757
  1250.2500      1.1554    -99.0598      5.9397     77.4829
  1250.5000      1.1711    -84.6746      5.7566     91.3779
  1250.7500      1.1915    -68.9466      6.8306    101.2542
  1251.0000      1.2633    -53.1186      8.4607    115.2877
  1251.2500      1.5248    -38.1791      7.0009    123.3345
  1251.5000      2.2512    -24.8563      3.5007    132.9686
  1251.7500      3.7452    -13.5814      1.6344    137.7965
  1252.0000      6.0058     -4.4224      0.8655    142.8541
  1252.2500      8.5595      2.8879      0.5307    145.0025
  1252.5000     10.8064      8.8040      0.3786    146.8728
  1252.7500     12.4661     13.8050      0.3217    147.3529
  1253.0000     13.5953     18.3071      0.3304    146.7984
  1253.2500     14.3344     22.6384      0.4049    145.5157
  1253.5000     14.7742     26.9957      0.5768    142.6109
  1253.7500     14.9792     31.3240      0.9566    140.5296
  1254.0000     15.0266     35.1546      2.0251    137.8936
  1254.2500     15.0024     37.5913      9.5283    136.4308
  1254.5000     14.9973     37.6921 100000.0000    134.0852
  1254.7500     15.1441     35.1798 100000.0000    132.2751
  1255.0000     15.6443     30.8877 100000.0000    129.7135
  1255.2500     16.6805     26.3582 100000.0000    128.4238
  1255.5000     18.2260     22.8727 100000.0000    126.7387
  1255.7500     20.0056     20.8315 100000.0000    125.1959
  1256.0000     21.7280     19.9193 100000.0000    121.7049
  1256.2500     23.2685     19.6302 100000.0000    118.7528
  1256.5000     24.6038     19.6061 100000.0000    113.9044
  1256.7500     25.7155     19.6792     87.1822    110.5042
  1257.0000     26.5984     19.7939     70.6944    105.2955
  1257.2500     27.2990     19.9390     85.4304    102.3174
  1257.5000     27.9181     20.1110    126.9052    100.5803
  1257.7500     28.5717     20.2980    303.7461    102.1836
  1258.0000     29.3189     20.4778 100000.0000    108.1151
  1258.2500     30.1001     20.6262 100000.0000    112.7204
