~Version Information
VERS.                      2.0: CWLS Log ASCII Standard - VERSION 2.0
WRAP.                       NO: One line per depth step
~Well Information Block
STRT.FT                -6.5000: 
STOP.FT              1773.5000: 
STEP.FT                 0.2500: 
NULL.                -999.2500: 
COMP.          Pioneer Natural Resources: COMPANY
WELL.           Lynch 43-30 Tr: WELL
FLD.           Purgatorie River: FIELD
LOC.           1431' FSL & 296' FEL--: LOCATION
PROV.                       CO: PROVINCE
CNTY.               Las Animas: COUNTRY
SRVC.          Patterson Wireline: SERVICE COMPANY
DATE.          Tue Aug 02 09:28:21 2005: LOG DATE
UWI.           05 071 08447 00: UNIQUE WELL ID
~Curve Information Block
DEPT.FT            0 000 00 00: Depth
CCL.                          : Casing Collar Locator
TT3.usec                      : CBL 3' Travel Time
AMP3.mV                       : CBL 3' Amplitude
GR.GAPI                       : Gamma Ray
~Parameter Information Block
MINAMPL.mV              1.0000: Minimum Amplitude
~A  Depth       CCL         TT3         AMP3         GR     
# ...
   797.5000      0.0000    664.1027     17.9014    151.8143
   797.7500      0.0000    688.4503     18.0543    154.5012
   798.0000      0.0000    732.7259     17.7988    155.0308
   798.2500      0.0000    773.0445     17.4656    152.7062
   798.5000      0.0000    798.2260     17.2332    148.0803
   798.7500      0.0000    811.6891     17.1124    143.0429
   799.0000      0.0000    821.4557     17.0449    139.7468
   799.2500      0.0000    831.7465     16.9757    139.0177
   799.5000      0.0000    841.8551     16.8831    139.6800
   799.7500      0.0000    849.5632     16.7842    139.7837
   800.0000      0.0000    854.0364     16.7159    138.6929
   800.2500      0.0000    856.0188     16.7035    137.6884
   800.5000      0.0000    856.6412     16.7415    138.3183
   800.7500      0.0000    856.6685     16.8010    140.5127
   801.0000      0.0000    856.4660     16.8513    142.7053
   801.2500      0.0000    856.1948     16.8688    143.5818
   801.5000      0.0000    855.9537     16.8281    143.1657
   801.7500      0.0000    855.8138     16.7046    142.1003
   802.0000      0.0000    855.8008     16.4980    140.5489
   802.2500      0.0000    855.8975     16.2444    138.3238
   802.5000      0.0000    856.0725     15.9968    135.6321
   802.7500      0.0000    856.3049     15.7948    133.1093
   803.0000      0.0000    856.5734     15.6515    131.2575
   803.2500      0.0000    856.8407     15.5585    130.2315
   803.5000      0.0000    857.0697     15.4951    130.0096
   803.7500      0.0000    857.2867     15.4400    130.3900
   804.0000      0.0000    857.6945     15.3834    130.8344
   804.2500      0.0000    858.7854     15.3329    130.6199
   804.5000      0.0000    861.2545     15.3107    129.3705
   804.7500      0.0000    865.4598     15.3392    127.4758
   805.0000      0.0000    870.6782     15.4171    125.7739
   805.2500      0.0000    875.1780     15.5066    124.6447
   805.5000      0.0000    877.6707     15.5538    123.6135
   805.7500      0.0000    878.6642     15.5240    122.1898
   806.0000      0.0000    879.8020     15.4159    121.0074
   806.2500      0.0000    882.1241     15.2507    121.4157
   806.5000      0.0000    885.9502     15.0621    123.4482
   806.7500      0.0000    892.3521     14.8935    124.8048
   807.0000      0.0000    903.5640     14.7887    122.6060
   807.2500      0.0000    920.8973     14.7699    116.0096
   807.5000      0.0000    941.7813     14.8191    106.6317
   807.7500      0.0000    958.9678     14.8779     96.7147
   808.0000      0.0000    963.7668     14.8766     87.5351
   808.2500      0.0000    951.8083     14.7817     79.5123
   808.5000      0.0000    926.9871     14.6253     73.0698
   808.7500      0.0000    900.3455     14.4872     68.7524
   809.0000      0.0000    883.8884     14.4435     66.4445
   809.2500      0.0000    883.3257     14.5232     64.8738
   809.5000      0.0000    895.4639     14.6993     62.2890
   809.7500      0.0000    912.1185     14.9100     57.7973
   810.0000      0.0000    926.4782     15.0883     52.0457
   810.2500      0.0000    936.1298     15.1815     46.6735
   810.5000      0.0000    940.8768     15.1658     43.0903
   810.7500      0.0000    939.8507     15.0624     41.5700
   811.0000      0.0000    932.6527     14.9354     41.2716
   811.2500      0.0000    921.8004     14.8569     41.2488
   811.5000      0.0000    911.4982     14.8647     41.6564
   811.7500      0.0000    904.0265     14.9489     44.0747
   812.0000      0.0000    898.4469     15.0696     50.6706
   812.2500      0.0000    892.4668     15.1779     62.8169
   812.5000      0.0000    884.8408     15.2314     79.8359
   812.7500      0.0000    876.3250     15.2062     98.5131
   813.0000      0.0000    868.7910     15.1034    114.2698
   813.2500      0.0000    863.6116     14.9432    123.7734
   813.5000      0.0000    860.8459     14.7586    126.8230
   813.7500      0.0000    859.6969     14.5892    125.7036
   814.0000      0.0000    859.3306     14.4695    122.9506
   814.2500      0.0000    859.2719     14.4157    119.8604
   814.5000      0.0000    859.3475     14.4201    116.7107
   814.7500      0.0000    859.5447     14.4560    113.9237
   815.0000      0.0000    859.9211     14.4904    112.8800
   815.2500      0.0000    860.5472     14.5018    115.4653
   815.5000      0.0000    861.3595     14.4956    122.5218
   815.7500      0.0000    862.0678     14.5003    132.7652
   816.0000      0.0000    862.6683     14.5462    143.2691
   816.2500      0.0000    864.6063     14.6434    150.9095
   816.5000      0.0000    871.3050     14.7777    153.7610
   816.7500      0.0000    886.5058     14.9266    151.9021
   817.0000      0.0000    911.0733     15.0777    147.0989
   817.2500      0.0000    941.4030     15.2321    141.2859
   817.5000      0.0000    971.9620     15.3927    135.2496
   817.7500      0.0000    999.7612     15.5532    128.8474
   818.0000      0.0000   1024.6888     15.6997    122.1592
   818.2500      0.0000   1044.4473     15.8188    116.1067
   818.5000      0.0000   1051.5011     15.8969    112.1226
   818.7500      0.0000   1038.0048     15.9090    111.3693
   819.0000      0.0000   1004.0929     15.8201    114.1193
   819.2500      0.0000    960.1185     15.6121    119.7142
   819.5000      0.0000    919.5697     15.3145    127.0266
   819.7500      0.0000    889.5846     14.9967    134.9146
   820.0000      0.0000    868.4416     14.7195    142.3497
   820.2500      0.0000    850.8445     14.4955    148.3811
   820.5000      0.0000    833.8134     14.2989    152.1466
   820.7500      0.0000    817.8514     14.1095    153.1326
   821.0000      0.0000    804.6136     13.9406    151.7124
   821.2500      0.0000    794.9738     13.8273    149.1684
   821.5000      0.0000    789.0277     13.7999    146.6309
   821.7500      0.0000    786.8378     13.8743    144.1130
   822.0000      0.0000    788.6406     14.0541    141.0326
   822.2500      0.0000    794.4436     14.3260    137.4731
   822.5000      0.0000    803.6000     14.6469    134.5558
   822.7500      0.0000    815.0620     14.9512    133.8605
   823.0000      0.0000    828.2012     15.1827    136.6384
   823.2500      0.0000    843.2150     15.3243    142.8831
   823.5000      0.0000    860.5652     15.3964    150.4817
   823.7500      0.0000    880.0065     15.4333    155.8387
   824.0000      0.0000    899.7745     15.4606    156.2198
   824.2500      0.0000    916.4085     15.4829    151.4925
   824.5000      0.0000    925.5283     15.4837    143.5681
   824.7500      0.0000    923.1578     15.4379    134.8716
   825.0000      0.0000    907.3414     15.3292    127.5351
   825.2500      0.0000    880.1680     15.1584    123.0675
   825.5000      0.0000    848.6135     14.9404    121.7987
   825.7500      0.0000    821.7617     14.6977    122.5392
   826.0000      0.0000    805.5974     14.4577    123.2549
   826.2500      0.0000    800.1285     14.2489    122.5183
   826.5000      0.0000    801.4114     14.0962    120.3343
   826.7500      0.0000    805.9370     14.0167    117.5727
   827.0000      0.0000    812.9754     14.0149    115.1331
   827.2500      0.0000    823.2698     14.0814    113.8613
   827.5000      0.0000    836.5411     14.1994    114.4057
   827.7500      0.0000    850.6931     14.3511    116.5812
   828.0000      0.0000    862.5250     14.5171    119.4644
   828.2500      0.0000    868.7424     14.6707    122.5926
   828.5000      0.0000    867.2224     14.7821    126.5071
   828.7500      0.0000    858.2016     14.8345    131.7551
   829.0000      0.0000    844.2943     14.8331    137.8737
   829.2500      0.0000    829.2657     14.7960    143.5749
   829.5000      0.0000    816.5936     14.7389    147.4424
   829.7500      0.0000    808.5121     14.6727    148.4528
   830.0000      0.0000    805.3190     14.6082    146.4524
   830.2500      0.0000    805.0355     14.5565    142.5177
   830.5000      0.0000    804.4232     14.5241    138.7926
   830.7500      0.0000    801.2289     14.5133    137.5269
