~Version Information
VERS.                      2.0: CWLS Log ASCII Standard - VERSION 2.0
WRAP.                       NO: One line per depth step
~Well Information Block
STRT.FT                -7.2500: 
STOP.FT              1196.2500: 
STEP.FT                 0.2500: 
NULL.                -999.2500: 
COMP.          Pioneer Natural Resources: COMPANY
WELL.             Mahalo 12-20: WELL
FLD.           Purgatorie River: FIELD
LOC.           1689' FNL & 479' FWL--: LOCATION
CNTY.               Las Animas: COUNTY
SRVC.          Patterson Wireline: SERVICE COMPANY
DATE.          Tue Mar 14 15:40:32 2006: LOG DATE
UWI.           05 071 08700 00: UNIQUE WELL ID
STAT.                       CO: STATE
~Curve Information Block
DEPT.FT            0 000 00 00: Depth
CCL.                          : Casing Collar Locator
TT3.usec                      : CBL 3' Travel Time
AMP3.mV                       : CBL 3' Amplitude
GR.GAPI                       : Gamma Ray
~Parameter Information Block
~A  Depth       CCL         TT3         AMP3         GR     
    -7.2500   -999.2500   -999.2500   -999.2500     91.6401
    -7.0000   -999.2500   -999.2500   -999.2500     91.3850
    -6.7500   -999.2500   -999.2500   -999.2500     89.8653
    -6.5000   -999.2500   -999.2500   -999.2500     86.6279
    -6.2500   -999.2500   -999.2500   -999.2500     82.3827
    -6.0000   -999.2500   -999.2500   -999.2500     78.5628
    -5.7500   -999.2500   -999.2500   -999.2500     76.1533
    -5.5000   -999.2500   -999.2500   -999.2500     75.4241
    -5.2500   -999.2500   -999.2500   -999.2500     76.4780
    -5.0000   -999.2500   -999.2500   -999.2500     79.4968
    -4.7500   -999.2500   -999.2500   -999.2500     84.3657
    -4.5000   -999.2500   -999.2500   -999.2500     90.1884
    -4.2500   -999.2500   -999.2500   -999.2500     95.3004
    -4.0000   -999.2500   -999.2500   -999.2500     97.9588
    -3.7500   -999.2500   -999.2500   -999.2500     97.4732
    -3.5000   -999.2500   -999.2500   -999.2500     94.9239
    -3.2500   -999.2500   -999.2500   -999.2500     92.3949
    -3.0000   -999.2500   -999.2500   -999.2500     91.1458
    -2.7500   -999.2500   -999.2500   -999.2500     90.8623
    -2.5000   -999.2500   -999.2500   -999.2500     90.6437
    -2.2500   -999.2500   1161.0000      1.0230     89.9491
    -2.0000   -999.2500   1161.0000      1.0375     88.5508
    -1.7500   -999.2500   1161.0000      1.0516     86.4606
    -1.5000   -999.2500   1161.0000      1.0586     84.2181
    -1.2500   -999.2500   1161.0000      1.0569     82.6403
    -1.0000   -999.2500   1161.0000      1.0504     81.8356
    -0.7500   -999.2500   1161.0000      1.0436     80.7747
    -0.5000   -999.2500   1161.0000      1.0384     78.2400
    -0.2500   -999.2500   1161.0000      1.0343     74.0086
     0.0000   -999.2500   1161.0000      1.0310     68.8436
     0.2500   -999.2500   1161.0000      1.0299     63.6432
     0.5000   -999.2500   1161.0000      1.0402     54.0721
     0.7500   -999.2500   1161.0000      1.0468     48.9186
     1.0000   -999.2500   1161.0000      1.0472     43.1853
     1.2500   -999.2500   1161.0000      1.0393     37.5771
     1.5000   -999.2500   1161.0000      1.0256     33.3011
     1.7500   -999.2500   1161.0000      1.0114     31.2422
     2.0000   -999.2500   1161.0000      1.0016     31.5379
     2.2500   -999.2500   1161.0000      0.9988     33.7512
     2.5000   -999.2500   1161.0000      1.0030     37.1421
     2.7500   -999.2500   1161.0000      1.0125     40.7619
     3.0000      0.0000   1161.0000      1.0238     43.6654
     3.2500      0.0000   1161.0000      1.0315     45.4521
     3.5000      0.0000   1161.0000      1.0308     46.7073
     3.7500      0.0000   1161.0000      1.0210     48.7172
     4.0000      0.0000   1161.0000      1.0072     52.4941
     4.2500      0.0000   1161.0000      0.9972     57.9265
     4.5000      0.0000   1161.0000      0.9958     63.9208
     4.7500      0.0000   1161.0000      1.0032     69.4168
     5.0000      0.0000   1161.0000      1.0163     74.0508
     5.2500      0.0000   1161.0000      1.0308     77.7477
     5.5000      0.0000   1161.0000      1.0424     80.2102
     5.7500      0.0000   1161.0000      1.0491     81.2768
     6.0000      0.0000   1161.0000      1.0513     81.4106
     6.2500      0.0000   1161.0000      1.0498     81.4516
     6.5000      0.0000   1161.0000      1.0446     82.2280
     6.7500      0.0000   1161.0000      1.0362     84.6443
     7.0000      0.0000   1161.0000      1.0273     89.5329
     7.2500      0.0000   1161.0000      1.0211     96.8174
     7.5000      0.0000   1161.0000      1.0196    104.8925
     7.7500      0.0000   1161.0000      1.0235    111.1143
     8.0000      0.0000   1161.0000      1.0317    113.2315
     8.2500      0.0000   1161.0000      1.0411    110.8912
     8.5000      0.0000   1161.0000      1.0474    106.1970
     8.7500      0.0000   1161.0000      1.0484    102.5204
     9.0000      0.0000   1161.0000      1.0453    102.0532
     9.2500      0.0000   1161.0000      1.0402    104.0790
     9.5000      0.0000   1161.0000      1.0348    105.6252
     9.7500      0.0000   1161.0000      1.0293    104.0853
    10.0000      0.0000   1161.0000      1.0249     99.5386
    10.2500      0.0000   1161.0000      1.0237     94.4803
    10.5000      0.0000   1161.0000      1.0274     91.1689
    10.7500      0.0000   1161.0000      1.0361     89.5759
    11.0000      0.0000   1161.0000      1.0486     88.1499
    11.2500      0.0000   1161.0000      1.0624     85.8888
    11.5000      0.0000   1161.0000      1.0737     82.8834
    11.7500      0.0000   1161.0000      1.0781     79.4404
    12.0000      0.0000   1161.0000      1.0735     75.7893
    12.2500      0.0000   1161.0000      1.0618     72.4943
    12.5000      0.0000   1161.0000      1.0466     70.2270
    12.7500      0.0000   1161.0000      1.0313     69.1020
    13.0000      0.0000   1161.0000      1.0183     68.9096
    13.2500      0.0000   1161.0000      1.0101     69.9197
    13.5000      0.0000   1161.0000      1.0084     72.6982
    13.7500      0.0000   1161.0000      1.0121     76.9714
    14.0000      0.0000   1161.0000      1.0175     81.2271
    14.2500      0.0000   1161.0000      1.0213     83.7055
    14.5000      0.0000   1161.0000      1.0222     83.7208
    14.7500      0.0000   1161.0000      1.0205     82.0755
    15.0000      0.0000   1161.0000      1.0171     80.2554
    15.2500      0.0000   1161.0000      1.0138     79.1340
    15.5000      0.0000   1161.0000      1.0123     78.4868
    15.7500      2.0000   1161.0000      1.0135     77.6109
    16.0000      0.0000   1161.0000      1.0170     76.0595
    16.2500      0.0000   1161.0000      1.0224     73.8205
    16.5000      0.0000   1161.0000      1.0287     71.1778
    16.7500      0.0000   1161.0000      1.0353     68.6871
    17.0000      0.0000   1161.0000      1.0425     67.0799
    17.2500      0.0000   1161.0000      1.0511     66.7442
    17.5000      0.0000   1161.0000      1.0605     67.3469
    17.7500      0.0000   1161.0000      1.0670     68.2775
    18.0000      0.0000   1161.0000      1.0660     69.1746
    18.2500      0.0000   1161.0000      1.0553     69.5323
    18.5000      0.0000   1161.0000      1.0375     68.3192
    18.7500      0.0000   1161.0000      1.0194     64.9429
    19.0000      0.0000   1161.0000      1.0078     60.4187
    19.2500      0.0000   1161.0000      1.0052     56.7075
    19.5000      0.0000   1161.0000      1.0099     54.9033
    19.7500      0.0000   1161.0000      1.0180     54.5783
    20.0000      0.0000   1161.0000      1.0261     54.6619
    20.2500      0.0000   1161.0000      1.0322     54.3667
    20.5000      0.0000   1161.0000      1.0360     53.4484
    20.7500      0.0000   1161.0000      1.0389     52.2409
    21.0000      0.0000   1161.0000      1.0422     51.4890
    21.2500      0.0000   1161.0000      1.0464     51.7452
    21.5000      0.0000   1160.9398      1.0535     52.8928
    21.7500      0.0000   1160.5477      1.0766     54.4496
    22.0000      0.0000   1158.5563      1.1883     56.2053
    22.2500      0.0000   1150.6802      1.6487     58.3387
    22.5000      0.0000   1126.4213      3.1206     60.9312
    22.7500      0.0000   1068.2306      6.7687     63.4805
    23.0000      0.0000    959.5247     13.8176     64.9312
    23.2500      0.0000    801.3743     24.4738     64.2458
    23.5000      0.0000    622.1896     37.1119     61.0542
    23.7500      0.0000    464.0858     48.8982     56.0033
    24.0000      0.0000    355.4462     57.5441     50.7369
    24.2500      0.0000    297.3124     62.4884     47.2077
    24.5000      0.0000    273.0867     64.5962     46.3388
    24.7500      0.0000    265.2198     65.1508     47.3231
    25.0000      0.0000    263.2185     65.1877     48.6085
    25.2500      0.0000    262.8066     65.3650     49.4080
    25.5000      0.0000    262.7298     66.0328     49.8212
    25.7500      0.0000    262.7313     67.2637     49.7705
    26.0000      0.0000    262.7613     68.8692     48.6183
