~Version Information
VERS.                      2.0: CWLS Log ASCII Standard - VERSION 2.0
WRAP.                       NO: One line per depth step
~Well Information Block
STRT.FT                10.0000: 
STOP.FT              1063.0000: 
STEP.FT                 0.1000: 
NULL.                -999.2500: 
COMP.          Pioneer Natural Resources: COMPANY
WELL.                Mac 22-36: WELL
FLD.           Purgatorie River: FIELD
LOC.           2545' FNL & 1398' FWL: LOCATION
PROV.                 Colorado: PROVINCE
CNTY.               Las Animas: COUNTRY
SRVC.                Patterson: SERVICE COMPANY
DATE.          Mon Dec 05 10:55:42 2005: LOG DATE
UWI.                          : UNIQUE WELL ID
~Curve Information Block
DEPT.FT            0 000 00 00: Depth
DCAL.in                       : CDL Caliper
RHOB.g/cc                     : CDL Bulk Density
RHOC.g/cc                     : CDL Density Correction
DPOR.pu                       : CDL Density Porosity
GR.GAPI                       : Gamma Ray
NPOR.pu                       : Neutron Porosity
~Parameter Information Block
~A  Depth       DCAL        RHOB        RHOC        DPOR         GR         NPOR    
# ...
  1046.8000      7.8343      2.5715      0.0744      4.7573     87.7047   -999.2500
  1046.9000      7.8343      2.5527      0.0720      5.8941     91.8962   -999.2500
  1047.0000      7.8224      2.5263      0.0878      7.4944     93.5732   -999.2500
  1047.1000      7.8224      2.5086      0.0270      8.5705     94.7551   -999.2500
  1047.2000      7.8224      2.5069      0.0494      8.6752     96.7533   -999.2500
  1047.3000      7.8517      2.5047      0.0870      8.8062     98.6324   -999.2500
  1047.4000      7.8517      2.4886      0.0444      9.7847     99.4960   -999.2500
  1047.5000      7.8306      2.4754      0.0312     10.5819     99.5741   -999.2500
  1047.6000      7.8306      2.4887      0.0321      9.7739     98.9393   -999.2500
  1047.7000      7.8306      2.5226      0.0788      7.7223     98.5951   -999.2500
  1047.8000      7.8372      2.5541      0.0348      5.8120     97.3377   -999.2500
  1047.9000      7.8372      2.5759      0.1483      4.4921     92.4513   -999.2500
  1048.0000      7.7999      2.5902      0.1344      3.6216     87.1310   -999.2500
  1048.1000      7.7999      2.6052      0.0930      2.7140     86.6492   -999.2500
  1048.2000      7.7999      2.6282      0.1599      1.3192     89.8614   -999.2500
  1048.3000      7.7863      2.6492      0.1733      0.0508     92.3879   -999.2500
  1048.4000      7.7863      2.6487      0.1811      0.0801     91.5775   -999.2500
  1048.5000      7.7847      2.6211      0.1660      1.7487     89.2493   -999.2500
  1048.6000      7.7847      2.5794      0.1558      4.2770     89.6394   -999.2500
  1048.7000      7.7847      2.5417      0.0653      6.5626     91.0738   -999.2500
  1048.8000      7.7995      2.5243      0.0577      7.6190     91.8186   -999.2500
  1048.9000      7.7995      2.5282      0.0571      7.3829     93.5288   -999.2500
  1049.0000      7.8807      2.5352      0.0985      6.9551     95.5544   -999.2500
  1049.1000      7.8807      2.5320      0.0652      7.1528     97.0974   -999.2500
  1049.2000      7.8807      2.5279      0.0467      7.4010     99.5866   -999.2500
  1049.3000      7.8999      2.5348      0.0836      6.9822    103.5273   -999.2500
  1049.4000      7.8999      2.5472      0.0883      6.2298    103.1244   -999.2500
  1049.5000      7.9093      2.5575      0.0777      5.6033     88.8858   -999.2500
  1049.6000      7.9093      2.5658      0.1051      5.1001     60.0622   -999.2500
  1049.7000      7.9093      2.5771      0.0796      4.4168     28.6922   -999.2500
  1049.8000      7.8978      2.5964      0.0962      3.2495      8.7242   -999.2500
  1049.9000      7.8978      2.6118      0.1377      2.3156      1.5575   -999.2500
  1050.0000      7.8596      2.6053      0.1157      2.7119      0.1550   -999.2500
  1050.1000      7.8596      2.5833      0.0681      4.0429      0.0081   -999.2500
  1050.2000      7.8596      2.5611      0.0772      5.3881      0.0000   -999.2500
  1050.3000      7.8804      2.5391      0.0909      6.7240   -999.2500   -999.2500
  1050.4000      7.8804      2.5200      0.0538      7.8804   -999.2500   -999.2500
  1050.5000      7.9092      2.5173      0.0523      8.0404   -999.2500   -999.2500
  1050.6000      7.9092      2.5336      0.0687      7.0559   -999.2500   -999.2500
  1050.7000      7.9092      2.5506      0.1099      6.0240   -999.2500   -999.2500
  1050.8000      7.9104      2.5491      0.1141      6.1173   -999.2500   -999.2500
  1050.9000      7.9104      2.5314      0.0533      7.1896   -999.2500   -999.2500
  1051.0000      7.8976      2.5201      0.0451      7.8743   -999.2500   -999.2500
  1051.1000      7.8976      2.5362      0.0164      6.8980   -999.2500   -999.2500
  1051.2000      7.8976      2.5703      0.0876      4.8284   -999.2500   -999.2500
  1051.3000      7.8679      2.5897      0.0983      3.6544   -999.2500   -999.2500
  1051.4000      7.8679      2.5854      0.0672      3.9147   -999.2500   -999.2500
  1051.5000      7.8372      2.5713      0.0932      4.7676   -999.2500   -999.2500
  1051.6000      7.8372      2.5543      0.0843      5.8004   -999.2500   -999.2500
  1051.7000      7.8372      2.5430      0.0627      6.4830   -999.2500   -999.2500
  1051.8000      7.8323      2.5471      0.0536      6.2366   -999.2500   -999.2500
  1051.9000      7.8323      2.5548      0.1401      5.7695   -999.2500   -999.2500
  1052.0000      7.8507      2.5517      0.0741      5.9600   -999.2500   -999.2500
  1052.1000      7.8507      2.5455      0.0360      6.3311   -999.2500   -999.2500
  1052.2000      7.8507      2.5463      0.0844      6.2843   -999.2500   -999.2500
  1052.3000      7.8933      2.5539      0.0532      5.8217   -999.2500   -999.2500
  1052.4000      7.8933      2.5623      0.1236      5.3160   -999.2500   -999.2500
  1052.5000      7.9016      2.5595      0.1005      5.4868   -999.2500   -999.2500
  1052.6000      7.9016      2.5478      0.0721      6.1949   -999.2500   -999.2500
  1052.7000      7.9016      2.5379      0.0711      6.7962   -999.2500   -999.2500
  1052.8000      7.8948      2.5327      0.0423      7.1070   -999.2500   -999.2500
  1052.9000      7.8948      2.5353      0.0664      6.9527   -999.2500   -999.2500
  1053.0000      7.8568      2.5456      0.0966      6.3290   -999.2500   -999.2500
  1053.1000      7.8568      2.5605      0.0873      5.4242   -999.2500   -999.2500
  1053.2000      7.8568      2.5790      0.1273      4.3012   -999.2500   -999.2500
  1053.3000      7.8560      2.5973      0.1256      3.1940   -999.2500   -999.2500
  1053.4000      7.8560      2.6044      0.1305      2.7613   -999.2500   -999.2500
  1053.5000      7.8608      2.5915      0.1386      3.5474   -999.2500   -999.2500
  1053.6000      7.8608      2.5727      0.0232      4.6858   -999.2500   -999.2500
  1053.7000      7.8608      2.5684      0.0822      4.9457   -999.2500   -999.2500
  1053.8000      7.8785      2.5723      0.0881      4.7066   -999.2500   -999.2500
  1053.9000      7.8785      2.5742      0.0887      4.5926   -999.2500   -999.2500
  1054.0000      7.8903      2.5727      0.0791      4.6856   -999.2500   -999.2500
  1054.1000      7.8903      2.5669      0.0668      5.0393   -999.2500   -999.2500
  1054.2000      7.8903      2.5608      0.0679      5.4061   -999.2500   -999.2500
  1054.3000      7.8608      2.5604      0.1000      5.4307   -999.2500   -999.2500
  1054.4000      7.8608      2.5625      0.0826      5.3004   -999.2500   -999.2500
  1054.5000      7.8858      2.5596      0.1108      5.4794   -999.2500   -999.2500
  1054.6000      7.8858      2.5496      0.0905      6.0873   -999.2500   -999.2500
  1054.7000      7.8858      2.5411      0.0881      6.5979   -999.2500   -999.2500
  1054.8000      7.9102      2.5450      0.1095      6.3632   -999.2500   -999.2500
  1054.9000      7.9102      2.5509      0.1268      6.0037   -999.2500   -999.2500
  1055.0000      7.9069      2.5393      0.1196      6.7098   -999.2500   -999.2500
  1055.1000      7.9069      2.5163      0.0665      8.1047   -999.2500   -999.2500
  1055.2000      7.9069      2.5062      0.0687      8.7174   -999.2500   -999.2500
  1055.3000      7.9122      2.5119      0.0882      8.3692   -999.2500   -999.2500
  1055.4000      7.9122      2.5183      0.0789      7.9813   -999.2500   -999.2500
  1055.5000      7.9048      2.5212      0.0714      7.8081   -999.2500   -999.2500
  1055.6000      7.9048      2.5237      0.0684      7.6541   -999.2500   -999.2500
  1055.7000      7.9048      2.5280      0.0751      7.3959   -999.2500   -999.2500
  1055.8000      7.8972      2.5346      0.1010      6.9916   -999.2500   -999.2500
  1055.9000      7.8972      2.5391      0.1186      6.7222   -999.2500   -999.2500
  1056.0000      7.9059      2.5386      0.0843      6.7534   -999.2500   -999.2500
  1056.1000      7.9059      2.5353      0.0917      6.9532   -999.2500   -999.2500
  1056.2000      7.9059      2.5258      0.1012      7.5298   -999.2500   -999.2500
  1056.3000      7.8861      2.5097      0.0802      8.5051   -999.2500   -999.2500
