~Version Information
VERS.                      2.0: CWLS Log ASCII Standard - VERSION 2.0
WRAP.                       NO: One line per depth step
~Well Information Block
STRT.FT                -7.0000: 
STOP.FT              3030.2500: 
STEP.FT                 0.2500: 
NULL.                -999.2500: 
COMP.          Pioneer Natural Resources: COMPANY
WELL.            Cleaver 24-12: WELL
FLD.           Purgatorie River: FIELD
LOC.           204' FSL & 2351' FWL--: LOCATION
CNTY.               Las Animas: COUNTY
SRVC.          Patterson Wireline: SERVICE COMPANY
DATE.          Thu Feb 02 12:17:57 2006: LOG DATE
UWI.           05 071 08634 00: UNIQUE WELL ID
STAT.                       CO: STATE
~Curve Information Block
DEPT.FT            0 000 00 00: Depth
CCL.                          : Casing Collar Locator
TT3.usec                      : CBL 3' Travel Time
AMP3.mV                       : CBL 3' Amplitude
GR.GAPI                       : Gamma Ray
~Parameter Information Block
~A  Depth       CCL         TT3         AMP3         GR     
# ...
  3008.0000      0.0000    494.2006     11.0677     94.8283
  3008.2500      0.0000    434.3852     11.2625     91.8867
  3008.5000      0.0000    390.1283     11.4276     90.2429
  3008.7500      0.0000    363.6220     11.5736     89.4902
  3009.0000      0.0000    350.4941     11.7121     89.2060
  3009.2500      0.0000    344.9642     11.8442     89.4990
  3009.5000      0.0000    342.9038     11.9624     90.8739
  3009.7500      0.0000    342.1950     12.0569     93.4123
  3010.0000      0.0000    341.9766     12.1243     96.1769
  3010.2500      0.0000    341.9429     12.1786     97.5677
  3010.5000      0.0000    341.9446     12.2517     96.3815
  3010.7500      0.0000    341.7672     12.3764     92.7494
  3011.0000      0.0000    340.9480     12.5638     88.1849
  3011.2500      0.0000    338.7704     12.7968     84.5515
  3011.5000      0.0000    334.6460     13.0454     82.7718
  3011.7500      0.0000    328.8200     13.2857     82.4977
  3012.0000      0.0000    322.8008     13.5014     82.9045
  3012.2500      0.0000    318.8484     13.6715     83.5667
  3012.5000      0.0000    318.6754     13.7666     84.5261
  3012.7500      0.0000    322.3332     13.7628     85.7773
  3013.0000      0.0000    328.1807     13.6586     86.9831
  3013.2500      0.0000    333.9734     13.4783     87.8047
  3013.5000      0.0000    338.1807     13.2610     88.3997
  3013.7500      0.0000    340.4951     13.0449     89.2507
  3014.0000      0.0000    341.4050     12.8538     90.3625
  3014.2500      0.0000    341.5457     12.6907     90.9721
  3014.5000      0.0000    341.3743     12.5425     90.5014
  3014.7500      0.0000    341.1423     12.3949     89.6031
  3015.0000      0.0000    340.9541     12.2429     89.7112
  3015.2500      0.0000    340.8297     12.0878     91.4118
  3015.5000      0.0000    340.7606     11.9295     93.4886
  3015.7500      0.0000    340.7391     11.7673     93.4082
  3016.0000      0.0000    340.7630     11.6038     88.4274
  3016.2500      0.0000    340.8210     11.4454     76.8110
  3016.5000      0.0000    340.8844     11.2943     59.2358
  3016.7500      0.0000    340.9219     11.1457     39.3260
  3017.0000      0.0000    340.9263     10.9941     21.9023
  3017.2500      0.0000    340.9252     10.8445     10.0311
  3017.5000      0.0000    340.9680     10.7157      3.7226
  3017.7500      0.0000    341.1441     10.6296      1.1070
  3018.0000      0.0000    341.6559     10.5908      0.2616
  3018.2500      0.0000    342.8788     10.5769      0.0482
  3018.5000      0.0000    345.2030     10.5494      0.0064
  3018.7500      0.0000    348.5439     10.4772   -999.2500
  3019.0000      0.0000    351.9246     10.3510   -999.2500
  3019.2500      0.0000    353.8775     10.1900   -999.2500
  3019.5000      0.0000    353.6178     10.0438   -999.2500
  3019.7500      0.0000    351.7329      9.9665   -999.2500
  3020.0000      0.0000    349.5665      9.9700   -999.2500
  3020.2500      2.0000    348.1026     10.0128   -999.2500
  3020.5000      2.0000    347.6471     10.0438   -999.2500
  3020.7500      0.0000    348.1454     10.0516   -999.2500
  3021.0000      0.0000    349.0961     10.0588   -999.2500
  3021.2500      0.0000    347.9303     10.0323   -999.2500
  3021.5000      0.0000    337.5688      9.7595   -999.2500
  3021.7500      0.0000    307.3823      8.8721   -999.2500
  3022.0000      0.0000    251.2591      7.1485   -999.2500
  3022.2500      0.0000    176.9116      4.8427   -999.2500
  3022.5000      0.0000    103.9135      2.5936   -999.2500
  3022.7500      0.0000     49.7896      0.9489   -999.2500
  3023.0000      0.0000     19.1717      0.0333   -999.2500
  3023.2500      0.0000      5.8735     -0.3581   -999.2500
  3023.5000      0.0000      1.4210     -0.4872   -999.2500
  3023.7500      0.0000      0.2686     -0.5202   -999.2500
  3024.0000      0.0000   -999.2500   -999.2500   -999.2500
  3024.2500      0.0000   -999.2500   -999.2500   -999.2500
  3024.5000      0.0000   -999.2500   -999.2500   -999.2500
  3024.7500      0.0000   -999.2500   -999.2500   -999.2500
  3025.0000      0.0000   -999.2500   -999.2500   -999.2500
  3025.2500      0.0000   -999.2500   -999.2500   -999.2500
  3025.5000      0.0000   -999.2500   -999.2500   -999.2500
  3025.7500      0.0000   -999.2500   -999.2500   -999.2500
  3026.0000      0.0000   -999.2500   -999.2500   -999.2500
  3026.2500      0.0000   -999.2500   -999.2500   -999.2500
  3026.5000      0.0000   -999.2500   -999.2500   -999.2500
  3026.7500      0.0000   -999.2500   -999.2500   -999.2500
  3027.0000      0.0000   -999.2500   -999.2500   -999.2500
  3027.2500      0.0000   -999.2500   -999.2500   -999.2500
  3027.5000      0.0000   -999.2500   -999.2500   -999.2500
  3027.7500      0.0000   -999.2500   -999.2500   -999.2500
  3028.0000      0.0000   -999.2500   -999.2500   -999.2500
  3028.2500      0.0000   -999.2500   -999.2500   -999.2500
  3028.5000      0.0000   -999.2500   -999.2500   -999.2500
  3028.7500      0.0000   -999.2500   -999.2500   -999.2500
  3029.0000      0.0000   -999.2500   -999.2500   -999.2500
  3029.2500      0.0000   -999.2500   -999.2500   -999.2500
  3029.5000      0.0000   -999.2500   -999.2500   -999.2500
  3029.7500   -999.2500   -999.2500   -999.2500   -999.2500
  3030.0000   -999.2500   -999.2500   -999.2500   -999.2500
  3030.2500   -999.2500   -999.2500   -999.2500   -999.2500
