~Version Information
VERS.                      2.0: CWLS Log ASCII Standard - VERSION 2.0
WRAP.                       NO: One line per depth step
~Well Information Block
STRT.FT               440.0000: 
STOP.FT              1702.7000: 
STEP.FT                 0.1000: 
NULL.                -999.2500: 
COMP.          Pioneer Natural Resources: COMPANY
WELL.          Culver 14-12 Tr: WELL
FLD.           Purgatoire River: FIELD
LOC.           915' FSL & 1048' FWL--: LOCATION
STAT.                 Colorado: State
CNTY.               Las Animas: COUNTY
CTRY. USA : Country
SECT. 12 : Section
TOWN. 32S : Township
RANG. 66W : Range
SRVC.                Patterson: SERVICE COMPANY
DATE.          Wed Sep 28 10:00:59 2005: LOG DATE
API.           05 071 08520 00: UNIQUE WELL ID
~Curve Information Block
DEPT.FT            0 000 00 00: Depth
DCAL.in                       : CDL Caliper
RHOB.g/cc                     : CDL Bulk Density
RHOC.g/cc                     : CDL Density Correction
DPOR.pu                       : CDL Density Porosity
NPOR.pu                       : Neutron Porosity
GR.GAPI                       : Gamma Ray
~Parameter Information Block
~A  Depth       DCAL        RHOB        RHOC        DPOR        NPOR         GR     
# ...
  1016.0000      8.0281      2.5612      0.0463      5.3822     30.6899    115.1162
  1016.1000      8.0281      2.5383      0.0483      6.7667     29.9650    114.4091
  1016.2000      8.0281      2.5029      0.0320      8.9161     29.9725    111.3737
  1016.3000      8.0402      2.4677      0.0203     11.0455     30.0647    106.3898
  1016.4000      8.0402      2.4457      0.0523     12.3824     29.6554    100.5435
  1016.5000      8.0531      2.4450     -0.0103     12.4231     29.2014     97.3046
  1016.6000      8.0531      2.4669      0.0317     11.0983     29.1118     97.7120
  1016.7000      8.0531      2.4966      0.0329      9.2966     29.0938    100.0101
  1016.8000      8.0868      2.5178      0.0595      8.0105     29.1612    103.8243
  1016.9000      8.0868      2.5283      0.0757      7.3755     29.5462    110.0224
  1017.0000      8.1312      2.5376      0.0852      6.8094     30.0154    115.8474
  1017.1000      8.1312      2.5563      0.1016      5.6777     30.1712    115.1730
  1017.2000      8.1312      2.5871      0.1385      3.8133     29.9339    107.7577
  1017.3000      8.1255      2.6220      0.1640      1.6959     29.7043    101.8608
  1017.4000      8.1255      2.6413      0.1911      0.5255     29.7850    104.5536
  1017.5000      8.0754      2.6293      0.1134      1.2536     30.1086    113.2367
  1017.6000      8.0754      2.6015      0.0350      2.9413     30.3759    121.4058
  1017.7000      8.0754      2.5816      0.0482      4.1435     30.3784    126.1813
  1017.8000      8.0383      2.5688      0.0201      4.9230     30.1389    128.1192
  1017.9000      8.0383      2.5525      0.0105      5.9097     29.9036    129.2278
  1018.0000      8.0240      2.5310      0.0119      7.2139     29.8614    129.1523
  1018.1000      8.0240      2.5112      0.0033      8.4096     30.0436    123.1938
  1018.2000      8.0240      2.5014     -0.0185      9.0057     30.3298    112.1129
  1018.3000      8.0212      2.5036      0.0153      8.8718     30.2800    103.8455
  1018.4000      8.0212      2.5195      0.0256      7.9101     29.5170    100.2408
  1018.5000      8.0228      2.5509      0.0559      6.0031     28.3595     99.0188
  1018.6000      8.0228      2.5893      0.0802      3.6779     27.2656     99.4302
  1018.7000      8.0228      2.6215      0.1009      1.7260     26.0156     99.4797
  1018.8000      8.0232      2.6405      0.1091      0.5736     24.6252     97.6473
  1018.9000      8.0232      2.6481      0.0946      0.1181     23.9272     94.7288
  1019.0000      8.0218      2.6547      0.0575     -0.2822     24.0908     93.9912
  1019.1000      8.0218      2.6667      0.0579     -1.0139     24.2396     94.9847
  1019.2000      8.0218      2.6742      0.0555     -1.4650     24.0415     92.6327
  1019.3000      8.0203      2.6709      0.0472     -1.2695     23.6777     84.8988
  1019.4000      8.0203      2.6703      0.0317     -1.2329     23.3220     75.9672
  1019.5000      8.0202      2.6782      0.0864     -1.7101     23.3154     72.9259
  1019.6000      8.0202      2.6891      0.0299     -2.3698     23.5560     77.4063
  1019.7000      8.0202      2.7060      0.0655     -3.3919     23.6610     81.2228
  1019.8000      8.0191      2.7246      0.0737     -4.5230     23.6518     77.2350
  1019.9000      8.0191      2.7381      0.0809     -5.3385     23.6859     72.2361
  1020.0000      8.0169      2.7594      0.0569     -6.6330     23.7192     72.9220
  1020.1000      8.0169      2.7980      0.1006     -8.9676     23.4367     74.6258
  1020.2000      8.0169      2.8327      0.1041    -11.0726     22.8202     71.9067
  1020.3000      8.0162      2.8381      0.1246    -11.4009     22.4191     66.3640
  1020.4000      8.0162      2.8165      0.0547    -10.0935     22.4371     62.0049
  1020.5000      8.0144      2.7954      0.0194     -8.8141     22.5654     60.1102
  1020.6000      8.0144      2.7845      0.0455     -8.1510     22.9639     61.8020
  1020.7000      8.0144      2.7614      0.0522     -6.7488     23.7492     67.4501
  1020.8000      8.0130      2.7129     -0.0156     -3.8113     24.3362     74.0308
  1020.9000      8.0130      2.6558     -0.0880     -0.3513     24.5203     79.1867
  1021.0000      8.0152      2.6120     -0.1222      2.3018     24.7825     80.0630
  1021.1000      8.0152      2.5802     -0.0508      4.2329     25.3048     74.2289
  1021.2000      8.0152      2.5490     -0.0950      6.1229     25.7016     70.1375
  1021.3000      8.0181      2.5283     -0.0725      7.3786     25.8738     74.4650
  1021.4000      8.0181      2.5323     -0.0198      7.1304     25.8333     80.3168
  1021.5000      8.0209      2.5580      0.0318      5.5787     25.6205     83.3344
  1021.6000      8.0209      2.5930      0.0412      3.4558     25.6695     87.1227
  1021.7000      8.0209      2.6268      0.0766      1.4062     25.9398     91.8544
  1021.8000      8.0312      2.6510      0.1022     -0.0580     26.0611     95.0488
  1021.9000      8.0312      2.6582      0.0987     -0.4969     26.3628     96.5318
  1022.0000      8.0533      2.6487      0.0911      0.0768     27.1426     97.4748
  1022.1000      8.0533      2.6371      0.0351      0.7839     27.8175     97.3642
  1022.2000      8.0533      2.6349      0.0571      0.9173     27.8632     96.0196
  1022.3000      8.0838      2.6319      0.0312      1.0958     27.7548     96.9244
  1022.4000      8.0838      2.6188      0.0303      1.8895     28.1562    101.4024
  1022.5000      8.1123      2.6066      0.0035      2.6325     28.6023    105.4443
  1022.6000      8.1123      2.6049      0.0219      2.7324     28.7178    105.9613
  1022.7000      8.1123      2.6043      0.0342      2.7706     29.0591    105.4987
  1022.8000      8.1300      2.5961      0.0201      3.2673     29.6626    107.7843
  1022.9000      8.1300      2.5882      0.0244      3.7468     29.7788    110.7919
  1023.0000      8.1408      2.5828      0.0503      4.0757     29.1012    109.8762
  1023.1000      8.1408      2.5748      0.0235      4.5547     28.2291    106.1594
  1023.2000      8.1408      2.5728      0.0146      4.6769     27.6644    103.5879
  1023.3000      8.1315      2.5837      0.0401      4.0174     27.4120    103.9158
  1023.4000      8.1315      2.6038      0.0065      2.7978     27.3950    107.8161
  1023.5000      8.0913      2.6291      0.0500      1.2661     27.6406    110.5739
  1023.6000      8.0913      2.6493      0.0835      0.0409     28.0207    108.8084
  1023.7000      8.0913      2.6567      0.0421     -0.4065     27.7423    107.9773
  1023.8000      8.0512      2.6552      0.0742     -0.3129     26.4286    108.7249
  1023.9000      8.0512      2.6487      0.0499      0.0768     25.0958    106.3870
  1024.0000      8.0282      2.6414      0.0505      0.5240     24.4383    102.1414
  1024.1000      8.0282      2.6366      0.0402      0.8104     24.2154     99.3001
  1024.2000      8.0282      2.6329      0.0568      1.0361     24.3716     97.7311
  1024.3000      8.0216      2.6270      0.0412      1.3945     24.6853     95.4204
  1024.4000      8.0216      2.6246      0.0117      1.5387     24.4313     91.2307
  1024.5000      8.0233      2.6308      0.0566      1.1634     23.7734     86.9580
  1024.6000      8.0233      2.6367      0.0372      0.8038     23.6781     87.8444
  1024.7000      8.0233      2.6310      0.0291      1.1518     24.5971     93.2858
  1024.8000      8.0279      2.6038      0.0399      2.8009     25.8195     94.4893
  1024.9000      8.0279      2.5562      0.0065      5.6844     26.4930     89.9889
  1025.0000      8.0391      2.5114     -0.0441      8.4026     26.9673     87.0105
  1025.1000      8.0391      2.4911     -0.0435      9.6317     27.5985     90.5681
  1025.2000      8.0391      2.4937      0.0118      9.4717     28.0917     98.5574
  1025.3000      8.0494      2.5042     -0.0066      8.8365     28.5301    105.2603
  1025.4000      8.0494      2.5085      0.0456      8.5772     29.0565    106.4989
  1025.5000      8.0379      2.5024     -0.0200      8.9434     29.4738    104.1594
