~Version Information
VERS.                      2.0: CWLS Log ASCII Standard - VERSION 2.0
WRAP.                       NO: One line per depth step
~Well Information Block
STRT.FT                -8.2500: 
STOP.FT              1653.2500: 
STEP.FT                 0.2500: 
NULL.                -999.2500: 
COMP.          Pioneer Natural Resources: COMPANY
WELL.            Relay 12-7 Tr: WELL
FLD.           Purgatorie River: FIELD
LOC.           2025' FNL & 790' FWL--: LOCATION
PROV.                       CO: PROVINCE
CNTY.               Las Animas: COUNTRY
SRVC.          Patterson Wireline: SERVICE COMPANY
DATE.          Tue Jan 24 10:25:08 2006: LOG DATE
UWI.           05 071 08603 00: UNIQUE WELL ID
~Curve Information Block
DEPT.FT            0 000 00 00: Depth
CCL.                          : Casing Collar Locator
TT3.usec                      : CBL 3' Travel Time
AMP3.mV                       : CBL 3' Amplitude
GR.GAPI                       : Gamma Ray
~Parameter Information Block
~A  Depth       CCL         TT3         AMP3         GR     
# ...
   326.7500      0.0000    688.6261      6.2508     65.6155
   327.0000      0.0000    688.6842      6.2287     69.8330
   327.2500      0.0000    688.6555      6.2044     70.9935
   327.5000      0.0000    688.5457      6.1762     68.3634
   327.7500      0.0000    688.3853      6.1437     63.9905
   328.0000      0.0000    688.1982      6.1077     60.5021
   328.2500      0.0000    687.9719      6.0696     58.9156
   328.5000      0.0000    687.6683      6.0304     58.7628
   328.7500      0.0000    687.2682      5.9918     59.2851
   329.0000      0.0000    686.7929      5.9541     59.8774
   329.2500      0.0000    686.2747      5.9151     60.1227
   329.5000      0.0000    685.7159      5.8716     60.0587
   329.7500      0.0000    685.0955      5.8249     60.1565
   330.0000      0.0000    684.4330      5.7842     60.7334
   330.2500      0.0000    683.8458      5.7624     61.5989
   330.5000      0.0000    683.5448      5.7674     62.3584
   330.7500      0.0000    683.7636      5.7974     62.8372
   331.0000      0.0000    684.7100      5.8432     63.1369
   331.2500      0.0000    686.5433      5.8940     63.6548
   331.5000      0.0000    689.2438      5.9417     65.2832
   331.7500      0.0000    692.3346      5.9790     69.2791
   332.0000      0.0000    694.7986      5.9985     76.4570
   332.2500      0.0000    695.4973      5.9961     86.5017
   332.5000      0.0000    693.8110      5.9775     98.2085
   332.7500      0.0000    689.8478      5.9603    110.2604
   333.0000      0.0000    684.0181      5.9679    121.5778
   333.2500      0.0000    676.5917      6.0190    131.1958
   333.5000      0.0000    668.0037      6.1176    138.2511
   333.7500      0.0000    659.5623      6.2491    142.2470
   334.0000      0.0000    653.3928      6.3879    143.2434
   334.2500      0.0000    651.3961      6.5108    141.7447
   334.5000      0.0000    654.2027      6.6056    138.3489
   334.7500      0.0000    660.8056      6.6701    133.3989
   335.0000      0.0000    668.9333      6.7075    127.0724
   335.2500      0.0000    676.1015      6.7238    119.9825
   335.5000      0.0000    680.8481      6.7277    113.4038
   335.7500      0.0000    683.1744      6.7276    108.5415
   336.0000      0.0000    683.9467      6.7272    105.7395
   336.2500      0.0000    684.0071      6.7247    104.8283
   336.5000      0.0000    683.7098      6.7173    106.0198
   336.7500      0.0000    682.9196      6.7051    109.9222
   337.0000      0.0000    681.3225      6.6925    116.5613
   337.2500      0.0000    678.9844      6.6859    124.7135
   337.5000      0.0000    676.8084      6.6902    132.2768
   337.7500      0.0000    676.1652      6.7064    137.1881
   338.0000      0.0000    677.7137      6.7317    138.2778
   338.2500      0.0000    680.7034      6.7626    135.8047
   338.5000      0.0000    683.6758      6.7956    131.4805
   338.7500      0.0000    685.6665      6.8269    127.7240
   339.0000      0.0000    686.5939      6.8525    126.2636
   339.2500      0.0000    686.8304      6.8668    126.9746
   339.5000      0.0000    686.7316      6.8612    128.1043
   339.7500      0.0000    686.4940      6.8273    127.8980
   340.0000      0.0000    686.2104      6.7641    126.1176
   340.2500      0.0000    685.9431      6.6845    124.0962
   340.5000      0.0000    685.7563      6.6134    123.3960
   340.7500      0.0000    685.6964      6.5779    124.2537
   341.0000      0.0000    685.7544      6.5907    125.1621
   341.2500      0.0000    685.8558      6.6422    124.2738
   341.5000      0.0000    685.9097      6.7077    121.5023
   341.7500      0.0000    685.8815      6.7656    118.8452
   342.0000      0.0000    685.8113      6.8085    118.3434
   342.2500      0.0000    685.7578      6.8393    120.1586
   342.5000      0.0000    685.7369      6.8620    122.8735
   342.7500      0.0000    685.7230      6.8774    125.0258
   343.0000      0.0000    685.6967      6.8861    126.0010
   343.2500      0.0000    685.6772      6.8939    125.9972
   343.5000      0.0000    685.7036      6.9134    125.8047
   343.7500      0.0000    685.7924      6.9548    126.3499
   344.0000      0.0000    685.9262      7.0146    127.6777
   344.2500      0.0000    686.0839      7.0748    128.7378
   344.5000      0.0000    686.2625      7.1168    129.1516
   344.7500      0.0000    686.4563      7.1347    130.5424
   345.0000      0.0000    686.6202      7.1348    134.4833
   345.2500      0.0000    686.6821      7.1265    139.4583
   345.5000      0.0000    686.6028      7.1171    141.5931
   345.7500      0.0000    686.4110      7.1126    138.6211
   346.0000      0.0000    686.1697      7.1161    132.1732
   346.2500      0.0000    685.9193      7.1255    126.0532
   346.5000      0.0000    685.6629      7.1350    122.7641
   346.7500      0.0000    685.4022      7.1407    121.7163
   347.0000      0.0000    685.1795      7.1422    120.4902
   347.2500      0.0000    685.0726      7.1399    117.4487
   347.5000      0.0000    685.1360      7.1323    112.8328
   347.7500      0.0000    685.3452      7.1179    107.8159
   348.0000      0.0000    685.6036      7.0982    103.4104
   348.2500      0.0000    685.8033      7.0758    100.2117
   348.5000      0.0000    685.8761      7.0488     98.2228
   348.7500      0.0000    685.8110      7.0118     96.4915
   349.0000      0.0000    685.6489      6.9626     93.4460
   349.2500      0.0000    685.4680      6.9074     88.2870
   349.5000      0.0000    685.3699      6.8561     82.1499
   349.7500      0.0000    685.4593      6.8138     77.5726
   350.0000      0.0000    685.7871      6.7775     76.6116
   350.2500      0.0000    686.2844      6.7402     79.4565
   350.5000      0.0000    686.7792      6.6974     84.7223
   350.7500      0.0000    687.1204      6.6508     90.6814
   351.0000      0.0000    687.2712      6.6061     96.0968
   351.2500      0.0000    687.2792      6.5681    100.3164
   351.5000      0.0000    687.1920      6.5371    103.0531
   351.7500      0.0000    687.0267      6.5095    104.3239
   352.0000      0.0000    686.7949      6.4829    104.6629
   352.2500      0.0000    686.5358      6.4575    105.0487
   352.5000      0.0000    686.3162      6.4338    106.0624
   352.7500      0.0000    686.2296      6.4104    107.0547
   353.0000      0.0000    686.3999      6.3842    106.6015
   353.2500      0.0000    686.9362      6.3471    104.0151
   353.5000      0.0000    687.6445      6.2820    100.1480
   353.7500      0.0000    687.5520      6.1701     96.5981
   354.0000      0.0000    685.3031      6.0186     94.4882
   354.2500      0.0000    681.3471      5.8748     94.1562
   354.5000      0.0000    680.3745      5.7860     95.2912
   354.7500      0.0000    689.5311      5.7442     96.5507
   355.0000      0.0000    711.0372      5.7000     95.5424
   355.2500      0.0000    736.1835      5.6309     90.5112
   355.5000      0.0000    750.2205      5.5614     82.3957
   355.7500      0.0000    745.8160      5.5172     74.5412
   356.0000      0.0000    729.8154      5.4940     70.0294
   356.2500      2.0000    714.8318      5.4707     69.4120
   356.5000      0.0000    706.5745      5.4362     70.8729
   356.7500      0.0000    701.5251      5.4031     72.0390
   357.0000      0.0000    694.5881      5.3998     71.5583
   357.2500      0.0000    685.7342      5.4458     69.5725
   357.5000      0.0000    679.0528      5.5348     67.2147
   357.7500      0.0000    677.5288      5.6554     65.6852
   358.0000      0.0000    680.4063      5.8115     65.7725
   358.2500      0.0000    684.9634      6.0002     68.2567
   358.5000      0.0000    689.1319      6.1862     74.2191
   358.7500      0.0000    691.9940      6.3231     84.2137
   359.0000      0.0000    693.1568      6.3918     97.1727
   359.2500      0.0000    692.6268      6.4069    110.5439
   359.5000      0.0000    691.0311      6.3959    121.3080
   359.7500      0.0000    689.3013      6.3835    126.9398
   360.0000      0.0000    688.0760      6.3863    126.5775
