~Version Information
VERS.                      2.0: CWLS Log ASCII Standard - VERSION 2.0
WRAP.                       NO: One line per depth step
~Well Information Block
STRT.FT                 7.7500: 
STOP.FT              2101.0000: 
STEP.FT                 0.2500: 
NULL.                -999.2500: 
COMP.          Pioneer Natural Resources: COMPANY
WELL.          Gunslinger 13-24: WELL
FLD.           Purgatoire River: FIELD
LOC.           1968' FSL & 633' FWL: LOCATION
PROV.                 Colorado: PROVINCE
CNTY.               Las Animas: COUNTRY
SRVC.                Patterson: SERVICE COMPANY
DATE.          Mon Aug 15 11:00:02 2005: LOG DATE
UWI.           05 071 08442 00: UNIQUE WELL ID
~Curve Information Block
DEPT.FT            0 000 00 00: Depth
GR.GAPI                       : Gamma Ray
CCL.                          : Casing Collar Locator
TT3.usec                      : CBL 3' Travel Time
AMP3.mV                       : CBL 3' Amplitude
~Parameter Information Block
~A  Depth        GR         CCL         TT3         AMP3    
# ...
   811.7500    130.0871      0.0000    326.5699     25.6652
   812.0000    130.4046      0.0000    317.0066     25.7238
   812.2500    130.9271      0.0000    309.2415     25.8103
   812.5000    131.9292      0.0000    304.2068     25.9020
   812.7500    133.5398      0.0000    303.3633     25.9555
   813.0000    135.6253      0.0000    308.2004     25.9322
   813.2500    137.8392      0.0000    319.9505     25.8071
   813.5000    139.8443      0.0000    338.5654     25.5761
   813.7500    141.2559      0.0000    362.4185     25.2613
   814.0000    141.3780      0.0000    389.8623     24.9052
   814.2500    139.5074      0.0000    419.2100     24.5583
   814.5000    135.7976      0.0000    445.1754     24.2619
   814.7500    131.5673      0.0000    458.8207     24.0198
   815.0000    128.4461      0.0000    457.0726     23.7763
   815.2500    127.1576      0.0000    450.8928     23.4478
   815.5000    127.3418      0.0000    458.0599     23.0052
   815.7500    128.5797      0.0000    487.7244     22.5141
   816.0000    131.1645      0.0000    535.1437     22.0797
   816.2500    135.5940      0.0000    588.8306     21.7671
   816.5000    141.4744      0.0000    637.0596     21.5839
   816.7500    147.1097      0.0000    669.2357     21.5107
   817.0000    150.3132      0.0000    678.3811     21.5215
   817.2500    149.8633      0.0000    665.3938     21.5849
   817.5000    146.3484      0.0000    638.0934     21.6689
   817.7500    141.5770      0.0000    604.6658     21.7489
   818.0000    137.0308      0.0000    569.6633     21.8043
   818.2500    132.8329      0.0000    537.5155     21.8127
   818.5000    128.3170      0.0000    517.9451     21.7550
   818.7500    123.5476      0.0000    522.6393     21.6311
   819.0000    119.8809      0.0000    553.1747     21.4683
   819.2500    118.7966      0.0000    595.6024     21.3122
   819.5000    120.4445      0.0000    632.1411     21.2017
   819.7500    123.3934      0.0000    654.8070     21.1511
   820.0000    125.6243      0.0000    662.1883     21.1558
   820.2500    125.9640      0.0000    648.8790     21.2105
   820.5000    125.0790      0.0000    608.4293     21.3133
   820.7500    125.1090      0.0000    545.9714     21.4581
   821.0000    127.7839      0.0000    479.7762     21.6303
   821.2500    132.7259      0.0000    428.8165     21.8045
   821.5000    137.9843      0.0000    402.1427     21.9478
   821.7500    142.0700      0.0000    399.7978     22.0366
   822.0000    144.8184      0.0000    417.9260     22.0814
   822.2500    146.4574      0.0000    448.5106     22.1338
   822.5000    146.7518      0.0000    476.5845     22.2639
   822.7500    145.4408      0.0000    485.3293     22.5184
   823.0000    143.1131      0.0000    468.7947     22.8930
   823.2500    141.2449      0.0000    437.1719     23.3359
   823.5000    141.2354      0.0000    406.9160     23.7744
   823.7500    143.4573      0.0000    387.9521     24.1351
   824.0000    147.3491      0.0000    381.7169     24.3541
   824.2500    152.2232      0.0000    388.0620     24.3778
   824.5000    157.4877      0.0000    410.8532     24.1575
   824.7500    161.9944      0.0000    456.1773     23.6614
   825.0000    163.8589      0.0000    524.0894     22.9379
   825.2500    161.6798      0.0000    601.5643     22.1689
   825.5000    155.8589      0.0000    665.2510     21.6045
   825.7500    148.1333      0.0000    693.4213     21.4001
   826.0000    139.8616      0.0000    677.0223     21.5270
   826.2500    131.4151      0.0000    623.8797     21.8427
   826.5000    123.1570      0.0000    555.7968     22.2216
   826.7500    116.1038      0.0000    497.0306     22.6241
   827.0000    111.1547      0.0000    458.2318     23.0990
   827.2500    108.1506      0.0000    431.6243     23.7605
   827.5000    106.0900      0.0000    404.4422     24.7504
   827.7500    104.0103      0.0000    373.6053     26.1899
   828.0000    101.4172      0.0000    344.8302     28.1161
   828.2500     98.1736      0.0000    323.1739     30.4028
   828.5000     94.3941      0.0000    309.1609     32.7292
   828.7500     90.5485      0.0000    301.0300     34.6867
   829.0000     87.3957      0.0000    296.8758     35.9904
   829.2500     85.4902      0.0000    295.1061     36.6106
   829.5000     84.6061      0.0000    294.5179     36.7119
   829.7500     83.8485      0.0000    294.4132     36.4999
   830.0000     82.6526      0.0000    294.4705     36.1266
   830.2500     81.5467      0.0000    294.5807     35.6845
   830.5000     81.5214      0.0000    294.7000     35.2241
   830.7500     82.6331      0.0000    294.8041     34.7574
   831.0000     83.5637      0.0000    294.8910     34.2666
   831.2500     82.7511      0.0000    294.9706     33.7311
   831.5000     79.9273      0.0000    295.0540     33.1504
   831.7500     76.3992      0.0000    295.1463     32.5439
   832.0000     73.7491      0.0000    295.2469     31.9363
   832.2500     72.3823      0.0000    295.3526     31.3522
   832.5000     71.4528      0.0000    295.4564     30.8266
   832.7500     70.0253      0.0000    295.5459     30.4127
   833.0000     68.0182      0.0000    295.6074     30.1624
   833.2500     66.0678      0.0000    295.6362     30.0835
   833.5000     64.7928      0.0000    295.6429     30.1164
   833.7500     64.3051      0.0000    295.6480     30.1621
   834.0000     64.2469      0.0000    295.6719     30.1391
   834.2500     64.1773      0.0000    295.7574     30.0122
   834.5000     63.9944      0.0000    296.0367     29.7807
   834.7500     64.0780      0.0000    297.0716     29.4562
   835.0000     65.0959      0.0000    300.7281     29.0523
   835.2500     67.5474      0.0000    311.6335     28.5777
   835.5000     71.2249      0.0000    337.7115     28.0328
   835.7500     74.9731      0.0000    386.8740     27.4218
   836.0000     77.2585      0.0000    459.5936     26.7731
   836.2500     77.4052      0.0000    543.5764     26.1376
   836.5000     76.3856      0.0000    618.3487     25.5606
   836.7500     76.1346      0.0000    667.4391     25.0574
   837.0000     77.8334      0.0000    687.0710     24.6164
   837.2500     80.8195      0.0000    685.1702     24.2154
   837.5000     83.2676      0.0000    674.2279     23.8217
   837.7500     83.8663      0.0000    662.5363     23.3754
   838.0000     82.7292      0.0000    647.5939     22.7897
   838.2500     80.9439      0.0000    619.2137     22.0032
   838.5000     79.6414      0.0000    573.8849     21.0329
   838.7500     79.4431      0.0000    525.6862     19.9409
   839.0000     80.3347      0.0000    499.1196     18.7526
   839.2500     81.7685      0.0000    510.2083     17.4888
   839.5000     83.0474      0.0000    554.0427     16.2888
   839.7500     83.8097      0.0000    608.3208     15.3905
   840.0000     84.2042      0.0000    648.4999     14.9377
   840.2500     84.6707      0.0000    662.6605     14.8712
   840.5000     85.5279      0.0000    655.1686     15.0206
   840.7500     86.5456      0.0000    637.4590     15.2610
   841.0000     86.8958      0.0000    615.3804     15.6123
   841.2500     85.8356      0.0000    585.0002     16.2532
   841.5000     83.6459      0.0000    541.1863     17.4082
   841.7500     81.7197      0.0000    489.9194     19.1223
   842.0000     81.4928      0.0000    448.5831     21.1305
   842.2500     83.3006      0.0000    430.9064     23.0101
   842.5000     86.2596      0.0000    432.7025     24.4678
   842.7500     89.1011      0.0000    435.6529     25.4510
   843.0000     90.9744      0.0000    425.7940     26.0444
   843.2500     91.6296      0.0000    405.4160     26.3423
   843.5000     91.2821      0.0000    386.1602     26.4097
   843.7500     90.5110      0.0000    375.3830     26.3017
   844.0000     90.0123      0.0000    372.1114     26.0879
   844.2500     90.1815      0.0000    372.1185     25.8530
   844.5000     90.9025      0.0000    372.5057     25.6714
   844.7500     91.5767      0.0000    372.1518     25.5731
   845.0000     91.2725      0.0000    370.6991     25.5392
