~Version Information
VERS.                      2.0: CWLS Log ASCII Standard - VERSION 2.0
WRAP.                       NO: One line per depth step
~Well Information Block
STRT.FT               245.0000: 
STOP.FT              1217.7000: 
STEP.FT                 0.1000: 
NULL.                -999.2500: 
COMP.          Pioneer Natural Resources: COMPANY
WELL.          Lucky Lady 42-29: WELL
FLD.           Purgatoire River: FIELD
LOC.           2482' FNL & 662' FEL--: LOCATION
CNTY.               Las Animas: COUNTY
SRVC.                Patterson: SERVICE COMPANY
DATE.          Thu Mar 09 18:39:54 2006: LOG DATE
UWI.           05 071 08659 00: UNIQUE WELL ID
STAT.                 Colorado: STATE
~Curve Information Block
DEPT.FT            0 000 00 00: Depth
DCAL.in                       : CDL Caliper
RHOB.g/cc                     : CDL Bulk Density
RHOC.g/cc                     : CDL Density Correction
DPOR.pu                       : CDL Density Porosity
NPOR.pu                       : Neutron Porosity
GR.GAPI                       : Gamma Ray
~Parameter Information Block
~A  Depth       DCAL        RHOB        RHOC        DPOR        NPOR         GR     
# ...
   744.2000      7.8493      2.5580      0.1230      5.5777     20.4773     81.9679
   744.3000      7.8533      2.5638      0.1126      5.2248     19.5662     83.6780
   744.4000      7.8533      2.5662      0.1317      5.0777     19.1192     85.7168
   744.5000      7.8592      2.5663      0.1517      5.0720     19.2608     83.7800
   744.6000      7.8592      2.5607      0.0772      5.4120     19.5620     76.8736
   744.7000      7.8592      2.5567      0.0874      5.6571     19.5239     69.3559
   744.8000      7.8747      2.5623      0.0504      5.3152     19.3164     66.2040
   744.9000      7.8747      2.5799      0.0834      4.2457     19.2293     67.9071
   745.0000      7.8901      2.5977      0.1006      3.1687     19.3032     70.8758
   745.1000      7.8901      2.5970      0.1224      3.2111     19.5908     72.3698
   745.2000      7.8901      2.5816      0.0549      4.1428     19.8780     72.8755
   745.3000      7.9013      2.5760      0.0597      4.4869     19.7161     74.7282
   745.4000      7.9013      2.5831      0.0692      4.0563     19.1904     78.6452
   745.5000      7.9114      2.5824      0.0925      4.0977     18.7780     79.7761
   745.6000      7.9114      2.5667      0.0771      5.0496     18.6714     75.0315
   745.7000      7.9114      2.5477      0.0460      6.1994     18.6409     70.1613
   745.8000      7.9190      2.5325      0.0575      7.1223     18.2539     70.5642
   745.9000      7.9190      2.5200      0.0288      7.8797     17.5232     75.0048
   746.0000      7.9204      2.5114      0.0574      8.4019     17.0322     78.6883
   746.1000      7.9204      2.5004      0.0451      9.0690     16.9616     79.4731
   746.2000      7.9204      2.4799      0.0207     10.3117     17.0131     79.4456
   746.3000      7.9194      2.4570     -0.0190     11.6945     17.0183     80.7868
   746.4000      7.9194      2.4446      0.0155     12.4501     17.0994     84.4766
   746.5000      7.9222      2.4478     -0.0256     12.2525     17.3754     89.3740
   746.6000      7.9222      2.4620      0.0015     11.3969     17.6393     90.6793
   746.7000      7.9222      2.4772     -0.0139     10.4713     17.6301     85.3778
   746.8000      7.9252      2.4897      0.0067      9.7145     17.3658     77.2546
   746.9000      7.9252      2.4994      0.0613      9.1248     16.9972     70.7440
   747.0000      7.9265      2.5077      0.0474      8.6264     16.5540     68.1040
   747.1000      7.9265      2.5157      0.0673      8.1422     16.0657     70.3740
   747.2000      7.9265      2.5182      0.0242      7.9856     15.7972     72.9019
   747.3000      7.9266      2.5078      0.0508      8.6171     15.8751     70.6480
   747.4000      7.9266      2.4871      0.0384      9.8751     15.9968     67.5590
   747.5000      7.9243      2.4724      0.0491     10.7645     15.7755     68.4573
   747.6000      7.9243      2.4766      0.0158     10.5091     15.5124     71.0588
   747.7000      7.9243      2.4901      0.0697      9.6912     15.7499     71.3326
   747.8000      7.9192      2.4856      0.0702      9.9644     16.2358     69.1759
   747.9000      7.9192      2.4565      0.0161     11.7257     16.4076     66.4166
   748.0000      7.9118      2.4309     -0.0167     13.2801     16.3116     63.4107
   748.1000      7.9118      2.4323      0.0059     13.1944     16.2430     59.8432
   748.2000      7.9118      2.4529      0.0422     11.9427     16.1824     58.7981
   748.3000      7.9060      2.4723      0.0749     10.7714     16.1630     62.7110
   748.4000      7.9060      2.4825      0.0445     10.1488     16.1900     67.2095
   748.5000      7.9002      2.4883      0.0574      9.8027     16.0904     68.3002
   748.6000      7.9002      2.4920      0.0665      9.5729     16.0584     67.1997
   748.7000      7.9002      2.4936      0.0689      9.4793     16.3195     65.1995
   748.8000      7.8895      2.4930      0.0335      9.5153     16.7053     63.3861
   748.9000      7.8895      2.4913      0.0746      9.6203     16.9863     64.5186
   749.0000      7.8784      2.4922      0.0222      9.5622     17.0645     68.2635
   749.1000      7.8784      2.4982      0.0523      9.2026     16.9966     70.7281
   749.2000      7.8784      2.5042      0.0371      8.8362     16.8991     71.0951
   749.3000      7.8759      2.5103      0.0406      8.4668     16.8036     69.6148
   749.4000      7.8759      2.5194      0.0258      7.9140     16.8279     65.2454
   749.5000      7.8849      2.5200      0.0843      7.8798     17.1137     60.2849
   749.6000      7.8849      2.5009      0.0478      9.0381     17.4203     58.5139
   749.7000      7.8849      2.4889     -0.0429      9.7613     17.4500     60.2330
   749.8000      7.9048      2.5111      0.0314      8.4203     17.3455     62.5908
   749.9000      7.9048      2.5391      0.0699      6.7228     17.2853     63.3051
   750.0000      7.9272      2.5402      0.0306      6.6539     17.2513     62.8305
   750.1000      7.9272      2.5255      0.0029      7.5484     17.2752     61.8619
   750.2000      7.9272      2.5161      0.0300      8.1149     17.4853     60.3299
   750.3000      7.9408      2.5170      0.0170      8.0580     17.7966     59.4628
   750.4000      7.9408      2.5215      0.0098      7.7896     18.0853     59.6729
   750.5000      7.9403      2.5148      0.0698      8.1957     18.3642     59.9170
   750.6000      7.9403      2.4903     -0.0095      9.6781     18.5710     60.3270
   750.7000      7.9403      2.4614      0.0022     11.4328     18.7126     60.9872
   750.8000      7.9306      2.4430     -0.0220     12.5484     18.7963     61.0722
   750.9000      7.9306      2.4428     -0.0180     12.5595     18.8577     61.2066
   751.0000      7.9231      2.4568     -0.0075     11.7101     18.9596     62.1290
   751.1000      7.9231      2.4702      0.0401     10.8948     19.0916     62.6386
   751.2000      7.9231      2.4723      0.0124     10.7679     19.2329     61.6749
   751.3000      7.9223      2.4668      0.0404     11.1041     19.3964     60.5127
   751.4000      7.9223      2.4623      0.0291     11.3776     19.5082     60.0778
   751.5000      7.9216      2.4637      0.0189     11.2887     19.2866     60.3141
   751.6000      7.9216      2.4793      0.0294     10.3454     18.8654     60.6092
   751.7000      7.9216      2.5117      0.1086      8.3818     18.6741     61.3194
   751.8000      7.9073      2.5382      0.1479      6.7734     18.6302     63.2052
   751.9000      7.9073      2.5388      0.1246      6.7424     18.4351     64.0126
   752.0000      7.8862      2.5266      0.1142      7.4769     17.9706     63.2289
   752.1000      7.8862      2.5189      0.1092      7.9472     17.1580     63.7925
   752.2000      7.8862      2.5088      0.1058      8.5581     16.3123     66.0816
   752.3000      7.8786      2.4915      0.0557      9.6066     15.9378     66.4936
   752.4000      7.8786      2.4782      0.0867     10.4113     15.8460     61.8298
   752.5000      7.8851      2.4733      0.0489     10.7118     15.6601     55.4075
   752.6000      7.8851      2.4670      0.0923     11.0884     15.4508     52.8272
   752.7000      7.8851      2.4610      0.0082     11.4541     15.2169     53.1783
   752.8000      7.8967      2.4698      0.0593     10.9223     14.8413     54.5786
   752.9000      7.8967      2.4869      0.0793      9.8866     14.4310     58.1591
   753.0000      7.9031      2.4972      0.0854      9.2582     14.1267     62.1833
   753.1000      7.9031      2.5035      0.0487      8.8772     13.9830     63.5715
   753.2000      7.9031      2.5038      0.0985      8.8629     13.9570     62.5743
   753.3000      7.8999      2.4890      0.0445      9.7555     13.9962     61.1422
   753.4000      7.8999      2.4691      0.0119     10.9609     14.0741     60.2632
   753.5000      7.8959      2.4574      0.0242     11.6729     13.9852     60.4840
   753.6000      7.8959      2.4575      0.0139     11.6644     13.6961     60.9907
   753.7000      7.8959      2.4634      0.0791     11.3065     13.6513     59.3765
