~Version Information
 VERS.                                  2.0 : CWLS LAS VERSION
 WRAP.                                   NO : WRAPING MODE
 SWARE .                 MController 2.5.0N : SOFTWARE VERSION
~Well Information
 WELL.                       Blue Sky 44-17 : WELL
 COMP.     Pioneer Natural Resource USA Inc : COMPANY
 FLD.                      Purgatoire River : FIELD
 LOC.                 SE/SE SEC17 T33S R66W : LOCATION
 DATE.                             09/07/05 : DATE(S) LOGGED
 SRVC.       Blanco Geological Services LLC : SERVICE COMPANY
 STAT.                             Colorado : STATE
 CNTY.                           Las Animas : COUNTY
 CTRY.                                  USA : COUNTRY
 API.                       05-071-08511-00 : API NUMBER
 STRT.FT                             434.00 : START DEPTH
 STOP.FT                            1625.00 : STOP DEPTH
 STEP.FT                               1.00 : DEPTH INCREMENT
 NULL.                                -9999 : NULL VALUE
~Curve information
 DEPTH.FT                                   :
 ROP.MIN/FT                                 :
 GAS.UNITS                                  :
~ASCII Log data
# ...
       634.0         0.27          1.3 
       635.0         0.30          0.6 
       636.0         0.27          0.4 
       637.0         0.20          0.8 
       638.0         0.23          0.7 
       639.0         0.20          0.3 
       640.0         0.23          0.1 
       641.0         0.23          0.7 
       642.0         0.23          0.4 
       643.0         0.20          0.6 
       644.0         0.23          0.8 
       645.0         0.28          1.5 
       646.0         0.23          0.7 
       647.0         0.30          1.3 
       648.0         0.47          0.6 
       649.0         0.10          1.2 
       650.0         0.10          0.9 
       651.0         0.13          0.9 
       652.0         0.10          0.9 
       653.0         0.27          1.8 
       654.0         0.13          1.8 
       655.0         0.13          1.4 
       656.0         6.57       3172.9 
       657.0         0.97       1193.8 
       658.0         0.23       1137.3 
       659.0         0.25       1026.9 
       660.0         0.20        913.9 
       661.0         0.27        879.5 
       662.0         0.20        831.7 
       663.0         0.20        820.0 
       664.0         0.23        791.5 
       665.0         0.23        770.7 
       666.0         0.13        762.9 
       667.0         0.20        749.6 
       668.0         0.23        736.9 
       669.0         0.20        734.0 
       670.0         0.27        714.8 
       671.0         0.40        712.9 
       672.0         0.33        705.4 
       673.0         0.25        699.3 
       674.0         0.17        690.5 
       675.0         0.20        661.6 
       676.0         0.20        656.4 
       677.0         0.17        628.8 
       678.0         0.20        619.7 
       679.0         0.30        638.5 
       680.0         0.40        648.6 
       681.0         0.20        613.5 
       682.0         0.20        593.7 
       683.0         0.20        520.0 
       684.0         0.27        461.9 
       685.0         0.23        431.4 
       686.0         4.10       1731.5 
       687.0         0.40        624.9 
       688.0         0.33        635.3 
       689.0         0.20        625.5 
       690.0         0.17        607.7 
       691.0         0.20        585.3 
       692.0         0.57        581.7 
       693.0         0.57        556.7 
       694.0         0.50        538.5 
       695.0         0.52        516.4 
       696.0         0.23        519.7 
       697.0         0.17        522.0 
       698.0         0.17        522.0 
       699.0         0.17        530.7 
       700.0         0.13        530.7 
       701.0         0.17        534.9 
       702.0         0.17        532.0 
       703.0         0.13        532.0 
       704.0         0.20        525.5 
       705.0         0.13        525.5 
       706.0         0.13        523.3 
       707.0         0.20        519.0 
       708.0         0.43        518.4 
       709.0         0.23        517.7 
       710.0         0.45        519.4 
       711.0         0.57        492.4 
       712.0         0.30        405.7 
       713.0         0.23        400.0 
       714.0         0.23        400.0 
       715.0         0.20         96.2 
       716.0         4.08       2129.9 
       717.0         0.30        578.1 
       718.0         0.20        550.2 
       719.0         0.23        545.7 
       720.0         0.28        521.0 
       721.0         0.30        526.8 
       722.0         0.23        527.2 
       723.0         0.20        516.1 
       724.0         0.17        516.1 
       725.0         0.23        496.6 
       726.0         0.20        493.4 
       727.0         0.23        483.0 
       728.0         0.30        489.8 
       729.0         0.23        489.2 
       730.0         0.17        486.9 
       731.0         0.17        481.7 
       732.0         0.23        480.7 
       733.0         0.27        472.3 
       734.0         0.30        471.6 
       735.0         0.25        470.0 
       736.0         0.27        470.0 
       737.0         0.30        466.8 
       738.0         0.27        464.2 
       739.0         0.30        462.9 
       740.0         0.27        462.2 
       741.0         0.30        473.3 
       742.0         0.30        465.8 
       743.0         0.30        434.3 
       744.0         0.30         88.1 
       745.0         0.33         74.1 
       746.0         3.38       1279.5 
       747.0         0.38        525.2 
       748.0         0.37        486.6 
       749.0         0.30        463.8 
       750.0         0.30        457.3 
       751.0         0.27        455.1 
       752.0         0.27        445.7 
       753.0         0.27        444.7 
       754.0         0.27        442.4 
       755.0         0.27        449.9 
       756.0         0.27        437.2 
       757.0         0.27        419.4 
       758.0         0.32        400.0 
       759.0         0.27         85.4 
       760.0         0.27         87.8 
       761.0         1.97        161.0 
       762.0         0.40        140.1 
       763.0         0.33        128.7 
       764.0         0.32        120.9 
       765.0         0.33        106.2 
       766.0         0.27        115.7 
       767.0         0.23        119.5 
       768.0         0.23        124.8 
       769.0         0.17        133.9 
       770.0         0.20        129.2 
       771.0         0.17        129.2 
       772.0         0.20        123.9 
       773.0         0.20         80.3 
       774.0         0.27         64.1 
       775.0         0.27         59.7 
       776.0         3.38        454.4 
       777.0         0.40        158.5 
       778.0         0.32        161.7 
       779.0         0.27        145.7 
       780.0         0.40        139.2 
       781.0         0.27        128.3 
       782.0         0.17        114.5 
       783.0         0.40        108.2 
       784.0         0.37        103.2 
       785.0         0.37        102.0 
       786.0         0.33        101.5 
       787.0         0.27        100.9 
       788.0         0.30        100.5 
       789.0         0.32         99.8 
       790.0         0.30         99.7 
       791.0         0.33         98.9 
       792.0         0.30        100.4 
       793.0         0.30        100.5 
       794.0         0.30        100.2 
       795.0         0.27         99.1 
       796.0         0.30        101.2 
       797.0         0.27        101.8 
       798.0         0.27         99.2 
       799.0         0.27         98.9 
       800.0         0.32        100.2 
       801.0         0.30         95.2 
       802.0         0.20         73.8 
       803.0         0.13         66.8 
       804.0         0.13         66.8 
       805.0         0.20         66.1 
       806.0         4.08       1096.4 
       807.0         0.33        490.1 
       808.0         0.30        457.0 
       809.0         0.27        465.1 
       810.0         0.23        459.6 
       811.0         0.17        459.6 
       812.0         0.17        455.7 
       813.0         0.28        442.7 
       814.0         0.40        440.8 
       815.0         0.33         64.3 
       816.0         0.27         62.3 
       817.0         2.35        117.1 
       818.0         0.37        103.1 
       819.0         0.47         92.0 
       820.0         0.33         83.4 
       821.0         0.30         83.0 
       822.0         0.20         82.6 
       823.0         0.27         80.9 
       824.0         0.23         80.3 
       825.0         0.33         78.7 
       826.0         0.23         78.3 
       827.0         0.20         80.4 
       828.0         0.25         81.2 
       829.0         0.27         80.9 
       830.0         0.17         82.8 
       831.0         0.30         80.3 
       832.0         0.27         73.2 
       833.0         0.27         54.4 
