~Version Information
VERS.                      2.0: CWLS Log ASCII Standard - VERSION 2.0
WRAP.                       NO: One line per depth step
~Well Information Block
STRT.FT               330.0000: 
STOP.FT              1972.5000: 
STEP.FT                 0.1000: 
NULL.                -999.2500: 
COMP.          Pioneer Natural Resources: COMPANY
WELL.           Willys 32-8 Tr: WELL
FLD.           Purgatoire River: FIELD
LOC.           1843' FNL & 2355' FEL: LOCATION
CNTY.               Las Animas: COUNTY
SRVC.                Patterson: SERVICE COMPANY
DATE.          Thu Feb 09 10:31:59 2006: LOG DATE
UWI.           05 071 08688 00: UNIQUE WELL ID
STAT.                 Colorado: STATE
~Curve Information Block
DEPT.FT            0 000 00 00: Depth
DCAL.in                       : CDL Caliper
RHOB.g/cc                     : CDL Bulk Density
RHOC.g/cc                     : CDL Density Correction
DPOR.pu                       : CDL Density Porosity
GR.GAPI                       : Gamma Ray
~Parameter Information Block
~A  Depth       DCAL        RHOB        RHOC        DPOR         GR     
   330.0000      8.2610      2.1841     -0.3258     28.2366     45.7660
   330.1000      8.2610      2.1544     -0.5472     30.0379     49.4170
   330.2000      8.2610      2.1453     -0.4392     30.5870     51.6327
   330.3000      8.2664      2.1699     -0.5125     29.0950     55.8372
   330.4000      8.2664      2.2224     -0.4186     25.9126     62.5811
   330.5000      8.2563      2.2728     -0.3697     22.8594     70.7213
   330.6000      8.2563      2.2910     -0.4042     21.7559     77.6580
   330.7000      8.2563      2.2852     -0.3724     22.1068     80.9837
   330.8000      8.2421      2.2756     -0.4009     22.6900     81.9170
   330.9000      8.2421      2.2736     -0.4601     22.8099     82.5477
   331.0000      8.2655      2.2840     -0.4297     22.1838     84.6703
   331.1000      8.2655      2.2864     -0.2640     22.0369     88.8326
   331.2000      8.2655      2.2599     -0.4135     23.6427     91.2918
   331.3000      8.2705      2.2287     -0.4714     25.5356     88.4088
   331.4000      8.2705      2.2195     -0.4457     26.0899     80.8934
   331.5000      8.2631      2.2304     -0.4587     25.4312     74.8145
   331.6000      8.2631      2.2475     -0.3726     24.3937     76.3139
   331.7000      8.2631      2.2459     -0.4101     24.4922     82.0180
   331.8000      8.2625      2.2241     -0.4674     25.8138     85.5092
   331.9000      8.2625      2.2128     -0.4659     26.4970     85.4058
   332.0000      8.2521      2.2193     -0.4227     26.1039     80.4121
   332.1000      8.2521      2.2246     -0.4237     25.7818     71.3700
   332.2000      8.2521      2.2279     -0.4646     25.5829     65.0351
   332.3000      8.2427      2.2434     -0.4588     24.6448     65.7872
   332.4000      8.2427      2.2696     -0.4099     23.0571     71.2853
   332.5000      8.2534      2.2862     -0.3666     22.0458     78.5372
   332.6000      8.2534      2.2866     -0.3591     22.0260     81.6066
   332.7000      8.2534      2.2887     -0.3806     21.8991     76.6344
   332.8000      8.2589      2.3002     -0.3549     21.1986     69.0380
   332.9000      8.2589      2.2984     -0.4144     21.3082     62.7339
   333.0000      8.2586      2.2668     -0.4032     23.2247     56.2355
   333.1000      8.2586      2.2243     -0.4634     25.8004     51.7736
   333.2000      8.2586      2.2052     -0.4515     26.9584     51.7360
   333.3000      8.2587      2.2115     -0.4112     26.5738     51.7675
   333.4000      8.2587      2.2100     -0.3862     26.6647     50.3717
   333.5000      8.2536      2.1906     -0.4538     27.8398     50.9870
   333.6000      8.2536      2.1770     -0.4571     28.6684     52.4527
   333.7000      8.2536      2.1730     -0.4135     28.9088     50.0092
   333.8000      8.2544      2.1591     -0.4332     29.7486     46.4663
   333.9000      8.2544      2.1281     -0.4402     31.6315     48.2019
   334.0000      8.2632      2.1019     -0.5077     33.2169     50.8580
   334.1000      8.2632      2.1076     -0.4539     32.8754     47.8235
   334.2000      8.2632      2.1352     -0.4076     31.2020     42.7952
   334.3000      8.2653      2.1525     -0.3955     30.1504     39.3501
   334.4000      8.2653      2.1444     -0.4222     30.6397     35.9092
   334.5000      8.2564      2.1145     -0.4425     32.4516     32.7518
   334.6000      8.2564      2.0733     -0.4501     34.9486     33.1754
   334.7000      8.2564      2.0442     -0.5482     36.7123     38.0995
   334.8000      8.2507      2.0545     -0.5011     36.0887     42.3457
   334.9000      8.2507      2.0928     -0.4403     33.7723     40.8274
   335.0000      8.2403      2.1106     -0.3446     32.6880     37.3595
   335.1000      8.2403      2.0880     -0.4912     34.0609     37.6679
   335.2000      8.2403      2.0629     -0.5211     35.5846     42.1289
   335.3000      8.2412      2.0737     -0.5166     34.9268     47.9501
   335.4000      8.2412      2.1139     -0.4393     32.4914     50.4382
   335.5000      8.2454      2.1441     -0.3743     30.6609     48.0597
   335.6000      8.2454      2.1418     -0.4775     30.8012     44.2776
   335.7000      8.2454      2.1233     -0.4365     31.9201     42.5718
   335.8000      8.2489      2.1061     -0.4557     32.9658     43.0633
   335.9000      8.2489      2.0993     -0.4930     33.3765     43.1472
   336.0000      8.2483      2.1134     -0.4844     32.5204     42.0846
   336.1000      8.2483      2.1356     -0.4473     31.1770     40.9047
   336.2000      8.2483      2.1374     -0.4398     31.0661     39.0076
   336.3000      8.2477      2.1245     -0.4596     31.8473     37.1840
   336.4000      8.2477      2.1301     -0.4966     31.5090     37.3629
   336.5000      8.2509      2.1518     -0.3893     30.1927     39.4054
   336.6000      8.2509      2.1616     -0.4264     29.6003     43.0915
   336.7000      8.2509      2.1636     -0.4501     29.4794     46.3461
   336.8000      8.2498      2.1692     -0.3778     29.1411     46.4241
   336.9000      8.2498      2.1683     -0.4550     29.1918     45.4739
   337.0000      8.2513      2.1593     -0.4239     29.7373     46.1230
   337.1000      8.2513      2.1420     -0.4085     30.7876     46.4987
   337.2000      8.2513      2.1089     -0.4758     32.7964     44.4559
   337.3000      8.2525      2.0766     -0.5334     34.7500     41.1593
   337.4000      8.2525      2.0713     -0.4531     35.0700     40.0674
   337.5000      8.2440      2.0915     -0.4804     33.8492     41.1290
   337.6000      8.2440      2.1214     -0.4777     32.0350     40.7107
   337.7000      8.2440      2.1422     -0.4063     30.7728     38.8566
   337.8000      8.2611      2.1377     -0.4054     31.0506     37.8675
   337.9000      8.2611      2.1163     -0.4774     32.3475     37.4643
   338.0000      8.2573      2.0999     -0.5063     33.3419     35.8694
   338.1000      8.2573      2.0970     -0.5230     33.5158     34.8939
   338.2000      8.2573      2.0985     -0.4217     33.4263     39.3049
   338.3000      8.2545      2.1010     -0.4946     33.2737     47.0283
   338.4000      8.2545      2.1093     -0.3996     32.7671     49.8754
   338.5000      8.2529      2.1115     -0.4387     32.6385     45.3233
   338.6000      8.2529      2.1104     -0.5014     32.7003     38.5500
   338.7000      8.2529      2.1213     -0.3884     32.0417     34.2361
   338.8000      8.2576      2.1423     -0.4728     30.7718     34.9250
   338.9000      8.2576      2.1644     -0.3888     29.4312     40.1513
   339.0000      8.2674      2.1703     -0.4318     29.0717     43.8296
   339.1000      8.2674      2.1585     -0.4568     29.7877     41.9983
   339.2000      8.2674      2.1478     -0.4831     30.4358     38.6393
   339.3000      8.2617      2.1487     -0.4280     30.3791     40.1096
   339.4000      8.2617      2.1605     -0.4827     29.6673     45.7035
   339.5000      8.2577      2.1738     -0.4172     28.8577     49.8622
   339.6000      8.2577      2.1775     -0.4133     28.6372     50.8910
   339.7000      8.2577      2.1728     -0.4233     28.9188     50.4518
   339.8000      8.2538      2.1628     -0.4108     29.5252     48.1503
   339.9000      8.2538      2.1515     -0.5083     30.2122     43.9528
   340.0000      8.2576      2.1450     -0.4156     30.6059     40.8204
   340.1000      8.2576      2.1458     -0.4648     30.5575     39.7265
   340.2000      8.2576      2.1614     -0.4267     29.6129     39.2021
   340.3000      8.2631      2.1780     -0.4179     28.6074     39.2154
   340.4000      8.2631      2.1717     -0.4171     28.9893     41.3629
   340.5000      8.2601      2.1505     -0.4598     30.2717     45.1046
   340.6000      8.2601      2.1306     -0.4311     31.4759     47.5504
   340.7000      8.2601      2.1153     -0.4197     32.4052     48.1554
   340.8000      8.2697      2.1122     -0.4943     32.5927     47.2580
   340.9000      8.2697      2.1268     -0.4526     31.7082     44.9770
   341.0000      8.2650      2.1490     -0.4171     30.3613     43.2286
   341.1000      8.2650      2.1653     -0.4037     29.3741     42.9439
