~Version Information
VERS.                      2.0: CWLS Log ASCII Standard - VERSION 2.0
WRAP.                       NO: One line per depth step
~Well Information Block
STRT.FT               619.7000: 
STOP.FT               951.7000: 
STEP.FT                 0.1000: 
NULL.                -999.2500: 
COMP.          Pioneer Natural Resources: COMPANY
WELL.          Screamin 12-29 Tr: WELL
FLD.           Purgatoire River: FIELD
LOC.           1979' FNL & 532' FWL--: LOCATION
CNTY.               Las Animas: COUNTY
SRVC.                Patterson: SERVICE COMPANY
DATE.          Fri Mar 31 15:43:57 2006: LOG DATE
UWI.           05 071 08660 00: UNIQUE WELL ID
STAT.                 Colorado: STATE
~Curve Information Block
DEPT.FT            0 000 00 00: Depth
DCAL.in                       : CDL Caliper
RHOB.g/cc                     : CDL Bulk Density
RHOC.g/cc                     : CDL Density Correction
DPOR.pu                       : CDL Density Porosity
GR.GAPI                       : Gamma Ray
~Parameter Information Block
~A  Depth       DCAL        RHOB        RHOC        DPOR         GR     
# ...
   709.3000      7.8736      2.6485     -0.0494      0.0880     44.0932
   709.4000      7.8736      2.6043     -0.0683      2.7675     47.0970
   709.5000      7.8576      2.5780     -0.0299      4.3658     48.4448
   709.6000      7.8576      2.5574     -0.0220      5.6123     49.3858
   709.7000      7.8576      2.5344      0.0089      7.0034     50.8111
   709.8000      7.8483      2.4990      0.0243      9.1508     52.1463
   709.9000      7.8483      2.4435      0.0333     12.5177     55.3038
   710.0000      7.8475      2.3908     -0.0386     15.7097     62.0374
   710.1000      7.8475      2.3848      0.0129     16.0748     69.7686
   710.2000      7.8475      2.4362      0.1274     12.9550     74.1648
   710.3000      7.8485      2.5088      0.2566      8.5548     75.6985
   710.4000      7.8485      2.5609      0.2881      5.4005     79.4564
   710.5000      7.8449      2.5779      0.2690      4.3668     89.5380
   710.6000      7.8449      2.5761      0.1778      4.4805    105.7303
   710.7000      7.8449      2.5816      0.1855      4.1456    121.2980
   710.8000      7.8557      2.5970      0.2099      3.2127    129.5233
   710.9000      7.8557      2.6002      0.1688      3.0167    130.2728
   711.0000      7.8921      2.5791      0.1111      4.2968    128.1682
   711.1000      7.8921      2.5474      0.0461      6.2176    129.3699
   711.2000      7.8921      2.5249      0.0523      7.5814    136.6893
   711.3000      7.9275      2.5163      0.0402      8.1049    146.7573
   711.4000      7.9275      2.5241      0.0291      7.6333    152.9287
   711.5000      7.9439      2.5463      0.0496      6.2846    152.8505
   711.6000      7.9439      2.5600      0.0954      5.4522    153.1871
   711.7000      7.9439      2.5535      0.0790      5.8485    154.5117
   711.8000      7.9472      2.5474      0.0436      6.2205    150.3362
   711.9000      7.9472      2.5567      0.0657      5.6522    143.7118
   712.0000      7.9468      2.5719      0.0852      4.7306    137.7549
   712.1000      7.9468      2.5795      0.0881      4.2753    131.3626
   712.2000      7.9468      2.5753      0.0867      4.5244    130.5725
   712.3000      7.9475      2.5702      0.0366      4.8356    134.3332
   712.4000      7.9475      2.5839      0.0446      4.0085    132.6824
   712.5000      7.9525      2.6156      0.0881      2.0824    126.4483
   712.6000      7.9525      2.6426      0.0804      0.4515    121.7787
   712.7000      7.9525      2.6568      0.0500     -0.4100    118.8381
   712.8000      7.9554      2.6631      0.0979     -0.7927    114.6527
   712.9000      7.9554      2.6575      0.0505     -0.4544    110.5924
   713.0000      7.9493      2.6448      0.0428      0.3160    109.5331
   713.1000      7.9493      2.6397      0.0496      0.6250    108.9452
   713.2000      7.9493      2.6464      0.0393      0.2154    108.7558
   713.3000      7.9469      2.6546      0.0464     -0.2817    112.0833
   713.4000      7.9469      2.6503      0.0251     -0.0174    115.9279
   713.5000      7.9543      2.6290     -0.0379      1.2725    117.0589
   713.6000      7.9543      2.5977      0.0288      3.1684    117.2449
   713.7000      7.9543      2.5747     -0.0160      4.5622    116.8129
   713.8000      7.9631      2.5738      0.0326      4.6155    116.6443
   713.9000      7.9631      2.5778      0.0756      4.3774    118.5236
   714.0000      7.9671      2.5674      0.0274      5.0043    119.8015
   714.1000      7.9671      2.5491      0.0641      6.1142    117.7413
   714.2000      7.9671      2.5367      0.0236      6.8696    112.8052
   714.3000      7.9667      2.5439      0.0457      6.4277    108.1059
   714.4000      7.9667      2.5686      0.0662      4.9333    107.0211
   714.5000      7.9610      2.5844      0.0946      3.9777    108.1394
   714.6000      7.9610      2.5745      0.0823      4.5744    107.1685
   714.7000      7.9610      2.5521      0.0677      5.9334    104.3029
   714.8000      7.9499      2.5330      0.0849      7.0913    103.0933
   714.9000      7.9499      2.5187      0.0216      7.9593    104.5264
   715.0000      7.9431      2.5049      0.0425      8.7912    108.9326
   715.1000      7.9431      2.4895      0.0370      9.7245    116.2032
   715.2000      7.9431      2.4846      0.0060     10.0267    122.0584
   715.3000      7.9428      2.5060      0.0169      8.7291    123.0717
   715.4000      7.9428      2.5429      0.0871      6.4894    120.9705
   715.5000      7.9438      2.5710      0.0884      4.7864    117.8333
   715.6000      7.9438      2.5864      0.0902      3.8549    114.1771
   715.7000      7.9438      2.5971      0.1104      3.2056    111.6212
   715.8000      7.9439      2.6054      0.0872      2.7003    110.9106
   715.9000      7.9439      2.6062      0.1228      2.6540    108.9231
   716.0000      7.9389      2.5933      0.0824      3.4354    104.2211
   716.1000      7.9389      2.5749      0.0697      4.5536     99.2542
   716.2000      7.9389      2.5675      0.0494      5.0011     95.3452
   716.3000      7.9284      2.5800      0.0868      4.2438     92.3444
   716.4000      7.9284      2.6017      0.0944      2.9264     90.1949
   716.5000      7.9223      2.6172      0.0972      1.9859     88.8801
   716.6000      7.9223      2.6247      0.0758      1.5319     89.3561
   716.7000      7.9223      2.6265      0.0861      1.4227     93.8201
   716.8000      7.9181      2.6273      0.0698      1.3782     98.3787
   716.9000      7.9181      2.6350      0.1310      0.9065     96.8487
   717.0000      7.9099      2.6460      0.0997      0.2447     91.8630
   717.1000      7.9099      2.6541      0.0885     -0.2473     87.9043
   717.2000      7.9099      2.6609      0.1173     -0.6588     86.6591
   717.3000      7.9057      2.6655      0.1297     -0.9385     89.4750
   717.4000      7.9057      2.6650      0.1334     -0.9087     93.2074
   717.5000      7.9035      2.6583      0.1062     -0.5008     93.6499
   717.6000      7.9035      2.6475      0.0927      0.1492     92.2869
   717.7000      7.9035      2.6347      0.1054      0.9282     90.6864
   717.8000      7.9082      2.6163      0.0498      2.0417     86.6064
   717.9000      7.9082      2.5930      0.0428      3.4556     80.4909
   718.0000      7.9206      2.5737      0.0235      4.6214     78.3960
   718.1000      7.9206      2.5641      0.0461      5.2070     82.7954
   718.2000      7.9206      2.5526      0.0682      5.9009     87.0428
   718.3000      7.9275      2.5310      0.0189      7.2101     85.3729
   718.4000      7.9275      2.5130     -0.0151      8.3002     80.9631
   718.5000      7.9273      2.5069      0.0548      8.6705     78.4643
   718.6000      7.9273      2.5029      0.0134      8.9153     79.8680
   718.7000      7.9273      2.4999      0.0094      9.0988     84.7466
   718.8000      7.9278      2.5053      0.0580      8.7668     89.0420
   718.9000      7.9278      2.5215      0.0536      7.7909     89.4653
   719.0000      7.9223      2.5408      0.0882      6.6175     87.9016
   719.1000      7.9223      2.5488      0.0982      6.1306     89.2176
   719.2000      7.9223      2.5487      0.0816      6.1388     93.1448
   719.3000      7.9061      2.5625      0.0965      5.3026     95.0412
   719.4000      7.9061      2.5927      0.1476      3.4729     94.8080
   719.5000      7.8917      2.6178      0.1632      1.9501     98.1530
   719.6000      7.8917      2.6302      0.1492      1.1970    106.9551
   719.7000      7.8917      2.6398      0.1465      0.6165    114.1859
   719.8000      7.9000      2.6440      0.1583      0.3608    114.1615
   719.9000      7.9000      2.6346      0.1084      0.9311    109.9717
   720.0000      7.9250      2.6207      0.0877      1.7742    108.5301
   720.1000      7.9250      2.6145      0.0697      2.1531    111.3087
   720.2000      7.9250      2.6164      0.0653      2.0393    113.3680
   720.3000      7.9511      2.6148      0.0809      2.1324    111.2420
   720.4000      7.9511      2.5953      0.0616      3.3123    106.4404
