~Version Information
VERS.                      2.0: CWLS Log ASCII Standard - VERSION 2.0
WRAP.                       NO: One line per depth step
~Well Information Block
STRT.FT               620.0000: 
STOP.FT              3067.2000: 
STEP.FT                 0.1000: 
NULL.                -999.2500: 
COMP.          Pioneer Natural Resources: COMPANY
WELL.          Interceptor 43-13 Kv: WELL
FLD.           Purgatoire River: FIELD
LOC.           2073' FSL & 519' FEL--: LOCATION
PROV.                 Colorado: PROVINCE
CNTY.               Las Animas: COUNTRY
SRVC.                Patterson: SERVICE COMPANY
DATE.          Sat Jan 14 20:27:27 2006: LOG DATE
UWI.           05 071 08655 00: UNIQUE WELL ID
~Curve Information Block
DEPT.FT            0 000 00 00: Depth
DCAL.in                       : CDL Caliper
RHOB.g/cc                     : CDL Bulk Density
RHOC.g/cc                     : CDL Density Correction
DPOR.pu                       : CDL Density Porosity
NPOR.pu                       : Neutron Porosity
GR.GAPI                       : Gamma Ray
~Parameter Information Block
~A  Depth       DCAL        RHOB        RHOC        DPOR        NPOR         GR     
# ...
  2396.0000      8.0088      2.6016      0.0225      2.9342     24.3160    114.9081
  2396.1000      8.0088      2.6217      0.0936      1.7172     24.5197    113.0281
  2396.2000      8.0088      2.6213      0.0293      1.7415     24.8971    118.1457
  2396.3000      8.0102      2.6098     -0.0080      2.4335     24.9593    123.6260
  2396.4000      8.0102      2.6002      0.0186      3.0203     24.6841    123.3249
  2396.5000      8.0114      2.6040      0.0084      2.7876     24.5420    119.8148
  2396.6000      8.0114      2.6252      0.0765      1.5009     24.6202    119.2197
  2396.7000      8.0114      2.6399      0.0730      0.6150     24.9147    122.3921
  2396.8000      8.0143      2.6269      0.0758      1.4028     25.4537    123.4350
  2396.9000      8.0143      2.5987      0.0341      3.1106     25.9992    120.8717
  2397.0000      8.0175      2.5806      0.0173      4.2068     26.4090    121.4644
  2397.1000      8.0175      2.5774      0.0522      4.4013     26.6278    126.1863
  2397.2000      8.0175      2.5743      0.0081      4.5867     26.7226    129.2892
  2397.3000      8.0204      2.5592      0.0322      5.5030     26.9268    129.6063
  2397.4000      8.0204      2.5374     -0.0118      6.8219     27.3107    128.6758
  2397.5000      8.0255      2.5293     -0.0349      7.3130     27.4357    127.6759
  2397.6000      8.0255      2.5409      0.0325      6.6114     26.9142    126.1597
  2397.7000      8.0255      2.5565      0.0244      5.6695     25.9595    126.5338
  2397.8000      8.0322      2.5680      0.0727      4.9689     25.2446    131.6311
  2397.9000      8.0322      2.5782      0.0776      4.3496     25.1418    135.7524
  2398.0000      8.0366      2.5873      0.0636      3.7977     25.3037    133.7621
  2398.1000      8.0366      2.6029      0.0440      2.8547     25.4063    131.7014
  2398.2000      8.0366      2.6295      0.0829      1.2410     25.5996    132.9912
  2398.3000      8.0366      2.6418      0.0990      0.4953     26.0075    132.8743
  2398.4000      8.0366      2.6186      0.0427      1.9024     26.4241    129.7352
  2398.5000      8.0334      2.5830      0.0215      4.0633     26.6980    129.9012
  2398.6000      8.0334      2.5663     -0.0022      5.0709     26.8365    136.0781
  2398.7000      8.0334      2.5739      0.0341      4.6131     26.7184    138.8284
  2398.8000      8.0318      2.5868      0.0479      3.8280     26.4794    132.4278
  2398.9000      8.0318      2.5862      0.0377      3.8666     26.5590    123.8216
  2399.0000      8.0328      2.5769      0.0195      4.4323     26.8670    120.6271
  2399.1000      8.0328      2.5757      0.0091      4.5025     26.7417    120.2520
  2399.2000      8.0328      2.5854      0.0513      3.9172     26.0830    118.6749
  2399.3000      8.0326      2.5946      0.0511      3.3550     25.5658    118.0051
  2399.4000      8.0326      2.5986      0.0369      3.1174     25.6070    119.5439
  2399.5000      8.0289      2.5961      0.0534      3.2696     25.8600    123.5020
  2399.6000      8.0289      2.5827      0.0230      4.0766     25.9672    129.7474
  2399.7000      8.0289      2.5626      0.0074      5.2942     25.9724    133.0651
  2399.8000      8.0239      2.5464      0.0001      6.2762     25.9583    131.2145
  2399.9000      8.0239      2.5387      0.0074      6.7442     25.9169    130.0075
  2400.0000      8.0225      2.5378      0.0013      6.7994     25.9453    133.2067
  2400.1000      8.0225      2.5369      0.0324      6.8572     26.1570    135.1661
  2400.2000      8.0225      2.5319      0.0277      7.1549     26.5504    131.1592
  2400.3000      8.0270      2.5241      0.0337      7.6317     27.0023    127.6995
  2400.4000      8.0270      2.5073      0.0340      8.6512     27.4314    130.4252
  2400.5000      8.0335      2.4851     -0.0154      9.9946     27.5931    134.5791
  2400.6000      8.0335      2.4748     -0.0065     10.6198     27.2246    136.8982
  2400.7000      8.0335      2.4792      0.0026     10.3486     26.7046    139.8207
  2400.8000      8.0367      2.4961      0.0194      9.3285     26.6377    145.9213
  2400.9000      8.0367      2.5233      0.0626      7.6780     27.0015    148.5983
  2401.0000      8.0370      2.5424      0.1188      6.5222     27.1588    140.5642
  2401.1000      8.0370      2.5448      0.0583      6.3768     26.8945    131.3223
  2401.2000      8.0370      2.5470      0.1041      6.2400     26.7775    129.9001
  2401.3000      8.0373      2.5525      0.0880      5.9066     27.0418    131.2492
  2401.4000      8.0373      2.5403      0.1156      6.6464     27.5358    130.7039
  2401.5000      8.0362      2.4924      0.0706      9.5520     28.2437    131.6569
  2401.6000      8.0362      2.4276     -0.0281     13.4779     29.2253    136.3025
  2401.7000      8.0362      2.3833     -0.0325     16.1661     30.1101    139.8552
  2401.8000      8.0357      2.3605      0.0307     17.5432     30.3181    137.1158
  2401.9000      8.0357      2.3364      0.0073     19.0087     30.1012    128.5695
  2402.0000      8.0442      2.3079     -0.0105     20.7354     29.9614    120.5244
  2402.1000      8.0442      2.2880     -0.0080     21.9370     29.7809    118.7664
  2402.2000      8.0442      2.2750      0.0246     22.7264     29.6479    121.8789
  2402.3000      8.0600      2.2459      0.0731     24.4894     29.9734    124.6626
  2402.4000      8.0600      2.1804      0.0333     28.4610     30.7371    124.4979
  2402.5000      8.0671      2.0909      0.0035     33.8863     31.6679    123.7206
  2402.6000      8.0671      2.0187     -0.0087     38.2589     32.3556    124.4105
  2402.7000      8.0671      1.9900      0.0353     40.0013     32.1798    122.1462
  2402.8000      8.0551      1.9909      0.0183     39.9469     31.4633    114.5334
  2402.9000      8.0551      1.9994     -0.0311     39.4316     31.1588    106.9657
  2403.0000      8.0371      2.0199     -0.0474     38.1863     31.2198    103.0554
  2403.1000      8.0371      2.0669      0.0411     35.3404     30.9881    102.0468
  2403.2000      8.0371      2.1371      0.1082     31.0837     30.2720    103.7762
  2403.3000      8.0266      2.2247      0.1722     25.7760     29.4264    107.0149
  2403.4000      8.0266      2.3277      0.2442     19.5342     28.7677    108.2774
  2403.5000      8.0266      2.4364      0.2723     12.9428     28.0559    107.7528
  2403.6000      8.0266      2.5370      0.2883      6.8485     27.4577    107.0531
  2403.7000      8.0266      2.6116      0.2638      2.3285     27.4601    105.4516
  2403.8000      8.0240      2.6463      0.1622      0.2223     27.6400    102.8802
  2403.9000      8.0240      2.6483      0.0840      0.1044     27.4136    104.5351
  2404.0000      8.0088      2.6393      0.0565      0.6481     27.0304    112.3060
  2404.1000      8.0088      2.6372      0.0564      0.7764     26.8374    118.1211
  2404.2000      8.0088      2.6402      0.0874      0.5926     26.5166    116.0512
  2404.3000      7.9995      2.6346      0.0593      0.9304     25.7153    109.8711
  2404.4000      7.9995      2.6213      0.0461      1.7367     24.7306    106.6436
  2404.5000      8.0037      2.6140      0.0357      2.1829     24.2089    109.1120
  2404.6000      8.0037      2.6193      0.0389      1.8590     24.4819    112.8409
  2404.7000      8.0037      2.6299      0.0852      1.2185     25.2423    112.8431
  2404.8000      8.0095      2.6346      0.0671      0.9358     25.8961    109.8353
  2404.9000      8.0095      2.6357      0.0393      0.8643     26.2451    107.4814
  2405.0000      8.0094      2.6396      0.0932      0.6331     26.3636    106.9403
  2405.1000      8.0094      2.6429      0.0708      0.4275     26.4461    109.3240
  2405.2000      8.0094      2.6438      0.0555      0.3750     26.6146    114.3208
  2405.3000      8.0039      2.6437      0.0872      0.3796     26.4561    115.5807
  2405.4000      8.0039      2.6474      0.0797      0.1557     25.7443    109.0680
  2405.5000      7.9943      2.6564      0.1092     -0.3862     24.9866     99.3717
