~Version Information
VERS.                      2.0: CWLS Log ASCII Standard - VERSION 2.0
WRAP.                       NO: One line per depth step
~Well Information Block
STRT.FT                 0.0000: 
STOP.FT              1238.2500: 
STEP.FT                 0.2500: 
NULL.                -999.2500: 
COMP.          Pioneer Natural Resources: COMPANY
WELL.                 Ray 34-6: WELL
FLD.           Purgatoire River: FIELD
LOC.           684' FSL & 2254' FEL: LOCATION
CNTY.               Las Animas: COUNTY
SRVC.                         : SERVICE COMPANY
DATE.          Fri Jun 23 09:23:24 2006: LOG DATE
UWI.           05 071 08695 00: UNIQUE WELL ID
STAT.                       CO: STATE
~Curve Information Block
DEPT.FT            0 000 00 00: Depth
GR.GAPI                       : Gamma Ray
CCL.                          : Casing Collar Locator
TT3.usec                      : CBL 3' Travel Time
AMP3.mV                       : CBL 3' Amplitude
~Parameter Information Block
~A  Depth        GR         CCL         TT3         AMP3    
# ...
   737.0000     74.9712      0.0000    807.9951      7.3457
   737.2500     70.5428      0.0000    811.2127      7.1980
   737.5000     66.0907      0.0000    813.5222      7.0481
   737.7500     63.5384      0.0000    819.1054      6.9280
   738.0000     63.8250      0.0000    831.6042      6.8546
   738.2500     66.1817      0.0000    851.9006      6.8271
   738.5000     68.8077      0.0000    876.8454      6.8280
   738.7500     70.4165      0.0000    899.6862      6.8334
   739.0000     70.9019      0.0000    913.3799      6.8292
   739.2500     70.5191      0.0000    915.1021      6.8161
   739.5000     69.2684      0.0000    907.7621      6.8009
   739.7500     67.5365      0.0000    897.1310      6.7862
   740.0000     66.4182      0.0000    887.5049      6.7725
   740.2500     66.4497      0.0000    879.4835      6.7665
   740.5000     66.4856      0.0000    870.9588      6.7810
   740.7500     64.7708      0.0000    859.6115      6.8233
   741.0000     61.0112      0.0000    844.4581      6.8862
   741.2500     56.8059      0.0000    826.0444      6.9544
   741.5000     54.1940      0.0000    806.4400      7.0177
   741.7500     54.2367      0.0000    789.0747      7.0751
   742.0000     56.7771      0.0000    777.4263      7.1278
   742.2500     60.9423      0.0000    773.1423      7.1729
   742.5000     65.7260      0.0000    775.3420      7.2027
   742.7500     70.3259      0.0000    781.7114      7.2124
   743.0000     74.0884      0.0000    790.0543      7.2049
   743.2500     76.2845      0.0000    798.7055      7.1861
   743.5000     76.3172      0.0000    805.9658      7.1561
   743.7500     74.4313      0.0000    810.1659      7.1065
   744.0000     71.9729      0.0000    810.7758      7.0308
   744.2500     70.4878      0.0000    809.0480      6.9386
   744.5000     70.5293      0.0000    807.2966      6.8563
   744.7500     71.4257      0.0000    807.7294      6.8112
   745.0000     72.0113      0.0000    811.9810      6.8143
   745.2500     71.4670      0.0000    821.4814      6.8561
   745.5000     69.5979      0.0000    838.4744      6.9135
   745.7500     66.6066      0.0000    866.5164      6.9605
   746.0000     62.9746      0.0000    907.4434      6.9792
   746.2500     59.7092      0.0000    954.7391      6.9673
   746.5000     58.1901      0.0000    991.3658      6.9338
   746.7500     59.0536      0.0000   1000.0242      6.8914
   747.0000     61.2587      0.0000    978.1747      6.8549
   747.2500     62.7904      0.0000    940.3539      6.8424
   747.5000     62.4603      0.0000    904.9570      6.8721
   747.7500     60.8735      0.0000    881.6319      6.9496
   748.0000     59.6480      0.0000    871.2418      7.0576
   748.2500     59.7851      0.0000    873.0103      7.1583
   748.5000     60.8603      0.0000    887.9964      7.2101
   748.7500     61.9281      0.0000    915.3861      7.1911
   749.0000     63.4229      0.0000    946.2820      7.1140
   749.2500     68.0096      0.0000    963.6187      7.0187
   749.5000     78.8640      0.0000    953.0929      6.9396
   749.7500     96.4699      0.0000    916.1537      6.8791
   750.0000    117.1963      0.0000    869.3342      6.8153
   750.2500    135.4423      0.0000    829.6437      6.7374
   750.5000    147.3443      0.0000    803.0435      6.6688
   750.7500    152.6559      0.0000    786.5287      6.6534
   751.0000    153.7422      0.0000    776.6397      6.7185
   751.2500    153.3458      0.0000    773.2250      6.8463
   751.5000    153.0896      0.0000    776.7612      6.9766
   751.7500    153.3442      0.0000    785.3287      7.0450
   752.0000    153.8926      0.0000    795.3281      7.0289
   752.2500    154.3796      0.0000    804.0199      6.9605
   752.5000    154.2942      0.0000    810.7505      6.8955
   752.7500    153.2264      0.0000    816.3917      6.8693
   753.0000    151.5292      0.0000    821.6787      6.8787
   753.2500    150.3894      0.0000    825.2158      6.8962
   753.5000    150.9482      0.0000    823.3810      6.8981
   753.7500    153.3054      0.0000    813.6932      6.8811
   754.0000    156.1955      0.0000    798.7696      6.8551
   754.2500    157.4206      0.0000    785.9772      6.8270
   754.5000    154.9699      0.0000    782.9087      6.7970
   754.7500    148.4262      0.0000    794.6631      6.7676
   755.0000    139.4748      0.0000    825.3633      6.7491
   755.2500    130.8615      0.0000    878.0822      6.7517
   755.5000    124.7823      0.0000    949.2358      6.7719
   755.7500    121.8773      0.0000   1023.6898      6.7907
   756.0000    121.1856      0.0000   1079.7678      6.7900
   756.2500    121.1110      0.0000   1102.0665      6.7719
   756.5000    120.9356      0.0000   1089.9194      6.7581
   756.7500    121.4752      0.0000   1054.7922      6.7724
   757.0000    124.0319      0.0000   1013.1193      6.8254
   757.2500    128.5647      0.0000    982.6188      6.9127
   757.5000    133.0492      0.0000    979.1467      7.0209
   757.7500    135.1342      0.0000   1008.2305      7.1313
   758.0000    134.5692      0.0000   1057.7839      7.2214
   758.2500    133.3902      0.0000   1102.9233      7.2677
   758.5000    133.5013      0.0000   1119.9933      7.2539
   758.7500    134.9055      0.0000   1097.8839      7.1754
   759.0000    136.8127      0.0000   1041.8511      7.0390
   759.2500    139.4518      0.0000    970.9037      6.8620
   759.5000    143.3951      0.0000    908.0507      6.6735
   759.7500    147.2103      0.0000    866.9338      6.5083
   760.0000    147.1823      0.0000    845.9441      6.3908
   760.2500    140.0745      0.0000    834.7189      6.3208
   760.5000    125.9235      0.0000    824.7944      6.2836
   760.7500    108.1734      0.0000    814.1649      6.2768
   761.0000     91.5202      0.0000    804.8115      6.3148
   761.2500     79.4462      0.0000    798.5776      6.3983
   761.5000     73.0068      0.0000    795.3575      6.4908
   761.7500     71.3012      0.0000    793.5787      6.5392
   762.0000     72.9970      0.0000    791.3770      6.5151
   762.2500     77.4586      0.0000    787.5920      6.4308
   762.5000     84.4955      0.0000    782.5081      6.3224
   762.7500     93.5406      0.0000    777.8364      6.2203
   763.0000    103.6289      0.0000    775.5546      6.1371
   763.2500    113.9927      0.0000    776.4883      6.0771
   763.5000    124.1511      0.0000    779.9953      6.0512
   763.7500    133.3778      0.0000    784.6754      6.0708
   764.0000    140.5219      0.0000    789.1577      6.1245
   764.2500    144.6610      0.0000    792.5743      6.1735
   764.5000    146.1875      0.0000    794.7151      6.1835
   764.7500    147.0663      0.0000    795.8254      6.1595
   765.0000    149.1329      0.0000    796.2511      6.1357
   765.2500    151.9254      0.0000    796.2338      6.1297
   765.5000    153.1353      0.0000    795.8727      6.1226
   765.7500    151.6490      0.0000    795.0972      6.0924
   766.0000    149.2597      0.0000    793.5896      6.0482
   766.2500    148.6427      0.0000    790.7931      6.0178
   766.5000    150.1601      0.0000    786.2802      6.0144
   766.7500    151.4086      0.0000    780.4359      6.0304
   767.0000    149.7879      0.0000    774.6144      6.0526
   767.2500    145.0421      0.0000    770.2147      6.0728
   767.5000    139.3892      0.0000    767.6198      6.0860
   767.7500    135.7463      0.0000    766.1789      6.0886
   768.0000    136.0379      0.0000    764.8499      6.0759
   768.2500    140.5441      0.0000    762.7126      6.0328
   768.5000    147.9636      0.0000    759.6226      5.9295
   768.7500    155.8284      0.0000    756.9213      5.7468
   769.0000    161.4524      0.0000    756.9957      5.5252
   769.2500    163.2605      0.0000    761.4661      5.3676
   769.5000    161.4394      0.0000    769.7338      5.3538
   769.7500    157.1455      0.0000    779.7163      5.4585
   770.0000    151.1421      0.0000    790.1799      5.5912
   770.2500    143.5388      0.0000    802.6665      5.6970
