~Version Information
VERS.                      2.0: CWLS Log ASCII Standard - VERSION 2.0
WRAP.                       NO: One line per depth step
~Well Information Block
STRT.FT                -7.7500: 
STOP.FT              1485.2500: 
STEP.FT                 0.2500: 
NULL.                -999.2500: 
COMP.          Pioneer Natural Resources: COMPANY
WELL.          Hammerhead 24-24 Tr: WELL
FLD.           Purgatorie River: FIELD
LOC.           953' FSL & 1922' FWL--: LOCATION
CNTY.               Las Animas: COUNTY
SRVC.          Patterson Wireline: SERVICE COMPANY
DATE.          Thu Feb 02 15:03:23 2006: LOG DATE
UWI.           05 071 08669 00: UNIQUE WELL ID
STAT.                       CO: STATE
~Curve Information Block
DEPT.FT            0 000 00 00: Depth
CCL.                          : Casing Collar Locator
TT3.usec                      : CBL 3' Travel Time
AMP3.mV                       : CBL 3' Amplitude
GR.GAPI                       : Gamma Ray
~Parameter Information Block
~A  Depth       CCL         TT3         AMP3         GR     
# ...
  1265.2500      0.0000    386.9186      9.2790     88.5870
  1265.5000      0.0000    395.1277      9.2454     88.4082
  1265.7500      0.0000    414.3944      9.1941     89.4207
  1266.0000      0.0000    450.1559      9.1201     93.2329
  1266.2500      0.0000    502.0664      9.0187    100.4986
  1266.5000      0.0000    560.7717      8.8953    109.6407
  1266.7500      0.0000    612.4779      8.7653    118.0393
  1267.0000      0.0000    648.1407      8.6443    124.4046
  1267.2500      0.0000    668.0417      8.5387    129.4755
  1267.5000      0.0000    678.4966      8.4454    134.4824
  1267.7500      0.0000    685.9321      8.3564    139.4047
  1268.0000      0.0000    693.5720      8.2645    142.9885
  1268.2500      0.0000    701.4274      8.1669    144.4145
  1268.5000      0.0000    708.0799      8.0633    144.6208
  1268.7500      0.0000    712.6345      7.9516    145.5505
  1269.0000      0.0000    715.6071      7.8251    148.2102
  1269.2500      0.0000    718.3807      7.6763    152.0544
  1269.5000      0.0000    721.9453      7.5051    156.1247
  1269.7500      0.0000    725.7910      7.3258    159.9012
  1270.0000      0.0000    727.9128      7.1650    162.8997
  1270.2500      0.0000    726.5291      7.0436    164.3530
  1270.5000      0.0000    722.3079      6.9580    163.7205
  1270.7500      0.0000    718.2928      6.8842    161.0381
  1271.0000      0.0000    716.9330      6.8005    156.7411
  1271.2500      0.0000    717.7546      6.7092    151.5024
  1271.5000      0.0000    718.5595      6.6392    145.9830
  1271.7500      0.0000    718.0515      6.6299    140.4185
  1272.0000      0.0000    716.4767      6.7050    134.8353
  1272.2500      0.0000    714.4302      6.8542    129.7211
  1272.5000      0.0000    712.0494      7.0388    125.8032
  1272.7500      0.0000    709.3868      7.2157    123.0390
  1273.0000      0.0000    707.0463      7.3557    120.4010
  1273.2500      0.0000    705.9985      7.4442    116.7538
  1273.5000      0.0000    706.6088      7.4741    111.6327
  1273.7500      0.0000    708.1764      7.4454    105.3808
  1274.0000      0.0000    709.8146      7.3735     98.9544
  1274.2500      0.0000    711.4933      7.2922     93.5623
  1274.5000      0.0000    713.7463      7.2412     90.0716
  1274.7500      0.0000    716.5165      7.2409     88.4987
  1275.0000      0.0000    718.9155      7.2777     88.1747
  1275.2500      0.0000    720.2655      7.3159     88.5100
  1275.5000      0.0000    721.0435      7.3268     89.2914
  1275.7500      0.0000    722.5840      7.3073     90.0762
  1276.0000      0.0000    725.8275      7.2729     89.7981
  1276.2500      0.0000    730.3002      7.2381     87.4765
  1276.5000      0.0000    734.3084      7.2039     83.2876
  1276.7500      0.0000    736.2562      7.1593     78.7014
  1277.0000      0.0000    736.0667      7.0899     75.5304
  1277.2500      0.0000    735.3528      6.9879     74.7676
  1277.5000      0.0000    735.7884      6.8586     76.1558
  1277.7500      0.0000    737.0417      6.7212     78.6881
  1278.0000      0.0000    736.4735      6.6020     81.5125
  1278.2500      0.0000    731.1442      6.5244     84.5573
  1278.5000      0.0000    720.3961      6.4997     88.3615
  1278.7500      0.0000    706.7093      6.5243     93.1363
  1279.0000      0.0000    694.1432      6.5816     98.0730
  1279.2500      0.0000    685.9391      6.6516    101.8832
  1279.5000      0.0000    683.6174      6.7201    103.8949
  1279.7500      0.0000    687.6997      6.7808    104.3546
  1280.0000      0.0000    697.9402      6.8306    103.7474
  1280.2500      0.0000    712.1044      6.8653    102.0777
  1280.5000      0.0000    725.3090      6.8801     98.9486
  1280.7500      0.0000    732.0231      6.8739     94.4501
  1281.0000      0.0000    729.4110      6.8523     90.0137
  1281.2500      0.0000    718.8945      6.8273     87.9495
  1281.5000      0.0000    704.8978      6.8139     89.6265
  1281.7500      0.0000    692.1498      6.8235     94.3877
  1282.0000      0.0000    683.4839      6.8580    100.7410
  1282.2500      0.0000    679.4182      6.9085    108.1083
  1282.5000      0.0000    679.2415      6.9598    116.6586
  1282.7500      0.0000    681.9800      6.9989    125.7745
  1283.0000      0.0000    686.3744      7.0222    133.6320
  1283.2500      0.0000    690.8616      7.0353    138.6524
  1283.5000      0.0000    694.6254      7.0460    141.0617
  1283.7500      0.0000    698.5080      7.0558    142.6872
  1284.0000      0.0000    703.7361      7.0546    145.2100
  1284.2500      0.0000    709.3364      7.0271    148.8318
  1284.5000      0.0000    711.7961      6.9627    152.3178
  1284.7500      0.0000    708.1932      6.8613    153.8404
  1285.0000      0.0000    699.2997      6.7326    152.0369
  1285.2500      0.0000    688.9707      6.5934    146.8458
  1285.5000      0.0000    680.8246      6.4645    139.4935
  1285.7500      0.0000    676.0644      6.3648    131.8965
  1286.0000      0.0000    674.0538      6.3048    126.3501
  1286.2500      0.0000    674.0547      6.2816    125.1731
  1286.5000      0.0000    676.2933      6.2777    129.4811
  1286.7500      0.0000    681.6799      6.2649    137.9803
  1287.0000      0.0000    690.2413      6.2174    147.3678
  1287.2500      0.0000    699.4904      6.1358    154.0332
  1287.5000      0.0000    705.2693      6.0557    155.3073
  1287.7500      0.0000    705.7589      6.0146    149.8767
  1288.0000      0.0000    704.7138      5.9944    138.3865
  1288.2500      0.0000    709.3302      5.9219    123.7880
  1288.5000      0.0000    723.8800      5.7466    109.8528
  1288.7500      0.0000    745.3589      5.5007     98.7226
  1289.0000      0.0000    765.4410      5.2644     90.1539
  1289.2500      0.0000    776.7550      5.0924     83.0397
  1289.5000      0.0000    777.6186      4.9920     77.0210
  1289.7500      2.0000    771.7911      4.9531     72.5220
  1290.0000      0.0000    764.8356      4.9825     70.0181
  1290.2500      0.0000    760.4247      5.1079     69.9972
  1290.5000      0.0000    758.5356      5.3313     73.3348
  1290.7500      0.0000    756.0854      5.5737     80.6715
  1291.0000      0.0000    749.6967      5.7093     90.8841
  1291.2500      0.0000    738.6844      5.6974    100.6619
  1291.5000      0.0000    725.5176      5.6417    106.4305
  1291.7500      0.0000    713.4631      5.6815    107.0451
  1292.0000      0.0000    704.2748      5.8634    104.5208
  1292.2500      0.0000    698.1175      6.1410    102.2234
  1292.5000      0.0000    694.9179      6.4474    102.5070
  1292.7500      0.0000    694.8492      6.7342    105.6784
  1293.0000      0.0000    697.1011      6.9771    110.4680
  1293.2500      0.0000    698.8530      7.1791    115.2192
  1293.5000      0.0000    696.9316      7.3656    118.9212
  1293.7500      0.0000    691.5267      7.5620    121.6046
  1294.0000      0.0000    687.7262      7.7725    123.9960
  1294.2500      0.0000    691.8075      7.9756    126.6113
  1294.5000      0.0000    705.0647      8.1367    128.9263
  1294.7500      0.0000    721.6511      8.2281    129.6082
  1295.0000      0.0000    732.9894      8.2439    127.8465
  1295.2500      0.0000    734.1038      8.2002    124.2501
  1295.5000      0.0000    726.0981      8.1249    120.2662
  1295.7500      0.0000    714.2137      8.0495    117.0331
  1296.0000      0.0000    704.2961      8.0061    114.8896
  1296.2500      0.0000    699.8989      8.0187    113.5960
  1296.5000      0.0000    700.9193      8.0894    112.8103
  1296.7500      0.0000    703.7839      8.1927    112.3767
  1297.0000      0.0000    702.4931      8.2896    112.1694
  1297.2500      0.0000    690.1080      8.3539    111.7151
  1297.5000      0.0000    661.4839      8.3844    110.1160
  1297.7500      0.0000    617.3898      8.3941    106.4919
  1298.0000      0.0000    566.4401      8.3934    100.7079
  1298.2500      0.0000    520.8710      8.3866     93.7543
  1298.5000      0.0000    489.2486      8.3796     87.1850
