~Version Information
VERS.                      2.0: CWLS Log ASCII Standard - VERSION 2.0
WRAP.                       NO: One line per depth step
~Well Information Block
STRT.FT                -7.0000: 
STOP.FT              2517.5000: 
STEP.FT                 0.2500: 
NULL.                -999.2500: 
COMP.          Pioneer Natural Resources: COMPANY
WELL.          Horsefeathers 24-34: WELL
FLD.           Purgatoire River: FIELD
LOC.           183' FSL & 1570' FWL: LOCATION
CNTY.               Las Animas: COUNTY
SRVC.                         : SERVICE COMPANY
DATE.          Fri Mar 17 10:06:37 2006: LOG DATE
UWI.           05 071 08675 00: UNIQUE WELL ID
STAT.                       CO: STATE
~Curve Information Block
DEPT.FT            0 000 00 00: Depth
GR.GAPI                       : Gamma Ray
CCL.                          : Casing Collar Locator
TT3.usec                      : CBL 3' Travel Time
AMP3.mV                       : CBL 3' Amplitude
~Parameter Information Block
~A  Depth        GR         CCL         TT3         AMP3    
# ...
   998.0000    116.1133      0.0000    432.7615      5.7085
   998.2500    115.3883      0.0000    436.2116      5.6826
   998.5000    113.5224      0.0000    443.6180      5.6595
   998.7500    111.1569      0.0000    452.3611      5.6381
   999.0000    108.9634      0.0000    460.5314      5.6145
   999.2500    107.2300      0.0000    467.9107      5.5869
   999.5000    105.8948      0.0000    477.0614      5.5570
   999.7500    104.8581      0.0000    493.0319      5.5225
  1000.0000    104.3850      0.0000    520.6037      5.4733
  1000.2500    105.0478      0.0000    559.9663      5.4014
  1000.5000    107.0032      0.0000    604.8171      5.3182
  1000.7500    109.5845      0.0000    646.0284      5.2554
  1001.0000    111.7971      0.0000    677.6908      5.2472
  1001.2500    112.9160      0.0000    699.4271      5.3122
  1001.5000    112.6037      0.0000    714.1392      5.4511
  1001.7500    110.9635      0.0000    724.6907      5.6476
  1002.0000    108.5966      0.0000    731.6559      5.8694
  1002.2500    106.2744      0.0000    733.0741      6.0770
  1002.5000    104.5510      0.0000    727.0905      6.2430
  1002.7500    103.8690      0.0000    715.3563      6.3610
  1003.0000    104.6710      0.0000    703.0181      6.4362
  1003.2500    107.0335      0.0000    694.7377      6.4754
  1003.5000    110.4075      0.0000    690.7908      6.4879
  1003.7500    114.1040      0.0000    687.0488      6.4879
  1004.0000    117.8710      0.0000    678.5487      6.4847
  1004.2500    121.5801      0.0000    662.6511      6.4739
  1004.5000    124.5080      0.0000    638.6664      6.4448
  1004.7500    125.6465      0.0000    606.6506      6.3947
  1005.0000    124.9695      0.0000    569.2178      6.3308
  1005.2500    123.6907      0.0000    532.9167      6.2603
  1005.5000    122.9204      0.0000    504.4562      6.1840
  1005.7500    122.6797      0.0000    485.7127      6.0984
  1006.0000    122.4825      0.0000    473.9996      6.0004
  1006.2500    122.2276      0.0000    466.5110      5.8878
  1006.5000    122.1010      0.0000    463.4352      5.7547
  1006.7500    121.8737      0.0000    467.3515      5.5929
  1007.0000    120.7054      0.0000    480.6995      5.4168
  1007.2500    117.8005      0.0000    503.5518      5.2876
  1007.5000    113.2141      0.0000    532.5139      5.2844
  1007.7500    107.9691      0.0000    561.8432      5.4233
  1008.0000    103.3341      0.0000    587.4028      5.6294
  1008.2500     99.8875      0.0000    610.1015      5.8155
  1008.5000     97.2402      0.0000    633.3357      5.9635
  1008.7500     94.8773      0.0000    655.9376      6.1003
  1009.0000     93.3307      0.0000    669.5273      6.2279
  1009.2500     94.2117     -2.0000    664.9018      6.3137
  1009.5000     98.8201      0.0000    641.1630      6.3328
  1009.7500    106.6786      0.0000    608.3798      6.2991
  1010.0000    115.5055      0.0000    581.1613      6.2587
  1010.2500    122.7713      0.0000    568.4959      6.2437
  1010.5000    127.5036      0.0000    568.1538      6.2188
  1010.7500    130.4786      0.0000    571.1517      6.1006
  1011.0000    132.4465      0.0000    572.8833      5.8699
  1011.2500    132.5066      0.0000    578.6494      5.6294
  1011.5000    128.9749      0.0000    596.4152      5.5042
  1011.7500    121.9900      0.0000    626.2769      5.5146
  1012.0000    114.5501      0.0000    659.9037      5.5824
  1012.2500    110.3284      0.0000    688.6902      5.6253
  1012.5000    110.5329      0.0000    709.6011      5.6194
  1012.7500    113.0718      0.0000    724.3715      5.6013
  1013.0000    114.5208      0.0000    736.0346      5.6378
  1013.2500    112.6950      0.0000    746.4047      5.7824
  1013.5000    107.5629      0.0000    755.0966      6.0389
  1013.7500    100.3239      0.0000    760.0656      6.3588
  1014.0000     92.2414      0.0000    759.0314      6.6730
  1014.2500     84.4339      0.0000    750.7751      6.9275
  1014.5000     78.2643      0.0000    736.1024      7.0987
  1014.7500     75.4286      0.0000    718.5486      7.1826
  1015.0000     77.4996      0.0000    703.6606      7.1769
  1015.2500     85.0835      0.0000    696.4492      7.0762
  1015.5000     96.9661      0.0000    698.8149      6.8871
  1015.7500    110.0400      0.0000    708.6688      6.6449
  1016.0000    120.6396      0.0000    720.8074      6.4067
  1016.2500    126.7259      0.0000    729.2254      6.2230
  1016.5000    129.2027      0.0000    730.1870      6.1120
  1016.7500    130.9677      0.0000    724.3378      6.0623
  1017.0000    134.3322      0.0000    716.0837      6.0501
  1017.2500    139.1269      0.0000    710.3013      6.0516
  1017.5000    143.1068      0.0000    709.0012      6.0456
  1017.7500    143.9422      0.0000    710.6731      6.0200
  1018.0000    140.8817      0.0000    712.1823      5.9805
  1018.2500    135.0346      0.0000    710.4849      5.9475
  1018.5000    128.5047      0.0000    703.2352      5.9406
  1018.7500    123.2469      0.0000    690.0193      5.9664
  1019.0000    120.3911      0.0000    674.3246      6.0175
  1019.2500    120.2157      0.0000    662.4346      6.0779
  1019.5000    122.4450      0.0000    657.6807      6.1299
  1019.7500    126.4703      0.0000    655.7230      6.1629
  1020.0000    131.2583      0.0000    646.7357      6.1784
  1020.2500    135.2840      0.0000    622.4524      6.1822
  1020.5000    137.1075      0.0000    581.9819      6.1731
  1020.7500    136.3130      0.0000    532.5975      6.1426
  1021.0000    133.6237      0.0000    485.0509      6.0857
  1021.2500    129.9914      0.0000    447.0760      6.0060
  1021.5000    125.9633      0.0000    420.6393      5.9165
  1021.7500    121.9410      0.0000    403.8370      5.8393
  1022.0000    118.4591      0.0000    393.5806      5.7997
  1022.2500    116.0432      0.0000    386.6425      5.8088
  1022.5000    114.9647      0.0000    380.2669      5.8532
  1022.7500    114.9225      0.0000    373.1850      5.9051
  1023.0000    114.9946      0.0000    365.9769      5.9420
  1023.2500    114.4552      0.0000    360.0036      5.9566
  1023.5000    113.7057      0.0000    356.0474      5.9581
  1023.7500    113.9870      0.0000    353.9615      5.9653
  1024.0000    116.1673      0.0000    353.2083      5.9937
  1024.2500    120.1588      0.0000    353.3780      6.0426
  1024.5000    125.3083      0.0000    354.2985      6.0955
  1024.7500    130.7520      0.0000    355.9220      6.1365
  1025.0000    135.3067      0.0000    358.2248      6.1658
  1025.2500    137.7057      0.0000    361.1755      6.1950
  1025.5000    137.5262      0.0000    364.7667      6.2280
  1025.7500    135.6662      0.0000    368.9851      6.2529
  1026.0000    133.4222      0.0000    373.5848      6.2549
  1026.2500    131.1947      0.0000    377.8211      6.2317
  1026.5000    128.5439      0.0000    380.7150      6.1942
  1026.7500    125.4623      0.0000    381.9768      6.1542
  1027.0000    123.0019      0.0000    382.6827      6.1163
  1027.2500    122.3161      0.0000    384.7978      6.0806
  1027.5000    123.4365      0.0000    389.8455      6.0440
  1027.7500    125.4654      0.0000    397.7672      5.9961
  1028.0000    127.7180      0.0000    406.8257      5.9228
  1028.2500    129.9667      0.0000    414.7165      5.8185
  1028.5000    131.6131      0.0000    420.1336      5.6926
  1028.7500    131.5054      0.0000    423.5782      5.5626
  1029.0000    129.0059      0.0000    427.1750      5.4448
  1029.2500    124.8761      0.0000    433.7869      5.3505
  1029.5000    120.7868      0.0000    445.3532      5.2846
  1029.7500    118.0007      0.0000    460.6236      5.2466
  1030.0000    116.5125      0.0000    474.2175      5.2340
  1030.2500    115.3946      0.0000    479.0997      5.2433
  1030.5000    114.0978      0.0000    471.4537      5.2663
  1030.7500    113.3524      0.0000    453.8325      5.2929
  1031.0000    114.4187      0.0000    433.5260      5.3209
  1031.2500    117.3949      0.0000    417.7479      5.3583
