~Version Information
VERS.                      2.0: CWLS Log ASCII Standard - VERSION 2.0
WRAP.                       NO: One line per depth step
~Well Information Block
STRT.FT               660.0000: 
STOP.FT              2488.5000: 
STEP.FT                 0.1000: 
NULL.                -999.2500: 
COMP.          Petrogulf Corporation: COMPANY
WELL.          Montoya 18-11V-B: WELL
FLD.           Purgatorie River: FIELD
LOC.           848' FNL & 619' FWL: LOCATION
PROV.                 Colorado: PROVINCE
CNTY.               Las Animas: COUNTRY
SRVC.                Patterson: SERVICE COMPANY
DATE.          Wed Oct 05 07:28:13 2005: LOG DATE
UWI.                          : UNIQUE WELL ID
~Curve Information Block
DEPT.FT            0 000 00 00: Depth
DCAL.in                       : CDL Caliper
RHOB.g/cc                     : CDL Bulk Density
RHOC.g/cc                     : CDL Density Correction
DPOR.pu                       : CDL Density Porosity
GR.GAPI                       : Gamma Ray
NPOR.pu                       : Neutron Porosity
~Parameter Information Block
~A  Depth       DCAL        RHOB        RHOC        DPOR         GR         NPOR    
# ...
  2474.4000      7.6948      2.5533      0.1704      5.8579     96.1962   -999.2500
  2474.5000      7.5813      2.5626      0.1954      5.2974    100.4689   -999.2500
  2474.6000      7.5813      2.5578      0.1973      5.5874    100.9458   -999.2500
  2474.7000      7.5813      2.5453      0.1365      6.3475     98.8356   -999.2500
  2474.8000      7.5768      2.5436      0.1374      6.4479     97.0391   -999.2500
  2474.9000      7.5768      2.5581      0.1537      5.5722     96.2208   -999.2500
  2475.0000      7.5892      2.5748      0.1914      4.5583     89.6749   -999.2500
  2475.1000      7.5892      2.5782      0.1327      4.3522     68.0830   -999.2500
  2475.2000      7.5892      2.5690      0.1211      4.9117     35.9023   -999.2500
  2475.3000      7.5738      2.5540      0.1544      5.8158     11.6367   -999.2500
  2475.4000      7.5738      2.5359      0.1341      6.9136      2.1548   -999.2500
  2475.5000      7.5669      2.5209      0.1189      7.8265      0.2190   -999.2500
  2475.6000      7.5669      2.5138      0.0776      8.2526      0.0117   -999.2500
  2475.7000      7.5669      2.5123      0.0831      8.3473      0.0000   -999.2500
  2475.8000      7.5694      2.5161      0.0749      8.1165   -999.2500   -999.2500
  2475.9000      7.5694      2.5314      0.0652      7.1901   -999.2500   -999.2500
  2476.0000      7.5584      2.5575      0.1041      5.6064   -999.2500   -999.2500
  2476.1000      7.5584      2.5774      0.1553      4.4026   -999.2500   -999.2500
  2476.2000      7.5584      2.5753      0.1295      4.5303   -999.2500   -999.2500
  2476.3000      7.5317      2.5569      0.1335      5.6437   -999.2500   -999.2500
  2476.4000      7.5317      2.5390      0.0918      6.7274   -999.2500   -999.2500
  2476.5000      7.5757      2.5242      0.0947      7.6254   -999.2500   -999.2500
  2476.6000      7.5757      2.5076      0.0569      8.6290   -999.2500   -999.2500
  2476.7000      7.5757      2.4973      0.0649      9.2521   -999.2500   -999.2500
  2476.8000      7.5881      2.4912      0.0998      9.6232   -999.2500   -999.2500
  2476.9000      7.5881      2.4790      0.0953     10.3615   -999.2500   -999.2500
  2477.0000      7.5969      2.4702      0.0654     10.8998   -999.2500   -999.2500
  2477.1000      7.5969      2.4738      0.1172     10.6767   -999.2500   -999.2500
  2477.2000      7.5969      2.4836      0.0908     10.0822   -999.2500   -999.2500
  2477.3000      7.6155      2.4961      0.1023      9.3254   -999.2500   -999.2500
  2477.4000      7.6155      2.5082      0.1240      8.5923   -999.2500   -999.2500
  2477.5000      7.6507      2.5125      0.1059      8.3314   -999.2500   -999.2500
  2477.6000      7.6507      2.5141      0.0674      8.2361   -999.2500   -999.2500
  2477.7000      7.6507      2.5254      0.0941      7.5489   -999.2500   -999.2500
  2477.8000      7.6692      2.5468      0.1000      6.2570   -999.2500   -999.2500
  2477.9000      7.6692      2.5652      0.1287      5.1417   -999.2500   -999.2500
  2478.0000      7.7083      2.5679      0.1429      4.9729   -999.2500   -999.2500
  2478.1000      7.7083      2.5570      0.1297      5.6381   -999.2500   -999.2500
  2478.2000      7.7083      2.5469      0.0872      6.2485   -999.2500   -999.2500
  2478.3000      7.7269      2.5459      0.1110      6.3088   -999.2500   -999.2500
  2478.4000      7.7269      2.5386      0.1535      6.7510   -999.2500   -999.2500
  2478.5000      7.7483      2.5142      0.0735      8.2311   -999.2500   -999.2500
  2478.6000      7.7483      2.4980      0.0131      9.2143   -999.2500   -999.2500
  2478.7000      7.7483      2.5113      0.0578      8.4090   -999.2500   -999.2500
  2478.8000      7.7688      2.5319      0.0863      7.1592   -999.2500   -999.2500
  2478.9000      7.7688      2.5333      0.0642      7.0697   -999.2500   -999.2500
  2479.0000      7.7820      2.5261      0.0288      7.5074   -999.2500   -999.2500
  2479.1000      7.7820      2.5302      0.0734      7.2590   -999.2500   -999.2500
  2479.2000      7.7820      2.5388      0.0960      6.7403   -999.2500   -999.2500
  2479.3000      7.7787      2.5401      0.0916      6.6609   -999.2500   -999.2500
  2479.4000      7.7787      2.5367      0.0710      6.8669   -999.2500   -999.2500
  2479.5000      7.7658      2.5292      0.0603      7.3229   -999.2500   -999.2500
  2479.6000      7.7658      2.5168      0.0748      8.0752   -999.2500   -999.2500
  2479.7000      7.7658      2.5096      0.0290      8.5108   -999.2500   -999.2500
  2479.8000      7.7618      2.5136      0.0752      8.2684   -999.2500   -999.2500
  2479.9000      7.7618      2.5143      0.0707      8.2269   -999.2500   -999.2500
  2480.0000      7.7508      2.4986      0.0608      9.1782   -999.2500   -999.2500
  2480.1000      7.7508      2.4725      0.0166     10.7594   -999.2500   -999.2500
  2480.2000      7.7508      2.4559      0.0223     11.7633   -999.2500   -999.2500
  2480.3000      7.7390      2.4654      0.0153     11.1876   -999.2500   -999.2500
  2480.4000      7.7390      2.4947      0.0872      9.4098   -999.2500   -999.2500
  2480.5000      7.7466      2.5226      0.0899      7.7206   -999.2500   -999.2500
  2480.6000      7.7466      2.5430      0.0912      6.4871   -999.2500   -999.2500
  2480.7000      7.7466      2.5543      0.1570      5.8011   -999.2500   -999.2500
  2480.8000      7.7710      2.5496      0.1311      6.0827   -999.2500   -999.2500
  2480.9000      7.7710      2.5368      0.1374      6.8631   -999.2500   -999.2500
  2481.0000      7.7832      2.5217      0.1277      7.7754   -999.2500   -999.2500
  2481.1000      7.7832      2.5008      0.1276      9.0400   -999.2500   -999.2500
  2481.2000      7.7832      2.4866      0.0516      9.9011   -999.2500   -999.2500
  2481.3000      7.7573      2.5041      0.0664      8.8452   -999.2500   -999.2500
  2481.4000      7.7573      2.5488      0.1420      6.1351   -999.2500   -999.2500
  2481.5000      7.7787      2.5856      0.1499      3.9059   -999.2500   -999.2500
  2481.6000      7.7787      2.5917      0.1159      3.5358   -999.2500   -999.2500
  2481.7000      7.7787      2.5760      0.0820      4.4828   -999.2500   -999.2500
  2481.8000      7.7851      2.5623      0.0728      5.3137   -999.2500   -999.2500
  2481.9000      7.7851      2.5606      0.1106      5.4177   -999.2500   -999.2500
  2482.0000      7.7689      2.5640      0.0888      5.2130   -999.2500   -999.2500
  2482.1000      7.7689      2.5684      0.0689      4.9463   -999.2500   -999.2500
  2482.2000      7.7689      2.5770      0.0287      4.4269   -999.2500   -999.2500
  2482.3000      7.7580      2.5935      0.0367      3.4248   -999.2500   -999.2500
  2482.4000      7.7580      2.6097      0.1002      2.4428   -999.2500   -999.2500
  2482.5000      7.7699      2.6109      0.0902      2.3712   -999.2500   -999.2500
  2482.6000      7.7699      2.5998      0.0668      3.0405   -999.2500   -999.2500
  2482.7000      7.7699      2.5900      0.1074      3.6353   -999.2500   -999.2500
  2482.8000      7.7848      2.5835      0.0860      4.0317   -999.2500   -999.2500
  2482.9000      7.7848      2.5728      0.0890      4.6759   -999.2500   -999.2500
  2483.0000      7.7777      2.5536      0.1050      5.8394   -999.2500   -999.2500
  2483.1000      7.7777      2.5340      0.0428      7.0326   -999.2500   -999.2500
  2483.2000      7.7777      2.5278      0.0685      7.4045   -999.2500   -999.2500
  2483.3000      7.7689      2.5562      0.0629      5.6877   -999.2500   -999.2500
  2483.4000      7.7689      2.6522      0.0809     -0.1312   -999.2500   -999.2500
  2483.5000      7.7550      2.6928      0.1100     -2.5925   -999.2500   -999.2500
  2483.6000      7.7550      2.2549      0.5170     23.9446   -999.2500   -999.2500
  2483.7000      7.7550      1.2797      0.0000     83.0514   -999.2500   -999.2500
  2483.8000      7.2112      0.4336      0.0000    134.3284   -999.2500   -999.2500
  2483.9000      7.2112      0.0823   -999.2500    155.6190   -999.2500   -999.2500
