~Version Information
VERS.                      2.0: CWLS Log ASCII Standard - VERSION 2.0
WRAP.                       NO: One line per depth step
~Well Information Block
STRT.FT                -7.0000: 
STOP.FT              2517.5000: 
STEP.FT                 0.2500: 
NULL.                -999.2500: 
COMP.          Pioneer Natural Resources: COMPANY
WELL.          Horsefeathers 24-34: WELL
FLD.           Purgatoire River: FIELD
LOC.           183' FSL & 1570' FWL: LOCATION
CNTY.               Las Animas: COUNTY
SRVC.                         : SERVICE COMPANY
DATE.          Fri Mar 17 10:06:37 2006: LOG DATE
UWI.           05 071 08675 00: UNIQUE WELL ID
STAT.                       CO: STATE
~Curve Information Block
DEPT.FT            0 000 00 00: Depth
GR.GAPI                       : Gamma Ray
CCL.                          : Casing Collar Locator
TT3.usec                      : CBL 3' Travel Time
AMP3.mV                       : CBL 3' Amplitude
~Parameter Information Block
~A  Depth        GR         CCL         TT3         AMP3    
# ...
  2472.0000    142.3505      0.0000    303.1903     38.2294
  2472.2500    144.1691      0.0000    302.9879     38.7449
  2472.5000    143.0294      0.0000    302.9128     39.1703
  2472.7500    139.3764      0.0000    302.9839     39.5977
  2473.0000    134.9020      0.0000    303.1330     40.0928
  2473.2500    131.4402      0.0000    303.2722     40.6151
  2473.5000    129.8627      0.0000    303.4674     40.9475
  2473.7500    130.0982      0.0000    304.3901     40.7764
  2474.0000    131.4487      0.0000    308.2628     39.8707
  2474.2500    132.5634      0.0000    320.3547     38.1530
  2474.5000    131.8158      0.0000    349.5614     35.6343
  2474.7500    128.3439      0.0000    405.0733     32.3808
  2475.0000    122.5964      0.0000    488.8192     28.5696
  2475.2500    115.7262      0.0000    590.1187     24.5045
  2475.5000    108.7354      0.0000    689.2916     20.5212
  2475.7500    102.2614      0.0000    767.1943     16.8782
  2476.0000     96.6982      0.0000    812.4879     13.7316
  2476.2500     92.0719      0.0000    824.7342     11.1611
  2476.5000     87.9994      0.0000    814.4656      9.1819
  2476.7500     84.1190      0.0000    797.8694      7.7429
  2477.0000     80.4840      0.0000    787.0360      6.7465
  2477.2500     77.3431      0.0000    783.8846      6.0831
  2477.5000     74.7267      0.0000    782.8079      5.6576
  2477.7500     72.5187      0.0000    777.8998      5.3986
  2478.0000     70.8159      0.0000    767.7078      5.2558
  2478.2500     69.9413      0.0000    754.8357      5.1949
  2478.5000     70.0434      0.0000    742.7795      5.1967
  2478.7500     70.8506      0.0000    733.5709      5.2613
  2479.0000     71.9567      0.0000    727.6110      5.3979
  2479.2500     73.4225      0.0000    724.8176      5.6015
  2479.5000     75.8892      0.0000    725.6583      5.8352
  2479.7500     79.7166      0.0000    730.8099      6.0332
  2480.0000     83.9945      0.0000    739.5439      6.1295
  2480.2500     86.8999      0.0000    748.7714      6.1045
  2480.5000     87.3813      0.0000    754.1321      6.0148
  2480.7500     86.1883      0.0000    752.1207      5.9745
  2481.0000     84.9548      0.0000    741.6447      6.1142
  2481.2500     84.4939      1.8997    724.2103      6.5541
  2481.5000     84.1742     -2.0000    702.5247      7.3873
  2481.7500     82.7573      0.0000    678.4742      8.6647
  2482.0000     79.8468      0.0000    651.9780     10.4237
  2482.2500     76.6469      0.0000    621.3932     12.7511
  2482.5000     75.1169      0.0000    585.6619     15.7334
  2482.7500     76.2820      0.0000    546.9911     19.2234
  2483.0000     79.4840      0.0000    510.5969     22.6566
  2483.2500     83.0234      0.0000    480.9873     25.2417
  2483.5000     85.2290      0.0000    460.0753     26.4183
  2483.7500     85.3269      0.0000    448.2550     26.1456
  2484.0000     83.7012      0.0000    444.6718     24.7658
  2484.2500     81.1489      0.0000    447.2457     22.6064
  2484.5000     77.8675      0.0000    454.8414     19.7800
  2484.7500     73.4785      0.0000    469.5406     16.4445
  2485.0000     67.9362      0.0000    496.0394     13.1142
  2485.2500     61.9642     -1.5790    538.0456     10.4233
  2485.5000     56.5231      0.0000    593.6650      8.5707
  2485.7500     52.0862     -2.0000    653.2881      7.2435
  2486.0000     48.5402      2.0000    703.1141      6.1428
  2486.2500     45.5721      2.0000    732.4769      5.3853
  2486.5000     42.9264      0.0000    737.9447      5.3184
  2486.7500     40.4308      0.0000    721.4302      6.0733
  2487.0000     38.1554      1.5720    686.9979      7.4244
  2487.2500     36.5918      1.6348    639.4415      9.1393
  2487.5000     36.3219      0.0000    583.2233     11.4500
  2487.7500     37.3358      0.0000    522.1704     15.0524
  2488.0000     38.8819      0.0000    461.1684     20.4854
  2488.2500     40.1279      0.0000    406.2476     27.4953
  2488.5000     40.8318      0.0000    361.1999     35.0907
  2488.7500     41.2917      0.0000    325.9525     42.2124
  2489.0000     41.8693      0.0000    299.1812     48.3159
  2489.2500     42.7455      0.0000    280.4521     53.4240
  2489.5000     44.0226      0.0000    269.2291     57.8086
  2489.7500     45.9045      0.0000    263.7086     61.6472
  2490.0000     48.7814      0.0000    261.4803     64.8497
  2490.2500     52.9381      0.0000    260.7099     67.1291
  2490.5000     57.8955      0.0000    260.4680     68.2317
  2490.7500     62.1398      0.0000    260.4333     68.1479
  2491.0000     63.9266      0.0000    260.5144     67.2320
  2491.2500     62.5199      0.0000    260.6480     66.2049
  2491.5000     58.6363      0.0000    260.7795     65.8765
  2491.7500     53.8938      0.0000    261.0300     66.5705
  2492.0000     50.0758      0.0000    261.9710     67.7472
  2492.2500     48.7894      0.0000    264.8147     68.2793
  2492.5000     51.2137      0.0000    270.9420     67.2082
  2492.7500     57.4531      0.0000    280.3077     64.4263
  2493.0000     65.9614      0.0000    289.9114     60.8439
  2493.2500     74.1471      0.0000    295.0322     57.7958
  2493.5000     80.1026      0.0000    293.3517     56.0207
  2493.7500     83.7322      0.0000    287.3503     55.2398
  2494.0000     86.0515      0.0000    281.6139     54.8582
  2494.2500     87.7292      0.0000    278.3989     54.8903
  2494.5000     88.6740      2.0000    276.6693     55.9021
  2494.7500     88.6669     -2.0000    274.6310     58.1164
  2495.0000     87.7219     -1.9083    271.9109     60.9243
  2495.2500     85.8221      0.0000    269.3124     63.4333
  2495.5000     82.9410      0.0000    267.4800     65.3006
  2495.7500     79.5690      0.0000    266.3305     66.8772
  2496.0000     76.7932      0.0000    265.3928     68.6420
  2496.2500     75.4931      0.0000    264.3205     70.6353
  2496.5000     75.6199      0.0000    263.0891     72.4703
  2496.7500     76.4738      0.0000    261.9095     73.7830
  2497.0000     77.5508      0.0000    261.0111     74.5251
  2497.2500     78.8738      0.0000    260.4728     74.8498
  2497.5000     80.5163      0.0000    260.2241     74.8863
  2497.7500     82.0763      0.0000    260.1431     74.6826
  2498.0000     82.9392      0.0000    260.1372     74.2723
  2498.2500     83.0972      0.0000    260.1582     73.7273
  2498.5000     83.4395      0.0000    260.1838     73.1489
  2498.7500     84.8938      0.0000    260.2026     72.6315
  2499.0000     87.1690      0.0000    260.2082     72.2337
  2499.2500     88.5068      0.0000    260.1979     71.9663
  2499.5000     86.9289      0.0000    260.1750     71.7862
  2499.7500     81.9154      0.0000    260.1490     71.6042
  2500.0000     75.0300      0.0000    260.1318     71.3191
  2500.2500     68.9365      0.0000    260.1311     70.8561
  2500.5000     65.5172      0.0000    260.1493     70.1876
  2500.7500     64.6030      0.0000    260.1900     69.3357
  2501.0000     64.5381      0.0000    260.2655     68.3640
  2501.2500     64.1197      0.0000    260.3908     67.3626
  2501.5000     63.8270      0.0000    260.5580     66.4284
  2501.7500     64.8892      0.0000    260.7097     65.6452
  2502.0000     67.3825      0.0000    260.7437     65.0613
  2502.2500     69.6761      0.0000    260.5427     64.6646
  2502.5000     69.7300      0.0000    259.7892     64.3272
  2502.7500     66.8034      0.0000    257.3348     63.6798
  2503.0000     62.1239      0.0000    250.1987     61.9101
  2503.2500     58.0486      0.0000    233.3011     57.7220
  2503.5000     56.3509      0.0000    201.8123     49.9149
  2503.7500     57.0627      0.0000    156.0160     38.5703
  2504.0000     58.8535      0.0000    104.1248     25.7296
  2504.2500     60.3581      0.0000     58.3307     14.4078
  2504.5000     61.0505      0.0000     26.8569      6.6315
  2504.7500     61.1248      0.0000     10.0101      2.4711
  2505.0000     60.9584      0.0000      2.9873      0.7373
  2505.2500     60.8331      0.0000      0.7074      0.1746
