~Version Information
 VERS.                                  2.0 : CWLS LAS VERSION
 WRAP.                                   NO : WRAPING MODE
 SWARE .                 MController 2.5.0E : SOFTWARE VERSION
~Well Information
 WELL.                      Black Cat 13-23 : WELL
 COMP.     Pioneer Natural Resources USA Inc: COMPANY
 FLD.                      Purgatorie River : FIELD
 LOC.                 NW/SW Sec32 T32S R67W : LOCATION
 DATE.                           7/30-31/05 : DATE(S) LOGGED
 SRVC.       Blanco Geological Services LLC : SERVICE COMPANY
 STAT.                                   CO : STATE
 CNTY.                           Las Animas : COUNTY
 CTRY.                                  USA : COUNTRY
 API.                       05-071-08450-00 : API NUMBER
 STRT.FT                             327.00 : START DEPTH
 STOP.FT                            2850.00 : STOP DEPTH
 STEP.FT                               1.00 : DEPTH INCREMENT
 NULL.                                -9999 : NULL VALUE
~Curve information
 DEPTH.FT                                   :
 ROP.MIN/FT                                 :
 GAS.UNITS                                  :
~ASCII Log data
# ...
      1327.0         0.33         15.2 
      1328.0         0.33         15.0 
      1329.0         0.40         16.8 
      1330.0         0.48         18.2 
      1331.0         0.33         15.8 
      1332.0         0.37         15.8 
      1333.0         0.27         14.6 
      1334.0         0.37         16.5 
      1335.0         0.33         16.3 
      1336.0         0.27         16.7 
      1337.0         0.60         18.6 
      1338.0         0.27         18.5 
      1339.0         0.23         17.9 
      1340.0         0.28         18.2 
      1341.0         0.30         17.9 
      1342.0         0.33         19.1 
      1343.0         0.43         20.7 
      1344.0         0.37         23.4 
      1345.0         0.37         23.9 
      1346.0         0.33         25.7 
      1347.0         0.33         25.9 
      1348.0         0.37         29.5 
      1349.0         0.43         31.3 
      1350.0         0.32         33.1 
      1351.0         9.17         34.5 
      1352.0         0.07         28.1 
      1353.0         0.75         24.6 
      1354.0         0.23         16.9 
      1355.0         0.17         17.3 
      1356.0         0.30         17.7 
      1357.0         0.37         18.6 
      1358.0         0.30         21.7 
      1359.0         0.27         25.1 
      1360.0         0.27         30.2 
      1361.0         0.23         32.8 
      1362.0         0.13         32.8 
      1363.0         0.20         37.7 
      1364.0         0.20         45.4 
      1365.0         0.27         50.0 
      1366.0         0.22         50.0 
      1367.0         0.17         52.3 
      1368.0         0.23         54.5 
      1369.0         0.23         54.7 
      1370.0         0.23         54.5 
      1371.0         0.17         54.8 
      1372.0         0.23         53.1 
      1373.0         0.37         47.1 
      1374.0         0.30         36.3 
      1375.0         0.20         33.7 
      1376.0         0.13         25.3 
      1377.0         0.23         24.8 
      1378.0         0.27         24.7 
      1379.0         0.47         26.4 
      1380.0         0.38         25.0 
      1381.0         6.83         51.9 
      1382.0         0.93         47.2 
      1383.0         0.40         19.8 
      1384.0         0.37         19.4 
      1385.0         0.30         18.0 
      1386.0         0.30         19.5 
      1387.0         0.30         21.2 
      1388.0         0.23         23.6 
      1389.0         0.32         26.3 
      1390.0         0.20         26.3 
      1391.0         0.33         32.1 
      1392.0         0.20         35.9 
      1393.0         0.23         35.9 
      1394.0         0.23         39.0 
      1395.0         0.20         42.1 
      1396.0         0.23         42.9 
      1397.0         0.20         42.9 
      1398.0         0.20         45.1 
      1399.0         0.20         45.1 
      1400.0         0.13         44.2 
      1401.0         0.10         40.5 
      1402.0         0.10         40.5 
      1403.0         0.27         34.9 
      1404.0         0.27         31.2 
      1405.0         0.25         28.5 
      1406.0         0.23         28.0 
      1407.0         0.30         29.7 
      1408.0         0.27         30.3 
      1409.0         0.33         29.4 
      1410.0         0.73         26.0 
      1411.0         6.53         23.9 
      1412.0         0.37         39.8 
      1413.0         0.23         49.8 
      1414.0         0.47         53.1 
      1415.0         0.38         46.3 
      1416.0         0.33         23.3 
      1417.0         0.30         21.7 
      1418.0         0.23         19.6 
      1419.0         0.20         18.3 
      1420.0         0.20         18.3 
      1421.0         0.17         18.9 
      1422.0         0.27         18.8 
      1423.0         0.30         19.4 
      1424.0         0.23         22.1 
      1425.0         0.30         21.2 
      1426.0         0.33         24.3 
      1427.0         0.23         25.5 
      1428.0         0.28         26.8 
      1429.0         0.27         28.1 
      1430.0         0.33         31.2 
      1431.0         0.33         33.2 
      1432.0         0.20         33.9 
      1433.0         0.30         36.8 
      1434.0         0.30         38.9 
      1435.0         0.10         39.4 
      1436.0         0.13         39.4 
      1437.0         0.17         38.6 
      1438.0         0.20         38.1 
      1439.0         0.17         37.9 
      1440.0         0.23         39.0 
      1441.0         9.12         35.6 
      1442.0         0.43         21.2 
      1443.0         0.43         20.1 
      1444.0         0.47         22.0 
      1445.0         0.45         22.2 
      1446.0         0.33         21.5 
      1447.0         0.40         21.3 
      1448.0         0.43         22.3 
      1449.0         0.43         22.4 
      1450.0         0.50         20.7 
      1451.0         0.53         21.4 
      1452.0         0.55         21.1 
      1453.0         0.53         21.7 
      1454.0         0.67         21.7 
      1455.0         0.53         22.7 
      1456.0         0.57         23.4 
      1457.0         0.53         23.4 
      1458.0         0.58         23.7 
      1459.0         0.53         23.1 
      1460.0         0.30         24.6 
      1461.0         0.60         24.2 
      1462.0         0.87         24.3 
      1463.0         0.23         22.3 
      1464.0         0.20         24.2 
      1465.0         0.13         24.2 
      1466.0         0.13         23.2 
      1467.0         0.15         23.2 
      1468.0         0.13         23.6 
      1469.0         0.23         22.2 
      1470.0         0.37         23.5 
      1471.0         6.40         23.5 
      1472.0         0.37         17.9 
      1473.0         0.33         18.0 
      1474.0         0.50         17.4 
      1475.0         0.60         17.8 
      1476.0         0.60         18.3 
      1477.0         0.52         17.3 
      1478.0         0.50         17.8 
      1479.0         0.43         16.8 
      1480.0         0.40         16.4 
      1481.0         0.37         16.0 
      1482.0         0.37         17.5 
      1483.0         0.33         17.2 
      1484.0         0.30         18.0 
      1485.0         0.30         16.5 
      1486.0         0.32         16.8 
      1487.0         0.33         16.2 
      1488.0         0.33         18.1 
      1489.0         0.27         17.0 
      1490.0         0.30         17.7 
      1491.0         0.27         18.0 
      1492.0         0.13         17.4 
      1493.0         0.17         17.4 
      1494.0         0.17         17.3 
      1495.0         0.20         18.0 
      1496.0         0.27         17.5 
      1497.0         0.23         16.9 
      1498.0         0.33         16.8 
      1499.0         0.30         16.3 
      1500.0         0.25         16.9 
      1501.0         0.20         16.3 
      1502.0         6.47         18.7 
      1503.0         1.07         16.9 
      1504.0         0.70         17.4 
      1505.0         0.67         16.8 
      1506.0         0.23         16.8 
      1507.0         0.20         16.4 
      1508.0         0.10         16.5 
      1509.0         0.17         16.9 
      1510.0         0.25         17.9 
      1511.0         0.30         17.2 
      1512.0         0.23         16.1 
      1513.0         0.10         15.7 
      1514.0         0.13         15.8 
      1515.0         0.17         15.9 
      1516.0         0.40         15.5 
      1517.0         0.53         16.9 
      1518.0         0.50         15.9 
      1519.0         0.57         16.1 
      1520.0         0.78         16.5 
      1521.0         0.87         20.1 
      1522.0         0.40         29.1 
      1523.0         0.30         35.2 
      1524.0         0.27         38.7 
      1525.0         0.27         38.8 
      1526.0         0.23         41.2 
