~Version Information
VERS.                      2.0: CWLS Log ASCII Standard - VERSION 2.0
WRAP.                       NO: One line per depth step
~Well Information Block
STRT.FT               245.0000: 
STOP.FT              1273.7500: 
STEP.FT                 0.2500: 
NULL.                -999.2500: 
COMP.          Pioneer Natural Resources: COMPANY
WELL.                 Ray 34-6: WELL
FLD.           Purgatoire River: FIELD
LOC.           684' FSL & 2254' FEL--: LOCATION
CNTY.               Las Animas: COUNTY
SRVC.                Patterson: SERVICE COMPANY
DATE.          Fri May 26 03:08:09 2006: LOG DATE
UWI.           05 071 08695 00: UNIQUE WELL ID
STAT.                 Colorado: STATE
~Curve Information Block
DEPT.FT            0 000 00 00: Depth
SN.Ohm-m                      : IEL Short Normal
SP.mV                         : IEL Spontaneous Potential
DIR.Ohm-m                     : IEL Induction Resistivity
GR.GAPI                       : Gamma Ray
~Parameter Information Block
~A  Depth        SN          SP         DIR          GR     
# ...
   312.0000    685.7410   -565.8712     15.0636    105.8455
   312.2500    685.7410   -565.8723     15.9151    103.8775
   312.5000    685.7410   -565.8732     16.8048    101.7517
   312.7500    685.7410   -565.8738     17.7315    100.4672
   313.0000    685.7410   -565.8742     18.6840     97.5801
   313.2500    685.7410   -565.8744     19.6305     94.5845
   313.5000    685.7410   -565.8745     20.5203     88.8689
   313.7500    685.7410   -565.8746     21.2978     85.0421
   314.0000    685.7410   -565.8746     21.9241     80.9402
   314.2500    685.7410   -565.8747     22.3914     80.0518
   314.5000    685.7410   -565.8747     22.7259     81.8050
   314.7500    685.7410   -565.8746     22.9757     84.5186
   315.0000    685.7410   -565.8742     23.1937     89.3707
   315.2500    685.7410   -565.8735     23.4209     92.3364
   315.5000    685.7410   -565.8724     23.6767     95.5794
   315.7500    685.7410   -565.8708     23.9559     96.6822
   316.0000    685.7410   -565.8690     24.2351     96.6312
   316.2500    685.7410   -565.8668     24.4896     95.7261
   316.5000    685.7410   -565.8646     24.7172     94.0706
   316.7500    685.7410   -565.8625     24.9519     93.3585
   317.0000    685.7410   -565.8610     25.2545     93.2984
   317.2500    685.7410   -565.8599     25.6841     93.8341
   317.5000    685.7410   -565.8596     26.2680     95.0466
   317.7500    685.7410   -565.8599     26.9847     95.7572
   318.0000    685.7410   -565.8610     27.7718     96.0686
   318.2500    685.7410   -565.8627     28.5572     95.7329
   318.5000    685.7410   -565.8649     29.3006     95.0496
   318.7500    685.7410   -565.8674     30.0129     94.8143
   319.0000    685.7410   -565.8699     30.7403     94.4639
   319.2500    685.7410   -565.8726     31.5287     93.6748
   319.5000    685.7410   -565.8751     32.3978     91.1142
   319.7500    685.7410   -565.8774     33.3362     88.6508
   320.0000    685.7410   -565.8796     34.3123     84.4407
   320.2500    685.7410   -565.8817     35.2899     81.5758
   320.5000    685.7410   -565.8834     36.2366     77.5550
   320.7500    685.7410   -565.8849     37.1229     75.3361
   321.0000    685.7410   -565.8862     37.9132     73.3086
   321.2500    685.7410   -565.8872     38.5630     73.0723
   321.5000    685.7410   -565.8879     39.0354     74.2482
   321.7500    685.7410   -565.8884     39.3300     75.6411
   322.0000    685.7410   -565.8886     39.4951     77.8713
   322.2500    685.7410   -565.8885     39.6066     79.2281
   322.5000    685.7410   -565.8884     39.7245     81.0643
   322.7500    685.7410   -565.8879     39.8576     82.1287
   323.0000    685.7410   -565.8873     39.9523     83.1300
   323.2500    685.7410   -565.8865     39.9110     83.2232
   323.5000    685.7410   -565.8855     39.6290     82.8171
   323.7500    685.7410   -565.8843     39.0365     82.6393
   324.0000    685.7410   -565.8828     38.1223     82.8635
   324.2500    685.7410   -565.8810     36.9294     83.0499
   324.5000    685.7410   -565.8791     35.5259     82.8119
   324.7500    685.7410   -565.8770     33.9756     82.5167
   325.0000    685.7410   -565.8748     32.3249     83.1777
   325.2500    685.7410   -565.8726     30.6142     85.0918
   325.5000    685.7410   -565.8705     28.8962     90.5257
   325.7500    685.7410   -565.8685     27.2381     95.5419
   326.0000    685.7410   -565.8667     25.7025    104.0369
   326.2500    685.7410   -565.8652     24.3231    109.4166
   326.5000    685.7410   -565.8638     23.0956    115.3971
   326.7500    685.7410   -565.8627     21.9898    117.4599
   327.0000    685.7410   -565.8616     20.9720    118.0325
   327.2500    685.7410   -565.8604     20.0225    117.4788
   327.5000    685.7410   -565.8591     19.1378    116.6012
   327.7500    685.7410   -565.8577     18.3225    116.4749
   328.0000    685.7410   -565.8561     17.5805    117.0572
   328.2500    685.7410   -565.8543     16.9111    117.6764
   328.5000    685.7410   -565.8525     16.3090    118.5373
   328.7500    685.7410   -565.8507     15.7669    119.1534
   329.0000    685.7410   -565.8491     15.2787    120.6091
   329.2500    685.7410   -565.8478     14.8448    122.0152
   329.5000    685.7410   -565.8469     14.4745    124.4127
   329.7500    685.7410   -565.8465     14.1808    125.8807
   330.0000    685.7410   -565.8467     13.9726    127.2084
   330.2500    685.7410   -565.8476     13.8472    127.0502
   330.5000    685.7410   -565.8490     13.7882    124.9847
   330.7500    685.7410   -565.8509     13.7692    122.8565
   331.0000    685.7410   -565.8531     13.7603    119.8228
   331.2500    685.7410   -565.8555     13.7357    118.2749
   331.5000    685.7410   -565.8578     13.6805    116.3787
   331.7500    685.7410   -565.8600     13.5941    115.1516
   332.0000    685.7410   -565.8618     13.4890    113.4150
   332.2500    685.7410   -565.8633     13.3873    112.4095
   332.5000    685.7410   -565.8645     13.3181    110.7806
   332.7500    685.7410   -565.8654     13.3148    109.2763
   333.0000    685.7410   -565.8661     13.4116    106.1984
   333.2500    685.7410   -565.8668     13.6390    103.6122
   333.5000    685.7410   -565.8674     14.0171     98.3959
   333.7500    685.7410   -565.8681     14.5507     93.4187
   334.0000    685.7410   -565.8688     15.2284     83.2862
   334.2500    685.7410   -565.8693     16.0275     75.3510
   334.5000    685.7410   -565.8698     16.9205     63.7361
   334.7500    685.7410   -565.8700     17.8749     57.3327
   335.0000    685.7410   -565.8701     18.8392     50.8182
   335.2500    685.7410   -565.8698     19.7235     48.8202
   335.5000    685.7410   -565.8694     20.3972     50.0559
   335.7500    685.7410   -565.8690     20.7246     54.2782
   336.0000    685.7410   -565.8685     20.6273     65.9371
   336.2500    685.7410   -565.8682     20.1263     76.3958
   336.5000    685.7410   -565.8680     19.3279     93.1443
   336.7500    685.7410   -565.8680     18.3715    103.1873
   337.0000    685.7410   -565.8682     17.3826    114.6785
   337.2500    685.7410   -565.8684     16.4550    119.7056
   337.5000    685.7410   -565.8687     15.6532    123.6188
   337.7500    685.7410   -565.8690     15.0213    124.2284
   338.0000    685.7410   -565.8691     14.5892    123.4178
   338.2500    685.7410   -565.8690     14.3746    122.6222
   338.5000    685.7410   -565.8688     14.3852    121.8700
   338.7500    685.7410   -565.8684     14.6193    121.4668
   339.0000    685.7410   -565.8679     15.0637    120.1274
   339.2500    685.7410   -565.8672     15.6869    118.4820
   339.5000    685.7410   -565.8665     16.4313    115.3718
   339.7500    685.7410   -565.8656     17.2118    113.4607
   340.0000    685.7410   -565.8646     17.9328    111.3814
   340.2500    685.7410   -565.8635     18.5152    110.3065
   340.5000    685.7410   -565.8622     18.9189    108.5180
   340.7500    685.7410   -565.8607     19.1432    107.2031
   341.0000    685.7410   -565.8589     19.2089    105.7673
   341.2500    685.7410   -565.8569     19.1364    105.5649
   341.5000    685.7410   -565.8549     18.9332    106.3649
   341.7500    685.7410   -565.8528     18.5941    107.3452
   342.0000    685.7410   -565.8510     18.1151    109.2254
   342.2500    685.7410   -565.8495     17.5105    110.8354
   342.5000    685.7410   -565.8486     16.8236    113.8533
   342.7500    685.7410   -565.8483     16.1218    116.0918
   343.0000    685.7410   -565.8486     15.4825    119.3952
   343.2500    685.7410   -565.8495     14.9755    121.3919
   343.5000    685.7410   -565.8509     14.6512    123.5468
   343.7500    685.7410   -565.8528     14.5345    123.7575
   344.0000    685.7410   -565.8549     14.6255    120.8968
   344.2500    685.7410   -565.8571     14.9052    116.5297
   344.5000    685.7410   -565.8591     15.3480    107.0171
   344.7500    685.7410   -565.8610     15.9400     99.6427
   345.0000    685.7410   -565.8624     16.6972     88.6045
   345.2500    685.7410   -565.8635     17.6706     81.8865
