~Version Information
VERS.                      2.0: CWLS Log ASCII Standard - VERSION 2.0
WRAP.                       NO: One line per depth step
~Well Information Block
STRT.FT                10.0000: 
STOP.FT              1458.0000: 
STEP.FT                 0.1000: 
NULL.                -999.2500: 
COMP.          Pioneer Natural Resources: COMPANY
WELL.            Bordeaux 42-2: WELL
FLD.           Purgatorie River: FIELD
LOC.           1963' FNL & 1148' FEL: LOCATION
PROV.                 Colorado: PROVINCE
CNTY.               Las Animas: COUNTRY
SRVC.                Patterson: SERVICE COMPANY
DATE.          Tue Nov 29 07:11:03 2005: LOG DATE
UWI.                          : UNIQUE WELL ID
~Curve Information Block
DEPT.FT            0 000 00 00: Depth
DCAL.in                       : CDL Caliper
RHOB.g/cc                     : CDL Bulk Density
RHOC.g/cc                     : CDL Density Correction
DPOR.pu                       : CDL Density Porosity
GR.GAPI                       : Gamma Ray
NPOR.pu                       : Neutron Porosity
~Parameter Information Block
~A  Depth       DCAL        RHOB        RHOC        DPOR         GR         NPOR    
# ...
  1056.4000      7.9792      2.5074      0.1520      8.6444    154.6860     26.7915
  1056.5000      8.0134      2.5237      0.1068      7.6522    150.5150     26.7927
  1056.6000      8.0134      2.5573      0.2281      5.6173    146.6717     26.7772
  1056.7000      8.0134      2.5777      0.2433      4.3813    145.5423     26.9603
  1056.8000      8.0176      2.5687      0.1291      4.9267    145.9029     27.1453
  1056.9000      8.0176      2.5553      0.1085      5.7377    146.0846     27.1752
  1057.0000      8.0157      2.5436      0.1636      6.4460    145.6186     26.9535
  1057.1000      8.0157      2.5138      0.0884      8.2555    143.9086     26.3745
  1057.2000      8.0157      2.4683      0.0298     11.0096    141.6667     25.7197
  1057.3000      7.9656      2.4322     -0.0340     13.1988    139.9339     25.2410
  1057.4000      7.9656      2.4133      0.0121     14.3461    139.0850     24.7577
  1057.5000      7.9577      2.3917      0.0027     15.6545    139.7549     24.1414
  1057.6000      7.9577      2.3567     -0.0135     17.7740    141.8734     23.5589
  1057.7000      7.9577      2.3176      0.0126     20.1458    143.8530     23.2906
  1057.8000      7.9583      2.2825     -0.0075     22.2741    144.2862     23.3038
  1057.9000      7.9583      2.2597     -0.0167     23.6567    145.5402     23.2253
  1058.0000      7.9620      2.2618      0.0012     23.5261    148.8208     23.1605
  1058.1000      7.9620      2.2883      0.0667     21.9205    149.9325     23.5206
  1058.2000      7.9620      2.3155      0.1030     20.2710    147.6394     24.0484
  1058.3000      7.9527      2.3248      0.0935     19.7092    145.2919     24.2308
  1058.4000      7.9527      2.3298      0.0631     19.4036    145.3298     24.2040
  1058.5000      7.9571      2.3559      0.0572     17.8266    146.4452     24.1490
  1058.6000      7.9571      2.3988      0.0383     15.2263    144.8757     24.0504
  1058.7000      7.9571      2.4305      0.0153     13.3041    142.1218     24.0424
  1058.8000      7.9838      2.4342      0.0387     13.0798    141.6497     24.0600
  1058.9000      7.9838      2.4226     -0.0182     13.7820    141.6004     24.1039
  1059.0000      7.9915      2.4199      0.0220     13.9442    141.6620     24.4741
  1059.1000      7.9915      2.4291      0.0783     13.3900    144.4927     25.0651
  1059.2000      7.9915      2.4433      0.0398     12.5250    147.7457     25.5102
  1059.3000      8.0979      2.4632      0.0840     11.3208    147.4732     25.7757
  1059.4000      8.0979      2.4791      0.1013     10.3589    144.5757     26.0229
  1059.5000      8.0685      2.4814      0.0678     10.2200    142.8951     26.3437
  1059.6000      8.0685      2.4796      0.0291     10.3275    144.8854     26.8790
  1059.7000      8.0685      2.4876      0.0074      9.8425    147.1037     27.6506
  1059.8000      7.9910      2.5080      0.0500      8.6061    144.3780     28.2050
  1059.9000      7.9910      2.5303      0.0378      7.2565    138.8688     28.2587
  1060.0000      7.9635      2.5394      0.0303      6.7043    135.5010     28.0656
  1060.1000      7.9635      2.5293      0.0349      7.3174    133.3769     27.7677
  1060.2000      7.9635      2.5080     -0.0003      8.6052    131.6132     27.3789
  1060.3000      7.9569      2.4873     -0.0036      9.8615    131.4176     26.9531
  1060.4000      7.9569      2.4686     -0.0097     10.9940    131.8977     26.4529
  1060.5000      7.9489      2.4477     -0.0388     12.2613    132.8875     26.0141
  1060.6000      7.9489      2.4282     -0.0301     13.4433    136.6176     25.8016
  1060.7000      7.9489      2.4203     -0.0497     13.9211    143.1626     25.7262
  1060.8000      7.9533      2.4267      0.0250     13.5352    149.6961     25.6695
  1060.9000      7.9533      2.4399     -0.0420     12.7335    155.6190     25.5148
  1061.0000      7.9564      2.4548      0.0282     11.8309    160.0489     25.2156
  1061.1000      7.9564      2.4661      0.0405     11.1449    158.8787     24.8180
  1061.2000      7.9564      2.4765      0.0378     10.5180    155.0027     24.3963
  1061.3000      7.9528      2.4870      0.0870      9.8760    155.7173     24.0640
  1061.4000      7.9528      2.4817      0.1203     10.2000    161.3256     23.9579
  1061.5000      7.9668      2.4607      0.0853     11.4726    166.8530     24.0225
  1061.6000      7.9668      2.4540      0.0625     11.8771    166.9253     24.0314
  1061.7000      7.9668      2.4697      0.1007     10.9302    162.5585     23.9856
  1061.8000      8.0197      2.4809      0.1224     10.2478    159.2818     24.2583
  1061.9000      8.0197      2.4803      0.0319     10.2843    158.2545     25.0693
  1062.0000      8.0466      2.4857      0.0822      9.9591    156.0602     25.9689
  1062.1000      8.0466      2.4951      0.1499      9.3893    150.8410     26.2576
  1062.2000      8.0466      2.4974      0.0944      9.2507    144.0954     25.9348
  1062.3000      7.9754      2.4961      0.1427      9.3255    138.7714     25.6694
  1062.4000      7.9754      2.4976      0.1026      9.2348    137.0494     25.8057
  1062.5000      7.9846      2.5104      0.1077      8.4593    139.2411     26.0622
  1062.6000      7.9846      2.5327      0.0834      7.1100    142.5399     26.1812
  1062.7000      7.9846      2.5429      0.1497      6.4899    144.1061     26.1989
  1062.8000      7.9594      2.5347      0.1165      6.9868    146.3000     26.3081
  1062.9000      7.9594      2.5311      0.1228      7.2057    150.8318     26.5581
  1063.0000      7.9591      2.5440      0.1179      6.4221    155.0969     26.6084
  1063.1000      7.9591      2.5563      0.1700      5.6763    158.4910     26.2970
  1063.2000      7.9591      2.5477      0.1686      6.1973    161.2016     25.9592
  1063.3000      7.9562      2.5215      0.1376      7.7852    161.0778     25.8431
  1063.4000      7.9562      2.5021      0.1189      8.9645    159.5850     25.7739
  1063.5000      7.9602      2.5083      0.1178      8.5851    158.6434     25.5139
  1063.6000      7.9602      2.5342      0.1557      7.0171    157.2126     25.1738
  1063.7000      7.9602      2.5569      0.1965      5.6407    155.1769     24.9812
  1063.8000      7.9571      2.5621      0.1923      5.3256    150.9978     24.7928
  1063.9000      7.9571      2.5544      0.1809      5.7952    145.4084     24.4596
  1064.0000      7.9573      2.5468      0.1977      6.2535    142.4879     24.0949
  1064.1000      7.9573      2.5471      0.1822      6.2382    143.8331     23.8499
  1064.2000      7.9573      2.5506      0.1476      6.0270    146.8576     23.7268
  1064.3000      7.9484      2.5450      0.1464      6.3660    145.6742     23.7556
  1064.4000      7.9484      2.5311      0.0889      7.2043    138.7760     23.9959
  1064.5000      7.9467      2.5244      0.0862      7.6097    132.8356     24.2783
  1064.6000      7.9467      2.5262      0.0791      7.5035    131.8964     24.2105
  1064.7000      7.9467      2.5244      0.0916      7.6107    133.2242     23.6863
  1064.8000      7.9337      2.5163      0.0606      8.1039    132.3305     23.1239
  1064.9000      7.9337      2.5111      0.0503      8.4187    129.9292     22.9012
  1065.0000      7.9213      2.5152      0.0859      8.1711    130.6609     23.1375
  1065.1000      7.9213      2.5253      0.0607      7.5592    133.8766     23.6183
  1065.2000      7.9213      2.5367      0.0856      6.8683    135.2294     23.8398
  1065.3000      7.9300      2.5400      0.1023      6.6680    132.9161     23.6043
  1065.4000      7.9300      2.5323      0.0160      7.1347    127.3146     23.2400
  1065.5000      7.9243      2.5223      0.0172      7.7402    120.0596     23.2109
  1065.6000      7.9243      2.5128     -0.0046      8.3132    116.0773     23.4745
  1065.7000      7.9243      2.5063      0.0180      8.7088    117.9425     23.6309
  1065.8000      7.9242      2.5071      0.0086      8.6631    120.7587     23.7520
  1065.9000      7.9242      2.5118      0.0219      8.3769    120.3543     24.0186
