~Version Information
VERS.                      2.0: CWLS Log ASCII Standard - VERSION 2.0
WRAP.                       NO: One line per depth step
~Well Information Block
STRT.FT                -0.5000: 
STOP.FT              1417.0000: 
STEP.FT                 0.2500: 
NULL.                -999.2500: 
COMP.          Pioneer Natural Resources: COMPANY
WELL.              Darren 11-7: WELL
FLD.           Purgatoire River: FIELD
LOC.           230' FNL & 596' FWL: LOCATION
CNTY.               Las Animas: COUNTY
SRVC.                Patterson: SERVICE COMPANY
DATE.          Thu Mar 30 10:43:52 2006: LOG DATE
UWI.           05 071 08720 00: UNIQUE WELL ID
STAT.                 Colorado: STATE
~Curve Information Block
DEPT.FT            0 000 00 00: Depth
GR.GAPI                       : Gamma Ray
CCL.                          : Casing Collar Locator
TT3.usec                      : CBL 3' Travel Time
AMP3.mV                       : CBL 3' Amplitude
~Parameter Information Block
~A  Depth        GR         CCL         TT3         AMP3    
# ...
  1373.0000     74.3398      0.0000    457.3380      6.9029
  1373.2500     76.7576      0.0000    475.3255      6.3110
  1373.5000     77.8172      0.0000    508.4134      5.6928
  1373.7500     77.3018      0.0000    540.8533      5.1097
  1374.0000     75.6994      0.0000    555.9487      4.6410
  1374.2500     74.1407      0.0000    547.3996      4.3454
  1374.5000     73.7191      0.0000    522.7309      4.2149
  1374.7500     74.5495      0.0000    495.5592      4.1794
  1375.0000     75.7085      0.0000    475.3484      4.1619
  1375.2500     76.2544      0.0000    463.6152      4.1247
  1375.5000     76.0550      0.0000    456.8567      4.0759
  1375.7500     75.5372      0.0000    451.0251      4.0526
  1376.0000     74.9421      0.0000    444.0788      4.0961
  1376.2500     74.1203      0.0000    436.3381      4.2298
  1376.5000     72.9399      0.0000    429.3726      4.4439
  1376.7500     71.5520      0.0000    424.5261      4.6945
  1377.0000     70.0888      0.0000    422.1940      4.9185
  1377.2500     68.2967      0.0000    422.2234      5.0617
  1377.5000     65.8241      0.0000    424.5749      5.1058
  1377.7500     63.0243      0.0000    429.3184      5.0726
  1378.0000     61.0869      0.0000    435.9126      5.0034
  1378.2500     60.9197      0.0000    442.6613      4.9324
  1378.5000     62.0177      0.0000    447.2742      4.8732
  1378.7500     62.7756      0.0000    448.3870      4.8241
  1379.0000     61.8881      0.0000    446.7704      4.7785
  1379.2500     59.4055      0.0000    444.9658      4.7316
  1379.5000     56.6756      0.0000    445.3648      4.6814
  1379.7500     55.3087      0.0000    448.3766      4.6288
  1380.0000     55.8961      0.0000    452.4538      4.5778
  1380.2500     57.6374      0.0000    455.6982      4.5341
  1380.5000     59.2906      0.0000    457.1357      4.5030
  1380.7500     60.3572      0.0000    456.6787      4.4877
  1381.0000     61.2318      0.0000    454.5666      4.4891
  1381.2500     62.4114      0.0000    451.3025      4.5055
  1381.5000     63.8153      0.0000    447.9500      4.5293
  1381.7500     64.7713      0.0000    446.1144      4.5469
  1382.0000     64.5147      0.0000    447.4893      4.5450
  1382.2500     62.9067      0.0000    453.7551      4.5193
  1382.5000     60.6869      0.0000    466.5636      4.4774
  1382.7500     58.7051      0.0000    486.1409      4.4371
  1383.0000     57.0453      0.0000    509.7076      4.4162
  1383.2500     55.3861      0.0000    533.8466      4.4205
  1383.5000     53.9993      0.0000    559.5308      4.4422
  1383.7500     53.6263      0.0000    591.3030      4.4697
  1384.0000     54.3515      0.0000    628.8520      4.4972
  1384.2500     55.3305      0.0000    662.4473      4.5256
  1384.5000     55.8669      0.0000    679.3096      4.5579
  1384.7500     56.1956      0.0000    672.6444      4.5945
  1385.0000     56.8645      0.0000    643.8973      4.6320
  1385.2500     57.7768      0.0000    600.0654      4.6662
  1385.5000     58.2844      0.0000    551.5856      4.6960
  1385.7500     58.0256      0.0000    510.3606      4.7246
  1386.0000     57.3508      0.0000    485.8758      4.7594
  1386.2500     56.9763      0.0000    482.0010      4.8121
  1386.5000     57.3693      0.0000    496.9221      4.8950
  1386.7500     58.5023      0.0000    523.9147      5.0008
  1387.0000     60.0801      0.0000    551.4180      5.0830
  1387.2500     61.8173      0.0000    565.8813      5.0744
  1387.5000     63.4119      0.0000    559.2202      4.9455
  1387.7500     64.4340      0.0000    534.7346      4.7411
  1388.0000     64.5561      0.0000    504.0674      4.5476
  1388.2500     63.9922      0.0000    477.7814      4.4239
  1388.5000     63.5452     -3.0000    459.5228      4.3715
  1388.7500     64.1202     -3.0000    448.2705      4.3566
  1389.0000     66.2092      0.0000    443.6476      4.3486
  1389.2500     69.7009      0.0000    447.4906      4.3396
  1389.5000     73.9100      0.0000    460.1880      4.3391
  1389.7500     77.7620      0.0000    476.2630      4.3563
  1390.0000     80.2336      0.0000    485.6672      4.3929
  1390.2500     80.8737      0.0000    481.4277      4.4479
  1390.5000     80.0202      0.0000    465.5778      4.5187
  1390.7500     78.5416      0.0000    446.4547      4.5923
  1391.0000     77.2563      0.0000    431.3095      4.6490
  1391.2500     76.3572      0.0000    422.3992      4.6776
  1391.5000     75.3043      0.0000    418.3197      4.6826
  1391.7500     73.5350      0.0000    416.8391      4.6758
  1392.0000     71.4154      0.0000    416.4062      4.6656
  1392.2500     70.2626      0.0000    416.2799      4.6541
  1392.5000     71.2707      0.0000    416.1972      4.6428
  1392.7500     74.5205      0.0000    416.0741      4.6357
  1393.0000     79.0513      0.0000    415.8979      4.6359
  1393.2500     83.7098      0.0000    415.6711      4.6392
  1393.5000     87.7693      0.0000    415.3941      4.6355
  1393.7500     90.7992      0.0000    415.0566      4.6155
  1394.0000     92.3992      0.0000    414.6418      4.5785
  1394.2500     92.4450      0.0000    414.1374      4.5317
  1394.5000     91.4034      0.0000    413.5442      4.4849
  1394.7500     90.0994      0.0000    412.8758      4.4443
  1395.0000     89.2673      0.0000    412.1819      4.4101
  1395.2500     89.3284      0.0000    411.6324      4.3801
  1395.5000     90.2090      0.0000    411.6506      4.3556
  1395.7500     91.1392      0.0000    412.9481      4.3435
  1396.0000     90.8712      0.0000    416.2231      4.3522
  1396.2500     88.4915      0.0000    421.5357      4.3833
  1396.5000     84.2336      0.0000    428.0882      4.4302
  1396.7500     79.5362      0.0000    435.2040      4.4850
  1397.0000     76.1156      0.0000    444.1496      4.5454
  1397.2500     74.6970      0.0000    458.8419      4.6110
  1397.5000     74.5953      0.0000    483.4116      4.6734
  1397.7500     74.6764      0.0000    517.1843      4.7122
  1398.0000     74.6842      0.0000    551.6768      4.7061
  1398.2500     75.3559      0.0000    574.3134      4.6529
  1398.5000     77.2316      0.0000    576.9019      4.5829
  1398.7500     79.6643      0.0000    560.9992      4.5496
  1399.0000     81.2365      0.0000    535.5703      4.6040
  1399.2500     81.1743      0.0000    510.2399      4.7616
  1399.5000     80.1711      0.0000    490.3804      4.9840
  1399.7500     79.6050      0.0000    476.9027      5.1880
  1400.0000     80.0972      0.0000    469.0976      5.2863
  1400.2500     81.1960      0.0000    466.6108      5.2427
  1400.5000     82.3005      0.0000    468.3101      5.1016
  1400.7500     83.4251      0.0000    470.3779      4.9634
  1401.0000     85.2147      0.0000    467.9436      4.9171
  1401.2500     88.6157      0.0000    459.6055      4.9825
  1401.5000     94.1994      0.0000    449.0229      5.1070
  1401.7500    101.2606      0.0000    441.1858      5.2114
  1402.0000    107.6580      0.0000    437.7514      5.2350
  1402.2500    110.9830      0.0000    435.5193      5.1465
  1402.5000    110.1928      0.0000    426.9447      4.9190
  1402.7500    106.2327      0.0000    401.3879      4.5053
  1403.0000    101.1811      0.0000    349.5079      3.8583
  1403.2500     96.9247      0.0000    271.4967      3.0022
  1403.5000     94.5237      0.0000    181.8058      2.0787
  1403.7500     94.1521      0.0000    102.0827      1.2848
  1404.0000     95.0306      0.0000     47.0757      0.7473
  1404.2500     95.6824      0.0000     17.5653      0.4623
  1404.5000     94.8762      0.0000      5.2461      0.3441
  1404.7500     92.4260      0.0000      1.2430      0.3059
  1405.0000     88.9979      0.0000      0.2302      0.2963
  1405.2500     85.3833      0.0000      0.0306      0.2944
  1405.5000     82.1644      0.0000   -999.2500   -999.2500
  1405.7500     79.9128      0.0000   -999.2500   -999.2500
  1406.0000     79.2874      0.0000   -999.2500   -999.2500
  1406.2500     80.6031      0.0000   -999.2500   -999.2500
