~Version Information
VERS.                      2.0: CWLS Log ASCII Standard - VERSION 2.0
WRAP.                       NO: One line per depth step
~Well Information Block
STRT.FT                -3.0000: 
STOP.FT              1123.0000: 
STEP.FT                 0.2500: 
NULL.                -999.2500: 
COMP.          Pioneer Natural Resources: COMPANY
WELL.               Ryan 41-17: WELL
FLD.           Purgatoire River: FIELD
LOC.           822' FNL & 532' FEL--: LOCATION
CNTY.               Las Animas: COUNTY
SRVC.                Patterson: SERVICE COMPANY
DATE.          Mon Mar 27 14:50:31 2006: LOG DATE
UWI.           05 071 08719 00: UNIQUE WELL ID
STAT.                 Colorado: STATE
~Curve Information Block
DEPT.FT            0 000 00 00: Depth
CCL.                          : Casing Collar Locator
TT3.usec                      : CBL 3' Travel Time
AMP3.mV                       : CBL 3' Amplitude
GR.GAPI                       : Gamma Ray
~Parameter Information Block
~A  Depth       CCL         TT3         AMP3         GR     
# ...
    64.0000      0.0000    259.1042     84.1926    105.7849
    64.2500      0.0000    259.1152     84.1760    101.8802
    64.5000      0.0000    259.1366     84.1499     93.5693
    64.7500      0.0000    259.1477     84.1525     87.6561
    65.0000      0.0000    259.1503     84.1925     79.1065
    65.2500      0.0000    259.1421     84.2250     73.3888
    65.5000      0.0000    259.1226     84.2517     64.5100
    65.7500      0.0000    259.1109     84.2533     58.9965
    66.0000      0.0000    259.1031     84.2461     53.2736
    66.2500      0.0000    259.1055     84.2394     51.9599
    66.5000      0.0000    259.1175     84.2254     53.5572
    66.7500      0.0000    259.1269     84.2177     56.2289
    67.0000      0.0000    259.1365     84.2230     61.4399
    67.2500      0.0000    259.1384     84.2400     65.4964
    67.5000      0.0000    259.1347     84.2724     72.8591
    67.7500      0.0000    259.1294     84.2914     79.0238
    68.0000      0.0000    259.1219     84.3164     89.9537
    68.2500      0.0000    259.1211     84.3310     97.0185
    68.5000      0.0000    259.1319     84.3338    103.6233
    68.7500      0.0000    259.1464     84.3115    104.1076
    69.0000      0.0000    259.1699     84.2462    100.5611
    69.2500      0.0000    259.1799     84.1989     97.9292
    69.5000      0.0000    259.1829     84.1505     97.5646
    69.7500      0.0000    259.1801     84.1374    100.2466
    70.0000      0.0000    259.1759     84.1404    106.2511
    70.2500      0.0000    259.1743     84.1514    109.4423
    70.5000      0.0000    259.1707     84.1635    110.9002
    70.7500      0.0000    259.1662     84.1549    109.9352
    71.0000      0.0000    259.1590     84.1083    107.4174
    71.2500      0.0000    259.1567     84.0645    105.7436
    71.5000      0.0000    259.1593     84.0041    103.0881
    71.7500      0.0000    259.1638     83.9748    100.8152
    72.0000      0.0000    259.1712     83.9537     96.4887
    72.2500      0.0000    259.1746     83.9624     93.3514
    72.5000      0.0000    259.1747     84.0208     89.4386
    72.7500      0.0000    259.1701     84.0860     88.0776
    73.0000      0.0000    259.1559     84.1964     88.5663
    73.2500      0.0000    259.1428     84.2598     90.4192
    73.5000      0.0000    259.1227     84.3210     94.1967
    73.7500      0.0000    259.1119     84.3417     96.2888
    74.0000      0.0000    259.1023     84.3642     97.6480
    74.2500      0.0000    259.0989     84.3847     97.6513
    74.5000      0.0000    259.0926     84.4235     97.4410
    74.7500      0.0000    259.0845     84.4457     97.2328
    75.0000      0.0000    259.0655     84.4683     96.0598
    75.2500      0.0000    259.0500     84.4865     94.7055
    75.5000      0.0000    259.0272     84.5390     93.3752
    75.7500      0.0000    259.0152     84.5862     94.0266
    76.0000      0.0000    259.0075     84.6328     97.5402
    76.2500      0.0000    259.0114     84.6224    100.5419
    76.5000      0.0000    259.0278     84.5395    103.5379
    76.7500      0.0000    259.0408     84.4567    103.5683
    77.0000      0.0000    259.0563     84.3155    101.0971
    77.2500      0.0000    259.0636     84.2090     99.2192
    77.5000      0.0000    259.0733     84.0242     98.7688
    77.7500      0.0000    259.0801     83.8913    100.4475
    78.0000      0.0000    259.0911     83.7043    103.9860
    78.2500      0.0000    259.1001     83.6015    105.4100
    78.5000      0.0000    259.1184     83.4943    104.8756
    78.7500      0.0000    259.1324     83.4615    103.1732
    79.0000      0.0000    259.1480     83.4779    100.2516
    79.2500      0.0000    259.1495     83.5271     98.8810
    79.5000      0.0000    259.1359     83.6322     98.2833
    79.7500      0.0000    259.1194     83.7024     98.7327
    80.0000      0.0000    259.0951     83.7676     99.9001
    80.2500      0.0000    259.0866     83.7632    100.4734
    80.5000      0.0000    259.0918     83.6808    100.4959
    80.7500      0.0000    259.1046     83.5994     99.9589
    81.0000      0.0000    259.1267     83.4982     98.4846
    81.2500      0.0000    259.1372     83.4705     97.0610
    81.5000      0.0000    259.1414     83.5068     94.2871
    81.7500      0.0000    259.1352     83.5818     92.1711
    82.0000      0.0000    259.1136     83.7480     89.1747
    82.2500      0.0000    259.0951     83.8724     87.8664
    82.5000      0.0000    259.0729     84.0431     88.0835
    82.7500      0.0000    259.0672     84.1355     89.9292
    83.0000      0.0000    259.0727     84.2419     94.0347
    83.2500      0.0000    259.0817     84.2985     96.2260
    83.5000      0.0000    259.0952     84.3770     96.7059
    83.7500      0.0000    259.1020     84.4293     95.1003
    84.0000      0.0000    259.1081     84.5019     91.6234
    84.2500      0.0000    259.1099     84.5393     90.0215
    84.5000      0.0000    259.1095     84.5763     89.9766
    84.7500      0.0000    259.1082     84.5916     91.1572
    85.0000      0.0000    259.1097     84.5952     93.0451
    85.2500      0.0000    259.1162     84.5751     93.6271
    85.5000      0.0000    259.1349     84.5054     93.3840
    85.7500      0.0000    259.1498     84.4425     92.9167
    86.0000      0.0000    259.1653     84.3510     92.5948
    86.2500      0.0000    259.1663     84.3038     93.0131
    86.5000      0.0000    259.1524     84.2613     95.4234
    86.7500      0.0000    259.1379     84.2487     98.9233
    87.0000      0.0000    259.1212     84.2391    107.3807
    87.2500      0.0000    259.1187     84.2298    113.9834
    87.5000      0.0000    259.1281     84.2066    121.4178
    87.7500      0.0000    259.1402     84.1925    122.8674
    88.0000      0.0000    259.1599     84.1959    119.4807
    88.2500      0.0000    259.1703     84.2199    114.6959
    88.5000      0.0000    259.1767     84.2713    106.1904
    88.7500      0.0000    259.1739     84.2980    100.7761
    89.0000      0.0000    259.1606     84.3098     94.0622
    89.2500      0.0000    259.1487     84.3056     90.3229
    89.5000      0.0000    259.1336     84.3090     84.5750
    89.7500      0.0000    259.1297     84.3256     80.4851
    90.0000      0.0000    259.1355     84.3536     75.9260
    90.2500      0.0000    259.1446     84.3557     75.6132
    90.5000      0.0000    259.1572     84.3177     80.2874
    90.7500      0.0000    259.1609     84.2686     85.7452
    91.0000      0.0000    259.1584     84.1758     93.9438
    91.2500      0.0000    259.1547     84.1100     97.6248
    91.5000      0.0000    259.1531     84.0210     99.4376
    91.7500      0.0000    259.1551     83.9780     98.9458
    92.0000      0.0000    259.1566     83.9497     98.2191
    92.2500      0.0000    259.1527     83.9541     98.9177
    92.5000      0.0000    259.1393     83.9848    102.0786
    92.7500      0.0000    259.1282     84.0149    105.0207
    93.0000      0.0000    259.1129     84.0641    109.5237
    93.2500      0.0000    259.1047     84.0900    112.1453
    93.5000      0.0000    259.1133     84.0787    114.8740
    93.7500      0.0000    259.1669     83.9824    115.3965
    94.0000      0.0000    259.5441     83.4694    113.7936
    94.2500      0.0000    260.3254     82.6078    111.7176
    94.5000      0.0000    263.2778     79.8807    109.4066
    94.7500      0.0000    266.9706     76.8345    109.3327
    95.0000      0.0000    274.7349     70.7573    110.0217
    95.2500      0.0000    279.9758     66.4669    108.7729
    95.5000      0.0000    284.5333     61.2878    101.7558
    95.7500      0.0000    284.2502     59.2233     94.5758
    96.0000      0.0000    279.9381     58.0380     84.9959
    96.2500      0.0000    276.2267     58.0141     81.9571
    96.5000      2.0000    271.9279     58.2968     82.6204
    96.7500     -2.0000    270.4551     58.4477     84.2168
    97.0000      0.0000    270.2083     58.5543     83.4617
    97.2500      0.0000    271.1309     58.6400     79.4352
