~Version Information
VERS.                      2.0: CWLS Log ASCII Standard - VERSION 2.0
WRAP.                       NO: One line per depth step
~Well Information Block
STRT.FT                -6.7500: 
STOP.FT              1544.5000: 
STEP.FT                 0.2500: 
NULL.                -999.2500: 
COMP.          Pioneer Natural Resources: COMPANY
WELL.          Lorencito 10-36-33-67: WELL
FLD.           Purgatorie River: FIELD
LOC.           2130' FSL & 2362' FEL--: LOCATION
STAT.                       CO: State
CNTY.               Las Animas: COUNTY
CTRY. USA : Country
SECT. 36 : Section
TOWN. 33S : Township
RANG. 67W : Range
SRVC.          Patterson Wireline: SERVICE COMPANY
DATE.          Fri Sep 02 09:21:42 2005: LOG DATE
API.           05 071 08501 00: UNIQUE WELL ID
~Curve Information Block
DEPT.FT            0 000 00 00: Depth
CCL.                          : Casing Collar Locator
TT3.usec                      : CBL 3' Travel Time
AMP3.mV                       : CBL 3' Amplitude
GR.GAPI                       : Gamma Ray
~Parameter Information Block
~A  Depth       CCL         TT3         AMP3         GR     
# ...
   797.2500      0.0000    739.2410      9.5220     84.2279
   797.5000      0.0000    739.9722      9.4807     86.9524
   797.7500      0.0000    740.0570      9.4568     87.6066
   798.0000      0.0000    738.6599      9.4593     86.0161
   798.2500      0.0000    735.7878      9.4959     82.6291
   798.5000      0.0000    732.7457      9.5646     77.9661
   798.7500      0.0000    731.1825      9.6511     72.7331
   799.0000      0.0000    731.8677      9.7343     67.9572
   799.2500      0.0000    734.3741      9.7953     64.5202
   799.5000      0.0000    737.5361      9.8229     62.7265
   799.7500      0.0000    739.9602      9.8162     62.4815
   800.0000      0.0000    740.4507      9.7832     63.6096
   800.2500      0.0000    738.5019      9.7354     65.8322
   800.5000      0.0000    734.7468      9.6797     68.5670
   800.7500      0.0000    730.8953      9.6171     71.0117
   801.0000      0.0000    728.7506      9.5486     72.6922
   801.2500      0.0000    728.7963      9.4834     73.8712
   801.5000      0.0000    729.8431      9.4364     75.0777
   801.7500      0.0000    730.3903      9.4199     76.1393
   802.0000      0.0000    730.2199      9.4342     75.9340
   802.2500      0.0000    730.3655      9.4682     73.4373
   802.5000      0.0000    731.7836      9.5081     69.0866
   802.7500      0.0000    734.4462      9.5498     64.8322
   803.0000      0.0000    737.4630      9.6005     62.6850
   803.2500      0.0000    739.6975      9.6682     63.4217
   803.5000      0.0000    740.5236      9.7510     66.6877
   803.7500      0.0000    740.3622      9.8381     71.6300
   804.0000      0.0000    740.3670      9.9176     76.8999
   804.2500      0.0000    741.3388      9.9830     80.7102
   804.5000      0.0000    743.0330     10.0341     81.9332
   804.7500      0.0000    744.5969     10.0740     81.1755
   805.0000      0.0000    745.4436     10.1079     80.0933
   805.2500      0.0000    745.5665     10.1424     79.5767
   805.5000      0.0000    745.2711     10.1834     79.1012
   805.7500      0.0000    744.8442     10.2315     77.8604
   806.0000      0.0000    744.4318     10.2755     75.8734
   806.2500      0.0000    744.0074     10.2947     73.6915
   806.5000      0.0000    743.3001     10.2703     71.5646
   806.7500      0.0000    741.6783     10.2008     69.4827
   807.0000      0.0000    738.2428     10.1047     67.8689
   807.2500      0.0000    732.5097     10.0076     67.5988
   807.5000      0.0000    725.3647      9.9262     69.0710
   807.7500      0.0000    719.0294      9.8643     71.4658
   808.0000      0.0000    715.4216      9.8238     73.1255
   808.2500      0.0000    714.5295      9.8163     72.6644
   808.5000      0.0000    715.0969      9.8513     69.7790
   808.7500      0.0000    717.2491      9.8884     65.2707
   809.0000      0.0000    723.7770      9.8153     60.5730
   809.2500      0.0000    737.6998      9.5303     57.1283
   809.5000      0.0000    758.2923      9.0717     55.6555
   809.7500      0.0000    780.4009      8.6121     55.6230
   810.0000      0.0000    798.4052      8.3024     55.5914
   810.2500      0.0000    810.8812      8.1630     54.4826
   810.5000      0.0000    821.2304      8.1349     52.5301
   810.7500     -2.0000    833.0827      8.1846     50.8697
   811.0000      0.0000    844.6669      8.3477     50.4833
   811.2500      0.0000    848.9430      8.6990     51.8670
   811.5000      0.0000    840.8060      9.2667     55.5881
   811.7500      0.0000    823.2487      9.9401     62.7018
   812.0000      0.0000    804.5088     10.4904     74.1949
   812.2500      0.0000    790.1146     10.7439     89.7502
   812.5000      0.0000    779.7961     10.7234    107.1237
   812.7500      0.0000    771.0844     10.5906    123.1169
   813.0000      0.0000    763.0806     10.4884    135.4339
   813.2500      0.0000    756.3268     10.4714    143.5904
   813.5000      0.0000    751.1190     10.5350    148.1397
   813.7500      0.0000    747.3772     10.6526    149.5618
   814.0000      0.0000    745.6375     10.7902    148.2110
   814.2500      0.0000    747.0626     10.9144    144.8272
   814.5000      0.0000    752.2914     11.0043    140.5280
   814.7500      0.0000    760.6253     11.0572    136.4055
   815.0000      0.0000    770.2726     11.0834    133.2345
   815.2500      0.0000    779.1437     11.0918    131.3524
   815.5000      0.0000    785.8043     11.0818    130.6254
   815.7500      0.0000    789.9763     11.0478    130.5276
   816.0000      0.0000    792.0858     10.9883    130.5018
   816.2500      0.0000    792.6927     10.9101    130.5943
   816.5000      0.0000    792.5473     10.8267    131.5292
   816.7500      0.0000    792.6321     10.7531    133.5947
   817.0000      0.0000    793.6840     10.7011    135.4835
   817.2500      0.0000    796.2399     10.6768    134.8991
   817.5000      0.0000    801.1393     10.6790    130.6453
   817.7500      0.0000    808.7484     10.7000    123.9300
   818.0000      0.0000    817.6636     10.7286    117.5953
   818.2500      0.0000    825.3920     10.7571    114.2193
   818.5000      0.0000    830.3051     10.7830    114.5844
   818.7500      0.0000    832.1761     10.8032    117.3612
   819.0000      0.0000    831.1016     10.8098    120.2029
   819.2500      0.0000    826.7788     10.7959    121.4884
   819.5000      0.0000    819.1941     10.7663    121.3302
   819.7500      0.0000    809.4675     10.7355    121.0480
   820.0000      0.0000    798.9680     10.7152    121.5153
   820.2500      0.0000    787.5565     10.7042    121.8398
   820.5000      0.0000    774.5388     10.6902    119.8111
   820.7500      0.0000    762.6378     10.6620    113.8911
   821.0000      0.0000    759.6010     10.6215    104.6692
   821.2500      0.0000    773.6852     10.5827     94.2945
   821.5000      0.0000    806.5168     10.5586     84.8227
   821.7500      0.0000    850.1511     10.5492     77.3070
   822.0000      0.0000    891.2980     10.5431     71.9232
   822.2500      0.0000    918.8185     10.5291     68.3575
   822.5000      0.0000    928.1669     10.5044     66.3227
   822.7500      0.0000    921.4479     10.4752     66.1790
   823.0000      0.0000    905.5078     10.4499     68.7681
   823.2500      0.0000    888.6673     10.4306     74.1272
   823.5000      0.0000    875.8772     10.4091     80.5187
   823.7500      0.0000    865.1240     10.3739     85.1312
   824.0000      0.0000    848.8757     10.3202     85.7909
   824.2500      0.0000    820.9868     10.2520     82.1602
   824.5000      0.0000    783.8401     10.1771     75.8273
   824.7500      0.0000    747.9818     10.1025     69.4857
   825.0000      0.0000    723.3978     10.0342     65.6791
   825.2500      0.0000    711.6802      9.9792     65.7648
   825.5000      0.0000    707.0764      9.9428     69.7085
   825.7500      0.0000    703.3930      9.9246     76.6133
   826.0000      0.0000    698.5923      9.9147     85.1867
   826.2500      0.0000    694.1569      9.8985     93.7476
   826.5000      0.0000    692.2511      9.8671    100.3802
   826.7500      0.0000    693.7089      9.8256    103.6486
   827.0000      0.0000    697.5447      9.7885    103.2241
   827.2500      0.0000    701.9846      9.7685     99.7286
   827.5000      0.0000    706.1112      9.7663     94.2314
   827.7500      0.0000    710.2249      9.7711     88.0425
   828.0000      0.0000    714.4537      9.7697     82.6358
   828.2500      0.0000    717.7065      9.7552     79.3917
   828.5000      0.0000    718.3997      9.7286     79.1085
   828.7500      0.0000    715.8615      9.6948     81.4026
   829.0000      0.0000    710.8123      9.6593     84.6681
   829.2500      0.0000    704.9217      9.6282     87.0304
   829.5000      0.0000    700.0924      9.6097     87.4268
   829.7500      0.0000    697.8730      9.6145     85.7534
   830.0000      0.0000    699.0319      9.6509     82.3346
   830.2500      0.0000    703.1687      9.7174     77.5516
   830.5000      0.0000    708.5877      9.7972     71.9660
