~Version Information
VERS.                      2.0: CWLS Log ASCII Standard - VERSION 2.0
WRAP.                       NO: One line per depth step
~Well Information Block
STRT.FT                -8.5000: 
STOP.FT              1945.2500: 
STEP.FT                 0.2500: 
NULL.                -999.2500: 
COMP.          Pioneer Natural Resources: COMPANY
WELL.          Flying Horse 12-11 Tr: WELL
FLD.           Purgatorie River: FIELD
LOC.           2459' FNL & 410' FWL: LOCATION
STAT.                       CO: PROVINCE
CNTY.               Las Animas: COUNTY
CTRY.        USA : Country
SECT. 11 : Section
TOWN. 32S : Township
RANG. 66W : Range
SRVC.          Patterson Wireline: SERVICE COMPANY
DATE.          Thu Sep 08 15:44:22 2005: LOG DATE
API.           05 071 08485 00: UNIQUE WELL ID
~Curve Information Block
DEPT.FT            0 000 00 00: Depth
CCL.                          : Casing Collar Locator
TT3.usec                      : CBL 3' Travel Time
AMP3.mV                       : CBL 3' Amplitude
GR.GAPI                       : Gamma Ray
~Parameter Information Block
~A  Depth       CCL         TT3         AMP3         GR     
# ...
  1532.5000      0.0000    830.6629     11.2786     78.2429
  1532.7500      0.0000    908.1516     10.2120     76.5939
  1533.0000     -2.0000    969.6378      9.4029     75.2971
  1533.2500      0.0000   1000.4786      8.7560     75.3510
  1533.5000      0.0000    997.4894      8.2387     77.2974
  1533.7500      0.0000    971.6981      7.8544     80.7161
  1534.0000      0.0000    938.1484      7.6028     84.3014
  1534.2500      0.0000    904.3118      7.4542     86.5379
  1534.5000      0.0000    869.1634      7.3638     86.5956
  1534.7500      0.0000    831.7170      7.3288     84.8521
  1535.0000      0.0000    796.6093      7.4003     82.6322
  1535.2500      0.0000    769.7358      7.6027     81.2927
  1535.5000      0.0000    752.1213      7.8709     81.3503
  1535.7500      0.0000    741.0427      8.0986     82.2579
  1536.0000      0.0000    734.9872      8.2205     82.9067
  1536.2500      0.0000    735.0239      8.2323     82.4650
  1536.5000      0.0000    742.1387      8.1620     80.9706
  1536.7500      0.0000    754.7221      8.0535     79.1898
  1537.0000      0.0000    769.1255      7.9633     77.9566
  1537.2500      0.0000    782.5425      7.9412     77.7822
  1537.5000      0.0000    794.6494      7.9990     79.1193
  1537.7500      0.0000    805.7971      8.1063     82.8661
  1538.0000      0.0000    815.0755      8.2273     90.3630
  1538.2500      0.0000    821.4666      8.3568    102.2479
  1538.5000      0.0000    826.0116      8.5153    116.8556
  1538.7500      0.0000    831.4629      8.7178    130.0517
  1539.0000      0.0000    839.6833      8.9548    137.2959
  1539.2500      0.0000    849.3068      9.1971    136.2448
  1539.5000      0.0000    855.9330      9.4150    127.8036
  1539.7500      0.0000    855.3428      9.5993    115.1966
  1540.0000      0.0000    846.7601      9.7707    102.0470
  1540.2500      0.0000    832.7830      9.9704     90.7700
  1540.5000      0.0000    817.2078     10.2342     82.2006
  1540.7500      0.0000    803.6993     10.5701     76.2943
  1541.0000      0.0000    794.9889     10.9566     72.8175
  1541.2500      0.0000    791.6788     11.3610     71.3807
  1541.5000      0.0000    792.0425     11.7607     71.3539
  1541.7500      0.0000    793.6188     12.1470     72.2785
  1542.0000      0.0000    794.9064     12.5157     74.4716
  1542.2500      0.0000    795.6108     12.8576     79.0392
  1542.5000      0.0000    795.9854     13.1661     87.0521
  1542.7500      0.0000    796.2687     13.4447     98.3970
  1543.0000      0.0000    796.5315     13.7051    111.2731
  1543.2500      0.0000    796.7274     13.9591    122.8931
  1543.5000      0.0000    796.7333     14.2193    130.9588
  1543.7500      0.0000    796.2858     14.4985    134.8377
  1544.0000      0.0000    794.8599     14.8012    135.7365
  1544.2500      0.0000    791.8500     15.1143    135.9688
  1544.5000      0.0000    787.3601     15.4132    137.8892
  1544.7500      0.0000    782.9932     15.6810    142.8548
  1545.0000      0.0000    781.2171     15.9189    150.3580
  1545.2500      0.0000    783.2505     16.1328    157.8249
  1545.5000      0.0000    787.8171     16.3157    161.8542
  1545.7500      0.0000    792.4171     16.4477    160.5223
  1546.0000      0.0000    795.4678     16.5105    154.8378
  1546.2500      0.0000    796.9225     16.4959    147.8170
  1546.5000      0.0000    797.4197     16.4048    142.1890
  1546.7500      0.0000    797.4530     16.2387    139.0769
  1547.0000      0.0000    797.2319     15.9924    138.3605
  1547.2500      0.0000    796.8765     15.6684    139.4973
  1547.5000      0.0000    796.5115     15.3001    141.9796
  1547.7500      0.0000    796.2305     14.9467    145.4380
  1548.0000      0.0000    796.0590     14.6527    149.3707
  1548.2500      0.0000    795.9954     14.4173    152.7246
  1548.5000      0.0000    796.0402     14.2096    153.9412
  1548.7500      0.0000    796.1657     14.0053    151.7368
  1549.0000      0.0000    796.2315     13.8071    146.3337
  1549.2500      0.0000    795.8925     13.6361    140.1647
  1549.5000      0.0000    794.4650     13.5146    136.7538
  1549.7500      0.0000    790.9310     13.4558    138.1452
  1550.0000      0.0000    784.3901     13.4665    143.2940
  1550.2500      0.0000    774.7653     13.5554    148.7930
  1550.5000      0.0000    762.9638     13.7322    150.9643
  1550.7500      0.0000    750.3380     13.9940    148.0007
  1551.0000      0.0000    738.3096     14.3058    141.2371
  1551.2500      0.0000    728.3342     14.6016    134.4154
  1551.5000      0.0000    721.4670     14.8160    130.9921
  1551.7500      0.0000    717.7884     14.9184    131.7826
  1552.0000      0.0000    716.6489     14.9165    135.3370
  1552.2500      0.0000    717.5583     14.8293    140.1378
  1552.5000      0.0000    720.5820     14.6652    145.4313
  1552.7500      0.0000    725.6813     14.4294    149.9283
  1553.0000      0.0000    731.8834     14.1457    151.2475
  1553.2500      0.0000    737.7235     13.8593    147.6645
  1553.5000      0.0000    742.7764     13.6131    139.8004
  1553.7500      0.0000    748.1992     13.4193    130.0596
  1554.0000      0.0000    755.4330     13.2569    120.8697
  1554.2500      0.0000    764.8358     13.0981    113.7209
  1554.5000      0.0000    775.6276     12.9346    109.3637
  1554.7500      0.0000    786.6962     12.7800    108.2526
  1555.0000      0.0000    797.3529     12.6508    110.2628
  1555.2500      0.0000    807.3575     12.5462    114.0433
  1555.5000      0.0000    816.2791     12.4453    117.4026
  1555.7500      0.0000    823.2184     12.3227    118.7931
  1556.0000      0.0000    827.4893     12.1656    118.2811
  1556.2500      0.0000    829.6498     11.9735    116.9954
  1556.5000      0.0000    832.4047     11.7513    115.8747
  1556.7500      0.0000    840.5620     11.5132    114.9979
  1557.0000      0.0000    858.1268     11.2850    114.0007
  1557.2500      0.0000    882.4769     11.0836    112.9006
  1557.5000      0.0000    901.6813     10.8917    112.3266
  1557.7500      0.0000    901.4541     10.6683    112.8883
  1558.0000      0.0000    877.4089     10.3908    114.4055
  1558.2500      0.0000    839.5572     10.0779    115.8905
  1558.5000      0.0000    803.8252      9.7685    116.3926
  1558.7500      0.0000    780.1948      9.4879    115.7820
  1559.0000      0.0000    768.9833      9.2361    114.5451
  1559.2500      0.0000    765.5634      8.9986    112.9123
  1559.5000      0.0000    766.0195      8.7639    110.5252
  1559.7500      0.0000    769.1487      8.5357    107.1065
  1560.0000      0.0000    775.3987      8.3307    103.3033
  1560.2500      0.0000    784.5672      8.1607    100.5462
  1560.5000      0.0000    794.2859      8.0170     99.7938
  1560.7500      0.0000    801.2380      7.8739    100.4834
  1561.0000      0.0000    804.6147      7.7071    101.1658
  1561.2500      0.0000    807.0233      7.5139    101.0956
  1561.5000      0.0000    810.2355      7.3195    100.7062
  1561.7500      0.0000    810.8652      7.1644    100.5739
  1562.0000      0.0000    803.1827      7.0782    100.5762
  1562.2500      0.0000    787.1594      7.0660    100.3351
  1562.5000      0.0000    771.6130      7.1165     99.8692
  1562.7500      0.0000    767.2654      7.2143     99.2685
  1563.0000      0.0000    776.8467      7.3366     98.1404
  1563.2500      0.0000    792.3602      7.4457     95.9279
  1563.5000      0.0000    801.7567      7.5041     92.6188
  1563.7500      0.0000    798.4898      7.5046     88.9374
  1564.0000      0.0000    784.9304      7.4837     86.0263
  1564.2500      0.0000    767.9467      7.5028     84.9690
  1564.5000      0.0000    753.8607      7.6131     86.3516
  1564.7500      0.0000    747.1447      7.8381     90.2030
  1565.0000      0.0000    749.1050      8.1801     96.3013
  1565.2500      0.0000    755.1173      8.6269    104.1582
  1565.5000      0.0000    756.3220      9.1401    112.5154
  1565.7500      0.0000    747.2170      9.6497    119.2814
