~Version Information
 VERS.                                  2.0 : CWLS LAS VERSION
 WRAP.                                   NO : WRAPING MODE
 SWARE .                 MController 2.5.0J : SOFTWARE VERSION
~Well Information
 WELL.                    Greenwood 43-29Tr : WELL
 COMP.    Pioneer Natural Resources USA Inc : COMPANY
 FLD.                      Purgatoire River : FIELD
 LOC.                 NE/SE SEC29 T32S R67W : LOCATION
 DATE.                          08/30-31/05 : DATE(S) LOGGED
 SRVC.       Blanco Geological Services LLC : SERVICE COMPANY
 STAT.                             Colorado : STATE
 CNTY.                           Las Animas : COUNTY
 CTRY.                                  USA : COUNTRY
 API.                       05-071-08478-00 : API NUMBER
 STRT.FT                             941.00 : START DEPTH
 STOP.FT                            2097.00 : STOP DEPTH
 STEP.FT                               1.00 : DEPTH INCREMENT
 NULL.                                -9999 : NULL VALUE
~Curve information
 DEPTH.FT                                   :
 ROP.MIN/FT                                 :
 GAS.UNITS                                  :
~ASCII Log data
# ...
      1941.0         0.30        641.3 
      1942.0         0.23        625.7 
      1943.0         0.23        615.6 
      1944.0         0.27        617.5 
      1945.0         0.27        618.1 
      1946.0         2.88        863.1 
      1947.0         0.67        785.4 
      1948.0         0.43        726.0 
      1949.0         0.53        685.4 
      1950.0         0.63        674.3 
      1951.0         0.25        665.4 
      1952.0         0.30        667.0 
      1953.0         0.23        669.5 
      1954.0         0.30        670.1 
      1955.0         0.27        672.7 
      1956.0         0.23        669.2 
      1957.0         0.27        662.8 
      1958.0         0.27        662.2 
      1959.0         0.27        666.0 
      1960.0         0.50        679.4 
      1961.0         0.37        690.5 
      1962.0         0.42        701.3 
      1963.0         0.40        692.0 
      1964.0         0.40        684.7 
      1965.0         0.33        670.8 
      1966.0         0.33        658.7 
      1967.0         0.30        653.0 
      1968.0         0.27        648.2 
      1969.0         0.27        643.2 
      1970.0         0.23        639.0 
      1971.0         0.23        626.0 
      1972.0         0.27        614.9 
      1973.0         0.28        617.5 
      1974.0         0.27        630.8 
      1975.0         0.33        649.5 
      1976.0         2.43        964.0 
      1977.0         0.85        931.7 
      1978.0         0.47        742.2 
      1979.0         0.63        692.4 
      1980.0         0.40        675.2 
      1981.0         0.40        680.6 
      1982.0         0.30        686.7 
      1983.0         0.33        684.1 
      1984.0         0.25        682.2 
      1985.0         0.20        677.1 
      1986.0         0.17        676.2 
      1987.0         0.23        666.0 
      1988.0         0.23        659.7 
      1989.0         0.23        662.5 
      1990.0         0.27        674.9 
      1991.0         0.27        679.0 
      1992.0         0.30        679.7 
      1993.0         0.23        680.3 
      1994.0         0.20        679.0 
      1995.0         0.23        677.8 
      1996.0         0.30        678.4 
      1997.0         0.30        668.9 
      1998.0         0.38        660.6 
      1999.0         0.30        654.9 
      2000.0         0.30        652.1 
      2001.0         0.30        640.3 
      2002.0         0.40        626.7 
      2003.0         0.37        631.4 
      2004.0         0.30        650.8 
      2005.0         0.30        691.1 
      2006.0         2.78        972.9 
      2007.0         0.57        766.9 
      2008.0         0.37        694.0 
      2009.0         0.48        677.1 
      2010.0         0.50        680.3 
      2011.0         0.47        691.4 
      2012.0         0.33        692.4 
      2013.0         0.40        682.8 
      2014.0         0.30        673.3 
      2015.0         0.33        663.2 
      2016.0         0.40        658.7 
      2017.0         0.23        654.0 
      2018.0         0.23        654.6 
      2019.0         0.28        654.0 
      2020.0         0.27        650.5 
      2021.0         0.20        647.3 
      2022.0         0.13        648.2 
      2023.0         0.17        647.9 
      2024.0         0.30        646.7 
      2025.0         0.33        645.7 
      2026.0         0.27        648.2 
      2027.0         0.20        643.5 
      2028.0         0.17        633.6 
      2029.0         0.23        625.7 
      2030.0         0.23        620.0 
      2031.0         0.20        612.4 
      2032.0         0.23        616.8 
      2033.0         0.25        626.0 
      2034.0         0.20        647.9 
      2035.0         0.17        671.7 
      2036.0         2.60        937.1 
      2037.0         0.55        796.8 
      2038.0         0.40        722.2 
      2039.0         0.43        673.0 
      2040.0         0.27        670.8 
      2041.0         0.27        674.9 
      2042.0         0.30        675.2 
      2043.0         0.23        680.0 
      2044.0         0.30        677.8 
      2045.0         0.37        671.4 
      2046.0         0.30        669.2 
      2047.0         0.20        662.2 
      2048.0         0.22        662.2 
      2049.0         0.23        660.6 
      2050.0         0.30        659.0 
      2051.0         0.43        658.1 
      2052.0         0.50        654.3 
      2053.0         0.30        647.6 
      2054.0         0.27        642.5 
      2055.0         0.23        644.1 
      2056.0         0.17        644.1 
      2057.0         0.23        636.8 
      2058.0         0.23        625.1 
      2059.0         0.17        622.2 
      2060.0         0.18        614.6 
      2061.0         0.17        615.6 
      2062.0         0.20        630.8 
      2063.0         0.20        630.8 
      2064.0         0.20        662.5 
      2065.0         0.13        662.5 
      2066.0         2.30        971.0 
      2067.0         0.45        914.5 
      2068.0         0.47        805.4 
      2069.0         0.77        718.1 
      2070.0         0.33        658.4 
      2071.0         0.37        657.5 
      2072.0         0.33        675.5 
      2073.0         0.37        679.4 
      2074.0         0.42        677.8 
      2075.0         0.33        668.6 
      2076.0         0.30        664.8 
      2077.0         0.33        661.6 
      2078.0         0.40        662.2 
      2079.0         0.47        652.4 
      2080.0         0.43        649.2 
      2081.0         0.43        642.2 
      2082.0         0.43        637.8 
      2083.0         0.32        638.1 
      2084.0         0.47        634.0 
      2085.0         0.30        636.5 
      2086.0         0.40        638.7 
      2087.0         0.30        637.5 
      2088.0         0.30        635.6 
      2089.0         0.30        636.8 
      2090.0         0.27        631.7 
      2091.0         0.27        624.4 
      2092.0         0.30        615.6 
      2093.0         0.27        619.4 
      2094.0         0.28        649.2 
      2095.0         1.73        901.5 
      2096.0         0.70        843.4 
      2097.0         0.40        580.6 
