~Version Information
VERS.                      2.0: CWLS Log ASCII Standard - VERSION 2.0
WRAP.                       NO: One line per depth step
~Well Information Block
STRT.FT               545.0000: 
STOP.FT              1452.5000: 
STEP.FT                 0.1000: 
NULL.                -999.2500: 
COMP.          Pioneer Natural Resources: COMPANY
WELL.          Parklane 43-34 Tr: WELL
FLD.           Purgatoire River: FIELD
LOC.           1643' FSL & 966' FEL: LOCATION
PROV.                 Colorado: PROVINCE
CNTY.               Las Animas: COUNTRY
SRVC.                Patterson: SERVICE COMPANY
DATE.          Fri Jul 29 07:27:28 2005: LOG DATE
UWI.           05 071 08452 00: UNIQUE WELL ID
~Curve Information Block
DEPT.FT            0 000 00 00: Depth
DCAL.in                       : CDL Caliper
RHOB.g/cc                     : CDL Bulk Density
RHOC.g/cc                     : CDL Density Correction
DPOR.pu                       : CDL Density Porosity
GR.GAPI                       : Gamma Ray
NPOR.pu                       : Neutron Porosity
~Parameter Information Block
~A  Depth       DCAL        RHOB        RHOC        DPOR         GR         NPOR    
# ...
  1082.6000      8.0139      2.3145      0.0655     20.3339    137.7424     17.7717
  1082.7000      8.0139      2.3079      0.1120     20.7327    141.7778     18.1897
  1082.8000      8.0402      2.3248      0.1221     19.7097    147.4501     18.8832
  1082.9000      8.0402      2.3453      0.2091     18.4690    150.0757     19.3684
  1083.0000      8.1976      2.3408      0.2056     18.7389    153.2799     19.4372
  1083.1000      8.1976      2.3151      0.1505     20.2966    156.2294     19.5005
  1083.2000      8.1976      2.2930      0.1519     21.6357    151.7955     19.7483
  1083.3000      8.2754      2.2798      0.1502     22.4391    144.5961     19.6328
  1083.4000      8.2754      2.2642      0.1159     23.3804    143.1414     19.1366
  1083.5000      8.2988      2.2470      0.0673     24.4245    144.4869     19.0374
  1083.6000      8.2988      2.2410      0.0653     24.7890    143.9041     19.6022
  1083.7000      8.2988      2.2503      0.0612     24.2271    142.7437     20.4451
  1083.8000      8.2766      2.2657      0.1104     23.2882    142.9759     21.2136
  1083.9000      8.2766      2.2790      0.0750     22.4841    144.6785     21.8176
  1084.0000      8.3411      2.2886      0.1295     21.9057    148.4169     22.2661
  1084.1000      8.3411      2.2954      0.0952     21.4899    152.6156     22.3201
  1084.2000      8.3411      2.3009      0.1063     21.1559    153.0109     21.7762
  1084.3000      8.3270      2.3057      0.1228     20.8682    149.1696     21.0297
  1084.4000      8.3270      2.3140      0.1630     20.3640    144.4773     20.6956
  1084.5000      8.2927      2.3337      0.1299     19.1674    142.3648     20.8907
  1084.6000      8.2927      2.3607      0.1671     17.5360    142.2395     21.3260
  1084.7000      8.2927      2.3719      0.1686     16.8532    143.4198     21.5257
  1084.8000      8.2819      2.3498      0.1191     18.1937    147.1781     21.3079
  1084.9000      8.2819      2.3023      0.0960     21.0754    150.9362     20.8637
  1085.0000      8.3118      2.2467      0.0634     24.4395    152.9406     20.4460
  1085.1000      8.3118      2.1970      0.0264     27.4565    154.5623     20.2198
  1085.2000      8.3118      2.1628      0.0723     29.5248    154.6792     20.1055
  1085.3000      8.2787      2.1439      0.0631     30.6757    151.8654     20.0634
  1085.4000      8.2787      2.1352      0.0206     31.2015    146.9530     19.9047
  1085.5000      8.2974      2.1348      0.0691     31.2249    142.1329     19.3885
  1085.6000      8.2974      2.1439      0.0601     30.6706    140.1279     18.9386
  1085.7000      8.2974      2.1739      0.0899     28.8564    139.9861     19.0804
  1085.8000      8.2794      2.2249      0.2426     25.7657    138.9166     19.5175
  1085.9000      8.2794      2.2701      0.3152     23.0271    137.3104     19.3259
  1086.0000      8.2781      2.2879      0.2641     21.9425    136.0632     18.3907
  1086.1000      8.2781      2.2788      0.1783     22.4996    136.7933     17.8195
  1086.2000      8.2781      2.2546      0.0182     23.9646    137.9799     18.2105
  1086.3000      8.2861      2.2303      0.0336     25.4334    136.9305     18.7281
  1086.4000      8.2861      2.2111      0.0337     26.6002    136.3235     18.5429
  1086.5000      8.2753      2.1943      0.0687     27.6159    136.4510     18.1837
  1086.6000      8.2753      2.1815      0.0538     28.3952    135.8192     18.3304
  1086.7000      8.2753      2.1807      0.0408     28.4443    135.0917     18.8459
  1086.8000      8.3650      2.1954      0.1017     27.5524    135.4060     19.5121
  1086.9000      8.3650      2.2146      0.1055     26.3865    138.3771     20.4001
  1087.0000      8.4329      2.2324      0.1143     25.3085    140.2709     21.3951
  1087.1000      8.4329      2.2617      0.1230     23.5314    138.7209     22.2507
  1087.2000      8.4329      2.3129      0.2151     20.4307    138.8627     22.7684
  1087.3000      8.4311      2.3761      0.1988     16.5970    141.6667     22.8813
  1087.4000      8.4311      2.4272      0.2035     13.5002    144.0018     22.9023
  1087.5000      8.3414      2.4448      0.1787     12.4381    144.0379     23.2897
  1087.6000      8.3414      2.4378      0.0907     12.8614    140.9674     24.1025
  1087.7000      8.3414      2.4358      0.0679     12.9792    137.2369     24.8347
  1087.8000      8.1788      2.4544      0.0953     11.8532    135.8898     24.8308
  1087.9000      8.1788      2.4915      0.1024      9.6078    135.6013     24.2435
  1088.0000      8.1514      2.5347      0.1654      6.9877    133.5728     23.8008
  1088.1000      8.1514      2.5605      0.2277      5.4222    130.2008     23.7151
  1088.2000      8.1514      2.5574      0.1929      5.6092    127.9609     23.8048
  1088.3000      8.0916      2.5425      0.1465      6.5167    127.2054     24.0922
  1088.4000      8.0916      2.5264      0.1606      7.4911    128.5540     24.3555
  1088.5000      8.0528      2.4998      0.1170      9.1005    132.6247     24.2719
  1088.6000      8.0528      2.4679      0.0649     11.0364    133.1816     24.1443
  1088.7000      8.0528      2.4494      0.0864     12.1584    125.4929     24.2431
  1088.8000      8.0366      2.4455      0.0968     12.3918    116.2712     24.2031
  1088.9000      8.0366      2.4486      0.0800     12.2043    113.3089     23.8390
  1089.0000      8.0371      2.4627      0.0553     11.3488    115.9346     23.3980
  1089.1000      8.0371      2.4933      0.0918      9.4959    117.6926     23.0392
  1089.2000      8.0371      2.5347      0.0863      6.9850    117.2861     22.9369
  1089.3000      8.0307      2.5750      0.1327      4.5427    120.1339     23.3362
  1089.4000      8.0307      2.6038      0.1254      2.7991    125.6738     23.9620
  1089.5000      8.0617      2.6157      0.1324      2.0771    128.6484     24.2982
  1089.6000      8.0617      2.6067      0.0779      2.6224    127.2257     24.3280
  1089.7000      8.0617      2.5843      0.1129      3.9817    123.4887     24.2838
  1089.8000      8.0673      2.5681      0.0696      4.9608    120.8836     24.2016
  1089.9000      8.0673      2.5706      0.0689      4.8107    120.8591     23.9035
  1090.0000      8.0745      2.5782      0.0506      4.3525    123.9707     23.0789
  1090.1000      8.0745      2.5594      0.0605      5.4936    129.8336     22.0525
  1090.2000      8.0745      2.5078     -0.0025      8.6203    133.7633     21.3076
  1090.3000      8.1083      2.4605     -0.0432     11.4847    131.0773     20.7357
  1090.4000      8.1083      2.4476      0.0170     12.2680    122.7169     20.4060
  1090.5000      8.1066      2.4507      0.0338     12.0767    115.7026     20.4987
  1090.6000      8.1066      2.4418      0.0187     12.6184    117.4598     20.6853
  1090.7000      8.1066      2.4304     -0.0318     13.3107    127.1356     20.5977
  1090.8000      8.0980      2.4385      0.0667     12.8188    135.2316     20.3737
  1090.9000      8.0980      2.4613      0.1125     11.4370    134.6297     20.2546
  1091.0000      8.1067      2.4848      0.1178     10.0151    128.7922     20.0852
  1091.1000      8.1067      2.5055      0.1622      8.7579    125.9148     19.7813
  1091.2000      8.1067      2.5147      0.2604      8.2011    126.5451     19.4590
  1091.3000      8.1275      2.4935      0.2092      9.4825    127.0188     19.1462
  1091.4000      8.1275      2.4504      0.1122     12.0999    129.1831     18.9472
  1091.5000      8.1172      2.4213      0.1310     13.8619    132.9799     19.0235
  1091.6000      8.1172      2.4200      0.1172     13.9421    132.6158     19.4541
  1091.7000      8.1172      2.4337      0.1321     13.1098    131.0936     20.0168
  1091.8000      8.1230      2.4586      0.1392     11.6030    134.6599     20.2110
  1091.9000      8.1230      2.4962      0.1695      9.3227    139.7746     20.0789
  1092.0000      8.1838      2.5301      0.1768      7.2668    143.1989     20.2932
  1092.1000      8.1838      2.5491      0.1533      6.1158    145.7775     20.9992
