~Version Information
VERS.                      2.0: CWLS Log ASCII Standard - VERSION 2.0
WRAP.                       NO: One line per depth step
~Well Information Block
STRT.FT                10.0000: 
STOP.FT              1350.5000: 
STEP.FT                 0.1000: 
NULL.                -999.2500: 
COMP.          Pioneer Natural Resources: COMPANY
WELL.              Dicks 32-5R: WELL
FLD.           Purgatorie River: FIELD
LOC.           1485' FNL & 1684' FEL: LOCATION
PROV.                 Colorado: PROVINCE
CNTY.               Las Animas: COUNTRY
SRVC.                Patterson: SERVICE COMPANY
DATE.          Fri Dec 09 10:06:15 2005: LOG DATE
UWI.                          : UNIQUE WELL ID
~Curve Information Block
DEPT.FT            0 000 00 00: Depth
DCAL.in                       : CDL Caliper
RHOB.g/cc                     : CDL Bulk Density
RHOC.g/cc                     : CDL Density Correction
DPOR.pu                       : CDL Density Porosity
GR.GAPI                       : Gamma Ray
NPOR.pu                       : Neutron Porosity
~Parameter Information Block
~A  Depth       DCAL        RHOB        RHOC        DPOR         GR         NPOR    
# ...
  1248.4000      8.0424      2.3674     -0.0078     17.1245     81.1925     21.6905
  1248.5000      8.0541      2.3527     -0.0254     18.0207     81.4774     21.5823
  1248.6000      8.0541      2.3639     -0.0421     17.3394     82.0918     21.3998
  1248.7000      8.0541      2.3996      0.0372     15.1747     82.3410     21.2196
  1248.8000      8.0593      2.4378      0.0784     12.8627     79.4816     21.1729
  1248.9000      8.0593      2.4604      0.0911     11.4931     74.0460     21.2762
  1249.0000      8.0417      2.4673      0.0492     11.0714     70.3964     21.5050
  1249.1000      8.0417      2.4680      0.0713     11.0331     70.7271     21.6078
  1249.2000      8.0417      2.4623      0.0915     11.3777     72.1220     21.4129
  1249.3000      8.0564      2.4478      0.0621     12.2542     72.2577     21.1641
  1249.4000      8.0564      2.4356      0.0230     12.9924     72.2662     21.0834
  1249.5000      8.0452      2.4329      0.0522     13.1563     71.3120     21.1355
  1249.6000      8.0452      2.4313      0.0725     13.2556     68.5642     21.2075
  1249.7000      8.0452      2.4240      0.0692     13.6997     67.2557     21.2167
  1249.8000      8.0663      2.4114      0.0229     14.4630     68.9244     21.1240
  1249.9000      8.0663      2.3993      0.0139     15.1910     71.5497     20.8483
  1250.0000      8.0543      2.4003      0.0237     15.1325     74.3603     20.4331
  1250.1000      8.0543      2.4173      0.0358     14.1039     76.4026     20.0994
  1250.2000      8.0543      2.4390      0.0420     12.7849     75.2561     19.7813
  1250.3000      8.0371      2.4565      0.0496     11.7288     71.9333     19.4159
  1250.4000      8.0371      2.4669      0.0502     11.0972     70.4332     19.3751
  1250.5000      8.0386      2.4698      0.0239     10.9187     71.6911     19.7569
  1250.6000      8.0386      2.4663      0.0615     11.1330     74.9146     20.1365
  1250.7000      8.0386      2.4632      0.0314     11.3224     79.8181     20.2746
  1250.8000      8.0365      2.4714      0.0729     10.8218     83.1284     20.3416
  1250.9000      8.0365      2.4809      0.0793     10.2489     81.9501     20.4836
  1251.0000      8.0331      2.4708      0.0957     10.8613     79.7118     20.6720
  1251.1000      8.0331      2.4458      0.0611     12.3777     80.3119     20.9136
  1251.2000      8.0331      2.4251      0.0364     13.6295     82.0019     21.1559
  1251.3000      8.0130      2.4121      0.0544     14.4211     82.2471     21.1738
  1251.4000      8.0130      2.4026     -0.0319     14.9929     80.0505     20.8614
  1251.5000      8.0293      2.4004      0.0243     15.1285     76.1162     20.4632
  1251.6000      8.0293      2.4034      0.0316     14.9433     72.0019     20.2332
  1251.7000      8.0293      2.4094      0.0343     14.5842     69.1632     20.2095
  1251.8000      8.0398      2.4230      0.0326     13.7603     69.4064     20.2131
  1251.9000      8.0398      2.4442      0.0487     12.4741     73.6365     20.1432
  1252.0000      8.0581      2.4633      0.0936     11.3160     80.1107     20.3129
  1252.1000      8.0581      2.4754      0.0734     10.5791     85.7309     20.7048
  1252.2000      8.0581      2.4861      0.0702      9.9350     89.3503     20.7143
  1252.3000      8.0396      2.4990      0.0755      9.1498     91.1693     20.2573
  1252.4000      8.0396      2.5175      0.0768      8.0319     91.8365     19.8917
  1252.5000      8.0109      2.5439      0.0941      6.4279     93.2583     19.9258
  1252.6000      8.0109      2.5714      0.1002      4.7652     97.4515     20.2967
  1252.7000      8.0109      2.5900      0.0941      3.6372    103.4990     20.6076
  1252.8000      8.0251      2.5968      0.0859      3.2221    108.0188     20.6737
  1252.9000      8.0251      2.5944      0.0711      3.3676    108.9922     20.9015
  1253.0000      8.0043      2.5868      0.0389      3.8317    107.3700     21.3810
  1253.1000      8.0043      2.5793      0.0148      4.2860    105.8672     21.6747
  1253.2000      8.0043      2.5755      0.0636      4.5181    104.1924     21.5180
  1253.3000      7.9951      2.5733      0.0618      4.6488    100.4229     20.9770
  1253.4000      7.9951      2.5729      0.0170      4.6713     95.7166     20.2616
  1253.5000      8.0075      2.5762      0.0543      4.4736     92.4908     19.7672
  1253.6000      8.0075      2.5790      0.0548      4.3035     92.3064     19.5993
  1253.7000      8.0075      2.5771      0.0572      4.4190     94.0850     19.6252
  1253.8000      8.0106      2.5744      0.0217      4.5831     95.1677     19.8498
  1253.9000      8.0106      2.5737      0.0737      4.6223     97.2420     19.9621
  1254.0000      8.0131      2.5672      0.0652      5.0167    101.5831     19.6926
  1254.1000      8.0131      2.5531      0.0413      5.8700    104.0438     19.3389
  1254.2000      8.0131      2.5405      0.0564      6.6345    103.2411     19.4343
  1254.3000      8.0273      2.5286      0.0532      7.3601    101.9854     20.0934
  1254.4000      8.0273      2.5101      0.0633      8.4768    101.6945     20.9186
  1254.5000      8.0046      2.4910     -0.0156      9.6343    102.3852     21.5497
  1254.6000      8.0046      2.4810      0.0498     10.2412    105.5331     22.0990
  1254.7000      8.0046      2.4789      0.0267     10.3725    110.0550     22.8537
  1254.8000      7.9857      2.4845      0.0210     10.0302    110.7384     23.6363
  1254.9000      7.9857      2.4969      0.0186      9.2762    107.4472     24.0558
  1255.0000      8.0068      2.5083      0.0270      8.5854    104.4229     24.2287
  1255.1000      8.0068      2.5204      0.0044      7.8541    104.1926     24.3591
  1255.2000      8.0068      2.5419      0.0598      6.5540    105.9004     24.3656
  1255.3000      8.0363      2.5670      0.0825      5.0285    105.7934     24.4146
  1255.4000      8.0363      2.5850      0.0473      3.9388    103.6561     24.7161
  1255.5000      8.0343      2.5907      0.1085      3.5953    101.7544     25.0685
  1255.6000      8.0343      2.5811      0.0464      4.1765     98.7995     25.2195
  1255.7000      8.0343      2.5676      0.0328      4.9928     94.5984     25.1102
  1255.8000      8.0459      2.5606      0.0615      5.4194     91.8044     24.7362
  1255.9000      8.0459      2.5589      0.0146      5.5195     89.7892     24.0738
  1256.0000      8.0243      2.5667      0.0123      5.0510     86.3241     23.1862
  1256.1000      8.0243      2.5822      0.0259      4.1107     82.6201     22.3133
  1256.2000      8.0243      2.5955     -0.0097      3.3015     81.0837     21.7850
  1256.3000      8.0194      2.6035      0.0230      2.8195     80.9296     21.4456
  1256.4000      8.0194      2.6048      0.0511      2.7379     79.8630     20.9146
  1256.5000      8.0011      2.5985      0.0443      3.1233     77.2408     20.2904
  1256.6000      8.0011      2.5877     -0.0042      3.7782     73.2121     19.9101
  1256.7000      8.0011      2.5860     -0.0313      3.8775     69.5712     19.8758
  1256.8000      8.0209      2.6024      0.0383      2.8871     68.4059     19.9504
  1256.9000      8.0209      2.6244      0.0386      1.5544     68.2158     20.0512
  1257.0000      7.9679      2.6379      0.0823      0.7333     67.2099     20.2852
  1257.1000      7.9679      2.6425      0.0791      0.4516     67.3404     20.4944
  1257.2000      7.9679      2.6444      0.0430      0.3413     69.3122     20.5742
  1257.3000      7.9589      2.6369      0.0935      0.7948     72.7723     20.6896
  1257.4000      7.9589      2.6098      0.0618      2.4360     77.3170     20.8646
  1257.5000      7.9529      2.5753     -0.0205      4.5293     79.8825     21.0013
  1257.6000      7.9529      2.5524      0.0409      5.9181     79.5910     21.0722
  1257.7000      7.9529      2.5421      0.0189      6.5380     80.4529     21.1999
  1257.8000      7.9784      2.5399      0.0084      6.6728     85.0557     21.5559
  1257.9000      7.9784      2.5402      0.0393      6.6526     90.9345     21.9499
