~Version Information
VERS.                      2.0: CWLS Log ASCII Standard - VERSION 2.0
WRAP.                       NO: One line per depth step
~Well Information Block
STRT.FT               570.0000: 
STOP.FT              1958.5000: 
STEP.FT                 0.2500: 
NULL.                -999.2500: 
COMP.          Petrogulf Corporation: COMPANY
WELL.            Montoya 7-14R: WELL
FLD.           Purgatorie River: FIELD
LOC.           628' FSL & 454' FWL: LOCATION
PROV.                 Colorado: PROVINCE
CNTY.               Las Animas: COUNTRY
SRVC.                Patterson: SERVICE COMPANY
DATE.          Sat Oct 08 17:13:52 2005: LOG DATE
UWI.                          : UNIQUE WELL ID
~Curve Information Block
DEPT.FT            0 000 00 00: Depth
SP.mV                         : DIL Spontaneous Potential
RILD.Ohm-m                    : DIL Deep Resistivity
RILM.Ohm-m                    : DIL Medium Resistivity
RLL3.Ohm-m                    : DIL Shallow Resistivity
GR.GAPI                       : Gamma Ray
~Parameter Information Block
~A  Depth        SP         RILD        RILM        RLL3         GR     
# ...
  1942.0000    228.9127     19.0830     18.9403     19.4026   -999.2500
  1942.2500    229.1122     18.7541     18.1677     17.4685   -999.2500
  1942.5000    228.7285     18.5544     17.5722     16.3951   -999.2500
  1942.7500    226.7094     18.6068     17.1371     16.0752   -999.2500
  1943.0000    220.4240     19.1195     16.8411     16.2643   -999.2500
  1943.2500    205.4510     20.4097     16.6608     16.7267   -999.2500
  1943.5000    177.6188     23.1244     16.5738     17.2923   -999.2500
  1943.7500    137.2382     27.6912     16.5596     17.8684   -999.2500
  1944.0000     91.5526     35.3234     16.6018     18.4248   -999.2500
  1944.2500     51.2711     47.3435     16.6885     18.9500   -999.2500
  1944.5000     23.6008     64.4629     16.8122     19.4042   -999.2500
  1944.7500      8.7949     84.7827     16.9702     19.7177   -999.2500
  1945.0000      2.6243    103.0474     17.1648     19.8436   -999.2500
  1945.2500      0.6214    114.7924     17.4039     19.8076   -999.2500
  1945.5000      0.1150    120.3418     17.7040     19.6999   -999.2500
  1945.7500      0.0153    122.7703     18.0940     19.6220   -999.2500
  1946.0000   -999.2500    124.7978     18.6206     19.6494   -999.2500
  1946.2500   -999.2500    128.0934     19.3548     19.8316   -999.2500
  1946.5000   -999.2500    418.6874     20.3996     20.1979   -999.2500
  1946.7500   -999.2500    506.3631     21.8989     20.7389   -999.2500
  1947.0000   -999.2500    658.2805     24.0501     21.3900   -999.2500
  1947.2500   -999.2500    913.1185     27.1214     22.0527   -999.2500
  1947.5000   -999.2500   1314.8185     31.4702     22.6502   -999.2500
  1947.7500   -999.2500   1865.6783     37.5493     23.1726   -999.2500
  1948.0000   -999.2500   2452.9824     45.8631     23.6616   -999.2500
  1948.2500   -999.2500   2896.9587     56.8056     24.1372   -999.2500
  1948.5000   -999.2500   3132.1250     69.9963     24.5437   -999.2500
  1948.7500   -999.2500   3224.6589     85.4558     24.8113   -999.2500
  1949.0000   -999.2500   3253.6086    100.3285     24.9916   -999.2500
  1949.2500   -999.2500   3261.1284    112.8352     25.2754   -999.2500
  1949.5000   -999.2500 100000.0000    121.7963     25.8085   -999.2500
  1949.7500   -999.2500 100000.0000    127.3599     26.4995   -999.2500
  1950.0000   -999.2500 100000.0000    130.4634     27.0761   -999.2500
  1950.2500   -999.2500 100000.0000    132.1191     27.3544   -999.2500
  1950.5000   -999.2500 100000.0000    133.0659     27.4299   -999.2500
  1950.7500   -999.2500 100000.0000    133.7489     27.5976   -999.2500
  1951.0000   -999.2500 100000.0000    134.4153     28.0971   -999.2500
  1951.2500   -999.2500 100000.0000    972.4275     28.9365   -999.2500
  1951.5000   -999.2500 100000.0000   1026.6604     29.9151   -999.2500
  1951.7500   -999.2500 100000.0000   1104.5536     30.7236   -999.2500
  1952.0000   -999.2500 100000.0000   1216.6304     30.9017   -999.2500
  1952.2500   -999.2500 100000.0000   1377.4973     29.7164   -999.2500
  1952.5000   -999.2500 100000.0000   1607.2404     26.3697   -999.2500
  1952.7500   -999.2500 100000.0000   1932.5208     20.7135   -999.2500
  1953.0000   -999.2500   -999.2500   2385.5164     13.8044   -999.2500
  1953.2500   -999.2500   -999.2500   2996.5872      7.4350   -999.2500
  1953.5000   -999.2500   -999.2500   3775.2078      2.9349   -999.2500
  1953.7500   -999.2500   -999.2500   4680.3062      0.4814   -999.2500
  1954.0000   -999.2500   -999.2500   5603.8218     -0.5545   -999.2500
  1954.2500   -999.2500   -999.2500   6405.8477     -0.8938   -999.2500
  1954.5000   -999.2500   -999.2500   6991.7163     -0.9802   -999.2500
  1954.7500   -999.2500   -999.2500   7354.9731     -0.9973   -999.2500
  1955.0000   -999.2500   -999.2500   7550.3301   -999.2500   -999.2500
  1955.2500   -999.2500   -999.2500   7643.5737   -999.2500   -999.2500
  1955.5000   -999.2500   -999.2500   7683.7266   -999.2500   -999.2500
  1955.7500   -999.2500   -999.2500   7699.5034   -999.2500   -999.2500
  1956.0000   -999.2500   -999.2500   7705.1860   -999.2500   -999.2500
  1956.2500   -999.2500   -999.2500 100000.0000   -999.2500   -999.2500
  1956.5000   -999.2500   -999.2500 100000.0000   -999.2500   -999.2500
  1956.7500   -999.2500   -999.2500 100000.0000   -999.2500   -999.2500
  1957.0000   -999.2500   -999.2500 100000.0000   -999.2500   -999.2500
  1957.2500   -999.2500   -999.2500 100000.0000   -999.2500   -999.2500
  1957.5000   -999.2500   -999.2500 100000.0000   -999.2500   -999.2500
  1957.7500   -999.2500   -999.2500 100000.0000   -999.2500   -999.2500
  1958.0000   -999.2500   -999.2500 100000.0000   -999.2500   -999.2500
  1958.2500   -999.2500   -999.2500 100000.0000   -999.2500   -999.2500
  1958.5000   -999.2500   -999.2500 100000.0000   -999.2500   -999.2500
