~Version Information
VERS.                      2.0: CWLS Log ASCII Standard - VERSION 2.0
WRAP.                       NO: One line per depth step
~Well Information Block
STRT.FT               240.0000: 
STOP.FT              1159.2500: 
STEP.FT                 0.2500: 
NULL.                -999.2500: 
COMP.          Pioneer Natural Resources: COMPANY
WELL.               Ryan 41-17: WELL
FLD.           Purgatoire River: FIELD
LOC.           822' FNL & 532' FEL--: LOCATION
CNTY.               Las Animas: COUNTY
SRVC.                Patterson: SERVICE COMPANY
DATE.          Thu Mar 16 16:50:09 2006: LOG DATE
UWI.           05 071 08719 00: UNIQUE WELL ID
STAT.                 Colorado: STATE
~Curve Information Block
DEPT.FT            0 000 00 00: Depth
SN.Ohm-m                      : IEL Short Normal
SP.mV                         : IEL Spontaneous Potential
DIR.Ohm-m                     : IEL Induction Resistivity
GR.GAPI                       : Gamma Ray
~Parameter Information Block
~A  Depth        SN          SP         DIR          GR     
# ...
   776.0000     11.7028    -38.2269      9.2286    112.5439
   776.2500     11.8111    -38.0168      9.3682    109.8582
   776.5000     11.9386    -37.8216      9.5227    106.8112
   776.7500     12.0690    -37.6410      9.6864    105.6808
   777.0000     12.1772    -37.4733      9.8478    104.4816
   777.2500     12.2428    -37.3153      9.9907    103.3685
   777.5000     12.2595    -37.1637     10.0991    101.1917
   777.7500     12.2378    -37.0163     10.1631     99.9213
   778.0000     12.1986    -36.8728     10.1826     99.0893
   778.2500     12.1626    -36.7353     10.1680     99.4672
   778.5000     12.1391    -36.6084     10.1359    101.5333
   778.7500     12.1237    -36.4978     10.1033    103.7884
   779.0000     12.1042    -36.4095     10.0802    107.7060
   779.2500     12.0682    -36.3475     10.0672    109.8649
   779.5000     12.0094    -36.3136     10.0581    110.8889
   779.7500     11.9293    -36.3067     10.0468    109.6613
   780.0000     11.8342    -36.3234     10.0324    105.7671
   780.2500     11.7305    -36.3593     10.0200    102.9402
   780.5000     11.6224    -36.4094     10.0148    100.1055
   780.7500     11.5132    -36.4693     10.0178     99.6186
   781.0000     11.4071    -36.5341     10.0242    100.9824
   781.2500     11.3115    -36.5980     10.0277    102.9723
   781.5000     11.2383    -36.6542     10.0228    106.6087
   781.7500     11.2018    -36.6943     10.0058    108.9070
   782.0000     11.2123    -36.7107      9.9744    112.0569
   782.2500     11.2688    -36.6982      9.9273    114.4556
   782.5000     11.3572    -36.6563      9.8651    119.1566
   782.7500     11.4541    -36.5906      9.7913    122.6058
   783.0000     11.5325    -36.5127      9.7108    126.5615
   783.2500     11.5654    -36.4376      9.6286    127.7921
   783.5000     11.5306    -36.3806      9.5484    128.0983
   783.7500     11.4208    -36.3545      9.4732    127.9974
   784.0000     11.2514    -36.3663      9.4070    127.8629
   784.2500     11.0584    -36.4170      9.3558    127.5184
   784.5000     10.8829    -36.5016      9.3259    126.1337
   784.7500     10.7544    -36.6112      9.3212    124.6728
   785.0000     10.6828    -36.7348      9.3397    121.9765
   785.2500     10.6624    -36.8617      9.3733    119.8699
   785.5000     10.6792    -36.9825      9.4101    116.3923
   785.7500     10.7168    -37.0905      9.4382    114.3436
   786.0000     10.7630    -37.1816      9.4493    112.6341
   786.2500     10.8157    -37.2539      9.4413    112.3802
   786.5000     10.8820    -37.3077      9.4176    112.3419
   786.7500     10.9696    -37.3446      9.3851    112.1743
   787.0000     11.0757    -37.3668      9.3518    112.1157
   787.2500     11.1852    -37.3771      9.3246    112.5622
   787.5000     11.2778    -37.3781      9.3087    113.7241
   787.7500     11.3380    -37.3726      9.3066    114.2873
   788.0000     11.3611    -37.3627      9.3176    114.2005
   788.2500     11.3552    -37.3501      9.3383    113.6136
   788.5000     11.3375    -37.3357      9.3644    112.4638
   788.7500     11.3278    -37.3190      9.3938    111.7736
   789.0000     11.3420    -37.2987      9.4283    111.1625
   789.2500     11.3887    -37.2720      9.4734    111.1796
   789.5000     11.4678    -37.2355      9.5352    111.9424
   789.7500     11.5701    -37.1855      9.6185    112.9136
   790.0000     11.6825    -37.1187      9.7250    114.7963
   790.2500     11.7963    -37.0327      9.8542    115.9437
   790.5000     11.9144    -36.9263     10.0054    116.7110
   790.7500     12.0475    -36.7999     10.1799    116.5365
   791.0000     12.2063    -36.6547     10.3803    116.1342
   791.2500     12.3953    -36.4931     10.6085    116.2697
   791.5000     12.6118    -36.3179     10.8643    116.7993
   791.7500     12.8481    -36.1320     11.1466    116.7347
   792.0000     13.0968    -35.9388     11.4547    115.2724
   792.2500     13.3539    -35.7416     11.7905    113.4424
   792.5000     13.6193    -35.5443     12.1581    110.2192
   792.7500     13.8964    -35.3509     12.5606    108.4811
   793.0000     14.1922    -35.1652     12.9955    107.3959
   793.2500     14.5129    -34.9910     13.4505    107.4839
   793.5000     14.8524    -34.8314     13.9035    107.4840
   793.7500     15.1877    -34.6894     14.3292    106.8713
   794.0000     15.4875    -34.5677     14.7049    105.5362
   794.2500     15.7277    -34.4693     15.0129    105.1137
   794.5000     15.8995    -34.3980     15.2378    106.0599
   794.7500     16.0057    -34.3577     15.3654    107.7779
   795.0000     16.0517    -34.3528     15.3885    111.3702
   795.2500     16.0366    -34.3870     15.3140    113.7762
   795.5000     15.9523    -34.4632     15.1631    116.0648
   795.7500     15.7889    -34.5825     14.9610    116.2327
   796.0000     15.5445    -34.7438     14.7235    114.7319
   796.2500     15.2310    -34.9440     14.4520    113.2047
   796.5000     14.8711    -35.1780     14.1391    111.1589
   796.7500     14.4889    -35.4396     13.7786    110.2621
   797.0000     14.1011    -35.7214     13.3710    109.6282
   797.2500     13.7157    -36.0163     12.9230    109.4664
   797.5000     13.3388    -36.3168     12.4430    109.2376
   797.7500     12.9802    -36.6162     11.9406    109.1641
   798.0000     12.6534    -36.9079     11.4284    109.7392
   798.2500     12.3706    -37.1860     10.9236    110.7689
   798.5000     12.1391    -37.4452     10.4455    113.0282
   798.7500     11.9594    -37.6808     10.0105    114.7896
   799.0000     11.8252    -37.8894      9.6284    117.7800
   799.2500     11.7256    -38.0691      9.3018    120.0497
   799.5000     11.6518    -38.2192      9.0293    123.6134
   799.7500     11.6031    -38.3407      8.8081    125.7650
   800.0000     11.5861    -38.4357      8.6360    128.1262
   800.2500     11.6045    -38.5074      8.5102    128.9236
   800.5000     11.6511    -38.5595      8.4265    128.6269
   800.7500     11.7084    -38.5957      8.3784    127.2260
   801.0000     11.7598    -38.6200      8.3587    123.5205
   801.2500     11.8003    -38.6359      8.3611    120.8218
   801.5000     11.8391    -38.6462      8.3805    118.7029
   801.7500     11.8930    -38.6527      8.4134    119.3984
   802.0000     11.9739    -38.6560      8.4566    122.8009
   802.2500     12.0803    -38.6555      8.5075    125.2581
   802.5000     12.2012    -38.6492      8.5636    126.9588
   802.7500     12.3275    -38.6348      8.6230    125.9482
   803.0000     12.4592    -38.6094      8.6832    120.7054
   803.2500     12.6019    -38.5705      8.7417    134.2385
   803.5000     12.7580    -38.5158      8.7959    122.5667
   803.7500     12.9219    -38.4436      8.8444    115.0096
   804.0000     13.0833    -38.3526      8.8885    105.8430
   804.2500     13.2380    -38.2423      8.9339    116.1520
   804.5000     13.3952    -38.1129      8.9916    111.9445
   804.7500     13.5773    -37.9659      9.0776    110.5392
   805.0000     13.8131    -37.8044      9.2113    109.4863
   805.2500     14.1315    -37.6340      9.4135    109.2655
   805.5000     14.5607    -37.4629      9.7058    109.5983
   805.7500     15.1317    -37.3013     10.1099    109.8463
   806.0000     15.8845    -37.1613     10.6478    108.7157
   806.2500     16.8752    -37.0555     11.3426    106.2195
   806.5000     18.1854    -36.9956     12.2193     99.8534
   806.7500     19.9339    -36.9912     13.3067     94.3737
   807.0000     22.2836    -37.0487     14.6395     84.9165
   807.2500     25.4158    -37.1714     16.2613     77.7304
   807.5000     29.4510    -37.3599     18.2258     65.4912
   807.7500     34.3417    -37.6134     20.5952     56.7992
   808.0000     39.8164    -37.9307     23.4301     44.6687
   808.2500     45.4207    -38.3119     26.7651     38.1745
   808.5000     50.6308    -38.7585     30.5661     31.5241
   808.7500     54.9694    -39.2727     34.6715     28.9863
   809.0000     58.0849    -39.8565     38.7375     27.3370
   809.2500     59.7849    -40.5097     42.2420     27.2747
