~Version Information
VERS.                      2.0: CWLS Log ASCII Standard - VERSION 2.0
WRAP.                       NO: One line per depth step
~Well Information Block
STRT.FT               890.0000: 
STOP.FT              2097.0000: 
STEP.FT                 0.2500: 
NULL.                -999.2500: 
COMP.          Pioneer Natural Resources: COMPANY
WELL.          Greenwood 43-29 Tr: WELL
FLD.           Purgatoire River: FIELD
LOC.           1478' FSL & 744' FEL: LOCATION
STAT.                 Colorado: State
CNTY.               Las Animas: COUNTY
CTRY. USA : Country
SECT. 29 : Section
TOWN. 32S : Township
RANG. 67W : Range
SRVC.                Patterson: SERVICE COMPANY
DATE.          Wed Aug 31 08:07:28 2005: LOG DATE
API.           05 071 08478 00: UNIQUE WELL ID
~Curve Information Block
DEPT.FT            0 000 00 00: Depth
SN.Ohm-m                      : IEL Short Normal
SP.mV                         : IEL Spontaneous Potential
DIR.Ohm-m                     : IEL Induction Resistivity
GR.GAPI                       : Gamma Ray
~Parameter Information Block
~A  Depth        SN          SP         DIR          GR     
# ...
  1995.5000     12.0087    -98.7720     10.0560    159.6545
  1995.7500     11.7524    -98.2031     10.0354    156.9991
  1996.0000     11.4534    -97.5489      9.9884    151.1044
  1996.2500     11.3067    -96.8602      9.9363    146.6236
  1996.5000     11.4312    -96.2039      9.8982    140.1605
  1996.7500     11.7351    -95.6468      9.8878    136.7885
  1997.0000     12.0324    -95.2337      9.9109    134.2564
  1997.2500     12.2238    -94.9571      9.9668    134.2863
  1997.5000     12.3129    -94.7376     10.0498    135.4720
  1997.7500     12.3499    -94.4454     10.1511    135.7314
  1998.0000     12.3988    -93.9659     10.2599    133.9880
  1998.2500     12.4819    -93.2600     10.3624    131.7199
  1998.5000     12.5457    -92.3723     10.4427    128.5810
  1998.7500     12.5141    -91.3906     10.4889    127.8992
  1999.0000     12.3360    -90.4010     10.5025    130.5077
  1999.2500     11.9863    -89.4626     10.5037    134.9928
  1999.5000     11.5011    -88.5965     10.5239    145.0105
  1999.7500     11.0050    -87.7830     10.5897    152.4449
  2000.0000     10.6372    -86.9678     10.7096    161.0851
  2000.2500     10.4805    -86.0725     10.8708    163.0681
  2000.5000     10.5857    -85.0023     11.0488    158.3904
  2000.7500     10.9657    -83.6527     11.2239    150.3907
  2001.0000     11.5915    -81.9311     11.3956    133.5607
  2001.2500     12.4636    -79.7940     11.5849    121.3966
  2001.5000     13.5768    -77.2599     11.8247    106.1557
  2001.7500     14.8269    -74.3624     12.1489    100.2249
  2002.0000     16.0526    -71.0765     12.5849     99.3434
  2002.2500     17.1443    -67.3129     13.1519    103.2016
  2002.5000     18.1387    -63.0338     13.8580    111.2230
  2002.7500     19.2031    -58.4174     14.6927    114.9531
  2003.0000     20.4433    -53.9295     15.6175    114.7800
  2003.2500     21.7404    -50.2104     16.5638    110.8170
  2003.5000     22.8685    -47.8121     17.4473    101.4147
  2003.7500     23.7819    -46.9467     18.2002     94.4036
  2004.0000     24.6278    -47.4232     18.8089     84.7690
  2004.2500     25.5139    -48.8145     19.3287     79.8104
  2004.5000     26.4703    -50.7063     19.8565     75.7493
  2004.7500     27.4920    -52.8636     20.4710     75.6084
  2005.0000     28.4500    -55.2586     21.1787     78.7933
  2005.2500     29.1485    -57.9967     21.9020     82.3777
  2005.5000     29.5327    -61.1907     22.5240     88.1343
  2005.7500     29.7237    -64.8439     22.9633     91.2957
  2006.0000     29.8566    -68.8000     23.2177     94.3415
  2006.2500     29.9344    -72.7653     23.3421     95.5080
  2006.5000     29.8474    -76.3739     23.3955     97.1397
  2006.7500     29.5300    -79.2797     23.4104     98.8337
  2007.0000     29.0616    -81.2651     23.3996    103.0389
  2007.2500     28.5631    -82.3091     23.3750    107.0169
  2007.5000     28.0201    -82.5567     23.3545    113.7732
  2007.7500     27.3584    -82.2073     23.3543    117.5402
  2008.0000     26.6812    -81.4129     23.3822    119.7675
  2008.2500     26.1877    -80.2528     23.4372    118.4633
  2008.5000     25.8262    -78.7692     23.5050    113.7821
  2008.7500     25.3560    -76.9988     23.5459    110.6214
  2009.0000     24.7673    -74.9595     23.4972    108.5779
  2009.2500     24.2864    -72.6201     23.3034    109.5775
  2009.5000     24.0406    -69.8979     22.9631    113.4721
  2009.7500     23.9938    -66.6920     22.5453    116.3742
  2010.0000     24.0745    -62.9265     22.1542    119.4999
  2010.2500     24.1863    -58.5822     21.8776    120.5524
  2010.5000     24.2243    -53.7059     21.7574    121.2832
  2010.7500     24.1918    -48.3930     21.7920    121.7965
  2011.0000     24.2370    -42.7542     21.9532    122.9368
  2011.2500     24.4777    -36.9131     22.2045    123.5047
  2011.5000     24.8549    -31.0565     22.5114    123.0132
  2011.7500     25.2816    -25.4865     22.8422    121.7225
  2012.0000     25.8001    -20.5889     23.1656    119.4120
  2012.2500     26.4528    -16.7032     23.4489    118.3696
  2012.5000     27.1836    -13.9745     23.6683    117.9454
  2012.7500     27.9369    -12.2952     23.8246    117.9566
  2013.0000     28.6978    -11.3774     23.9529    116.9191
  2013.2500     29.4095    -10.8990     24.1122    114.9059
  2013.5000     29.9865    -10.6164     24.3582    110.4857
  2013.7500     30.3920    -10.3903     24.7152    107.7906
  2014.0000     30.6014    -10.1526     25.1606    105.7141
  2014.2500     30.5821     -9.8708     25.6275    105.3638
  2014.5000     30.3674     -9.5380     26.0252    104.2439
  2014.7500     30.0700     -9.1710     26.2727    102.0908
  2015.0000     29.8401     -8.7999     26.3386     97.2915
  2015.2500     29.7759     -8.4515     26.2618     94.4319
  2015.5000     29.8196     -8.1420     26.1317     92.5882
  2015.7500     29.8852     -7.8808     26.0341     93.0688
  2016.0000     30.0292     -7.6704     26.0054     95.3825
  2016.2500     30.3129     -7.4977     26.0290     97.5551
  2016.5000     30.6768     -7.3268     26.0747    101.5901
  2016.7500     31.0422     -7.1122     26.1417    104.7186
  2017.0000     31.3347     -6.8241     26.2651    109.4679
  2017.2500     31.4276     -6.4643     26.4781    111.9804
  2017.5000     31.2543     -6.0597     26.7699    113.4573
  2017.7500     30.9390     -5.6421     27.0808    112.6517
  2018.0000     30.6927     -5.2328     27.3405    109.7385
  2018.2500     30.6231     -4.8338     27.5180    107.6231
  2018.5000     30.7360     -4.4235     27.6338    105.3143
  2018.7500     31.0188     -3.9626     27.7314    104.6133
  2019.0000     31.3790     -3.4209     27.8392    105.0986
  2019.2500     31.6262     -2.8088     27.9551    106.5441
  2019.5000     31.6411     -2.1789     28.0499    110.1443
  2019.7500     31.4739     -1.5950     28.0782    113.0875
  2020.0000     31.2276     -1.0986     27.9960    117.3329
  2020.2500     30.9384     -0.6988     27.7882    119.3762
  2020.5000     30.5967     -0.3807     27.4895    120.2459
  2020.7500     30.1929     -0.1155     27.1672    119.0747
  2021.0000     29.7412      0.1315     26.8657    114.8048
  2021.2500     29.2974      0.3920     26.5539    110.6269
  2021.5000     28.9194      0.6862     26.1264    103.4358
  2021.7500     28.5819      1.0176     25.4721     98.8303
  2022.0000     28.1720      1.3731     24.5659     93.2976
  2022.2500     27.6020      1.7289     23.4989     90.9317
  2022.5000     26.8677      2.0626     22.4237     90.4511
  2022.7500     25.9747      2.3608     21.4718     93.2490
  2023.0000     24.9272      2.6177     20.7097    103.4227
  2023.2500     23.7850      2.8233     20.1386    113.6591
  2023.5000     22.6396      2.9565     19.7146    130.9911
  2023.7500     21.5915      2.9893     19.3677    141.5586
  2024.0000     20.7325      2.9024     19.0187    152.8214
  2024.2500     20.0474      2.6949     18.5966    156.2594
  2024.5000     19.4222      2.3864     18.0601    155.1295
  2024.7500     18.8087      2.0149     17.4142    151.0587
  2025.0000     18.2775      1.6307     16.7087    142.5595
  2025.2500     17.9277      1.2813     16.0153    136.7055
  2025.5000     17.8292      1.0071     15.3985    129.0062
  2025.7500     17.9797      0.8637     14.8990    124.9859
  2026.0000     18.2375      0.9562     14.5306    121.4797
  2026.2500     18.3868      1.4508     14.2867    121.5237
  2026.5000     18.2949      2.5482     14.1509    125.8732
  2026.7500     17.9177      4.4151     14.1042    131.2365
  2027.0000     17.2680      7.0853     14.1249    140.9733
  2027.2500     16.5056     10.3789     14.1811    147.1739
  2027.5000     15.8674     13.9192     14.2244    153.9018
  2027.7500     15.4146     17.2774     14.1976    155.6977
  2028.0000     14.9913     20.1565     14.0628    153.6212
  2028.2500     14.4647     22.4735     13.8300    149.5896
  2028.5000     13.9025     24.2936     13.5596    142.0879
  2028.7500     13.4863     25.7080     13.3325    137.9095
