~Version Information
VERS.                      2.0: CWLS Log ASCII Standard - VERSION 2.0
WRAP.                       NO: One line per depth step
~Well Information Block
STRT.FT               240.0000: 
STOP.FT              1185.5000: 
STEP.FT                 0.2500: 
NULL.                -999.2500: 
COMP.          Pioneer Natural Resources: COMPANY
WELL.          Whitecoat 14-36: WELL
FLD.           Purgatorie River: FIELD
LOC.           606' FSL & 260' FWL: LOCATION
PROV.                 Colorado: PROVINCE
CNTY.               Las Animas: COUNTRY
SRVC.                Patterson: SERVICE COMPANY
DATE.          Mon Dec 05 16:51:12 2005: LOG DATE
UWI.                          : UNIQUE WELL ID
~Curve Information Block
DEPT.FT            0 000 00 00: Depth
DIR.Ohm-m                     : IEL Induction Resistivity
GR.GAPI                       : Gamma Ray
~Parameter Information Block
~A  Depth       DIR          GR     
# ...
   853.2500     23.4725     74.2104
   853.5000     23.1050     74.0849
   853.7500     22.5999     74.7742
   854.0000     22.0409     77.7316
   854.2500     21.5389     81.1845
   854.5000     21.1667     88.2617
   854.7500     20.9166     93.7238
   855.0000     20.7134    101.7730
   855.2500     20.4710    106.2766
   855.5000     20.1576    110.9088
   855.7500     19.8183    112.5834
   856.0000     19.5402    113.7069
   856.2500     19.3904    114.1055
   856.5000     19.3788    114.8750
   856.7500     19.4600    115.5779
   857.0000     19.5658    116.5714
   857.2500     19.6426    116.9353
   857.5000     19.6696    116.9643
   857.7500     19.6520    116.8912
   858.0000     19.6030    117.2183
   858.2500     19.5317    117.8472
   858.5000     19.4436    118.9906
   858.7500     19.3427    119.3921
   859.0000     19.2297    118.6496
   859.2500     19.0945    117.0987
   859.5000     18.9121    113.7721
   859.7500     18.6486    111.6274
   860.0000     18.2797    109.7007
   860.2500     17.8093    109.4993
   860.5000     17.2741    110.4027
   860.7500     16.7253    111.4548
   861.0000     16.2038    113.3746
   861.2500     15.7265    114.7455
   861.5000     15.2923    116.4578
   861.7500     14.8989    117.0436
   862.0000     14.5534    116.9782
   862.2500     14.2677    116.5686
   862.5000     14.0456    116.0029
   862.7500     13.8737    115.9180
   863.0000     13.7225    116.4369
   863.2500     13.5585    117.1073
   863.5000     13.3600    117.9996
   863.7500     13.1254    118.1685
   864.0000     12.8720    117.6191
   864.2500     12.6253    116.8149
   864.5000     12.4084    115.0735
   864.7500     12.2350    113.5489
   865.0000     12.1087    110.7747
   865.2500     12.0249    108.8167
   865.5000     11.9762    106.4212
   865.7500     11.9590    105.6100
   866.0000     11.9766    105.8433
   866.2500     12.0380    106.7605
   866.5000     12.1494    108.6218
   866.7500     12.3092    109.9063
   867.0000     12.5095    111.8106
   867.2500     12.7460    113.0952
   867.5000     13.0272    114.8753
   867.7500     13.3748    115.7329
   868.0000     13.8137    116.2906
   868.2500     14.3569    116.3270
   868.5000     14.9954    116.4808
   868.7500     15.7009    116.8346
   869.0000     16.4428    117.2583
   869.2500     17.2100    116.8855
   869.5000     18.0198    114.6743
   869.7500     18.9004    112.1738
   870.0000     19.8569    107.5802
   870.2500     20.8456    104.3989
   870.5000     21.7795     99.9411
   870.7500     22.5717     97.2978
   871.0000     23.1846     93.8413
   871.2500     23.6445     91.8452
   871.5000     24.0083     89.3951
   871.7500     24.3239     88.3117
   872.0000     24.6159     87.7510
   872.2500     24.8984     87.8826
   872.5000     25.1881     87.9273
   872.7500     25.5067     87.4436
   873.0000     25.8661     86.0928
   873.2500     26.2379     85.2044
   873.5000     26.5351     84.5662
   873.7500     26.6481     84.8126
   874.0000     26.5364     86.1546
   874.2500     26.2941     87.3543
   874.5000     26.0893     88.5927
   874.7500     26.0242     88.5405
   875.0000     26.0420     87.0424
   875.2500     25.9652     85.4800
   875.5000     25.6524     83.1649
   875.7500     25.1346     81.9602
   876.0000     24.5898     80.7276
   876.2500     24.1995     80.2034
   876.5000     24.0413     79.8686
   876.7500     24.0867     80.0277
   877.0000     24.2578     80.7540
   877.2500     24.4837     81.2696
   877.5000     24.7143     81.4637
   877.7500     24.8958     81.0369
   878.0000     24.9558     79.8016
   878.2500     24.8207     78.9048
   878.5000     24.4496     77.9096
   878.7500     23.8430     77.5678
   879.0000     23.0305     77.4897
   879.2500     22.0616     77.6915
   879.5000     21.0025     78.3289
   879.7500     19.9269     78.9092
   880.0000     18.8925     79.8213
   880.2500     17.9245     80.4052
   880.5000     17.0232     81.4640
   880.7500     16.1927     82.5544
   881.0000     15.4581     85.1806
   881.2500     14.8546     87.7953
   881.5000     14.3983     93.3992
   881.7500     14.0693     98.3693
   882.0000     13.8218    107.2145
   882.2500     13.6089    113.3932
   882.5000     13.4013    121.9338
   882.7500     13.1863    126.7635
   883.0000     12.9569    132.5781
   883.2500     12.7029    135.4922
   883.5000     12.4144    138.1533
   883.7500     12.0906    138.4993
   884.0000     11.7451    136.4956
   884.2500     11.4002    133.5359
   884.5000     11.0753    127.3856
   884.7500     10.7778    122.7870
   885.0000     10.5037    116.1987
   885.2500     10.2416    112.5608
   885.5000      9.9801    109.2363
   885.7500      9.7114    109.0231
   886.0000      9.4344    112.1939
   886.2500      9.1541    116.3622
   886.5000      8.8796    124.3772
   886.7500      8.6215    129.9424
   887.0000      8.3897    137.1891
   887.2500      8.1930    140.6042
   887.5000      8.0397    142.6989
   887.7500      7.9381    141.9135
   888.0000      7.8967    138.2233
   888.2500      7.9218    134.9728
   888.5000      8.0145    130.2451
   888.7500      8.1686    127.5508
   889.0000      8.3714    124.3206
   889.2500      8.6085    122.7512
   889.5000      8.8695    121.4698
   889.7500      9.1527    121.4067
   890.0000      9.4661    122.2361
   890.2500      9.8236    122.9694
   890.5000     10.2376    123.4579
   890.7500     10.7128    123.0513
   891.0000     11.2471    121.3031
   891.2500     11.8402    119.5843
   891.5000     12.5013    116.7369
   891.7500     13.2428    115.0364
   892.0000     14.0580    113.2454
   892.2500     14.8999    112.5115
   892.5000     15.6843    111.3924
   892.7500     16.3302    110.1086
   893.0000     16.8122    106.9569
   893.2500     17.1792    104.1581
   893.5000     17.5266     99.1934
   893.7500     17.9493     95.3574
   894.0000     18.5108     88.9184
   894.2500     19.2352     84.6719
   894.5000     20.1150     79.7835
   894.7500     21.1287     78.1196
   895.0000     22.2538     78.0299
   895.2500     23.4541     79.1200
   895.5000     24.6484     81.6234
   895.7500     25.6920     83.5220
   896.0000     26.4127     86.1186
   896.2500     26.6914     87.1646
   896.5000     26.5280     86.8405
   896.7500     26.0487     85.2631
   897.0000     25.4599     81.6789
   897.2500     24.9790     79.2847
   897.5000     24.7664     76.8469
   897.7500     24.8757     76.2374
   898.0000     25.2299     76.4826
   898.2500     25.6412     76.9809
   898.5000     25.8962     77.6179
   898.7500     25.8793     77.8009
   899.0000     25.6377     77.7227
   899.2500     25.3202     77.6424
   899.5000     25.0520     78.0734
   899.7500     24.8465     78.9079
   900.0000     24.5988     80.4574
   900.2500     24.1517     81.0380
   900.5000     23.4011     80.4788
   900.7500     22.3691     79.3019
   901.0000     21.1880     77.3221
   901.2500     20.0173     76.4095
   901.5000     18.9704     76.0152
   901.7500     18.0964     76.3234
   902.0000     17.4016     77.3427
   902.2500     16.8823     78.2727
   902.5000     16.5414     80.1258
   902.7500     16.3799     81.9005
   903.0000     16.3768     85.8620
   903.2500     16.4750     89.5152
   903.5000     16.5889     96.2847
   903.7500     16.6388    101.2298
   904.0000     16.5931    108.3118
   904.2500     16.4870    112.3784
   904.5000     16.4061    117.3583
   904.7500     16.4503    120.0695
   905.0000     16.7039    123.2445
   905.2500     17.2157    124.5000
   905.5000     17.9813    124.3439
   905.7500     18.9263    122.4951
   906.0000     19.9059    116.9642
   906.2500     20.7394    111.7709
   906.5000     21.2735    102.7638
   906.7500     21.4343     96.5860
   907.0000     21.2313     87.9344
   907.2500     20.7270     82.9526
   907.5000     20.0046     77.1874
   907.7500     19.1494     74.7664
   908.0000     18.2382     73.5636
   908.2500     17.3316     74.3286
   908.5000     16.4726     77.4914
   908.7500     15.6914     80.7680
