~Version Information
VERS.                      2.0: CWLS Log ASCII Standard - VERSION 2.0
WRAP.                       NO: One line per depth step
~Well Information Block
STRT.FT               480.0000: 
STOP.FT              1817.0000: 
STEP.FT                 0.1000: 
NULL.                -999.2500: 
COMP.          Pioneer Natural Resources: COMPANY
WELL.           Bobsy 34-11 Tr: WELL
FLD.           Purgatoire River: FIELD
LOC.           514' FSL & 1784' FEL: LOCATION
PROV.                 Colorado: PROVINCE
CNTY.               Las Animas: COUNTRY
SRVC.                Patterson: SERVICE COMPANY
DATE.          Tue Jul 19 10:30:09 2005: LOG DATE
UWI.           05 071 08438 00: UNIQUE WELL ID
~Curve Information Block
DEPT.FT            0 000 00 00: Depth
DCAL.in                       : CDL Caliper
DPOR.pu                       : CDL Density Porosity
GR.GAPI                       : Gamma Ray
NPOR.pu                       : Neutron Porosity
RHOB.g/cc                     : CDL Bulk Density
RHOC.g/cc                     : CDL Density Correction
~Parameter Information Block
~A  Depth       DCAL        DPOR         GR         NPOR        RHOB        RHOC    
# ...
   748.8000      8.1520      8.1009    133.5377     25.7777      2.5163     -0.0080
   748.9000      8.1520      7.3804    135.4012     26.2829      2.5282      0.0187
   749.0000      8.1486      6.4418    139.2721     26.8524      2.5437      0.0550
   749.1000      8.1486      5.4532    138.6651     27.0317      2.5600     -0.0076
   749.2000      8.1486      4.5484    132.1119     26.9478      2.5750      0.0688
   749.3000      8.1407      4.4118    124.4144     27.0817      2.5772      0.0236
   749.4000      8.1407      5.1185    120.0258     27.2483      2.5655      0.0559
   749.5000      8.1200      5.6744    118.6644     27.0090      2.5564      0.0046
   749.6000      8.1200      5.2656    118.9063     26.6719      2.5631      0.0386
   749.7000      8.1200      4.8974    118.0880     26.5536      2.5692      0.0577
   749.8000      8.1066      5.7758    114.6460     26.4418      2.5547     -0.0122
   749.9000      8.1066      7.0658    107.9732     26.1784      2.5334      0.0028
   750.0000      8.1041      7.3704     97.2157     25.8510      2.5284      0.0550
   750.1000      8.1041      6.3314     88.6985     25.5104      2.5455      0.0737
   750.2000      8.1041      4.8448     88.2285     25.1489      2.5701      0.0594
   750.3000      8.0481      4.2799     93.4445     24.7607      2.5794      0.0364
   750.4000      8.0481      4.5089     99.9895     24.2626      2.5756     -0.0003
   750.5000      8.0231      4.0637    105.3819     23.6161      2.5829      0.0374
   750.6000      8.0231      2.2117    107.0713     23.0322      2.6135      0.0917
   750.7000      8.0231      0.1056    105.1173     22.9608      2.6483      0.1298
   750.8000      8.0027     -0.3836    103.1657     23.5512      2.6563      0.1569
   750.9000      8.0027      0.8758    104.4301     24.1013      2.6356      0.0728
   751.0000      8.0054      2.5442    107.7957     23.9812      2.6080      0.0521
   751.1000      8.0054      3.7328    110.0111     23.5151      2.5884      0.0489
   751.2000      8.0054      4.2643    113.5539     23.2051      2.5796      0.0322
   751.3000      8.0262      4.5742    120.4189     23.2131      2.5745      0.0574
   751.4000      8.0262      5.1615    126.6659     23.5049      2.5648      0.0338
   751.5000      8.0470      5.9328    128.3321     23.9902      2.5521      0.0582
   751.6000      8.0470      6.4476    121.6161     24.7079      2.5436      0.0415
   751.7000      8.0470      6.3485    110.2813     25.4564      2.5452      0.0527
   751.8000      8.0763      5.8278    105.3294     25.5436      2.5538      0.0336
   751.9000      8.0763      5.3820    109.8407     24.9047      2.5612      0.0271
   752.0000      8.1259      5.4859    117.7430     24.2345      2.5595      0.0639
   752.1000      8.1259      6.2669    123.8641     24.0870      2.5466     -0.0132
   752.2000      8.1259      7.1515    127.5389     24.3742      2.5320      0.0084
   752.3000      8.1481      7.3570    130.4972     24.4410      2.5286     -0.0206
   752.4000      8.1481      6.5501    132.1728     24.3870      2.5419      0.0086
   752.5000      8.1497      5.5618    130.4302     24.7109      2.5582      0.0199
   752.6000      8.1497      5.6315    126.2773     25.0041      2.5571      0.0420
   752.7000      8.1497      6.4823    120.6589     24.9212      2.5430     -0.0012
   752.8000      8.1288      6.8760    115.0964     24.8381      2.5365     -0.0204
   752.9000      8.1288      6.9221    110.5829     24.9518      2.5358      0.0422
   753.0000      8.0986      7.4980    107.7702     25.0161      2.5263      0.0384
   753.1000      8.0986      7.8572    108.1682     24.8796      2.5204     -0.0409
   753.2000      8.0986      6.7036    108.2483     24.5573      2.5394      0.0051
   753.3000      8.0458      4.8722    104.0031     24.1838      2.5696      0.0321
   753.4000      8.0458      3.9975     97.5296     24.0990      2.5840      0.0157
   753.5000      8.0614      4.2934     91.6653     24.4010      2.5792      0.0729
   753.6000      8.0614      4.8534     89.2146     24.8083      2.5699      0.0044
   753.7000      8.0614      4.5765     93.2313     25.0543      2.5745      0.0687
   753.8000      8.0660      3.5300     99.4370     25.0020      2.5918      0.0663
   753.9000      8.0660      2.4632     99.7294     24.6385      2.6094      0.0305
   754.0000      8.0637      1.6675     94.3128     24.1579      2.6225      0.0800
   754.1000      8.0637      1.3578     89.3822     23.8628      2.6276      0.0986
   754.2000      8.0637      1.6018     88.6623     23.8423      2.6236      0.0324
   754.3000      8.0604      2.1933     90.8708     23.8223      2.6138      0.0877
   754.4000      8.0604      2.6288     90.7507     23.5815      2.6066      0.0589
   754.5000      8.0473      2.3568     88.1543     23.1982      2.6111      0.0416
   754.6000      8.0473      2.1571     88.9509     22.7495      2.6144      0.0860
   754.7000      8.0473      3.1410     92.7938     22.3678      2.5982      0.0606
   754.8000      8.0333      4.7647     93.7757     22.0623      2.5714      0.0397
   754.9000      8.0333      6.4014     91.2345     21.6746      2.5444      0.0615
   755.0000      8.0331      7.9111     89.0065     21.4020      2.5195      0.0103
   755.1000      8.0331      8.5082     89.8842     21.5377      2.5096     -0.0176
   755.2000      8.0331      7.9532     94.4945     22.0297      2.5188      0.0457
   755.3000      8.0312      7.0616    100.8402     22.7491      2.5335      0.0306
   755.4000      8.0312      6.0878    105.2257     23.3968      2.5496      0.0295
   755.5000      8.0395      4.8414    106.6542     23.4351      2.5701      0.1020
   755.6000      8.0395      3.4774    111.2275     23.0357      2.5926      0.1566
   755.7000      8.0395      2.2194    121.1758     23.0457      2.6134      0.1569
   755.8000      8.0425      1.6478    129.3275     23.4647      2.6228      0.1544
   755.9000      8.0425      2.8688    131.4695     23.8029      2.6027      0.1446
   756.0000      8.0349      5.3728    131.7035     24.2105      2.5613      0.0525
   756.1000      8.0349      6.7304    133.5437     24.8056      2.5389      0.0156
   756.2000      8.0349      6.1389    134.6278     25.3271      2.5487      0.0710
   756.3000      8.0332      5.1037    132.5435     25.5775      2.5658      0.0290
   756.4000      8.0332      4.8785    130.4341     25.4863      2.5695      0.0462
   756.5000      8.0583      5.8037    132.9627     25.0431      2.5542      0.0778
   756.6000      8.0583      7.3873    139.1694     24.5771      2.5281      0.0435
   756.7000      8.0583      8.1153    143.4828     24.6573      2.5161     -0.0080
   756.8000      8.0830      7.1206    144.1781     25.2465      2.5325      0.0271
   756.9000      8.0830      5.9725    144.1086     25.5996      2.5515      0.0797
   757.0000      8.1030      5.9914    143.5699     25.4508      2.5511      0.0488
   757.1000      8.1030      6.2482    143.3924     25.3071      2.5469      0.0168
   757.2000      8.1030      6.5116    147.1076     25.3935      2.5426      0.0571
   757.3000      8.1092      7.7368    154.5817     25.6723      2.5223      0.0133
   757.4000      8.1092      9.3038    162.4545     26.0139      2.4965      0.0221
   757.5000      8.1334      9.9163    164.9518     26.1257      2.4864      0.0590
   757.6000      8.1334      9.5142    157.1947     26.1662      2.4930      0.0374
   757.7000      8.1334      8.2223    146.4576     26.4744      2.5143      0.0658
   757.8000      8.1309      5.7550    140.5203     26.8133      2.5550      0.0367
   757.9000      8.1309      2.5148    138.7673     26.8997      2.6085      0.0962
   758.0000      8.1277     -0.0954    140.1999     26.9034      2.6516      0.1225
   758.1000      8.1277     -0.9635    141.5625     26.8695      2.6659      0.1462
   758.2000      8.1277      0.1178    139.1959     26.5768      2.6481      0.1342
   758.3000      8.1240      2.5354    135.5232     26.3677      2.6082      0.1085
