~Version Information
VERS.                      2.0: CWLS Log ASCII Standard - VERSION 2.0
WRAP.                       NO: One line per depth step
~Well Information Block
STRT.FT               625.0000: 
STOP.FT              2053.7000: 
STEP.FT                 0.1000: 
NULL.                -999.2500: 
COMP.          Pioneer Natural Resources: COMPANY
WELL.            Zink 44-10 Tr: WELL
FLD.           Purgatoire River: FIELD
LOC.           486' FSL & 554' FEL--: LOCATION
PROV.                 Colorado: PROVINCE
CNTY.               Las Animas: COUNTRY
SRVC.                Patterson: SERVICE COMPANY
DATE.          Sun Jul 24 08:46:57 2005: LOG DATE
UWI.           05 071 08446 00: UNIQUE WELL ID
~Curve Information Block
DEPT.FT            0 000 00 00: Depth
DCAL.in                       : CDL Caliper
RHOB.g/cc                     : CDL Bulk Density
RHOC.g/cc                     : CDL Density Correction
DPOR.pu                       : CDL Density Porosity
NPOR.pu                       : Neutron Porosity
GR.GAPI                       : Gamma Ray
~Parameter Information Block
~A  Depth       DCAL        RHOB        RHOC        DPOR        NPOR         GR     
# ...
  1556.2000      7.9184      2.6074      0.0775      2.5819     23.3018    106.8094
  1556.3000      7.9253      2.5900      0.0319      3.6347     23.1764    105.9329
  1556.4000      7.9253      2.5729      0.0560      4.6748     22.7734    103.1521
  1556.5000      7.9293      2.5663      0.0561      5.0753     22.3787     99.1215
  1556.6000      7.9293      2.5662      0.0592      5.0797     22.5376     99.5281
  1556.7000      7.9293      2.5698      0.0434      4.8602     23.4385    109.4067
  1556.8000      7.9290      2.5811      0.0620      4.1755     24.5390    125.2810
  1556.9000      7.9290      2.5984      0.1059      3.1243     25.2198    135.7552
  1557.0000      7.9292      2.6164      0.0859      2.0380     25.1948    133.3616
  1557.1000      7.9292      2.6319      0.0998      1.0958     24.5913    123.1844
  1557.2000      7.9292      2.6413      0.1022      0.5301     24.1244    115.0350
  1557.3000      7.9340      2.6440      0.0997      0.3637     24.4321    111.5189
  1557.4000      7.9340      2.6518      0.0664     -0.1083     25.1288    109.9612
  1557.5000      7.9436      2.6721      0.1036     -1.3422     25.2669    107.4435
  1557.6000      7.9436      2.6878      0.1468     -2.2928     24.6982    105.6014
  1557.7000      7.9436      2.6877      0.0803     -2.2878     24.2607    108.7663
  1557.8000      7.9535      2.6793      0.0899     -1.7754     24.4327    114.9437
  1557.9000      7.9535      2.6558      0.1243     -0.3510     24.5306    119.2261
  1558.0000      7.9615      2.6170      0.0688      1.9974     24.1831    118.6726
  1558.1000      7.9615      2.5903      0.0538      3.6163     24.0133    113.5664
  1558.2000      7.9615      2.5882      0.0910      3.7457     24.3622    108.1352
  1558.3000      7.9586      2.5972      0.0819      3.1974     24.7466    107.6013
  1558.4000      7.9586      2.6003      0.0746      3.0129     24.9263    112.5061
  1558.5000      7.9371      2.5889      0.0585      3.7011     25.1239    118.2430
  1558.6000      7.9371      2.5761      0.0561      4.4783     25.2243    121.0656
  1558.7000      7.9371      2.5821      0.0670      4.1128     25.1712    120.5085
  1558.8000      7.9155      2.5964      0.1208      3.2493     25.2813    120.7104
  1558.9000      7.9155      2.5937      0.0517      3.4137     25.5006    126.3602
  1559.0000      7.9080      2.5826      0.0551      4.0853     25.3856    132.9141
  1559.1000      7.9080      2.5816      0.1027      4.1451     25.2496    132.8166
  1559.2000      7.9080      2.5915      0.0697      3.5458     25.8247    129.2004
  1559.3000      7.9129      2.6061      0.1174      2.6626     26.7111    128.8168
  1559.4000      7.9129      2.6157      0.0821      2.0793     27.0230    127.5271
  1559.5000      7.9239      2.6208      0.0874      1.7707     27.0269    122.2522
  1559.6000      7.9239      2.6271      0.0812      1.3866     27.0344    121.8799
  1559.7000      7.9239      2.6283      0.1013      1.3169     26.4717    131.2102
  1559.8000      7.9295      2.6189      0.0833      1.8825     25.5584    140.9681
  1559.9000      7.9295      2.6090      0.0713      2.4852     25.2077    139.9740
  1560.0000      7.9239      2.6054      0.0456      2.7039     25.4904    133.9280
  1560.1000      7.9239      2.5967      0.0648      3.2306     25.9548    136.9644
  1560.2000      7.9239      2.5758      0.0435      4.4981     26.2468    145.3656
  1560.3000      7.9069      2.5580      0.0445      5.5758     26.1036    147.1130
  1560.4000      7.9069      2.5570      0.0535      5.6356     25.6114    144.5220
  1560.5000      7.8891      2.5636      0.0935      5.2393     25.2767    144.2371
  1560.6000      7.8891      2.5698      0.0321      4.8632     25.4875    143.9819
  1560.7000      7.8891      2.5803      0.0763      4.2214     26.2053    141.1378
  1560.8000      7.8798      2.5894      0.1035      3.6738     27.0139    136.2431
  1560.9000      7.8798      2.5923      0.0731      3.4974     27.1774    128.8705
  1561.0000      7.8763      2.5939      0.0855      3.3982     26.5679    122.1448
  1561.1000      7.8763      2.5917      0.0717      3.5331     25.9486    121.8348
  1561.2000      7.8763      2.5849      0.1024      3.9424     25.7365    124.1707
  1561.3000      7.8768      2.5837      0.0804      4.0153     25.6616    120.5884
  1561.4000      7.8768      2.5921      0.0837      3.5111     25.3393    112.1873
  1561.5000      7.8805      2.5965      0.0805      3.2412     24.8168    106.1631
  1561.6000      7.8805      2.5944      0.0359      3.3679     24.2943    107.7592
  1561.7000      7.8805      2.6039      0.0376      2.7966     23.7782    115.3329
  1561.8000      7.8843      2.6310      0.0716      1.1534     23.2160    121.8122
  1561.9000      7.8843      2.6552      0.1094     -0.3165     22.3493    124.3171
  1562.0000      7.8921      2.6515      0.0948     -0.0937     21.2045    122.6893
  1562.1000      7.8921      2.6197      0.0631      1.8366     20.4253    117.2797
  1562.2000      7.8921      2.5837      0.0104      4.0171     20.3477    111.8459
  1562.3000      7.9033      2.5668      0.0549      5.0410     20.6990    110.4889
  1562.4000      7.9033      2.5658      0.0699      5.1057     20.9519    110.9907
  1562.5000      7.9102      2.5656      0.0405      5.1159     20.9582    109.8037
  1562.6000      7.9102      2.5643      0.0365      5.1927     21.1100    106.0381
  1562.7000      7.9102      2.5660      0.0164      5.0922     21.5162    102.1188
  1562.8000      7.9097      2.5754      0.0181      4.5216     21.8712    101.0054
  1562.9000      7.9097      2.5893      0.0737      3.6758     22.1419    103.0712
  1563.0000      7.8988      2.5934      0.0818      3.4298     22.6153    106.7673
  1563.1000      7.8988      2.5838      0.0592      4.0132     22.9919    108.7459
  1563.2000      7.8988      2.5714      0.0454      4.7636     22.9280    105.9284
  1563.3000      7.8830      2.5681      0.0620      4.9625     22.8522    102.0411
  1563.4000      7.8830      2.5778      0.0599      4.3728     22.6220    101.2798
  1563.5000      7.8720      2.5951      0.0806      3.3248     21.6279    100.2063
  1563.6000      7.8720      2.6167      0.0699      2.0205     20.4019     97.4862
  1563.7000      7.8720      2.6420      0.1203      0.4821     19.9922     97.6979
  1563.8000      7.8682      2.6624      0.0950     -0.7514     20.4864    101.7101
  1563.9000      7.8682      2.6723      0.0951     -1.3542     21.0960    106.9593
  1564.0000      7.8693      2.6748      0.0946     -1.5018     21.3455    113.3022
  1564.1000      7.8693      2.6775      0.1042     -1.6653     22.0031    118.9434
  1564.2000      7.8693      2.6809      0.1372     -1.8755     23.6620    121.3388
  1564.3000      7.8795      2.6633      0.1402     -0.8038     25.3738    118.2720
  1564.4000      7.8795      2.6151      0.0548      2.1135     25.9056    110.5872
  1564.5000      7.9004      2.5671      0.0250      5.0235     24.8973    106.8601
  1564.6000      7.9004      2.5492      0.0391      6.1074     23.1427    109.7994
  1564.7000      7.9004      2.5655     -0.0061      5.1228     22.1808    112.4425
  1564.8000      7.9167      2.5971      0.0861      3.2075     22.5944    111.1387
  1564.9000      7.9167      2.6135      0.0407      2.2113     23.5617    107.7551
  1565.0000      7.9236      2.6119      0.0362      2.3098     23.8142    104.7840
  1565.1000      7.9236      2.6093      0.0274      2.4644     23.2243    104.0642
  1565.2000      7.9236      2.6116      0.0462      2.3293     22.8587    106.3851
  1565.3000      7.9257      2.6176      0.0562      1.9616     23.1088    108.5885
  1565.4000      7.9257      2.6249      0.0772      1.5233     23.7985    107.6158
  1565.5000      7.9259      2.6308      0.0178      1.1639     24.5168    107.8930
  1565.6000      7.9259      2.6366      0.0733      0.8098     24.5961    113.3823
  1565.7000      7.9259      2.6362      0.0924      0.8385     24.1289    116.5473
