~Version Information
VERS.                      2.0: CWLS Log ASCII Standard - VERSION 2.0
WRAP.                       NO: One line per depth step
~Well Information Block
STRT.FT               830.0000: 
STOP.FT              1792.5000: 
STEP.FT                 0.1000: 
NULL.                -999.2500: 
COMP.          Pioneer Natural Resources: COMPANY
WELL.           Rolls 14-14 Tr: WELL
FLD.           Purgatoire River: FIELD
LOC.           473' FSL & 817' FWL: LOCATION
PROV.                 Colorado: PROVINCE
CNTY.               Las Animas: COUNTRY
SRVC.                Patterson: SERVICE COMPANY
DATE.          Wed Aug 03 07:11:37 2005: LOG DATE
UWI.           05 071 08454 00: UNIQUE WELL ID
~Curve Information Block
DEPT.FT            0 000 00 00: Depth
DCAL.in                       : CDL Caliper
RHOB.g/cc                     : CDL Bulk Density
RHOC.g/cc                     : CDL Density Correction
DPOR.pu                       : CDL Density Porosity
GR.GAPI                       : Gamma Ray
NPOR.pu                       : Neutron Porosity
~Parameter Information Block
~A  Depth       DCAL        RHOB        RHOC        DPOR         GR         NPOR    
# ...
  1713.2000      7.9767      2.5533      0.1460      5.8584    158.4266     29.1606
  1713.3000      7.9672      2.5483      0.1089      6.1620    160.5295     28.4596
  1713.4000      7.9672      2.5480      0.0707      6.1813    158.8817     28.1607
  1713.5000      7.9401      2.5594      0.1176      5.4880    158.3201     28.3247
  1713.6000      7.9401      2.5738      0.1109      4.6206    160.6371     28.2654
  1713.7000      7.9401      2.5884      0.1281      3.7339    162.8371     28.0499
  1713.8000      7.9343      2.6034      0.1440      2.8224    160.1205     28.0066
  1713.9000      7.9343      2.6105      0.1466      2.3937    154.1963     28.1802
  1714.0000      7.9415      2.6016      0.1192      2.9322    149.8704     28.4953
  1714.1000      7.9415      2.5822      0.0570      4.1085    146.7136     28.5894
  1714.2000      7.9415      2.5644      0.0829      5.1862    144.2540     28.2393
  1714.3000      7.9519      2.5504      0.0690      6.0371    143.4116     28.0703
  1714.4000      7.9519      2.5350      0.0481      6.9713    143.8388     28.5354
  1714.5000      7.9908      2.5231      0.0182      7.6927    147.7655     28.7976
  1714.6000      7.9908      2.5296      0.0358      7.2999    155.7493     28.4502
  1714.7000      7.9908      2.5474      0.0864      6.2199    160.7021     28.3936
  1714.8000      7.9965      2.5571      0.0641      5.6325    158.2414     29.0027
  1714.9000      7.9965      2.5640      0.0203      5.2149    155.0299     29.7142
  1715.0000      8.0045      2.5775      0.0608      4.3939    156.4918     29.7340
  1715.1000      8.0045      2.5965      0.0594      3.2423    159.1512     29.0779
  1715.2000      8.0045      2.6225      0.1000      1.6641    156.5408     28.4903
  1715.3000      7.9879      2.6433      0.1570      0.4085    148.5170     27.9787
  1715.4000      7.9879      2.6381      0.1344      0.7191    143.2743     27.5588
  1715.5000      7.9712      2.6049      0.1042      2.7349    146.3629     27.7216
  1715.6000      7.9712      2.5562      0.0391      5.6826    152.1898     28.0347
  1715.7000      7.9712      2.5162      0.0280      8.1067    152.8645     28.0340
  1715.8000      7.9787      2.5104      0.0304      8.4590    149.1723     28.1907
  1715.9000      7.9787      2.5318      0.0679      7.1646    148.1144     28.4270
  1716.0000      7.9976      2.5441      0.1008      6.4189    152.0508     27.9585
  1716.1000      7.9976      2.5260      0.0724      7.5130    159.3342     27.0155
  1716.2000      7.9976      2.4894      0.0552      9.7345    167.4957     26.4258
  1716.3000      7.9901      2.4669      0.0054     11.0989    170.4522     26.6413
  1716.4000      7.9901      2.4811      0.0212     10.2388    167.3368     27.5503
  1716.5000      7.9881      2.5123      0.0838      8.3473    165.7231     28.2599
  1716.6000      7.9881      2.5341      0.0736      7.0239    166.4886     27.9174
  1716.7000      7.9881      2.5504      0.1078      6.0374    163.7408     26.9931
  1716.8000      8.0000      2.5690      0.1263      4.9113    157.6227     26.5996
  1716.9000      8.0000      2.5893      0.1253      3.6773    149.9874     26.9577
  1717.0000      8.0574      2.6053      0.1776      2.7102    144.2139     27.5142
  1717.1000      8.0574      2.6009      0.1724      2.9770    147.9182     27.9965
  1717.2000      8.0574      2.5678      0.1414      4.9815    156.8747     28.1875
  1717.3000      8.1095      2.5268      0.0633      7.4642    159.9358     27.7559
  1717.4000      8.1095      2.5078     -0.0150      8.6152    158.2731     27.0732
  1717.5000      8.1091      2.5175      0.0509      8.0308    154.9129     26.6848
  1717.6000      8.1091      2.5348      0.0812      6.9820    151.0615     27.0502
  1717.7000      8.1091      2.5395      0.0314      6.6943    149.8177     28.0685
  1717.8000      8.0218      2.5389      0.0192      6.7317    145.7193     28.4527
  1717.9000      8.0218      2.5474      0.0327      6.2197    135.1475     27.3508
  1718.0000      8.0245      2.5604      0.0751      5.4284    127.3592     25.8744
  1718.1000      8.0245      2.5720      0.0871      4.7293    127.7669     25.3755
  1718.2000      8.0245      2.5893      0.0753      3.6764    125.7428     25.7018
  1718.3000      8.0531      2.6134      0.1071      2.2156    115.9651     25.9223
  1718.4000      8.0531      2.6236      0.1179      1.6013    108.3540     25.4307
  1718.5000      8.0581      2.6156      0.0293      2.0840    108.5295     24.2735
  1718.6000      8.0581      2.6102      0.0809      2.4123    112.8673     23.2147
  1718.7000      8.0581      2.6143      0.0069      2.1625    113.2603     22.6169
  1718.8000      8.0198      2.6250      0.0339      1.5149    108.0483     22.0844
  1718.9000      8.0198      2.6383      0.0582      0.7085    103.7902     21.6390
  1719.0000      8.0050      2.6537      0.0890     -0.2222    101.8607     21.3609
  1719.1000      8.0050      2.6794      0.0417     -1.7832     99.3539     21.2090
  1719.2000      8.0050      2.7218      0.0416     -4.3507     96.6746     21.5317
  1719.3000      7.9980      2.7710      0.0386     -7.3326     94.5753     22.0952
  1719.4000      7.9980      2.8116      0.0986     -9.7957     90.0044     22.2404
  1719.5000      7.9935      2.8470      0.0826    -11.9419     82.8650     21.8367
  1719.6000      7.9935      2.8947      0.0948    -14.8306     77.8923     21.3910
  1719.7000      7.9935      2.9479      0.1333    -18.0559     75.2730     21.3762
  1719.8000      7.9997      2.9726      0.1491    -19.5515     71.5742     21.4669
  1719.9000      7.9997      2.9546      0.0280    -18.4629     66.6655     21.4181
  1720.0000      7.9962      2.9122      0.0608    -15.8923     62.4921     21.5491
  1720.1000      7.9962      2.8635      0.0246    -12.9405     59.1456     21.5364
  1720.2000      7.9962      2.8209     -0.0164    -10.3599     57.8644     21.1875
  1720.3000      7.9262      2.7926     -0.0774     -8.6394     61.3192     21.6696
  1720.4000      7.9262      2.7727     -0.0545     -7.4342     66.4208     23.5332
  1720.5000      7.9415      2.7432     -0.0535     -5.6498     70.8446     25.4329
  1720.6000      7.9415      2.7007     -0.0928     -3.0721     78.4520     26.4293
  1720.7000      7.9415      2.6640     -0.0017     -0.8491     89.1805     26.9502
  1720.8000      7.9719      2.6378     -0.0179      0.7373     99.2455     27.0110
  1720.9000      7.9719      2.6093      0.0372      2.4664    108.1369     26.8633
  1721.0000      7.9755      2.5742      0.0448      4.5965    116.2130     27.1723
  1721.1000      7.9755      2.5515      0.0110      5.9702    122.2605     27.4161
  1721.2000      7.9755      2.5530      0.0583      5.8804    127.4168     27.3642
  1721.3000      7.9845      2.5533      0.0873      5.8587    135.6274     28.1456
  1721.4000      7.9845      2.5399      0.0489      6.6726    145.5178     29.8112
  1721.5000      7.9892      2.5380      0.0455      6.7892    150.4898     30.8665
  1721.6000      7.9892      2.5552      0.1172      5.7468    150.6734     30.5168
  1721.7000      7.9892      2.5687      0.0895      4.9288    150.9418     29.5920
  1721.8000      8.0032      2.5669      0.1156      5.0342    154.7489     29.0039
  1721.9000      8.0032      2.5494      0.1334      6.0973    162.3595     28.5244
  1722.0000      8.0130      2.5207      0.0960      7.8337    166.9124     27.7202
  1722.1000      8.0130      2.5027      0.0258      8.9252    162.3699     27.0769
  1722.2000      8.0130      2.5082      0.0564      8.5919    155.4899     27.0165
  1722.3000      7.9971      2.5242      0.0774      7.6259    154.3307     27.1096
  1722.4000      7.9971      2.5389      0.0945      6.7361    156.7890     27.0156
  1722.5000      8.0354      2.5399      0.1304      6.6711    159.5896     26.8264
  1722.6000      8.0354      2.5178      0.0699      8.0127    162.6938     26.8551
  1722.7000      8.0354      2.4970      0.0470      9.2750    165.8809     27.4985
