~Version Information
VERS.                      2.0: CWLS Log ASCII Standard - VERSION 2.0
WRAP.                       NO: One line per depth step
~Well Information Block
STRT.FT                -4.2500: 
STOP.FT               745.0000: 
STEP.FT                 0.2500: 
NULL.                -999.2500: 
COMP.          Pioneer Natural Resources: COMPANY
WELL.                Zed 11-23: WELL
FLD.           Purgatoire River: FIELD
LOC.           641' FNL & 952' FWL: LOCATION
CNTY.               Las Animas: COUNTY
SRVC.                         : SERVICE COMPANY
DATE.          Fri Mar 03 16:43:06 2006: LOG DATE
UWI.           05 071 08702 00: UNIQUE WELL ID
STAT.                       CO: STATE
~Curve Information Block
DEPT.FT            0 000 00 00: Depth
GR.GAPI                       : Gamma Ray
CCL.                          : Casing Collar Locator
TT3.usec                      : CBL 3' Travel Time
AMP3.mV                       : CBL 3' Amplitude
~Parameter Information Block
~A  Depth        GR         CCL         TT3         AMP3    
# ...
   230.2500     85.7705      0.0000    947.3145      9.7129
   230.5000     84.8975      0.0000    943.7869      9.7681
   230.7500     86.8008      0.0000    940.1335      9.8283
   231.0000     89.8312      0.0000    935.0341      9.8988
   231.2500     92.1520      0.0000    928.0580      9.9736
   231.5000     92.2833      0.0000    921.2932     10.0394
   231.7500     90.0446      0.0000    918.3814     10.0882
   232.0000     86.8166      0.0000    921.6872     10.1248
   232.2500     84.4945      0.0000    930.1528     10.1590
   232.5000     84.2507      0.0000    939.4088     10.1885
   232.7500     86.2238      0.0000    944.3537     10.1933
   233.0000     89.7587      0.0000    942.7188     10.1549
   233.2500     93.5295      0.0000    936.3298     10.0783
   233.5000     95.8065      0.0000    928.6639      9.9892
   233.7500     95.3117      0.0000    921.7325      9.9098
   234.0000     92.1632      0.0000    915.5319      9.8436
   234.2500     87.8161      0.0000    909.2838      9.7840
   234.5000     83.9749      0.0000    902.3779      9.7308
   234.7500     81.6744      0.0000    894.8876      9.6935
   235.0000     81.2424      0.0000    887.6865      9.6801
   235.2500     82.5767      0.0000    881.5147      9.6835
   235.5000     85.1369      0.0000    875.7769      9.6858
   235.7500     87.9751      0.0000    869.3800      9.6775
   236.0000     90.1582      0.0000    863.2867      9.6690
   236.2500     91.1648      0.0000    860.9495      9.6815
   236.5000     90.8654      0.0000    864.4795      9.7274
   236.7500     89.4491      0.0000    871.0814      9.7958
   237.0000     87.5595      0.0000    875.1174      9.8514
   237.2500     86.2024      0.0000    873.1886      9.8565
   237.5000     86.1712      0.0000    865.9896      9.8056
   237.7500     87.5896      0.0000    856.0417      9.7301
   238.0000     90.1206      0.0000    844.8781      9.6597
   238.2500     93.4188      0.0000    832.4246      9.5914
   238.5000     97.1213      0.0000    818.7911      9.5111
   238.7500    100.4247      0.0000    805.9796      9.4273
   239.0000    102.1455      0.0000    796.7656      9.3679
   239.2500    101.5657      0.0000    791.7631      9.3486
   239.5000     99.0816      0.0000    788.6539      9.3600
   239.7500     95.8911      0.0000    784.8569      9.3847
   240.0000     93.2224      0.0000    780.0380      9.4164
   240.2500     91.9937      0.0000    775.6238      9.4582
   240.5000     92.8945      0.0000    772.7494      9.5089
   240.7500     96.1744      0.0000    771.3763      9.5566
   241.0000    101.0930      0.0000    770.8063      9.5851
   241.2500    105.9776      0.0000    770.2798      9.5827
   241.5000    109.2612      0.0000    769.0529      9.5467
   241.7500    110.4935      0.0000    766.3083      9.4877
   242.0000    110.3167      0.0000    761.4902      9.4290
   242.2500    109.5716      0.0000    755.1352      9.3947
   242.5000    108.5587      0.0000    749.3594      9.3939
   242.7500    107.1066      0.0000    746.8575      9.4182
   243.0000    104.8984      0.0000    748.7625      9.4557
   243.2500    101.3197      0.0000    753.3821      9.5047
   243.5000     95.5134      0.0000    757.2877      9.5715
   243.7500     87.4630      0.0000    757.9426      9.6585
   244.0000     78.9607      0.0000    755.6252      9.7593
   244.2500     72.8788      0.0000    753.0093      9.8622
   244.5000     71.3186      0.0000    752.6528      9.9565
   244.7500     74.5125      0.0000    754.8129     10.0358
   245.0000     81.0794      0.0000    757.9506     10.0998
   245.2500     88.7919      0.0000    761.1677     10.1527
   245.5000     95.3252      0.0000    765.1601     10.2013
   245.7500     99.2136      0.0000    770.3278     10.2492
   246.0000    100.5990      0.0000    774.8802     10.2941
   246.2500    100.8149      0.0000    776.0081     10.3305
   246.5000    101.1425      0.0000    772.8605     10.3546
   246.7500    102.0278      0.0000    767.5184     10.3620
   247.0000    103.1746      0.0000    763.0993     10.3381
   247.2500    104.0841      0.0000    761.6045     10.2588
   247.5000    104.7037      0.0000    763.3317     10.1112
   247.7500    105.7189      0.0000    767.5351      9.9175
   248.0000    107.9879      0.0000    773.2897      9.7252
   248.2500    111.4431      0.0000    779.5964      9.5690
   248.5000    114.5490      0.0000    784.7786      9.4507
   248.7500    115.0377      0.0000    786.7387      9.3534
   249.0000    111.5982      0.0000    784.6377      9.2636
   249.2500    105.1941      0.0000    779.9515      9.1783
   249.5000     98.4865      0.0000    775.2216      9.1039
   249.7500     93.6113      0.0000    772.0504      9.0522
   250.0000     90.6040      0.0000    770.5372      9.0320
   250.2500     87.9994      0.0000    770.0380      9.0422
   250.5000     84.5023      0.0000    769.9404      9.0762
   250.7500     79.9857      0.0000    769.8934      9.1359
   251.0000     75.4432      0.0000    769.7073      9.2406
   251.2500     72.2953      0.0000    769.0132      9.4187
   251.5000     71.4588      0.0000    766.5771      9.6875
   251.7500     72.7787      0.0000    759.5229     10.0391
   252.0000     75.2273      0.0000    743.8545     10.4385
   252.2500     77.4799      0.0000    718.3945     10.8170
   252.5000     78.5270      0.0000    690.7880     11.0509
   252.7500     78.2480      0.0000    677.8868     10.9689
   253.0000     77.3640      0.0000    694.2740     10.4545
   253.2500     76.4763      0.0000    737.6335      9.5932
   253.5000     75.3709      0.0000    788.0703      8.6797
   253.7500     73.7071      0.0000    824.2305      8.0206
   254.0000     72.0779     -1.0822    839.3088      7.7309
   254.2500     71.8463     -1.8921    842.0924      7.7273
   254.5000     73.9379      0.0000    844.6188      7.8704
   254.7500     77.9090      0.0000    848.2245      8.1024
   255.0000     81.9177      0.0000    840.9145      8.4972
   255.2500     83.5873      0.0000    811.0509      9.1789
   255.5000     81.5398      0.0000    764.5093     10.1232
   255.7500     76.7072      0.0000    723.4118     11.0451
   256.0000     72.0453      0.0000    705.2780     11.5901
   256.2500     70.5566      0.0000    708.2459     11.6552
   256.5000     73.3596      0.0000    718.7621     11.4406
   256.7500     79.3027      0.0000    727.4613     11.2055
   257.0000     85.9377      0.0000    733.8967     11.0652
   257.2500     90.9250      0.0000    740.5516     11.0017
   257.5000     93.1348      0.0000    747.0522     10.9600
   257.7500     92.8490      0.0000    750.5327     10.9001
   258.0000     91.0678      0.0000    749.8477     10.8025
   258.2500     88.8417      0.0000    747.7826     10.6680
   258.5000     87.1557      0.0000    747.9873     10.5166
   258.7500     86.8451      0.0000    750.4013     10.3776
   259.0000     88.2651      0.0000    751.2371     10.2717
   259.2500     91.1782      0.0000    747.5112     10.1966
   259.5000     94.9223      0.0000    740.2837     10.1348
   259.7500     98.3730      0.0000    733.0540     10.0733
   260.0000     99.8859      0.0000    728.2551     10.0143
   260.2500     97.9632      0.0000    726.0201      9.9669
   260.5000     92.3905      0.0000    725.3057      9.9371
   260.7500     84.5636      0.0000    725.1848      9.9290
   261.0000     76.4614      0.0000    725.2244      9.9461
   261.2500     69.4148      0.0000    725.3139      9.9805
   261.5000     63.9293      0.0000    725.4451     10.0073
   261.7500     60.1404      0.0000    725.5971      9.9996
   262.0000     57.9555      0.0000    725.7398      9.9532
   262.2500     57.0295      0.0000    725.8522      9.8912
   262.5000     56.9369      0.0000    725.9300      9.8429
   262.7500     57.2890      0.0000    725.9814      9.8235
   263.0000     57.7643      0.0000    726.0274      9.8302
   263.2500     58.2940      0.0000    726.0943      9.8463
   263.5000     59.0742      0.0000    726.1994      9.8482
