~Version Information
VERS.                      2.0: CWLS Log ASCII Standard - VERSION 2.0
WRAP.                       NO: One line per depth step
~Well Information Block
STRT.FT                -7.5000: 
STOP.FT              1517.5000: 
STEP.FT                 0.2500: 
NULL.                -999.2500: 
COMP.          Pioneer Natural Resources: COMPANY
WELL.          McClaren 13-34 Tr: WELL
FLD.           Purgatorie River: FIELD
LOC.           1934' FSL & 826' WL--: LOCATION
PROV.                       CO: PROVINCE
CNTY.               Las Animas: COUNTRY
SRVC.          Patterson Wireline: SERVICE COMPANY
DATE.          Fri Jul 15 13:10:35 2005: LOG DATE
UWI.           05 071 08437 00: UNIQUE WELL ID
~Curve Information Block
DEPT.FT            0 000 00 00: Depth
CCL.                          : Casing Collar Locator
TT3.usec                      : CBL 3' Travel Time
AMP3.mV                       : CBL 3' Amplitude
GR.GAPI                       : Gamma Ray
~Parameter Information Block
~A  Depth       CCL         TT3         AMP3         GR     
# ...
  1098.0000      0.0000    711.4518      9.7335    117.3296
  1098.2500      0.0000    717.6205      9.7541    121.9229
  1098.5000      0.0000    724.4449      9.7459    128.1029
  1098.7500      0.0000    730.6194      9.7109    135.2864
  1099.0000      0.0000    736.9319      9.6628    142.4421
  1099.2500      0.0000    745.8238      9.6138    148.4306
  1099.5000      0.0000    759.4225      9.5715    152.2372
  1099.7500      0.0000    777.1188      9.5373    153.3416
  1100.0000      0.0000    794.7857      9.4921    152.1115
  1100.2500      0.0000    807.0596      9.3811    149.5958
  1100.5000      0.0000    810.9250      9.1343    146.6972
  1100.7500      0.0000    807.5619      8.7162    143.6658
  1101.0000      0.0000    801.6028      8.1613    140.3793
  1101.2500      0.0000    798.5300      7.5590    136.7915
  1101.5000      0.0000    801.1722      7.0011    133.0172
  1101.7500      0.0000    807.8142      6.5404    129.2606
  1102.0000      0.0000    814.1121      6.1899    125.9202
  1102.2500      0.0000    816.6919      5.9442    123.6862
  1102.5000      0.0000    814.3261      5.7804    123.1814
  1102.7500      0.0000    806.4781      5.6402    124.3287
  1103.0000      0.0000    792.5268      5.4415    126.3113
  1103.2500      0.0000    773.4684      5.1400    128.2896
  1103.5000      0.0000    753.9981      4.7913    129.8627
  1103.7500      0.0000    741.3637      4.5393    130.7576
  1104.0000      0.0000    740.6257      4.5249    130.5435
  1104.2500      0.0000    750.5061      4.7891    128.8346
  1104.5000      0.0000    763.9349      5.2545    125.6448
  1104.7500      1.5924    772.3408      5.7836    121.7693
  1105.0000      0.0000    770.1776      6.2488    118.8216
  1105.2500      0.0000    758.0610      6.5738    118.0848
  1105.5000      0.0000    743.3183      6.7534    118.9185
  1105.7500      0.0000    735.2814      6.8579    119.1101
  1106.0000      0.0000    737.1559      7.0067    117.3162
  1106.2500      0.0000    743.4706      7.3053    114.5592
  1106.5000      0.0000    746.9563      7.7839    112.8585
  1106.7500      0.0000    746.0013      8.3744    112.9169
  1107.0000      0.0000    744.4594      8.9492    113.6831
  1107.2500      0.0000    746.8466      9.4005    113.7837
  1107.5000      0.0000    754.9509      9.6942    112.7840
  1107.7500      0.0000    766.6718      9.8539    111.1524
  1108.0000      0.0000    776.3734      9.9140    109.6626
  1108.2500      0.0000    777.7854      9.9014    109.2175
  1108.5000      0.0000    768.7126      9.8462    110.9144
  1108.7500      0.0000    753.2037      9.7881    115.5443
  1109.0000      0.0000    738.5433      9.7634    122.7136
  1109.2500      0.0000    729.9897      9.7924    130.7513
  1109.5000      0.0000    728.2673      9.8743    137.7782
  1109.7500      0.0000    731.1492      9.9890    142.8327
  1110.0000      0.0000    736.4387     10.1009    145.8823
  1110.2500      0.0000    743.3508     10.1691    146.9862
  1110.5000      0.0000    751.6537     10.1655    145.9252
  1110.7500      0.0000    760.2977     10.0907    142.8975
  1111.0000      0.0000    767.3918      9.9751    139.1480
  1111.2500      0.0000    771.4941      9.8605    136.4228
  1111.5000      0.0000    772.7090      9.7769    135.7856
  1111.7500      0.0000    772.5456      9.7328    136.9988
  1112.0000      0.0000    772.9031      9.7239    138.8439
  1112.2500      0.0000    775.1359      9.7456    139.8976
  1112.5000      0.0000    779.5229      9.7974    139.2836
  1112.7500      0.0000    784.5995      9.8754    137.0842
  1113.0000      0.0000    786.8351      9.9672    134.0477
  1113.2500      0.0000    782.2474     10.0571    130.7642
  1113.5000      0.0000    769.4019     10.1334    127.2370
  1113.7500      0.0000    750.7177     10.1878    123.3677
  1114.0000      0.0000    730.7726     10.2141    119.5037
  1114.2500      0.0000    713.6551     10.2130    116.0611
  1114.5000      0.0000    701.4926     10.1938    112.8881
  1114.7500      0.0000    694.3530     10.1641    109.5546
  1115.0000      0.0000    690.9142     10.1219    106.2018
  1115.2500      0.0000    689.2556     10.0625    103.7598
  1115.5000      0.0000    687.0095      9.9940    103.3089
  1115.7500      0.0000    680.6046      9.9429    105.2629
  1116.0000      0.0000    665.1353      9.9419    109.0834
  1116.2500      0.0000    637.8889     10.0061    113.7717
  1116.5000      0.0000    604.9927     10.1190    118.4676
  1116.7500      0.0000    582.9245     10.2450    122.3350
  1117.0000      0.0000    587.4856     10.3566    124.3298
  1117.2500      0.0000    618.6387     10.4447    124.0261
  1117.5000      0.0000    658.3926     10.5061    122.7741
  1117.7500      0.0000    684.4272     10.5332    123.0800
  1118.0000      0.0000    685.1750     10.5219    126.2543
  1118.2500      0.0000    663.7751     10.4843    131.0208
  1118.5000      0.0000    629.8334     10.4495    134.6490
  1118.7500      0.0000    588.1096     10.4511    135.2343
  1119.0000      0.0000    537.2314     10.5101    133.0491
  1119.2500      0.0000    479.2558     10.6218    130.1974
  1119.5000      0.0000    424.6660     10.7540    128.9797
  1119.7500      0.0000    384.6883     10.8597    130.2519
  1120.0000      0.0000    362.3491     10.9018    133.0878
  1120.2500      0.0000    353.0508     10.8728    135.6538
  1120.5000      0.0000    350.9948     10.7969    136.2266
  1120.7500      0.0000    353.8361     10.7133    133.8616
  1121.0000      0.0000    363.6514     10.6527    128.8596
  1121.2500      0.0000    384.9652     10.6272    122.8489
  1121.5000      0.0000    419.2232     10.6379    117.9723
  1121.7500      0.0000    458.1216     10.6854    115.5302
  1122.0000      0.0000    483.9698     10.7674    115.5287
  1122.2500      0.0000    481.7904     10.8722    117.5585
  1122.5000      0.0000    452.7699     10.9833    121.4535
  1122.7500      0.0000    413.2334     11.0882    126.6844
  1123.0000      0.0000    380.2756     11.1799    131.6546
  1123.2500      0.0000    360.6001     11.2512    134.2831
  1123.5000      0.0000    351.4240     11.2964    133.4193
  1123.7500      0.0000    347.2406     11.3164    129.6427
  1124.0000      0.0000    344.3215     11.3140    124.8747
  1124.2500      0.0000    341.3815     11.2884    121.2948
  1124.5000      0.0000    338.3046     11.2452    120.3208
  1124.7500      0.0000    334.7657     11.2073    122.0921
  1125.0000      0.0000    330.1064     11.2046    125.4567
  1125.2500      0.0000    324.3484     11.2494    128.3217
  1125.5000      0.0000    318.6339     11.3275    128.5815
  1125.7500      0.0000    314.3545     11.4123    125.5041
  1126.0000      0.0000    312.2017     11.4814    120.4350
  1126.2500      0.0000    312.2586     11.5198    115.7188
  1126.5000      0.0000    314.6268     11.5177    112.6581
  1126.7500      0.0000    319.5171     11.4751    110.8141
  1127.0000      0.0000    326.6125     11.4073    109.3973
  1127.2500      0.0000    334.5870     11.3394    108.7149
  1127.5000      0.0000    341.6965     11.2925    109.6885
  1127.7500      0.0000    347.0740     11.2748    112.3679
  1128.0000      0.0000    351.4192     11.2794    115.5777
  1128.2500      0.0000    356.2742     11.2838    117.8532
  1128.5000      0.0000    362.3045     11.2575    118.3042
  1128.7500      0.0000    368.0388     11.1859    116.9145
  1129.0000      0.0000    370.7398     11.0892    114.4104
  1129.2500      0.0000    369.4503     11.0057    111.6401
  1129.5000      0.0000    367.2680     10.9527    108.9728
  1129.7500      0.0000    370.4956     10.9133    106.4963
  1130.0000      0.0000    384.8364     10.8632    104.6188
  1130.2500      0.0000    410.0218     10.8001    103.9733
  1130.5000      0.0000    436.4121     10.7429    104.7971
  1130.7500      0.0000    449.9372     10.7080    106.8690
  1131.0000      0.0000    444.4812     10.6927    110.0377
  1131.2500      0.0000    427.7609     10.6825    114.4399
