~Version Information
VERS.                      2.0: CWLS Log ASCII Standard - VERSION 2.0
WRAP.                       NO: One line per depth step
~Well Information Block
STRT.FT                31.2500: 
STOP.FT               700.7500: 
STEP.FT                 0.2500: 
NULL.                -999.2500: 
COMP.          XTO Energy Inc.: COMPANY
WELL.          Golden Eagle 20-14: WELL
FLD.           Purgatrorie River: FIELD
LOC.           587' FSL & 2478' FWL--: LOCATION
STAT.                       CO: State
CNTY.               Las Animas: COUNTY
CTRY. USA : Country
SECT. 20 : Section
TOWN. 33S : Township
RANG. 67W : Range
SRVC.          Patterson Wireline: SERVICE COMPANY
DATE.          Sat Dec 10 15:54:00 2005: LOG DATE
API.           05 071 08614 00: UNIQUE WELL ID
~Curve Information Block
DEPT.FT            0 000 00 00: Depth
CCL.                          : Casing Collar Locator
TT3.usec                      : CBL 3' Travel Time
AMP3.mV                       : CBL 3' Amplitude
GR.GAPI                       : Gamma Ray
~Parameter Information Block
~A  Depth       CCL         TT3         AMP3         GR     
# ...
   533.7500      0.0000    695.7181      2.9041     84.6506
   534.0000      0.0000    694.4475      2.9952     85.7589
   534.2500      0.0000    691.8878      3.0401     90.9783
   534.5000      0.0000    689.3272      3.0676     98.1359
   534.7500      0.0000    687.6211      3.1271    104.7254
   535.0000      0.0000    686.8331      3.2392    109.2176
   535.2500      0.0000    686.5961      3.3927    111.6435
   535.5000      0.0000    686.5415      3.5881    112.9871
   535.7500      0.0000    686.4704      3.8594    114.1307
   536.0000      0.0000    686.3411      4.2352    115.4342
   536.2500      0.0000    686.2067      4.6839    117.0619
   536.5000      0.0000    686.1310      5.1098    119.1332
   536.7500      0.0000    686.1215      5.4059    121.3736
   537.0000      0.0000    686.1204      5.5123    123.0962
   537.2500      0.0000    686.0604      5.4349    123.8705
   537.5000      0.0000    685.9117      5.2252    123.8872
   537.7500      0.0000    685.6697      4.9462    123.3994
   538.0000      0.0000    685.3315      4.6511    122.0458
   538.2500      0.0000    684.9236      4.3838    119.0446
   538.5000      0.0000    684.5407      4.1876    114.2846
   538.7500      0.0000    684.3160      4.1014    109.2279
   539.0000      0.0000    684.3376      4.1423    106.4773
   539.2500      0.0000    684.5913      4.2949    108.1588
   539.5000      0.0000    684.9705      4.5169    114.3925
   539.7500      0.0000    685.3346      4.7551    122.9654
   540.0000      0.0000    685.5789      4.9605    130.4421
   540.2500      0.0000    685.6708      5.0963    134.2435
   540.5000      0.0000    685.6376      5.1431    134.4174
   540.7500      0.0000    685.5357      5.1023    133.4176
   541.0000      0.0000    685.4229      4.9974    133.7402
   541.2500      0.0000    685.3384      4.8639    135.6186
   541.5000      0.0000    685.3005      4.7359    137.1042
   541.7500      0.0000    685.3214      4.6377    136.2994
   542.0000      0.0000    685.4143      4.5841    133.2830
   542.2500      0.0000    685.5759      4.5864    129.9662
   542.5000      0.0000    685.7667      4.6553    128.4995
   542.7500      0.0000    685.9205      4.7909    129.8932
   543.0000      0.0000    685.9681      4.9626    133.6766
   543.2500      0.0000    685.8314      5.1093    138.1505
   543.5000      0.0000    685.4694      5.1817    140.7551
   543.7500      0.0000    685.1527      5.1828    138.9498
   544.0000      0.0000    686.0021      5.1478    131.8447
   544.2500      0.0000    689.8872      5.0992    121.4115
   544.5000      0.0000    697.5670      5.0428    111.6205
   544.7500     -1.0498    706.2596      5.0013    105.9797
   545.0000      1.8991    710.4199      5.0273    105.8897
   545.2500      0.0000    706.5303      5.1841    110.8682
   545.5000      0.0000    696.5765      5.5119    119.3335
   545.7500      0.0000    685.6326      5.9901    128.9146
   546.0000      0.0000    676.9047      6.5256    136.7991
   546.2500      0.0000    670.4899      6.9921    140.6719
   546.5000      0.0000    666.1238      7.2884    139.9637
   546.7500      0.0000    664.9109      7.3613    136.5988
   547.0000      0.0000    667.6542      7.2117    134.1808
   547.2500      0.0000    672.9558      6.9124    135.3976
   547.5000      0.0000    678.1550      6.5902    139.5920
   547.7500      0.0000    681.5656      6.3502    143.2108
   548.0000      0.0000    683.1934      6.2179    143.1217
   548.2500      0.0000    683.8298      6.1556    139.5383
   548.5000      0.0000    684.1319      6.1138    135.5944
   548.7500      0.0000    684.3732      6.0615    134.1294
   549.0000      0.0000    684.5772      5.9900    135.0633
   549.2500      0.0000    684.6779      5.9012    135.9435
   549.5000      0.0000    684.6318      5.7931    134.8089
   549.7500      0.0000    684.4595      5.6581    132.1967
   550.0000      0.0000    684.2421      5.5032    130.3155
   550.2500      0.0000    684.0765      5.3682    130.6107
   550.5000      0.0000    684.0254      5.3091    132.2615
   550.7500      0.0000    684.0919      5.3527    132.7157
   551.0000      0.0000    684.2316      5.4685    129.6521
   551.2500      0.0000    684.3878      5.5831    122.8609
   551.5000      0.0000    684.5289      5.6259    114.4189
   551.7500      0.0000    684.6644      5.5707    106.8862
   552.0000      0.0000    684.8283      5.4519    101.3229
   552.2500      0.0000    685.0345      5.3426     97.1161
   552.5000      0.0000    685.2431      5.3072     93.2976
   552.7500      0.0000    685.3728      5.3643     89.5197
   553.0000      0.0000    685.3496      5.4862     85.9775
   553.2500      0.0000    685.1541      5.6178     83.0160
   553.5000      0.0000    684.8362      5.6897     80.9916
   553.7500      0.0000    684.4980      5.6300     80.2975
   554.0000      0.0000    684.2481      5.3939     81.2654
   554.2500      0.0000    684.1480      4.9937     83.9040
   554.5000      0.0000    684.1933      4.4960     87.7000
   554.7500      0.0000    684.3450      3.9833     91.8237
   555.0000      0.0000    684.5708      3.5130     95.7840
   555.2500      0.0000    684.8508      3.1047     99.5989
   555.5000      0.0000    685.1647      2.7636    102.9215
   555.7500      0.0000    685.5004      2.5041    104.3828
   556.0000      0.0000    685.9075      2.3396    102.5729
   556.2500      0.0000    686.5773      2.2560     97.7848
   556.5000      0.0000    687.8923      2.2166     92.2764
   556.7500      0.0000    690.2524      2.1983     88.3953
   557.0000      0.0000    693.5596      2.2077     86.5876
   557.2500      0.0000    696.7798      2.2538     85.3904
   557.5000      0.0000    698.3781      2.3213     83.1039
   557.7500      0.0000    697.5787      2.3804     79.3533
   558.0000      0.0000    695.1774      2.4116     75.3265
   558.2500      0.0000    693.0502      2.4099     72.7908
   558.5000      0.0000    693.1659      2.3753     72.8497
   558.7500      0.0000    697.0367      2.3170     75.4924
   559.0000      0.0000    705.2000      2.2593     80.0361
   559.2500      0.0000    716.1414      2.2316     85.7339
   559.5000      0.0000    725.8375      2.2540     91.9942
   559.7500      0.0000    729.7180      2.3370     98.2361
   560.0000      0.0000    726.2888      2.4838    103.8314
   560.2500      0.0000    718.6618      2.6821    108.4127
   560.5000      0.0000    711.7170      2.8975    112.0979
   560.7500      0.0000    707.6542      3.0895    115.3105
   561.0000      0.0000    704.8633      3.2386    118.6653
   561.2500      0.0000    700.9313      3.3595    122.8937
   561.5000      0.0000    695.6108      3.4913    128.1847
   561.7500      0.0000    690.5162      3.6673    133.4355
   562.0000      0.0000    687.0322      3.8881    136.6582
   562.2500      0.0000    685.3047      4.1216    136.5030
   562.5000      0.0000    684.7266      4.3301    133.4188
   562.7500      0.0000    684.6616      4.4983    129.2058
   563.0000      0.0000    684.7286      4.6321    125.2343
   563.2500      0.0000    684.7567      4.7359    121.2776
   563.5000      0.0000    684.6859      4.7966    116.4261
   563.7500      0.0000    684.5169      4.7976    110.8175
   564.0000      0.0000    684.3151      4.7427    105.7688
   564.2500      0.0000    684.1838      4.6593    102.3897
   564.5000      0.0000    684.1989      4.5774    100.7307
   564.7500      0.0000    684.3512      4.5119    100.3015
   565.0000      0.0000    684.5560      4.4637    100.9547
   565.2500      0.0000    684.7200      4.4338    102.8513
   565.5000      0.0000    684.8012      4.4283    105.5767
   565.7500      0.0000    684.8129      4.4499    107.8772
   566.0000      0.0000    684.7892      4.4873    108.7542
   566.2500      0.0000    684.7614      4.5180    108.5162
   566.5000      0.0000    684.7535      4.5249    108.3995
   566.7500      0.0000    684.7785      4.5096    109.3552
   567.0000      0.0000    684.8306      4.4854    111.3336
