~Version Information
VERS.                      2.0: CWLS Log ASCII Standard - VERSION 2.0
WRAP.                       NO: One line per depth step
~Well Information Block
STRT.FT               570.0000: 
STOP.FT              2094.0000: 
STEP.FT                 0.2500: 
NULL.                -999.2500: 
COMP.          XTO Energy Inc.: COMPANY
WELL.          Golden Eagle 19-10: WELL
FLD.           Purgatoire River: FIELD
LOC.           2684' FSL & 1825' FEL: LOCATION
CNTY.               Las Animas: COUNTY
CTRY.                      USA: COUNTRY
API.               05 071 08697:  
SRVC.                Patterson: SERVICE COMPANY
DATE.          Sun Mar 05 02:13:24 2006: LOG DATE
UWI.           05 071 08697 00: UNIQUE WELL ID
STAT.                 Colorado: STATE
~Curve Information Block
DEPT.FT            0 000 00 00: Depth
SP.mV                         : DIL Spontaneous Potential
RILD.Ohm-m                    : DIL Deep Resistivity
RILM.Ohm-m                    : DIL Medium Resistivity
RLL3.Ohm-m                    : DIL Shallow Resistivity
GR.GAPI                       : Gamma Ray
~Parameter Information Block
~A  Depth        SP         RILD        RILM        RLL3         GR     
# ...
   766.0000   -999.2500     34.8305     34.6779   -999.2500     59.9646
   766.2500   -999.2500     35.1663     34.5754   -999.2500     61.1777
   766.5000   -999.2500     35.2872     34.4430   -999.2500     63.2227
   766.7500   -999.2500     35.2191     34.3103   -999.2500     64.1983
   767.0000   -999.2500     35.0443     34.2088   -999.2500     64.9785
   767.2500   -999.2500     34.8638     34.1641   -999.2500     65.3489
   767.5000   -999.2500     34.7531     34.1913   -999.2500     66.0403
   767.7500   -999.2500     34.7349     34.2921   -999.2500     66.5530
   768.0000   -999.2500     34.7819     34.4553   -999.2500     67.1366
   768.2500   -999.2500     34.8428     34.6588   -999.2500     67.1925
   768.5000   -999.2500     34.8733     34.8743   -999.2500     66.3830
   768.7500   -999.2500     34.8554     35.0723   -999.2500     65.1823
   769.0000   -999.2500     34.8007     35.2271   -999.2500     62.8012
   769.2500   -999.2500     34.7400     35.3215   -999.2500     61.2230
   769.5000   -999.2500     34.7056     35.3496   -999.2500     59.3249
   769.7500   -999.2500     34.7142     35.3175   -999.2500     58.4172
   770.0000   -999.2500     34.7623     35.2426   -999.2500     57.5365
   770.2500   -999.2500     34.8308     35.1499   -999.2500     57.2628
   770.5000   -999.2500     34.8946     35.0659   -999.2500     57.1618
   770.7500   -999.2500     34.9376     35.0123   -999.2500     57.0410
   771.0000   -999.2500     34.9687     35.0006   -999.2500     56.3783
   771.2500   -999.2500     35.0254     35.0323   -999.2500     55.5782
   771.5000   -999.2500     35.1488     35.1011   -999.2500     53.9063
   771.7500   -999.2500     35.3416     35.1991   -999.2500     52.4914
   772.0000   -999.2500     35.5500     35.3212   -999.2500     50.2243
   772.2500   -999.2500     35.6924     35.4667   -999.2500     49.0748
   772.5000   -999.2500     35.7175     35.6379   -999.2500     48.6198
   772.7500   -999.2500     35.6370     35.8365   -999.2500     49.1673
   773.0000   -999.2500     35.5059     36.0609   -999.2500     50.5347
   773.2500   -999.2500     35.3758     36.3055   -999.2500     51.2793
   773.5000   -999.2500     35.2685     36.5608   -999.2500     51.7461
   773.7500   -999.2500     35.1796     36.8154   -999.2500     51.8735
   774.0000   -999.2500     35.0943     37.0560   -999.2500     52.6624
   774.2500   -999.2500     35.0010     37.2677   -999.2500     53.8466
   774.5000   -999.2500     34.8997     37.4358   -999.2500     56.1457
   774.7500   -999.2500     34.8065     37.5497   -999.2500     57.5035
   775.0000   -999.2500     34.7525     37.6080   -999.2500     58.7567
   775.2500   -999.2500     34.7681     37.6216   -999.2500     59.1425
   775.5000   -999.2500     34.8507     37.6108   -999.2500     59.5886
   775.7500   -999.2500     34.9339     37.5955   -999.2500     60.1453
   776.0000   -999.2500     34.8857     37.5774   -999.2500     61.5936
   776.2500   -999.2500     34.5601     37.5231   -999.2500     62.7041
   776.5000   -999.2500     33.8743     37.3530   -999.2500     63.6617
   776.7500   -999.2500     32.8447     36.9460   -999.2500     63.4509
   777.0000   -999.2500     31.5500     36.1659   -999.2500     62.2171
   777.2500   -999.2500     30.0665     34.9083   -999.2500     61.4828
   777.5000   -999.2500     28.4445     33.1483   -999.2500     61.6815
   777.7500   -999.2500     26.7319     30.9666   -999.2500     63.0387
   778.0000   -999.2500     25.0032     28.5303   -999.2500     67.2139
   778.2500   -999.2500     23.3529     26.0402   -999.2500     71.6104
   778.5000   -999.2500     21.8594     23.6748   -999.2500     80.6308
   778.7500   -999.2500     20.5560     21.5565   -999.2500     87.7747
   779.0000   -999.2500     19.4296     19.7444   -999.2500     98.6747
   779.2500   -999.2500     18.4454     18.2461   -999.2500    105.2055
   779.5000   -999.2500     17.5737     17.0346   -999.2500    112.9830
   779.7500   -999.2500     16.8016     16.0635   -999.2500    116.6283
   780.0000   -999.2500     16.1291     15.2788   -999.2500    119.9645
   780.2500   -999.2500     15.5567     14.6276   -999.2500    121.2002
   780.5000   -999.2500     15.0780     14.0657   -999.2500    122.6909
   780.7500   -999.2500     14.6761     13.5625   -999.2500    123.9135
   781.0000   -999.2500     14.3242     13.1028   -999.2500    125.8791
   781.2500   -999.2500     13.9909     12.6849   -999.2500    126.7576
   781.5000   -999.2500     13.6528     12.3149   -999.2500    127.0144
   781.7500   -999.2500     13.3045     12.0007   -999.2500    126.7852
   782.0000   -999.2500     12.9594     11.7470   -999.2500    126.5602
   782.2500   -999.2500     12.6392     11.5535   -999.2500    126.5158
   782.5000   -999.2500     12.3627     11.4147   -999.2500    125.9715
   782.7500   -999.2500     12.1411     11.3218   -999.2500    124.9952
   783.0000   -999.2500     11.9776     11.2640   -999.2500    123.0002
   783.2500   -999.2500     11.8683     11.2316   -999.2500    122.0292
   783.5000   -999.2500     11.8053     11.2165   -999.2500    122.4062
   783.7500   -999.2500     11.7796     11.2135   -999.2500    124.2462
   784.0000   -999.2500     11.7825     11.2201   -999.2500    128.7880
   784.2500   -999.2500     11.8046     11.2355   -999.2500    131.8807
   784.5000   -999.2500     11.8322     11.2594   -999.2500    134.2081
   784.7500   -999.2500     11.8485     11.2905   -999.2500    133.3609
   785.0000   -999.2500     11.8385     11.3250   -999.2500    128.9623
   785.2500   -999.2500     11.7943     11.3568   -999.2500    125.1673
   785.5000   -999.2500     11.7166     11.3774   -999.2500    120.6991
   785.7500   -999.2500     11.6108     11.3775   -999.2500    119.6147
   786.0000   -999.2500     11.4816     11.3493   -999.2500    121.2842
   786.2500   -999.2500     11.3308     11.2878   -999.2500    123.9840
   786.5000   -999.2500     11.1605     11.1927   -999.2500    128.5543
   786.7500   -999.2500     10.9764     11.0680   -999.2500    131.0833
   787.0000   -999.2500     10.7893     10.9213   -999.2500    133.8212
   787.2500   -999.2500     10.6113     10.7613   -999.2500    135.2923
   787.5000   -999.2500     10.4514     10.5959   -999.2500    137.5881
   787.7500   -999.2500     10.3123     10.4306   -999.2500    139.3571
   788.0000   -999.2500     10.1910     10.2681   -999.2500    142.4292
   788.2500   -999.2500     10.0827     10.1100   -999.2500    144.6515
   788.5000   -999.2500      9.9869      9.9584   -999.2500    148.0282
   788.7500   -999.2500      9.9112      9.8183   -999.2500    150.4566
   789.0000   -999.2500      9.8700      9.6987   -999.2500    155.0772
   789.2500   -999.2500      9.8774      9.6119   -999.2500    158.9133
   789.5000   -999.2500      9.9393      9.5723   -999.2500    164.5105
   789.7500   -999.2500     10.0504      9.5935   -999.2500    166.7922
   790.0000   -999.2500     10.1962      9.6860   -999.2500    166.1185
   790.2500   -999.2500     10.3621      9.8556   -999.2500    162.5723
   790.5000   -999.2500     10.5413     10.1019   -999.2500    153.5064
   790.7500   -999.2500     10.7388     10.4188   -999.2500    146.2241
   791.0000   -999.2500     10.9688     10.7952   -999.2500    135.9299
   791.2500   -999.2500     11.2463     11.2171   -999.2500    130.5394
   791.5000   -999.2500     11.5831     11.6707   -999.2500    125.3879
   791.7500   -999.2500     11.9871     12.1448   -999.2500    123.7973
   792.0000   -999.2500     12.4668     12.6333   -999.2500    123.2542
   792.2500   -999.2500     13.0346     13.1358   -999.2500    123.4831
   792.5000   -999.2500     13.7047     13.6568   -999.2500    124.3496
   792.7500   -999.2500     14.4827     14.2042   -999.2500    125.4808
   793.0000   -999.2500     15.3498     14.7884   -999.2500    127.8487
   793.2500   -999.2500     16.2529     15.4214   -999.2500    129.0269
   793.5000   -999.2500     17.1145     16.1179   -999.2500    128.2284
   793.7500   -999.2500     17.8700     16.8960   -999.2500    125.4707
