~Version Information
VERS.                      2.0: CWLS Log ASCII Standard - VERSION 2.0
WRAP.                       NO: One line per depth step
~Well Information Block
STRT.FT                -8.0000: 
STOP.FT              1661.0000: 
STEP.FT                 0.2500: 
NULL.                -999.2500: 
COMP.          Pioneer Natural Resources: COMPANY
WELL.          Rollerball 34-30: WELL
FLD.           Purgatorie River: FIELD
LOC.           893' FSL & 2408' FEL----: LOCATION
CNTY.               Las Animas: COUNTY
SRVC.          Patterson Wireline: SERVICE COMPANY
DATE.          Mon Feb 20 08:34:38 2006: LOG DATE
UWI.           05 071 08581 00: UNIQUE WELL ID
STAT.                       CO: STATE
~Curve Information Block
DEPT.FT            0 000 00 00: Depth
CCL.                          : Casing Collar Locator
TT3.usec                      : CBL 3' Travel Time
AMP3.mV                       : CBL 3' Amplitude
GR.GAPI                       : Gamma Ray
~Parameter Information Block
~A  Depth       CCL         TT3         AMP3         GR     
# ...
  1097.5000      0.0000    760.0057      5.1286     70.4761
  1097.7500      0.0000    749.6224      5.0089     70.3233
  1098.0000      0.0000    740.9038      4.9176     68.9793
  1098.2500      0.0000    739.0774      4.8547     66.1830
  1098.5000      0.0000    745.7964      4.8044     62.0695
  1098.7500      0.0000    758.9445      4.7503     57.5674
  1099.0000      0.0000    774.0486      4.6905     54.0789
  1099.2500      0.0000    786.5184      4.6385     52.4217
  1099.5000      0.0000    793.8523      4.6111     52.1582
  1099.7500      0.0000    796.3955      4.6148     52.2315
  1100.0000      0.0000    796.0253      4.6428     52.1612
  1100.2500      0.0000    794.1128      4.6789     52.2444
  1100.5000      0.0000    790.5722      4.7063     52.5691
  1100.7500      0.0000    784.2927      4.7113     52.3785
  1101.0000      0.0000    774.2166      4.6853     50.9009
  1101.2500      0.0000    760.5096      4.6254     48.6281
  1101.5000      0.0000    745.4039      4.5398     47.1798
  1101.7500      0.0000    732.8821      4.4507     47.6468
  1102.0000      0.0000    726.4504      4.3867     49.3823
  1102.2500      0.0000    726.2092      4.3674     50.6722
  1102.5000      0.0000    728.4933      4.3954     50.4013
  1102.7500      0.0000    729.5931      4.4630     48.8232
  1103.0000      0.0000    729.9717      4.5627     47.0047
  1103.2500      0.0000    733.8793      4.6872     46.0109
  1103.5000      0.0000    744.4637      4.8206     46.5335
  1103.7500      0.0000    759.9369      4.9366     48.7405
  1104.0000      0.0000    774.7797      5.0100     52.2167
  1104.2500      0.0000    783.8434      5.0340     56.2145
  1104.5000      0.0000    784.9965      5.0286     60.3736
  1104.7500      0.0000    779.2351      5.0331     65.3685
  1105.0000      0.0000    769.5948      5.0834     72.3344
  1105.2500      0.0000    759.6681      5.1944     81.2703
  1105.5000      0.0000    752.2733      5.3589     90.5211
  1105.7500      0.0000    749.2118      5.5600     98.1213
  1106.0000      0.0000    751.3558      5.7843    102.9560
  1106.2500      0.0000    757.4503      6.0247    104.4224
  1106.5000      0.0000    763.2132      6.2742    102.1213
  1106.7500      0.0000    763.6809      6.5140     96.7674
  1107.0000      0.0000    757.2179      6.7088     90.7488
  1107.2500      0.0000    746.3751      6.8222     86.6996
  1107.5000      0.0000    734.8345      6.8421     85.3941
  1107.7500      0.0000    724.6499      6.7917     85.5627
  1108.0000      0.0000    716.4156      6.7116     85.8335
  1108.2500      0.0000    710.7469      6.6331     86.3529
  1108.5000      0.0000    708.5947      6.5663     88.4169
  1108.7500      0.0000    710.5211      6.5053     93.0739
  1109.0000      0.0000    716.5203      6.4430    100.2994
  1109.2500      0.0000    726.2875      6.3806    109.1237
  1109.5000      0.0000    738.2214      6.3243    118.3641
  1109.7500      0.0000    748.0115      6.2735    127.2374
  1110.0000      0.0000    750.2239      6.2187    135.2207
  1110.2500      0.0000    743.3318      6.1533    141.7982
  1110.5000      0.0000    732.9362      6.0871    146.9857
  1110.7500      0.0000    728.1287      6.0420    151.8733
  1111.0000      0.0000    733.6042      6.0312    157.7324
  1111.2500      0.0000    745.3892      6.0459    164.1456
  1111.5000      0.0000    754.3243      6.0657    168.5854
  1111.7500      0.0000    753.4571      6.0800    168.6310
  1112.0000      0.0000    742.8589      6.0964    164.3587
  1112.2500      0.0000    728.9384      6.1294    157.8987
  1112.5000      0.0000    719.4508      6.1878    151.1008
  1112.7500      0.0000    718.0337      6.2720    144.2979
  1113.0000      0.0000    722.5792      6.3798    136.7899
  1113.2500      0.0000    728.1990      6.5104    127.8289
  1113.5000      0.0000    731.3324      6.6569    117.5727
  1113.7500      0.0000    731.7839      6.7950    107.6517
  1114.0000      0.0000    731.9048      6.8834    100.6256
  1114.2500      0.0000    733.6885      6.8842     98.5088
  1114.5000      0.0000    736.6312      6.7901    101.5531
  1114.7500      0.0000    738.9070      6.6326    108.2491
  1115.0000      0.0000    739.5911      6.4641    116.3975
  1115.2500      0.0000    738.5645      6.3331    124.2631
  1115.5000      0.0000    735.8307      6.2705    130.9917
  1115.7500      0.0000    732.8314      6.2918    136.4453
  1116.0000      0.0000    733.4096      6.3985    140.8736
  1116.2500      0.0000    741.0503      6.5707    144.4437
  1116.5000      0.0000    754.7430      6.7645    146.8017
  1116.7500      0.0000    768.9353      6.9288    147.3457
  1117.0000      0.0000    777.9914      7.0305    146.3026
  1117.2500      0.0000    780.0507      7.0660    145.3566
  1117.5000      0.0000    777.1694      7.0548    146.5553
  1117.7500      0.0000    773.2516      7.0237    150.2045
  1118.0000      0.0000    771.9277      6.9909    154.1860
  1118.2500      0.0000    774.8025      6.9599    155.8460
  1118.5000      0.0000    780.7131      6.9277    154.5335
  1118.7500      0.0000    786.9431      6.8971    152.0356
  1119.0000      0.0000    791.4172      6.8739    150.5540
  1119.2500      0.0000    793.6783      6.8545    150.5838
  1119.5000      0.0000    794.0991      6.8278    150.9704
  1119.7500      0.0000    792.5696      6.7881    150.6853
  1120.0000      0.0000    787.8992      6.7391    149.8398
  1120.2500      0.0000    778.5162      6.6841    148.8925
  1120.5000      0.0000    764.5562      6.6204    147.7092
  1120.7500      0.0000    749.8304      6.5445    145.9295
  1121.0000      0.0000    740.6732      6.4618    143.7324
  1121.2500      0.0000    740.9050      6.3899    141.6048
  1121.5000      0.0000    747.6578      6.3505    139.6733
  1121.7500      0.0000    753.4631      6.3537    137.8539
  1122.0000      0.0000    752.8895      6.3927    136.3984
  1122.2500      0.0000    746.3709      6.4536    135.6699
  1122.5000      0.0000    738.1747      6.5278    135.5004
  1122.7500      0.0000    732.4671      6.6123    135.4032
  1123.0000      0.0000    731.2392      6.6987    135.4581
  1123.2500      0.0000    733.7329      6.7684    136.3684
  1123.5000      0.0000    736.9178      6.8015    138.5270
  1123.7500      0.0000    737.9344      6.7907    141.6981
  1124.0000      0.0000    737.1190      6.7479    145.6963
  1124.2500      0.0000    737.8044      6.6915    150.4370
  1124.5000      0.0000    742.1989      6.6248    154.9996
  1124.7500      0.0000    747.5959      6.5261    157.7330
  1125.0000      0.0000    747.3432      6.3756    158.0875
  1125.2500      0.0000    736.3786      6.2003    157.5784
  1125.5000      0.0000    716.7599      6.0753    158.1776
  1125.7500      0.0000    697.6221      6.0442    160.1840
  1126.0000      0.0000    688.6773      6.0513    162.1225
  1126.2500      0.0000    693.0818      5.9975    162.3813
  1126.5000      0.0000    706.0709      5.8527    160.5977
  1126.7500      0.0000    719.3938      5.6714    157.6554
  1127.0000      0.0000    726.9200      5.5133    154.9727
  1127.2500      2.0000    727.5912      5.3952    154.1809
  1127.5000      2.0000    724.8461      5.3108    156.7082
  1127.7500      0.0000    724.1389      5.2657    162.4563
  1128.0000      0.0000    730.2637      5.2806    168.9212
  1128.2500      0.0000    744.5819      5.3559    172.6530
  1128.5000      0.0000    763.4801      5.4333    171.9397
  1128.7500      0.0000    780.6003      5.4251    167.8282
  1129.0000      0.0000    791.3304      5.3069    163.0111
  1129.2500      0.0000    794.9340      5.1535    160.2095
  1129.5000      0.0000    793.2409      5.0564    160.7655
  1129.7500      0.0000    788.6671      5.0380    163.6450
  1130.0000      0.0000    783.4012      5.0604    165.9211
  1130.2500      0.0000    779.3388      5.0830    165.0041
  1130.5000      0.0000    777.8868      5.0914    160.7509
  1130.7500      0.0000    779.3002      5.0925    155.2831
