~Version Information
VERS.                      2.0: CWLS Log ASCII Standard - VERSION 2.0
WRAP.                       NO: One line per depth step
~Well Information Block
STRT.FT                 0.0000: 
STOP.FT              3428.7500: 
STEP.FT                 0.2500: 
NULL.                -999.2500: 
COMP.          Pioneer Natural Resources: COMPANY
WELL.          Cordillera 34-7: WELL
FLD.           Purgatorie River: FIELD
LOC.           598' FSL & 1770' FEL: LOCATION
PROV.                 Colorado: PROVINCE
CNTY.               Las Animas: COUNTRY
SRVC.                Patterson: SERVICE COMPANY
DATE.          Fri Nov 18 07:55:32 2005: LOG DATE
UWI.                          : UNIQUE WELL ID
~Curve Information Block
DEPT.FT            0 000 00 00: Depth
AMP3.mV                       : CBL 3' Amplitude
CCL.                          : Casing Collar Locator
GR.GAPI                       : Gamma Ray
TT3.usec                      : CBL 3' Travel Time
~Parameter Information Block
~A  Depth       AMP3        CCL          GR         TT3     
# ...
  1340.0000     12.1250      0.0000    114.6434    672.4466
  1340.2500     11.7276      0.0000    119.9117    676.5627
  1340.5000     11.4360      0.0000    125.1464    681.5259
  1340.7500     11.3777      0.0000    130.9530    681.9468
  1341.0000     11.4993      0.0000    136.4872    670.4755
  1341.2500     11.6886      0.0000    140.0863    641.8505
  1341.5000     11.8972      0.0000    140.8771    599.5530
  1341.7500     12.0947      0.0000    139.3451    561.1805
  1342.0000     12.1796      0.0000    136.5188    546.0853
  1342.2500     12.0477      0.0000    133.3709    560.8900
  1342.5000     11.7974      0.0000    131.0757    597.8226
  1342.7500     11.7243      0.0000    131.0313    636.3820
  1343.0000     11.9797      0.0000    133.9601    659.7803
  1343.2500     12.3973      0.0000    138.9232    668.5346
  1343.5000     12.7509      0.0000    143.5286    670.7254
  1343.7500     12.9545      0.0000    145.4008    671.1988
  1344.0000     12.9560      0.0000    143.6045    671.5339
  1344.2500     12.6898      0.0000    138.9459    672.8133
  1344.5000     12.1944      0.0000    133.3315    676.3154
  1344.7500     11.5971      0.0000    128.7578    681.3331
  1345.0000     10.9639      0.0000    126.3167    683.8354
  1345.2500     10.2949      0.0000    125.6684    681.0562
  1345.5000      9.6379      0.0000    125.4176    675.6895
  1345.7500      9.0793      0.0000    124.1891    671.7720
  1346.0000      8.6417      0.0000    121.5235    670.1453
  1346.2500      8.2670      0.0000    117.8161    669.6977
  1346.5000      7.8951      0.0000    113.6536    669.5616
  1346.7500      7.5321      0.0000    109.4757    669.4584
  1347.0000      7.2630      0.0000    105.7029    669.3901
  1347.2500      7.1903      0.0000    102.8654    669.4537
  1347.5000      7.3017      0.0000    101.6108    669.9031
  1347.7500      7.4408      0.0000    102.5393    671.7739
  1348.0000      7.4806      0.0000    105.6650    677.4421
  1348.2500      7.4403      0.0000    110.0223    688.0840
  1348.5000      7.3784      0.0000    114.3153    698.6458
  1348.7500      7.2849      0.0000    118.0485    700.2349
  1349.0000      7.1448      0.0000    121.4663    691.3715
  1349.2500      7.0246      0.0000    124.3631    680.2255
  1349.5000      7.0039      0.0000    125.7316    674.1279
  1349.7500      7.0642      0.0000    124.7783    675.2385
  1350.0000      7.1350      0.0000    121.7430    685.3887
  1350.2500      7.1898      0.0000    117.6976    705.8813
  1350.5000      7.2248      0.0000    114.0421    731.1016
  1350.7500      7.2053      0.0000    112.0197    749.8755
  1351.0000      7.1050      0.0000    112.0453    755.2714
  1351.2500      6.9725      0.0000    113.3904    748.4147
  1351.5000      6.8815      0.0000    114.9030    734.8596
  1351.7500      6.8096      0.0000    116.0673    719.5911
  1352.0000      6.6624      0.0000    116.9684    704.1501
  1352.2500      6.4337      0.0000    117.1805    689.5759
  1352.5000      6.2187      0.0000    115.2250    678.8479
  1352.7500      6.0615      0.0000    109.5657    673.7191
  1353.0000      5.9205      0.0000    100.1284    673.4353
  1353.2500      5.8099      0.0000     88.7311    677.2458
  1353.5000      5.8536      0.0000     78.0251    684.9276
  1353.7500      6.1592      0.0000     70.0785    695.8855
  1354.0000      6.6946      0.0000     65.8169    709.5139
  1354.2500      7.2845      0.0000     65.4195    722.3883
  1354.5000      7.7219      0.0000     68.8286    726.5111
  1354.7500      7.9195      0.0000     75.7362    718.6144
  1355.0000      7.9661      0.0000     85.2632    705.7811
  1355.2500      8.0256      0.0000     95.9686    695.8672
  1355.5000      8.1840      0.0000    106.2392    691.7482
  1355.7500      8.4068      0.0000    114.6973    694.9623
  1356.0000      8.6374      0.0000    120.5527    704.6718
  1356.2500      8.8777      0.0000    123.8978    716.8901
  1356.5000      9.1357      0.0000    125.6271    729.2253
  1356.7500      9.3250      0.0000    126.8140    740.2880
  1357.0000      9.2977      0.0000    128.0586    745.2167
  1357.2500      8.9952      0.0000    129.3212    738.9692
  1357.5000      8.5308      0.0000    129.9570    724.7124
  1357.7500      8.1251      0.0000    128.8466    713.1552
  1358.0000      7.9502      0.0000    125.1745    710.7915
  1358.2500      8.0162      0.0000    119.4878    714.2345
  1358.5000      8.2141      0.0000    113.5743    717.7349
  1358.7500      8.4364      0.0000    109.1778    719.4354
  1359.0000      8.6620      0.0000    107.1636    719.8518
  1359.2500      8.9374      0.0000    107.6810    719.3926
  1359.5000      9.2496      0.0000    110.3393    717.5452
  1359.7500      9.4797      0.0000    114.0966    712.6766
  1360.0000      9.5295      0.0000    117.5918    704.2420
  1360.2500      9.4081      0.0000    119.8850    696.3779
  1360.5000      9.1772      0.0000    120.7803    694.6046
  1360.7500      8.9021      0.0000    120.7394    696.8356
  1361.0000      8.6324      0.0000    120.9102    694.9861
  1361.2500      8.3689      0.0000    122.7592    686.8288
  1361.5000      8.1099      0.0000    126.7754    677.9549
  1361.7500      7.9157      0.0000    131.4919    672.7966
  1362.0000      7.8325      0.0000    134.2672    670.9294
  1362.2500      7.8023      0.0000    133.3511    670.4023
  1362.5000      7.7328      0.0000    129.3388    670.1304
  1362.7500      7.6159      0.0000    124.7097    669.8743
  1363.0000      7.5204      0.0000    121.8625    669.8297
  1363.2500      7.4966      0.0000    121.5032    670.4437
  1363.5000      7.5485      0.0000    122.7154    671.4299
  1363.7500      7.6738      0.0000    124.0718    669.6476
  1364.0000      7.8686      0.0000    124.3708    662.1136
  1364.2500      7.9970      0.0000    122.7173    656.6437
  1364.5000      7.7348      0.0000    118.5490    671.0634
  1364.7500      7.0258      0.0000    111.8342    712.2495
  1365.0000      6.3268      0.0000    103.2202    764.3657
  1365.2500      5.9765      0.0000     93.9985    806.0088
  1365.5000      5.8733     -2.0000     85.9032    829.7418
  1365.7500      5.8452      2.0000     80.5323    836.9844
  1366.0000      5.8417      0.0000     78.3645    830.5400
  1366.2500      5.8805      0.0000     78.2945    816.1440
  1366.5000      6.0549      0.0000     78.6014    793.9219
  1366.7500      6.5509      0.0000     78.5752    761.4379
  1367.0000      7.3911      0.0000     78.9087    731.1918
  1367.2500      8.1098      0.0000     80.4417    719.2426
  1367.5000      8.2028      0.0000     82.8986    722.4560
  1367.7500      7.8172      0.0000     85.0687    725.5034
  1368.0000      7.4268      0.0000     85.9108    720.8240
  1368.2500      7.2294      0.0000     85.1072    712.7028
  1368.5000      7.1983      0.0000     82.7183    706.8059
  1368.7500      7.2977      0.0000     78.8697    702.7211
  1369.0000      7.4741      0.0000     73.9375    696.6372
  1369.2500      7.6430      0.0000     68.6924    687.1731
  1369.5000      7.7683      0.0000     64.0898    677.6661
  1369.7500      7.8657      0.0000     60.9604    671.7198
  1370.0000      7.9381      0.0000     59.6916    669.3004
  1370.2500      7.9749      0.0000     59.8832    668.6934
  1370.5000      7.9644      0.0000     60.4454    668.7321
  1370.7500      7.8876      0.0000     60.4367    668.8547
  1371.0000      7.7574      0.0000     59.9124    668.8410
  1371.2500      7.6245      0.0000     59.7118    668.7022
  1371.5000      7.5169      0.0000     60.3179    668.5063
  1371.7500      7.4255      0.0000     61.2296    668.2888
  1372.0000      7.3281      0.0000     61.6638    668.0974
  1372.2500      7.2058      0.0000     61.5504    667.9784
  1372.5000      7.0699      0.0000     61.5393    667.9525
  1372.7500      6.9454      0.0000     62.2454    668.0618
  1373.0000      6.8464      0.0000     63.6795    668.3369
  1373.2500      6.7956      0.0000     65.2276    668.6661
