~Version Information
VERS.                      2.0: CWLS Log ASCII Standard - VERSION 2.0
WRAP.                       NO: One line per depth step
~Well Information Block
STRT.FT               840.0000: 
STOP.FT              1912.0000: 
STEP.FT                 0.1000: 
NULL.                -999.2500: 
COMP.          Petrogulf Corporation: COMPANY
WELL.             Kraft 17-23R: WELL
FLD.           Purgatorie River: FIELD
LOC.           1509' FSL & 1673' FWL: LOCATION
PROV.                 Colorado: PROVINCE
CNTY.               Las Animas: COUNTRY
SRVC.                Patterson: SERVICE COMPANY
DATE.          Wed Oct 12 07:01:14 2005: LOG DATE
UWI.                          : UNIQUE WELL ID
~Curve Information Block
DEPT.FT            0 000 00 00: Depth
DCAL.in                       : CDL Caliper
RHOB.g/cc                     : CDL Bulk Density
RHOC.g/cc                     : CDL Density Correction
DPOR.pu                       : CDL Density Porosity
GR.GAPI                       : Gamma Ray
NPOR.pu                       : Neutron Porosity
~Parameter Information Block
~A  Depth       DCAL        RHOB        RHOC        DPOR         GR         NPOR    
# ...
   984.0000      7.9536      2.5133      0.0179      8.2868     75.3868     15.9417
   984.1000      7.9536      2.5206      0.0677      7.8439     72.2808     15.3618
   984.2000      7.9536      2.5109      0.0424      8.4287     66.7962     14.8577
   984.3000      7.9531      2.4825      0.0194     10.1525     60.1979     14.5474
   984.4000      7.9531      2.4506     -0.0116     12.0842     55.6618     14.1426
   984.5000      7.9488      2.4337      0.0216     13.1077     56.1165     13.6564
   984.6000      7.9488      2.4401     -0.0018     12.7215     59.1099     13.3857
   984.7000      7.9488      2.4582      0.1096     11.6226     59.8528     13.4007
   984.8000      7.9347      2.4667      0.0743     11.1073     55.9495     13.5495
   984.9000      7.9347      2.4698      0.0479     10.9240     49.9492     13.6954
   985.0000      7.8988      2.4893      0.0905      9.7378     46.4704     13.6953
   985.1000      7.8988      2.5316      0.1109      7.1758     46.3648     13.5738
   985.2000      7.8988      2.5790      0.2063      4.3019     47.7582     13.6011
   985.3000      7.8756      2.6060      0.2196      2.6693     49.6079     13.9063
   985.4000      7.8756      2.6034      0.2337      2.8236     50.8073     14.1667
   985.5000      7.8839      2.5836      0.1782      4.0269     51.3004     13.9985
   985.6000      7.8839      2.5632      0.1464      5.2580     53.6386     13.7091
   985.7000      7.8839      2.5469      0.1265      6.2508     57.1880     13.7937
   985.8000      7.9317      2.5364      0.0759      6.8876     59.2407     14.1071
   985.9000      7.9317      2.5403      0.0824      6.6480     60.9394     14.2988
   986.0000      8.0246      2.5574      0.0864      5.6144     62.9225     14.3982
   986.1000      8.0246      2.5738      0.0760      4.6200     64.3758     14.6222
   986.2000      8.0246      2.5807      0.0920      4.2002     66.1458     15.0884
   986.3000      8.0433      2.5802      0.0357      4.2299     68.6504     15.6130
   986.4000      8.0433      2.5730      0.0587      4.6654     69.9181     15.7857
   986.5000      8.0256      2.5559      0.0440      5.7051     68.3319     15.4995
   986.6000      8.0256      2.5376     -0.0081      6.8141     65.4806     15.1354
   986.7000      8.0256      2.5277      0.0090      7.4110     63.6629     14.9604
   986.8000      8.0138      2.5116      0.0516      8.3907     62.0251     14.9209
   986.9000      8.0138      2.4713      0.0298     10.8298     59.5201     14.8266
   987.0000      8.0116      2.4219     -0.0377     13.8228     58.2523     14.6139
   987.1000      8.0116      2.3937     -0.0522     15.5322     58.7479     14.3708
   987.2000      8.0116      2.3987     -0.0437     15.2331     58.4472     14.1842
   987.3000      7.9516      2.4272      0.0125     13.5051     55.5340     14.2315
   987.4000      7.9516      2.4564      0.0318     11.7311     51.8062     14.6398
   987.5000      7.9358      2.4736      0.0571     10.6912     49.9973     15.1970
   987.6000      7.9358      2.4923      0.0443      9.5606     49.7499     15.4521
   987.7000      7.9358      2.5277      0.1161      7.4100     49.2744     15.2221
   987.8000      7.9342      2.5647      0.1608      5.1691     48.1924     14.7923
   987.9000      7.9342      2.5710      0.1954      4.7874     47.5029     14.6105
   988.0000      7.9540      2.5401      0.1308      6.6589     47.7387     14.9127
   988.1000      7.9540      2.4973      0.1137      9.2528     49.2208     15.4927
   988.2000      7.9540      2.4604      0.0866     11.4917     51.5756     16.0439
   988.3000      7.9700      2.4284      0.0682     13.4309     53.2786     16.3821
   988.4000      7.9700      2.4076      0.0484     14.6907     54.3653     16.3659
   988.5000      7.9935      2.4135      0.0584     14.3324     56.1075     16.0581
   988.6000      7.9935      2.4415      0.1318     12.6380     58.0545     15.7494
   988.7000      7.9935      2.4670      0.1140     11.0897     59.9587     15.7207
   988.8000      8.0450      2.4798      0.1178     10.3154     63.2274     16.0717
   988.9000      8.0450      2.4858      0.1096      9.9514     65.0730     16.4489
   989.0000      8.0653      2.4927      0.1432      9.5335     61.6949     16.5215
   989.1000      8.0653      2.5086      0.1341      8.5719     56.8418     16.3289
   989.2000      8.0653      2.5290      0.1534      7.3325     56.7756     16.0784
   989.3000      8.0716      2.5301      0.1849      7.2686     60.9901     15.9542
   989.4000      8.0716      2.5025      0.1490      8.9414     64.8795     15.8508
   989.5000      8.0878      2.4706      0.0769     10.8709     67.4402     15.8634
   989.6000      8.0878      2.4514      0.0946     12.0389     69.3645     16.3593
   989.7000      8.0878      2.4294      0.0802     13.3698     69.1544     16.9712
   989.8000      8.1359      2.3843      0.0592     16.1028     66.6034     16.9249
   989.9000      8.1359      2.3088      0.0727     20.6781     63.9564     16.4289
   990.0000      8.1998      2.1959      0.0401     27.5235     62.5641     16.3610
   990.1000      8.1998      2.0458     -0.0367     36.6192     60.7976     17.1085
   990.2000      8.1998      1.8849     -0.1264     46.3671     56.6773     18.3711
   990.3000      8.2380      1.7362     -0.1301     55.3817     52.2713     19.7154
   990.4000      8.2380      1.5978     -0.1862     63.7725     50.0429     21.0983
   990.5000      8.2684      1.4720     -0.1397     71.3921     48.0439     22.5827
   990.6000      8.2684      1.3765     -0.1560     77.1833     43.3335     24.1086
   990.7000      8.2684      1.3233     -0.0436     80.4050     37.6467     25.7204
   990.8000      8.3363      1.3044      0.0061     81.5515     33.8204     27.4620
   990.9000      8.3363      1.3013      0.0334     81.7375     31.3068     28.9800
   991.0000      8.4754      1.3006      0.0262     81.7837     28.0644     29.9410
   991.1000      8.4754      1.2986     -0.0069     81.9015     23.9188     30.5300
   991.2000      8.4754      1.2956      0.0170     82.0835     20.8062     30.9718
   991.3000      8.2999      1.2911     -0.0114     82.3590     19.1396     31.2904
   991.4000      8.2999      1.2890     -0.0096     82.4821     17.6918     31.4281
   991.5000      8.3023      1.2907      0.0031     82.3831     16.5183     31.4573
   991.6000      8.3023      1.2889      0.0228     82.4932     16.2137     31.5624
   991.7000      8.3023      1.2807     -0.0004     82.9867     16.4755     31.7530
   991.8000      8.3311      1.2749     -0.0104     83.3398     17.3919     31.9334
   991.9000      8.3311      1.2828      0.0093     82.8576     18.8413     31.9821
   992.0000      8.3299      1.3107     -0.0276     81.1701     19.6813     31.8558
   992.1000      8.3299      1.3499      0.0360     78.7931     20.2890     31.7671
   992.2000      8.3299      1.3829      0.0142     76.7948     22.4825     31.7708
   992.3000      8.3839      1.4038      0.0659     75.5269     25.6270     31.8294
   992.4000      8.3839      1.4150      0.0710     74.8478     27.8196     32.0497
   992.5000      8.4541      1.4207      0.0842     74.5038     28.2809     32.3069
   992.6000      8.4541      1.4257      0.0657     74.1981     27.0313     32.4359
   992.7000      8.4541      1.4272      0.0932     74.1103     25.1221     32.4711
   992.8000      8.4940      1.4139      0.0273     74.9129     24.8609     32.3352
   992.9000      8.4940      1.3817     -0.0069     76.8682     27.6606     31.9108
   993.0000      8.4698      1.3393     -0.0328     79.4357     31.6257     31.2857
   993.1000      8.4698      1.3006      0.0006     81.7797     34.5932     30.8186
   993.2000      8.4698      1.2778     -0.0382     83.1660     37.0024     30.7904
   993.3000      8.4140      1.2759     -0.0123     83.2807     39.0600     31.1261
   993.4000      8.4140      1.2871      0.0369     82.6000     40.4929     31.5770
   993.5000      8.3107      1.3109     -0.0210     81.1571     43.3711     31.9311
