~Version Information
VERS.                      2.0: CWLS Log ASCII Standard - VERSION 2.0
WRAP.                       NO: One line per depth step
~Well Information Block
STRT.FT               325.0000: 
STOP.FT              1013.5000: 
STEP.FT                 0.1000: 
NULL.                -999.2500: 
COMP.          Pioneer Natural Resources: COMPANY
WELL.                Doc 34-30: WELL
FLD.           Purgatoire River: FIELD
LOC.           454' FSL & 1386' FEL: LOCATION
CNTY.               Las Animas: COUNTY
SRVC.                Patterson: SERVICE COMPANY
DATE.          Thu Feb 16 07:19:58 2006: LOG DATE
UWI.           05 071 08694 00: UNIQUE WELL ID
STAT.                 Colorado: STATE
~Curve Information Block
DEPT.FT            0 000 00 00: Depth
DCAL.in                       : CDL Caliper
RHOB.g/cc                     : CDL Bulk Density
RHOC.g/cc                     : CDL Density Correction
DPOR.pu                       : CDL Density Porosity
GR.GAPI                       : Gamma Ray
NPOR.pu                       : Neutron Porosity
~Parameter Information Block
~A  Depth       DCAL        RHOB        RHOC        DPOR         GR         NPOR    
# ...
   728.2000      7.9661      2.5606      0.0852      5.4176     93.9620     25.4640
   728.3000      7.9648      2.5599      0.0550      5.4634     91.1684     26.2046
   728.4000      7.9648      2.5347      0.0642      6.9876     94.2292     25.9505
   728.5000      7.9639      2.4995      0.0269      9.1207     97.0478     25.0196
   728.6000      7.9639      2.4815     -0.0051     10.2133     97.8258     24.2267
   728.7000      7.9639      2.4925      0.0393      9.5471     97.5262     24.0412
   728.8000      7.9640      2.5191      0.0171      7.9333     98.8655     24.5795
   728.9000      7.9640      2.5422      0.0739      6.5331    104.4821     25.1685
   729.0000      7.9649      2.5552      0.0402      5.7433    109.5319     25.3689
   729.1000      7.9649      2.5716      0.0476      4.7498    108.5663     25.5528
   729.2000      7.9649      2.6010      0.0998      2.9699    105.3968     25.8346
   729.3000      7.9649      2.6272      0.1442      1.3801    104.0264     25.8653
   729.4000      7.9649      2.6319      0.1338      1.0941    102.3730     26.0526
   729.5000      7.9645      2.6178      0.0944      1.9514    100.5615     26.4882
   729.6000      7.9645      2.5925      0.1066      3.4834     99.0382     26.4076
   729.7000      7.9645      2.5642      0.0568      5.2025     97.8991     26.1436
   729.8000      7.9645      2.5416      0.0448      6.5713     99.2191     26.3709
   729.9000      7.9645      2.5215      0.0764      7.7897    104.2632     26.7929
   730.0000      7.9642      2.5056      0.0348      8.7503    110.4432     27.1929
   730.1000      7.9642      2.5122      0.0460      8.3506    114.5952     27.9228
   730.2000      7.9642      2.5378      0.0760      6.8003    117.7087     28.6859
   730.3000      7.9642      2.5508      0.0972      6.0110    123.3127     28.3823
   730.4000      7.9642      2.5382      0.0390      6.7768    133.9435     27.0130
   730.5000      7.9645      2.5209      0.0293      7.8253    143.9507     26.2018
   730.6000      7.9645      2.5219      0.0060      7.7628    143.1668     27.1202
   730.7000      7.9645      2.5353      0.0506      6.9545    133.7156     29.0227
   730.8000      7.9652      2.5409      0.0389      6.6138    126.6243     30.0749
   730.9000      7.9652      2.5412      0.0069      6.5932    124.8491     29.4548
   731.0000      7.9663      2.5425      0.0619      6.5152    122.8062     28.2921
   731.1000      7.9663      2.5387      0.0314      6.7440    118.8886     27.7844
   731.2000      7.9663      2.5326      0.0145      7.1163    115.5033     27.7821
   731.3000      7.9668      2.5268      0.0439      7.4695    117.2553     27.8079
   731.4000      7.9668      2.5168      0.0043      8.0740    125.9931     27.9003
   731.5000      7.9668      2.5087     -0.0140      8.5664    132.8571     28.1306
   731.6000      7.9668      2.5102     -0.0252      8.4754    132.1071     28.3301
   731.7000      7.9668      2.5166      0.0305      8.0859    128.1425     28.4122
   731.8000      7.9666      2.5204      0.0168      7.8543    123.7169     28.4451
   731.9000      7.9666      2.5218      0.0284      7.7675    118.2217     28.5251
   732.0000      7.9662      2.5252      0.0398      7.5631    111.9719     28.7001
   732.1000      7.9662      2.5357      0.0098      6.9272    110.9130     28.7718
   732.2000      7.9662      2.5526      0.0610      5.9009    118.5518     28.2898
   732.3000      7.9664      2.5704      0.0612      4.8237    123.6186     27.2134
   732.4000      7.9664      2.5800      0.0648      4.2439    118.2452     26.2879
   732.5000      7.9660      2.5744      0.0440      4.5848    113.1400     26.0401
   732.6000      7.9660      2.5655      0.0110      5.1183    114.6302     26.3741
   732.7000      7.9660      2.5690      0.0402      4.9090    115.1432     27.2558
   732.8000      7.9651      2.5746      0.0601      4.5699    112.6352     28.0296
   732.9000      7.9651      2.5636      0.0342      5.2336    110.4341     27.5524
   733.0000      7.9641      2.5394      0.0056      6.7057    108.6961     26.0155
   733.1000      7.9641      2.5270     -0.0435      7.4550    106.4988     24.7968
   733.2000      7.9641      2.5415      0.0193      6.5740    102.3526     24.7307
   733.3000      7.9632      2.5642      0.0383      5.1991     93.7054     25.4119
   733.4000      7.9632      2.5663      0.0690      5.0750     82.8978     25.6825
   733.5000      7.9629      2.5533     -0.0205      5.8604     77.7333     25.0576
   733.6000      7.9629      2.5542      0.0489      5.8077     81.2153     24.4337
   733.7000      7.9629      2.5654      0.0613      5.1271     88.1543     24.7403
   733.8000      7.9633      2.5649      0.0432      5.1569     92.3606     25.3298
   733.9000      7.9633      2.5558      0.0003      5.7118     92.5604     24.8847
   734.0000      7.9632      2.5551      0.0106      5.7510     92.5563     23.7453
   734.1000      7.9632      2.5672      0.0221      5.0153     93.5805     23.5011
   734.2000      7.9632      2.5826      0.0880      4.0853     91.6572     24.2443
   734.3000      7.9632      2.5909      0.0459      3.5848     86.6511     24.3723
   734.4000      7.9632      2.5935      0.0972      3.4242     81.1605     23.5615
   734.5000      7.9637      2.5961      0.0774      3.2693     76.8969     23.0571
   734.6000      7.9637      2.5988      0.0603      3.1021     75.8633     22.8851
   734.7000      7.9637      2.6013      0.0745      2.9508     78.5241     22.3616
   734.8000      7.9636      2.6081      0.0549      2.5406     84.0208     22.0314
   734.9000      7.9636      2.6136      0.1059      2.2031     88.8385     22.7565
   735.0000      7.9629      2.6037      0.0443      2.8083     88.0935     24.7276
   735.1000      7.9629      2.5840      0.0425      3.9983     82.8466     26.6946
   735.2000      7.9629      2.5718      0.0300      4.7403     78.1443     27.0773
   735.3000      7.9629      2.5701      0.0532      4.8417     76.0732     26.2475
   735.4000      7.9629      2.5649      0.0486      5.1588     75.8753     25.7517
   735.5000      7.9638      2.5470      0.0246      6.2410     77.8379     26.1213
   735.6000      7.9638      2.5330      0.0226      7.0887     83.8349     26.5425
   735.7000      7.9638      2.5373      0.0638      6.8312     90.6153     26.0495
   735.8000      7.9639      2.5447      0.0996      6.3811     92.5897     25.1265
   735.9000      7.9639      2.5390      0.0768      6.7301     90.9958     24.6950
   736.0000      7.9632      2.5263      0.0935      7.4985     90.6501     24.9578
   736.1000      7.9632      2.5205      0.0442      7.8479     90.8422     25.6633
   736.2000      7.9632      2.5298      0.0576      7.2827     88.8268     25.8843
   736.3000      7.9628      2.5506      0.0733      6.0214     87.6107     24.5266
   736.4000      7.9628      2.5705      0.1175      4.8203     89.4532     22.5615
   736.5000      7.9632      2.5818      0.1171      4.1342     92.5859     22.2163
   736.6000      7.9632      2.5893      0.1274      3.6787     94.5821     23.4608
   736.7000      7.9632      2.6000      0.1333      3.0300     93.8631     24.6367
   736.8000      7.9638      2.6111      0.1286      2.3593     91.2357     25.1462
   736.9000      7.9638      2.6051      0.1403      2.7202     89.6583     25.2052
   737.0000      7.9631      2.5784      0.0655      4.3402     90.9423     25.1751
   737.1000      7.9631      2.5577      0.0259      5.5925     92.8302     25.2432
   737.2000      7.9631      2.5607      0.0446      5.4142     91.9172     25.2943
   737.3000      7.9616      2.5775      0.0541      4.3969     88.9538     25.1556
   737.4000      7.9616      2.6009      0.0321      2.9748     86.1815     24.8537
   737.5000      7.9611      2.6269      0.0829      1.4029     84.6891     24.3603
   737.6000      7.9611      2.6340      0.1538      0.9713     85.9094     23.6242
   737.7000      7.9611      2.6138      0.0609      2.1920     89.6270     23.4497
