~Version Information
VERS.                      2.0: CWLS Log ASCII Standard - VERSION 2.0
WRAP.                       NO: One line per depth step
~Well Information Block
STRT.FT                -6.7500: 
STOP.FT              1544.5000: 
STEP.FT                 0.2500: 
NULL.                -999.2500: 
COMP.          Pioneer Natural Resources: COMPANY
WELL.          Lorencito 10-36-33-67: WELL
FLD.           Purgatorie River: FIELD
LOC.           2130' FSL & 2362' FEL--: LOCATION
STAT.                       CO: State
CNTY.               Las Animas: COUNTY
CTRY. USA : Country
SECT. 36 : Section
TOWN. 33S : Township
RANG. 67W : Range
SRVC.          Patterson Wireline: SERVICE COMPANY
DATE.          Fri Sep 02 09:21:42 2005: LOG DATE
API.           05 071 08501 00: UNIQUE WELL ID
~Curve Information Block
DEPT.FT            0 000 00 00: Depth
CCL.                          : Casing Collar Locator
TT3.usec                      : CBL 3' Travel Time
AMP3.mV                       : CBL 3' Amplitude
GR.GAPI                       : Gamma Ray
~Parameter Information Block
~A  Depth       CCL         TT3         AMP3         GR     
# ...
   495.7500      0.0000    900.6267     11.2235     92.8861
   496.0000      0.0000    951.5598     11.2166     90.8591
   496.2500      0.0000    997.8416     11.2075     90.6321
   496.5000      0.0000   1023.3098     11.1959     92.5021
   496.7500      0.0000   1024.0233     11.1839     95.7016
   497.0000      0.0000   1011.7865     11.1743     99.5171
   497.2500      0.0000   1000.3447     11.1682    103.4157
   497.5000      0.0000    990.0828     11.1647    106.6602
   497.7500      0.0000    971.0557     11.1629    108.7704
   498.0000      0.0000    939.1047     11.1634    110.5015
   498.2500      0.0000    902.5314     11.1652    113.5733
   498.5000      0.0000    872.8564     11.1642    118.8615
   498.7500      0.0000    854.4569     11.1548    124.9931
   499.0000      0.0000    844.1883     11.1311    128.9526
   499.2500      0.0000    837.2178     11.0911    128.0518
   499.5000      0.0000    831.4037     11.0409    121.6158
   499.7500      0.0000    827.6745     10.9927    111.2602
   500.0000      0.0000    827.6680     10.9567     99.8219
   500.2500      0.0000    831.3331     10.9360     90.0607
   500.5000      0.0000    836.9913     10.9283     83.8351
   500.7500      0.0000    843.7813     10.9291     81.4683
   501.0000      0.0000    853.9227     10.9334     81.5797
   501.2500      0.0000    872.1943     10.9389     82.0676
   501.5000      0.0000    901.2657     10.9478     81.6857
   501.7500      0.0000    935.2374     10.9632     80.7562
   502.0000      0.0000    959.0538     10.9835     80.5446
   502.2500      0.0000    958.9046     11.0034     82.0568
   502.5000      0.0000    934.8640     11.0205     85.1704
   502.7500      0.0000    900.8815     11.0387     88.5797
   503.0000      0.0000    872.1958     11.0651     90.5878
   503.2500      0.0000    855.0902     11.1028     90.1242
   503.5000      0.0000    847.4879     11.1490     87.2220
   503.7500      0.0000    844.8940     11.1978     82.9378
   504.0000      0.0000    844.1874     11.2426     79.0037
   504.2500      0.0000    844.0256     11.2753     77.0575
   504.5000      0.0000    844.0273     11.2873     77.6865
   504.7500      0.0000    844.1152     11.2736     80.2398
   505.0000      0.0000    844.2474     11.2381     83.6235
   505.2500      0.0000    844.3817     11.1926     86.9864
   505.5000      0.0000    844.4926     11.1502     89.6933
   505.7500      0.0000    844.5817     11.1184     91.2080
   506.0000      0.0000    844.6564     11.0985     91.3078
   506.2500      0.0000    844.7059     11.0904     90.2000
   506.5000      0.0000    844.6935     11.0980     88.4537
   506.7500      0.0000    844.5761     11.1270     86.9668
   507.0000      0.0000    844.3441     11.1797     86.5714
   507.2500      0.0000    844.0354     11.2490     87.1670
   507.5000      0.0000    843.6937     11.3208     87.5501
   507.7500      0.0000    843.3283     11.3818     86.5383
   508.0000      0.0000    842.9385     11.4269     84.1308
   508.2500      0.0000    842.5682     11.4576     81.4843
   508.5000      0.0000    842.3037     11.4768     79.9732
   508.7500      0.0000    842.2087     11.4840     80.2343
   509.0000      0.0000    842.2720     11.4771     81.8448
   509.2500      0.0000    842.3745     11.4566     83.8155
   509.5000      0.0000    842.2331     11.4269     85.3624
   509.7500      0.0000    841.3234     11.3953     86.0912
   510.0000      0.0000    839.0482     11.3686     85.6794
   510.2500      0.0000    835.4260     11.3511     83.8633
   510.5000      0.0000    831.7916     11.3413     80.9080
   510.7500      0.0000    830.2639     11.3340     77.8635
   511.0000      0.0000    831.9077     11.3242     76.0723
   511.2500      0.0000    835.6026     11.3095     76.1780
   511.5000      0.0000    839.0256     11.2897     77.5722
   511.7500      0.0000    840.3219     11.2657     79.0949
   512.0000      0.0000    838.6033     11.2403     80.3965
   512.2500      0.0000    833.6457     11.2180     82.1346
   512.5000      0.0000    825.9946     11.2033     84.6416
   512.7500      0.0000    817.2551     11.1990     87.0724
   513.0000      0.0000    809.5848     11.2078     88.3250
   513.2500      0.0000    804.5886     11.2324     88.3371
   513.5000      0.0000    802.8087     11.2719     87.8712
   513.7500      0.0000    804.0749     11.3168     87.2319
   514.0000      0.0000    807.7578     11.3525     85.8418
   514.2500      0.0000    812.3974     11.3654     83.0828
   514.5000      0.0000    815.7012     11.3501     79.0521
   514.7500      0.0000    815.9088     11.3106     74.3482
   515.0000      0.0000    813.5371     11.2584     69.4655
   515.2500      0.0000    811.3758     11.2074     64.7630
   515.5000      0.0000    812.3796     11.1701     60.7930
   515.7500      0.0000    817.4199     11.1521     58.0320
   516.0000      0.0000    824.8112     11.1504     56.2632
   516.2500      0.0000    831.6827     11.1553     54.8756
   516.5000      0.0000    835.7421     11.1584     54.0470
   516.7500      0.0000    836.0764     11.1584     55.0526
   517.0000      0.0000    833.1204     11.1600     58.9163
   517.2500      0.0000    828.6108     11.1675     64.9801
   517.5000      0.0000    825.2463     11.1830     71.1605
   517.7500      0.0000    825.2417     11.2082     75.6569
   518.0000      0.0000    828.6652     11.2446     78.3537
   518.2500      0.0000    833.5362     11.2892     80.4577
   518.5000      0.0000    837.6758     11.3346     82.8045
   518.7500      0.0000    840.1865     11.3739     84.8279
   519.0000      0.0000    841.3613     11.4027     85.3084
   519.2500      0.0000    841.8307     11.4177     83.6730
   519.5000      0.0000    842.0320     11.4177     80.3499
   519.7500      0.0000    842.1603     11.4058     76.4559
   520.0000      0.0000    842.2773     11.3890     73.3841
   520.2500      0.0000    842.3925     11.3729     72.1608
   520.5000      0.0000    842.4990     11.3598     72.9961
   520.7500      0.0000    842.5859     11.3523     75.6495
   521.0000      0.0000    842.6410     11.3527     79.8881
   521.2500      0.0000    842.6552     11.3603     84.9763
   521.5000      0.0000    842.6374     11.3711     89.0981
   521.7500      0.0000    842.6149     11.3809     90.3712
   522.0000      0.0000    842.6111     11.3876     88.7328
   522.2500      0.0000    842.6291     11.3912     86.1447
   522.5000      0.0000    842.6666     11.3932     84.5313
   522.7500      0.0000    842.7379     11.3968     83.9683
   523.0000      0.0000    842.8704     11.4056     83.3096
   523.2500      0.0000    843.0812     11.4212     82.0340
   523.5000      0.0000    843.3737     11.4430     80.6732
   523.7500      0.0000    843.7510     11.4687     79.7507
   524.0000      0.0000    844.3223     11.4931     79.0899
   524.2500      0.0000    845.4428     11.5057     78.1405
   524.5000      0.0000    847.8010     11.4892     76.5071
   524.7500      0.0000    852.0900     11.4254     74.1713
   525.0000      0.0000    858.2736     11.3002     71.4503
   525.2500      0.0000    865.6586     11.0927     68.8505
   525.5000      0.0000    874.4432     10.7602     67.0038
   525.7500      0.0000    886.2037     10.2683     66.5984
   526.0000      0.0000    900.8207      9.6645     67.9699
   526.2500      0.0000    914.1440      9.0880     70.5533
   526.5000      0.0000    921.7226      8.6731     73.0027
   526.7500      0.0000    923.8878      8.4541     74.2327
   527.0000      0.0000    923.8661      8.3770     74.4061
   527.2500      2.0000    921.6212      8.3716     74.8149
   527.5000      0.0000    912.4180      8.4034     76.6383
   527.7500      0.0000    891.3350      8.4936     79.6875
   528.0000      0.0000    857.9918      8.6993     82.2710
   528.2500      0.0000    818.0428      9.0480     82.3344
   528.5000      0.0000    781.2872      9.4858     78.9175
   528.7500      0.0000    756.9765      9.9212     72.8390
   529.0000      0.0000    748.8708     10.2994     66.3151
