~Version Information
 VERS.                                  2.0 : CWLS LAS VERSION
 WRAP.                                   NO : WRAPING MODE
 SWARE .                 MController 2.5.0N : SOFTWARE VERSION
~Well Information
 WELL.                         Giggle 21-22 : WELL
 COMP.       Pioneer Natural Resources, USA : COMPANY
 FLD.                       Purgatory River : FIELD
 LOC.                 NE/NW Sec22 T34S R65W : LOCATION
 DATE.                              4/12/06 : DATE(S) LOGGED
 SRVC.      Blanco Geological Services, LLC : SERVICE COMPANY
 STAT.                             Colorado : STATE
 CNTY.                           Las Animas : COUNTY
 CTRY.                                  USA : COUNTRY
 API.                       05-071-08726-00 : API NUMBER
 STRT.FT                             267.00 : START DEPTH
 STOP.FT                            1011.00 : STOP DEPTH
 STEP.FT                               1.00 : DEPTH INCREMENT
 NULL.                                -9999 : NULL VALUE
~Curve information
 DEPTH.FT                                   :
 ROP.MIN/FT                                 :
 GAS.UNITS                                  :
~ASCII Log data
# ...
       667.0         0.20        696.6 
       668.0         0.17        645.4 
       669.0         0.20        616.4 
       670.0         0.23        603.6 
       671.0         0.20        601.2 
       672.0         0.27        605.6 
       673.0         0.20        609.6 
       674.0         0.20        612.7 
       675.0         0.20        617.1 
       676.0         0.20        622.4 
       677.0         0.23        623.5 
       678.0         0.22        628.2 
       679.0         0.30        633.9 
       680.0         0.27        632.9 
       681.0         0.20        642.3 
       682.0         4.45       2364.0 
       683.0         0.37        873.1 
       684.0         0.30        849.2 
       685.0         0.27        893.3 
       686.0         0.20        920.3 
       687.0         0.20        928.4 
       688.0         0.18        922.0 
       689.0         0.20        904.1 
       690.0         0.20        831.0 
       691.0         0.23        774.1 
       692.0         0.20        718.8 
       693.0         0.20        666.2 
       694.0         0.23        647.4 
       695.0         0.37        625.5 
       696.0         0.30        592.1 
       697.0         0.33        625.5 
       698.0         0.27        644.0 
       699.0         0.27        649.4 
       700.0         0.23        644.0 
       701.0         0.25        636.9 
       702.0         0.27        621.1 
       703.0         0.23        596.8 
       704.0         0.30        579.3 
       705.0         0.23        569.5 
       706.0         0.23        578.6 
       707.0         0.27        587.4 
       708.0         0.23        585.4 
       709.0         0.23        568.2 
       710.0         0.27        543.3 
       711.0         0.23        541.6 
       712.0         3.92       2701.5 
       713.0         0.38       1724.2 
       714.0         0.37       1128.8 
       715.0         0.37       1021.7 
       716.0         0.37       1041.9 
       717.0         0.30       1027.4 
       718.0         0.20        927.7 
       719.0         0.23        853.9 
       720.0         0.23        794.6 
       721.0         0.27        718.1 
       722.0         0.20        653.1 
       723.0         0.27        613.0 
       724.0         0.23        564.8 
       725.0         0.25        549.3 
       726.0         0.23        555.7 
       727.0         0.23        561.5 
       728.0         0.20        561.1 
       729.0         0.17        560.8 
       730.0         0.23        557.8 
       731.0         0.20        546.0 
       732.0         0.27        545.3 
       733.0         0.27        542.9 
       734.0         0.27        543.6 
       735.0         0.30        581.7 
       736.0         0.27        616.0 
       737.0         0.20        635.9 
       738.0         0.23        639.6 
       739.0         0.25        631.5 
       740.0         0.20        591.8 
       741.0         0.27        564.2 
       742.0         3.92       2539.1 
       743.0         0.47       1654.1 
       744.0         0.47       1027.1 
       745.0         0.43       1045.3 
       746.0         0.37       1046.6 
       747.0         0.30       1005.9 
       748.0         0.32        919.6 
       749.0         0.40        821.9 
       750.0         0.37        689.2 
       751.0         0.43        730.3 
       752.0         0.33        740.4 
       753.0         0.40        743.7 
       754.0         0.43        743.7 
       755.0         0.43        731.9 
       756.0         0.40        744.7 
       757.0         0.42        753.2 
       758.0         0.37        750.5 
       759.0         0.33        740.0 
       760.0         0.37        723.9 
       761.0         0.37        727.2 
       762.0         0.33        725.9 
       763.0         0.47        723.5 
       764.0         0.70        783.5 
       765.0         0.68       1011.6 
       766.0         0.73       1162.2 
       767.0        37.08       9894.7 
       768.0         0.27        849.9 
       769.0         0.47        774.1 
       770.0         0.43        771.0 
       771.0         0.37        832.0 
       772.0         3.90       2212.7 
       773.0         0.23       2142.6 
       774.0         0.27       1627.1 
       775.0         0.60       1215.1 
       776.0         0.43        873.8 
       777.0         0.30        941.8 
       778.0         0.20        944.5 
       779.0         0.17        918.3 
       780.0         0.20        907.1 
       781.0         0.33        820.2 
       782.0         0.32        720.8 
       783.0         0.27        666.2 
       784.0         0.27        666.6 
       785.0         0.23        662.2 
       786.0         0.27        648.4 
       787.0         0.27        624.1 
       788.0         0.30        613.7 
       789.0         0.27        583.0 
       790.0         0.30        565.8 
       791.0         0.30        541.6 
       792.0         0.33        559.8 
       793.0         0.30        572.9 
       794.0         0.28        579.3 
       795.0         0.30        580.0 
       796.0         0.23        578.0 
       797.0         0.27        572.9 
       798.0         0.20        566.2 
       799.0         0.17        560.4 
       800.0         0.20        555.1 
       801.0         0.17        550.3 
       802.0         4.62       1863.0 
       803.0         0.45       1055.0 
       804.0         0.27        757.9 
       805.0         0.23        734.6 
       806.0         0.27        823.6 
       807.0         0.27        858.3 
       808.0         0.30        852.2 
       809.0         0.37        788.5 
       810.0         0.37        716.8 
       811.0         0.33        662.5 
       812.0         0.33        653.1 
       813.0         0.37        623.1 
       814.0         0.35        558.4 
       815.0         0.37        525.1 
       816.0         0.40        510.6 
       817.0         0.40        535.9 
       818.0         0.40        539.9 
       819.0         0.37        525.1 
       820.0         0.37        517.0 
       821.0         0.40        516.3 
       822.0         0.38        506.5 
       823.0         0.40        503.5 
       824.0         0.43        499.5 
       825.0         0.40        502.2 
       826.0         0.40        504.5 
       827.0         0.43        505.2 
       828.0         0.43        508.6 
       829.0         0.30        505.2 
       830.0         0.30        511.3 
       831.0         0.38        515.0 
       832.0         4.52       2247.7 
       833.0         0.53       1218.1 
       834.0         0.50        824.9 
       835.0         0.43        856.6 
       836.0         0.47        811.8 
       837.0         0.42        699.6 
       838.0         0.47        593.5 
       839.0         0.53        560.8 
       840.0         0.53        530.1 
       841.0         0.53        515.3 
       842.0         0.57        504.5 
       843.0         0.48        495.1 
       844.0         0.50        493.7 
       845.0         0.47        487.7 
       846.0         0.50        486.3 
       847.0         0.50        486.0 
       848.0         0.20        487.0 
       849.0         0.13        487.3 
       850.0         0.13        488.0 
       851.0         0.13        488.7 
       852.0         0.27        516.7 
       853.0         0.35        673.3 
       854.0         0.33        836.0 
       855.0         0.40        907.5 
       856.0         0.33        888.3 
       857.0         0.30        794.6 
       858.0         0.30        709.0 
       859.0         0.27        637.9 
       860.0         0.37        606.6 
       861.0         0.30        590.8 
       862.0         4.40       2144.6 
       863.0         0.43       1355.6 
       864.0         0.43        954.0 
       865.0         0.47        817.9 
       866.0         0.37        848.8 
