~Version Information
VERS.                      2.0: CWLS Log ASCII Standard - VERSION 2.0
WRAP.                       NO: One line per depth step
~Well Information Block
STRT.FT                -7.7500: 
STOP.FT              1793.5000: 
STEP.FT                 0.2500: 
NULL.                -999.2500: 
COMP.          Pioneer Natural Resources: COMPANY
WELL.           Loews 41-32 Tr: WELL
FLD.           Purgatorie River: FIELD
LOC.           706' FNL & 224' FEL--: LOCATION
CNTY.               Las Animas: COUNTY
SRVC.          Patterson Wireline: SERVICE COMPANY
DATE.          Fri Feb 24 11:31:48 2006: LOG DATE
UWI.           05 071 08690 00: UNIQUE WELL ID
STAT.                       CO: STATE
~Curve Information Block
DEPT.FT            0 000 00 00: Depth
CCL.                          : Casing Collar Locator
TT3.usec                      : CBL 3' Travel Time
AMP3.mV                       : CBL 3' Amplitude
GR.GAPI                       : Gamma Ray
~Parameter Information Block
~A  Depth       CCL         TT3         AMP3         GR     
# ...
  1399.2500      0.0000    352.4684     18.2351    126.5935
  1399.5000      0.0000    350.5228     18.3485    128.0087
  1399.7500      0.0000    350.0909     18.4929    129.1710
  1400.0000      0.0000    349.1446     18.6631    131.0107
  1400.2500      0.0000    345.8630     18.8501    133.8465
  1400.5000      0.0000    341.4050     19.0358    137.2473
  1400.7500      0.0000    342.6089     19.1871    139.6527
  1401.0000      0.0000    360.7113     19.2590    138.9068
  1401.2500      0.0000    404.6728     19.2123    134.3204
  1401.5000      0.0000    471.9812     19.0406    128.0257
  1401.7500      0.0000    544.1378     18.7826    123.3886
  1402.0000      0.0000    593.9636     18.5064    122.1891
  1402.2500      0.0000    602.1531     18.2747    123.9456
  1402.5000      0.0000    570.2955     18.1201    127.3679
  1402.7500      0.0000    519.4695     18.0453    131.4136
  1403.0000      0.0000    475.2856     18.0371    135.2709
  1403.2500      0.0000    451.5563     18.0758    138.4371
  1403.5000      0.0000    445.6268     18.1379    141.0260
  1403.7500      0.0000    446.7634     18.2004    143.4473
  1404.0000      0.0000    446.9449     18.2472    145.7660
  1404.2500      0.0000    444.4809     18.2715    147.7484
  1404.5000      0.0000    440.6533     18.2771    149.3632
  1404.7500      0.0000    435.5681     18.2825    150.6730
  1405.0000      0.0000    427.4975     18.3187    151.3540
  1405.2500      0.0000    415.5802     18.4086    150.8818
  1405.5000      0.0000    402.6638     18.5406    149.0883
  1405.7500      0.0000    395.0811     18.6637    146.2726
  1406.0000      0.0000    399.9093     18.7151    143.1789
  1406.2500      0.0000    422.2055     18.6533    140.9783
  1406.5000      0.0000    461.8183     18.4750    140.6436
  1406.7500      0.0000    509.4568     18.2112    142.1420
  1407.0000      0.0000    547.7739     17.9114    144.5054
  1407.2500      0.0000    561.8492     17.6250    146.4087
  1407.5000      0.0000    550.4041     17.3884    146.5950
  1407.7500      0.0000    524.8229     17.2226    144.5341
  1408.0000      0.0000    497.6501     17.1339    141.1723
  1408.2500      0.0000    474.2175     17.1144    138.3732
  1408.5000      0.0000    453.8656     17.1446    137.0370
  1408.7500      0.0000    435.0719     17.1987    135.9958
  1409.0000      0.0000    417.9770     17.2507    133.1031
  1409.2500      0.0000    403.8947     17.2789    127.3298
  1409.5000      0.0000    394.1511     17.2733    119.7727
  1409.7500      0.0000    389.3108     17.2427    112.9993
  1410.0000      0.0000    388.7173     17.2110    109.5159
  1410.2500      0.0000    390.6371     17.2025    110.3859
  1410.5000      0.0000    393.2069     17.2302    114.7457
  1410.7500      0.0000    395.4381     17.2961    120.3724
  1411.0000      0.0000    397.3926     17.3950    124.8858
  1411.2500      0.0000    399.7546     17.5146    126.9717
  1411.5000      0.0000    403.4175     17.6341    127.0284
  1411.7500      0.0000    409.1124     17.7266    126.5837
  1412.0000      0.0000    416.8280     17.7654    126.8745
  1412.2500      0.0000    425.4256     17.7312    127.9949
  1412.5000      0.0000    433.1415     17.6221    129.3680
  1412.7500      0.0000    438.6984     17.4594    130.6734
  1413.0000      0.0000    441.8759     17.2803    132.1477
  1413.2500      0.0000    443.0486     17.1219    134.1309
  1413.5000      0.0000    442.3105     17.0075    136.4256
  1413.7500      0.0000    438.9689     16.9417    138.0294
  1414.0000      0.0000    431.7736     16.9049    137.6029
  1414.2500      0.0000    420.0481     16.8472    134.5889
  1414.5000      0.0000    405.3811     16.6976    130.0175
  1414.7500      0.0000    392.4355     16.4057    125.9385
  1415.0000      0.0000    387.1286     15.9934    123.9172
  1415.2500      0.0000    392.9802     15.5570    124.0704
  1415.5000      0.0000    410.0869     15.1816    125.4186
  1415.7500      0.0000    439.0063     14.8285    126.8885
  1416.0000      0.0000    483.3352     14.3242    127.8078
  1416.2500      0.0000    544.3792     13.5089    127.5092
  1416.5000      0.0000    614.3263     12.4299    125.0940
  1416.7500      0.0000    679.7571     11.3734    120.0500
  1417.0000      0.0000    731.8924     10.6659    112.7828
  1417.2500      0.0000    769.0045     10.4390    104.2911
  1417.5000     -2.0000    789.5173     10.5881     95.8219
  1417.7500      2.0000    789.2941     10.9160     89.0615
  1418.0000      0.0000    768.7358     11.2828     85.9196
  1418.2500      0.0000    738.0661     11.6738     87.4667
  1418.5000      0.0000    709.7405     12.1934     93.1467
  1418.7500      0.0000    686.0780     12.9713    101.1792
  1419.0000      0.0000    659.1524     14.0112    109.5925
  1419.2500      0.0000    622.3658     15.1390    116.8823
  1419.5000      0.0000    577.4138     16.1430    122.0804
  1419.7500      0.0000    531.1507     16.9356    124.6704
  1420.0000      0.0000    490.7502     17.5397    124.6268
  1420.2500      0.0000    461.3431     17.9783    122.4537
  1420.5000      0.0000    444.1289     18.2469    119.1428
  1420.7500      0.0000    435.9929     18.3638    115.9515
  1421.0000      0.0000    432.3197     18.3881    113.9798
  1421.2500      0.0000    430.4184     18.3837    113.6403
  1421.5000      0.0000    429.9420     18.3915    114.4308
  1421.7500      0.0000    430.6248     18.4323    115.5006
  1422.0000      0.0000    430.2476     18.5199    116.6471
  1422.2500      0.0000    424.8570     18.6630    118.5031
  1422.5000      0.0000    411.0984     18.8611    121.4830
  1422.7500      0.0000    389.0429     19.1050    124.8631
  1423.0000      0.0000    363.1896     19.3849    127.1477
  1423.2500      0.0000    340.0262     19.6976    127.1469
  1423.5000      0.0000    323.8868     20.0446    124.7457
  1423.7500      0.0000    315.0130     20.4217    120.8161
  1424.0000      0.0000    311.0427     20.8081    116.1696
  1424.2500      0.0000    309.4868     21.1689    110.7642
  1424.5000      0.0000    308.8767     21.4712    104.4357
  1424.7500      0.0000    308.6096     21.7029     98.0764
  1425.0000      0.0000    308.4799     21.8737     93.4493
  1425.2500      0.0000    308.4158     21.9989     91.9342
  1425.5000      0.0000    308.3925     22.0804     93.7374
  1425.7500      0.0000    308.4115     22.1040     97.9762
  1426.0000      0.0000    308.4770     22.0534    103.0128
  1426.2500      0.0000    308.5846     21.9250    106.8731
  1426.5000      0.0000    308.7213     21.7349    108.0557
  1426.7500      0.0000    308.8710     21.5153    106.2806
  1427.0000      0.0000    309.0160     21.3050    102.2258
  1427.2500      0.0000    309.1336     21.1395     96.6454
  1427.5000      0.0000    309.2017     21.0424     90.1977
  1427.7500      0.0000    309.2123     21.0168     83.8613
  1428.0000      0.0000    309.1789     21.0413     78.7116
  1428.2500      0.0000    309.1277     21.0791     75.2306
  1428.5000      0.0000    309.0804     21.1006     73.3354
  1428.7500      0.0000    309.0437     21.0993     72.9815
  1429.0000      0.0000    309.0118     21.0865     74.2288
  1429.2500      0.0000    308.9811     21.0717     76.7125
  1429.5000      0.0000    308.9622     21.0492     79.4373
  1429.7500      0.0000    308.9787     20.9994     81.2284
  1430.0000      0.0000    309.0536     20.8985     81.3281
  1430.2500      0.0000    309.1978     20.7294     79.6755
  1430.5000      0.0000    309.4053     20.4900     76.9306
  1430.7500      0.0000    309.6547     20.1978     74.3097
  1431.0000      0.0000    309.9460     19.8863     72.9835
  1431.2500      0.0000    310.3970     19.5917     73.1821
  1431.5000      0.0000    311.6567     19.3353     74.1231
  1431.7500      0.0000    315.9263     19.1162     75.1098
  1432.0000      0.0000    328.3874     18.9179     76.1958
  1432.2500      0.0000    357.0027     18.7240     77.3701
  1432.5000      0.0000    407.4704     18.5269     77.8119
