~Version Information
VERS.                      2.0: CWLS Log ASCII Standard - VERSION 2.0
WRAP.                       NO: One line per depth step
~Well Information Block
STRT.FT                -9.0000: 
STOP.FT              1754.0000: 
STEP.FT                 0.2500: 
NULL.                -999.2500: 
COMP.          Pioneer Natural Resources: COMPANY
WELL.          Touchstone 11-32 Tr: WELL
FLD.           Purgatorie River: FIELD
LOC.           782' FNL & 840' FWL--: LOCATION
CNTY.               Las Animas: COUNTY
SRVC.          Patterson Wireline: SERVICE COMPANY
DATE.          Mon Mar 06 09:18:09 2006: LOG DATE
UWI.           05 071 08626 00: UNIQUE WELL ID
STAT.                       CO: STATE
~Curve Information Block
DEPT.FT            0 000 00 00: Depth
CCL.                          : Casing Collar Locator
TT3.usec                      : CBL 3' Travel Time
AMP3.mV                       : CBL 3' Amplitude
GR.GAPI                       : Gamma Ray
~Parameter Information Block
~A  Depth       CCL         TT3         AMP3         GR     
# ...
  1398.0000      0.0000    674.6955      6.7162    107.9964
  1398.2500      0.0000    637.6719      6.6599    114.8849
  1398.5000      0.0000    583.5070      6.6061    120.8598
  1398.7500      0.0000    522.5107      6.5607    124.2970
  1399.0000      0.0000    473.4118      6.5220    125.5682
  1399.2500      0.0000    450.5003      6.4838    125.9087
  1399.5000      0.0000    455.0596      6.4424    125.7988
  1399.7500      0.0000    477.9707      6.4035    124.9152
  1400.0000      0.0000    508.8614      6.3798    123.0449
  1400.2500      0.0000    542.8088      6.3809    120.1711
  1400.5000      0.0000    579.2918      6.4065    116.0119
  1400.7500      0.0000    616.0137      6.4491    110.3158
  1401.0000      0.0000    645.3537      6.5005    103.6030
  1401.2500      0.0000    658.2424      6.5548     97.2788
  1401.5000      0.0000    652.3674      6.6051     93.0711
  1401.7500      0.0000    636.5338      6.6397     92.2042
  1402.0000      0.0000    625.3550      6.6460     94.6454
  1402.2500      0.0000    627.8496      6.6223     99.1556
  1402.5000      0.0000    641.4888      6.5801    104.3519
  1402.7500      0.0000    657.5515      6.5299    109.5475
  1403.0000      0.0000    670.0925      6.4744    114.3815
  1403.2500      0.0000    678.8893      6.4297    118.1345
  1403.5000      0.0000    686.1032      6.4440    120.0102
  1403.7500      0.0000    692.0862      6.5692    119.9461
  1404.0000      0.0000    694.0896      6.8053    118.6208
  1404.2500      0.0000    688.9907      7.0839    116.6182
  1404.5000      0.0000    678.3302      7.3160    114.0396
  1404.7500      0.0000    670.4364      7.4555    110.9974
  1405.0000      0.0000    674.9849      7.5192    108.1844
  1405.2500      0.0000    693.2830      7.5530    106.8158
  1405.5000      0.0000    714.4302      7.5836    107.8602
  1405.7500      0.0000    722.1317      7.5996    111.0750
  1406.0000      0.0000    704.9280      7.5799    114.9981
  1406.2500      0.0000    661.1052      7.5363    118.2069
  1406.5000      0.0000    598.2181      7.5115    120.4250
  1406.7500      0.0000    530.2259      7.5307    122.0529
  1407.0000      0.0000    471.7318      7.5659    122.9331
  1407.2500      0.0000    430.7598      7.5609    122.3341
  1407.5000      0.0000    406.2631      7.4861    120.3043
  1407.7500      0.0000    392.5576      7.3597    118.2085
  1408.0000      0.0000    384.8516      7.2268    117.4633
  1408.2500      0.0000    380.8188      7.1294    118.2686
  1408.5000      0.0000    379.3618      7.0914    120.0181
  1408.7500      0.0000    379.6974      7.1118    122.4981
  1409.0000      0.0000    381.4738      7.1640    126.0960
  1409.2500      0.0000    384.8761      7.2109    130.8666
  1409.5000      0.0000    390.0169      7.2283    135.6612
  1409.7500      0.0000    395.8939      7.2174    138.3778
  1410.0000      0.0000    400.1965      7.1958    137.3164
  1410.2500      0.0000    400.7567      7.1784    132.5360
  1410.5000      0.0000    397.3862      7.1677    126.0568
  1410.7500      0.0000    391.9530      7.1586    120.6166
  1411.0000      0.0000    386.6624      7.1499    117.8191
  1411.2500      0.0000    382.6294      7.1473    117.1973
  1411.5000      0.0000    379.9783      7.1558    117.0479
  1411.7500      0.0000    378.7271      7.1737    115.9733
  1412.0000      0.0000    379.2765      7.1956    113.5542
  1412.2500      0.0000    382.1003      7.2164    110.0591
  1412.5000      0.0000    387.0108      7.2317    106.0787
  1412.7500      0.0000    392.8135      7.2368    102.3200
  1413.0000      0.0000    397.9118      7.2296     99.3783
  1413.2500      0.0000    401.3872      7.2165     97.6553
  1413.5000      0.0000    403.5098      7.2125     97.5592
  1413.7500      0.0000    405.4025      7.2321     99.6530
  1414.0000      0.0000    408.3931      7.2786    104.3243
  1414.2500      0.0000    413.3474      7.3373    111.1376
  1414.5000      0.0000    419.9534      7.3791    118.5800
  1414.7500      0.0000    426.3059      7.3719    124.6609
  1415.0000      0.0000    429.5023      7.3004    127.9160
  1415.2500      0.0000    427.3802      7.1795    127.8870
  1415.5000      0.0000    420.4483      7.0494    125.0935
  1415.7500      0.0000    412.3932      6.9546    121.1011
  1416.0000      0.0000    408.1314      6.9263    118.2192
  1416.2500      0.0000    410.6204      6.9751    118.2430
  1416.5000      0.0000    419.2701      7.0937    121.3719
  1416.7500      0.0000    431.0919      7.2618    126.3792
  1417.0000      0.0000    442.7583      7.4515    131.3446
  1417.2500      0.0000    451.7969      7.6293    134.4481
  1417.5000      0.0000    457.2992      7.7581    135.0594
  1417.7500      0.0000    460.4713      7.8026    134.1188
  1418.0000      0.0000    464.1097      7.7434    132.8119
  1418.2500      0.0000    470.3919      7.5941    131.0938
  1418.5000      0.0000    477.9641      7.4046    128.0714
  1418.7500      0.0000    480.8602      7.2415    123.5444
  1419.0000      0.0000    472.2290      7.1570    118.6932
  1419.2500      0.0000    451.2017      7.1663    115.2971
  1419.5000      0.0000    425.3897      7.2504    114.5305
  1419.7500      0.0000    405.5898      7.3746    116.4652
  1420.0000      0.0000    399.4339      7.5028    120.2671
  1420.2500      0.0000    409.9106      7.5982    124.5289
  1420.5000      0.0000    435.1849      7.6224    127.8475
  1420.7500      0.0000    466.0322      7.5532    129.7039
  1421.0000      0.0000    486.6068      7.4079    130.6624
  1421.2500      0.0000    484.2478      7.2428    131.4495
  1421.5000      0.0000    460.2379      7.1180    132.1918
  1421.7500      0.0000    428.2525      7.0608    132.8006
  1422.0000      0.0000    402.2421      7.0612    133.5651
  1422.2500      0.0000    387.9893      7.0952    134.9566
  1422.5000      0.0000    385.1864      7.1430    137.0966
  1422.7500      0.0000    394.0596      7.1881    139.6372
  1423.0000      0.0000    418.3884      7.2118    141.9299
  1423.2500      0.0000    461.6550      7.2014    143.0437
  1423.5000      0.0000    519.2173      7.1628    141.7554
  1423.7500      0.0000    574.5575      7.1193    137.0365
  1424.0000      0.0000    606.1056      7.0935    128.9893
  1424.2500      0.0000    600.4874      7.0921    119.2295
  1424.5000      0.0000    560.9832      7.1074    110.1263
  1424.7500      0.0000    504.9784      7.1317    103.5278
  1425.0000      0.0000    453.3884      7.1669    100.0507
  1425.2500      0.0000    419.8465      7.2197     99.3012
  1425.5000      0.0000    406.3552      7.2890    100.4468
  1425.7500      0.0000    406.3640      7.3614    102.4709
  1426.0000      0.0000    410.9715      7.4216    104.4240
  1426.2500      0.0000    413.7954      7.4646    106.1643
  1426.5000      0.0000    412.6190      7.4969    108.6379
  1426.7500      0.0000    408.1545      7.5270    112.6985
  1427.0000      0.0000    401.7937      7.5601    117.6769
  1427.2500      0.0000    394.5680      7.5982    121.6329
  1427.5000      0.0000    387.5807      7.6388    123.0360
  1427.7500      0.0000    382.2975      7.6723    121.8430
  1428.0000      0.0000    379.8693      7.6844    119.0436
  1428.2500      0.0000    380.2381      7.6642    115.6675
  1428.5000      0.0000    382.0963      7.6036    112.4856
  1428.7500      0.0000    384.0327      7.4843    110.2141
  1429.0000      0.0000    386.3570      7.2712    109.4485
  1429.2500      0.0000    392.1174      6.9316    110.2670
  1429.5000      0.0000    405.8279      6.4832    112.2155
  1429.7500      0.0000    429.5279      6.0272    114.7612
  1430.0000      0.0000    458.3322      5.7025    117.4115
  1430.2500      0.0000    480.4117      5.5707    119.2363
  1430.5000      0.0000    484.4525      5.5650    118.8904
  1430.7500      0.0000    468.9361      5.5838    115.7397
  1431.0000      0.0000    443.1007      5.6006    110.7112
  1431.2500      0.0000    418.6629      5.6398    105.6016
