~Version Information
VERS.                      2.0: CWLS Log ASCII Standard - VERSION 2.0
WRAP.                       NO: One line per depth step
~Well Information Block
STRT.FT               460.0000: 
STOP.FT              2824.0000: 
STEP.FT                 0.2500: 
NULL.                -999.2500: 
COMP.          Pioneer Natural Resources: COMPANY
WELL.           Dolzanie 34-12: WELL
FLD.           Purgatoire River: FIELD
LOC.           1001' FSL & 1750' FEL--: LOCATION
PROV.                 Colorado: PROVINCE
CNTY.               Las Animas: COUNTRY
SRVC.                Patterson: SERVICE COMPANY
DATE.          Wed Jul 20 07:51:58 2005: LOG DATE
UWI.           05 071 08439 00: UNIQUE WELL ID
~Curve Information Block
DEPT.FT            0 000 00 00: Depth
DIR.Ohm-m                     : IEL Induction Resistivity
SN.Ohm-m                      : IEL Short Normal
SP.mV                         : IEL Spontaneous Potential
GR.GAPI                       : Gamma Ray
~Parameter Information Block
~A  Depth       DIR          SN          SP          GR     
# ...
  1565.5000 100000.0000      1.5313   -261.8721     38.6459
  1565.7500 100000.0000      1.5156   -263.6089     35.9856
  1566.0000 100000.0000      1.5204   -264.7153     34.4294
  1566.2500 100000.0000      1.5358   -265.3752     34.4356
  1566.5000 100000.0000      1.5498   -265.7405     35.1900
  1566.7500 100000.0000      1.5547   -265.9235     36.0051
  1567.0000 100000.0000      1.5515   -266.0005     37.7155
  1567.2500 100000.0000      1.5465   -266.0191     39.2284
  1567.5000 100000.0000      1.5452   -266.0068     42.2091
  1567.7500 100000.0000      1.5491   -265.9789     44.8853
  1568.0000 100000.0000      1.5564   -265.9438     50.5901
  1568.2500 100000.0000      1.5647   -265.9064     55.9869
  1568.5000 100000.0000      1.5731   -265.8710     66.9230
  1568.7500 100000.0000      1.5833   -265.8406     75.8577
  1569.0000 100000.0000      1.5958   -265.8147     90.2582
  1569.2500 100000.0000      1.6069   -265.7909     99.2917
  1569.5000 100000.0000      1.6111   -265.7608    109.8238
  1569.7500 100000.0000      1.6063   -265.7048    113.6858
  1570.0000      7.2089      1.5966   -265.5838    113.3330
  1570.2500      1.5580      1.5887   -265.3271    108.9802
  1570.5000      0.7481      1.5859   -264.8138     98.2999
  1570.7500      0.4583      1.5872   -263.8519     90.4899
  1571.0000      0.3279      1.5907   -262.1604     81.3086
  1571.2500      0.2722      1.5990   -259.3611     78.2402
  1571.5000      0.2640      1.6215   -254.9947     78.6866
  1571.7500      0.2984      1.6768   -248.5687     81.6482
  1572.0000      0.3861      1.8020   -239.6402     88.3101
  1572.2500      0.5564      2.0717   -227.9214     93.5386
  1572.5000      0.8679      2.6181   -213.3836    102.2917
  1572.7500      1.4048      3.6143   -196.3238    108.7678
  1573.0000      2.1188      5.1832   -177.3680    119.0818
  1573.2500      2.5569      7.2625   -157.3971    125.8061
  1573.5000      2.4814      9.5522   -137.4098    134.5949
  1573.7500      2.3217     11.6353   -118.3590    139.2389
  1574.0000      2.4350     13.1932   -101.0057    144.2160
  1574.2500      3.1037     14.1365    -85.8294    146.0417
  1574.5000      5.2082     14.5773    -73.0103    146.0662
  1574.7500     15.0673     14.7164    -62.4765    144.3782
  1575.0000 100000.0000     14.7441    -53.9893    140.7232
  1575.2500 100000.0000     14.7852    -47.2350    138.6835
  1575.5000 100000.0000     14.8845    -41.8992    137.2496
  1575.7500 100000.0000     15.0243    -37.7099    137.1367
  1576.0000 100000.0000     15.1591    -34.4514    137.0770
  1576.2500     77.7542     15.2461    -31.9552    136.5719
  1576.5000     30.1722     15.2606    -30.0827    135.0476
  1576.7500     25.6030     15.2002    -28.7075    133.9581
  1577.0000     31.4629     15.0848    -27.7049    133.1353
  1577.2500     60.4333     14.9527    -26.9513    133.3658
  1577.5000 100000.0000     14.8525    -26.3286    134.6224
  1577.7500 100000.0000     14.8280    -25.7375    135.7329
  1578.0000 100000.0000     14.9022    -25.1096    137.3159
  1578.2500 100000.0000     15.0709    -24.4146    138.1486
  1578.5000 100000.0000     15.3141    -23.6615    138.8013
  1578.7500     77.0897     15.6158    -22.8926    138.4836
  1579.0000     32.5213     15.9751    -22.1690    136.0691
  1579.2500     21.9255     16.4078    -21.5552    133.0474
  1579.5000     18.3405     16.9466    -21.1037    127.2358
  1579.7500     17.5433     17.6390    -20.8460    123.1441
  1580.0000     18.1812     18.5363    -20.7904    117.0320
  1580.2500     19.3653     19.6719    -20.9277    112.9136
  1580.5000     20.1990     21.0433    -21.2393    106.9421
  1580.7500     20.1636     22.6122    -21.7055    103.4096
  1581.0000     19.5238     24.3283    -22.3106     98.8313
  1581.2500     18.9336     26.1534    -23.0413     95.9649
  1581.5000     18.8831     28.0620    -23.8830     91.5791
  1581.7500     19.5912     30.0218    -24.8146     88.7345
  1582.0000     21.1067     31.9795    -25.8057     85.2022
  1582.2500     23.3665     33.8674    -26.8177     83.5692
  1582.5000     26.1915     35.6208    -27.8095     81.9719
  1582.7500     29.2877     37.1850    -28.7432     81.1319
  1583.0000     32.3092     38.5151    -29.5911     79.9541
  1583.2500     34.9648     39.5818    -30.3390     79.3838
  1583.5000     37.0922     40.3837    -30.9856     79.0776
  1583.7500     38.6585     40.9508    -31.5394     79.0500
  1584.0000     39.7135     41.3301    -32.0132     78.5720
  1584.2500     40.3351     41.5540    -32.4185     77.6852
  1584.5000     40.5884     41.6072    -32.7607     75.6864
  1584.7500     40.5055     41.4153    -33.0372     74.3283
  1585.0000     40.0868     40.8721    -33.2380     72.9567
  1585.2500     39.3163     39.8948    -33.3480     72.6492
  1585.5000     38.1840     38.4756    -33.3515     73.0965
  1585.7500     36.7082     36.6988    -33.2358     74.1248
  1586.0000     34.9452     34.7129    -32.9947     77.3176
  1586.2500     32.9802     32.6744    -32.6298     80.7371
  1586.5000     30.9071     30.6948    -32.1506     87.2377
  1586.7500     28.8096     28.8160    -31.5737     91.7399
  1587.0000     26.7515     27.0200    -30.9206     97.6881
  1587.2500     24.7707     25.2616    -30.2164    101.0089
  1587.5000     22.8795     23.4996    -29.4875    105.6518
  1587.7500     21.0756     21.7137    -28.7603    109.0877
  1588.0000     19.3622     19.9151    -28.0596    115.4653
  1588.2500     17.7630     18.1613    -27.4075    120.4811
  1588.5000     16.3185     16.5591    -26.8224    128.0240
  1588.7500     15.0670     15.2354    -26.3185    132.1600
  1589.0000     14.0268     14.2847    -25.9060    136.2437
  1589.2500     13.1924     13.7228    -25.5911    137.7833
  1589.5000     12.5430     13.4751    -25.3762    139.0660
  1589.7500     12.0531     13.4071    -25.2598    139.4705
  1590.0000     11.6986     13.3805    -25.2361    139.8702
  1590.2500     11.4586     13.3032    -25.2940    140.5928
  1590.5000     11.3144     13.1436    -25.4171    143.1944
  1590.7500     11.2493     12.9093    -25.5845    145.7178
  1591.0000     11.2487     12.6180    -25.7726    149.1931
  1591.2500     11.2972     12.2858    -25.9582    150.4198
  1591.5000     11.3759     11.9328    -26.1224    149.9552
  1591.7500     11.4609     11.5902    -26.2537    148.1980
  1592.0000     11.5262     11.2987    -26.3494    143.8768
  1592.2500     11.5518     11.1007    -26.4149    140.0637
  1592.5000     11.5308     11.0334    -26.4614    132.8549
  1592.7500     11.4700     11.1249    -26.5012    126.9106
  1593.0000     11.3852     11.3920    -26.5449    116.5889
  1593.2500     11.2953     11.8326    -26.5984    109.4449
  1593.5000     11.2193     12.4113    -26.6635     99.8613
  1593.7500     11.1765     13.0491    -26.7393     95.0443
  1594.0000     11.1852     13.6359    -26.8254     91.3573
  1594.2500     11.2615     14.0651    -26.9238     91.6708
  1594.5000     11.4185     14.2699    -27.0396     95.9911
  1594.7500     11.6666     14.2353    -27.1797    100.6491
  1595.0000     12.0149     13.9892    -27.3495    108.7255
  1595.2500     12.4719     13.5916    -27.5498    114.2208
  1595.5000     13.0428     13.1323    -27.7741    121.9677
  1595.7500     13.7230     12.7214    -28.0077    126.2960
  1596.0000     14.4896     12.4638    -28.2297    130.5955
  1596.2500     15.2948     12.4274    -28.4166    131.9224
  1596.5000     16.0696     12.6273    -28.5474    132.5398
  1596.7500     16.7418     13.0365    -28.6081    132.7139
  1597.0000     17.2569     13.6139    -28.5948    133.2369
  1597.2500     17.5897     14.3218    -28.5145    133.8756
  1597.5000     17.7387     15.1140    -28.3834    135.2796
  1597.7500     17.7141     15.9109    -28.2228    136.2960
  1598.0000     17.5334     16.6019    -28.0552    137.2426
  1598.2500     17.2253     17.0862    -27.9005    137.3051
  1598.5000     16.8331     17.3233    -27.7735    137.1649
  1598.7500     16.4099     17.3490    -27.6842    137.4975
