~Version Information
VERS.                      2.0: CWLS Log ASCII Standard - VERSION 2.0
WRAP.                       NO: One line per depth step
~Well Information Block
STRT.FT               245.0000: 
STOP.FT              1273.7500: 
STEP.FT                 0.2500: 
NULL.                -999.2500: 
COMP.          Pioneer Natural Resources: COMPANY
WELL.                 Ray 34-6: WELL
FLD.           Purgatoire River: FIELD
LOC.           684' FSL & 2254' FEL--: LOCATION
CNTY.               Las Animas: COUNTY
SRVC.                Patterson: SERVICE COMPANY
DATE.          Fri May 26 03:08:09 2006: LOG DATE
UWI.           05 071 08695 00: UNIQUE WELL ID
STAT.                 Colorado: STATE
~Curve Information Block
DEPT.FT            0 000 00 00: Depth
SN.Ohm-m                      : IEL Short Normal
SP.mV                         : IEL Spontaneous Potential
DIR.Ohm-m                     : IEL Induction Resistivity
GR.GAPI                       : Gamma Ray
~Parameter Information Block
~A  Depth        SN          SP         DIR          GR     
# ...
  1183.0000    685.7410   -563.7921     23.8794     94.3630
  1183.2500    685.7410   -563.7893     24.0037     93.9997
  1183.5000    685.7410   -563.7875     24.1746     95.4227
  1183.7500    685.7410   -563.7868     24.3655     97.1827
  1184.0000    685.7410   -563.7870     24.5307     99.6038
  1184.2500    685.7410   -563.7880     24.6209    100.3828
  1184.5000    685.7410   -563.7897     24.6003     99.9215
  1184.7500    685.7410   -563.7919     24.4583     98.7851
  1185.0000    685.7410   -563.7943     24.2099     96.7296
  1185.2500    685.7410   -563.7967     23.8872     95.7096
  1185.5000    685.7410   -563.7990     23.5259     95.5879
  1185.7500    685.7410   -563.8010     23.1562     96.7198
  1186.0000    685.7410   -563.8030     22.8012     99.8593
  1186.2500    685.7410   -563.8049     22.4773    102.1923
  1186.5000    685.7410   -563.8069     22.1889    104.6771
  1186.7500    685.7410   -563.8094     21.9243    105.3030
  1187.0000    685.7410   -563.8127     21.6613    105.1717
  1187.2500    685.7410   -563.8170     21.3842    105.0107
  1187.5000    685.7410   -563.8226     21.0986    105.6040
  1187.7500    685.7410   -563.8296     20.8308    106.7505
  1188.0000    685.7410   -563.8381     20.6142    109.2510
  1188.2500    685.7410   -563.8480     20.4741    111.0160
  1188.5000    685.7410   -563.8591     20.4191    113.1365
  1188.7500    685.7410   -563.8711     20.4406    113.9608
  1189.0000    685.7410   -563.8835     20.5180    114.1356
  1189.2500    685.7410   -563.8961     20.6260    113.4987
  1189.5000    685.7410   -563.9080     20.7393    111.4421
  1189.7500    685.7410   -563.9189     20.8390    109.5454
  1190.0000    685.7410   -563.9284     20.9209    106.6971
  1190.2500    685.7410   -563.9360     21.0036    105.2601
  1190.5000    685.7410   -563.9416     21.1249    104.0295
  1190.7500    685.7410   -563.9450     21.3259    103.6052
  1191.0000    685.7410   -563.9463     21.6288    103.0122
  1191.2500    685.7410   -563.9456     22.0219    102.4574
  1191.5000    685.7410   -563.9429     22.4591    101.5342
  1191.7500    685.7410   -563.9387     22.8743    101.1982
  1192.0000    685.7410   -563.9329     23.2071    101.6471
  1192.2500    685.7410   -563.9257     23.4223    102.5118
  1192.5000    685.7410   -563.9175     23.5136    103.8609
  1192.7500    685.7410   -563.9082     23.4941    104.3499
  1193.0000    685.7410   -563.8980     23.3905    104.3617
  1193.2500    685.7410   -563.8871     23.2439    104.1381
  1193.5000    685.7410   -563.8755     23.1074    104.0497
  1193.7500    685.7410   -563.8634     23.0309    104.5670
  1194.0000    685.7410   -563.8510     23.0419    106.7878
  1194.2500    685.7410   -563.8383     23.1349    109.0524
  1194.5000    685.7410   -563.8255     23.2777    112.0354
  1194.7500    685.7410   -563.8129     23.4328    112.6744
  1195.0000    685.7410   -563.8005     23.5818    111.3170
  1195.2500    685.7410   -563.7887     23.7365    109.7817
  1195.5000    685.7410   -563.7775     23.9278    108.4059
  1195.7500    685.7410   -563.7673     24.1797    108.5280
  1196.0000    685.7410   -563.7580     24.4915    109.7130
  1196.2500    685.7410   -563.7498     24.8391    110.5463
  1196.5000    685.7410   -563.7427     25.1920    111.1060
  1196.7500    685.7410   -563.7367     25.5314    111.0072
  1197.0000    685.7410   -563.7314     25.8546    110.6757
  1197.2500    685.7410   -563.7268     26.1664    110.5638
  1197.5000    685.7410   -563.7223     26.4671    110.3934
  1197.7500    685.7410   -563.7176     26.7501    110.0865
  1198.0000    685.7410   -563.7124     27.0106    109.4716
  1198.2500    685.7410   -563.7062     27.2545    109.3052
  1198.5000    685.7410   -563.6989     27.4939    109.7795
  1198.7500    685.7410   -563.6903     27.7334    110.3086
  1199.0000    685.7410   -563.6803     27.9617    110.2865
  1199.2500    685.7410   -563.6691     28.1621    109.1580
  1199.5000    685.7410   -563.6568     28.3316    105.8434
  1199.7500    685.7410   -563.6437     28.4906    103.2317
  1200.0000    685.7410   -563.6302     28.6737    100.2694
  1200.2500    685.7410   -563.6166     28.9120     99.5449
  1200.5000    685.7410   -563.6032     29.2209    100.3032
  1200.7500    685.7410   -563.5901     29.6025    101.4232
  1201.0000    685.7410   -563.5776     30.0549    102.5587
  1201.2500    685.7410   -563.5654     30.8143    102.2861
  1201.5000    685.7410   -563.5534     31.8512    100.0572
  1201.7500    685.7410   -563.5416     32.5825     97.7168
  1202.0000    685.7410   -563.5298     33.4050     94.1172
  1202.2500    685.7410   -563.5178     34.3013     92.4125
  1202.5000    685.7410   -563.5054     35.2492     91.6369
  1202.7500    685.7410   -563.4927     36.2311     92.1020
  1203.0000    685.7410   -563.4797     37.2355     92.8695
  1203.2500    685.7410   -563.4667     38.2475     92.4789
  1203.5000    685.7410   -563.4537     39.2340     89.8950
  1203.7500    685.7410   -563.4409     40.1349     87.3875
  1204.0000    685.7410   -563.4286     40.8707     84.3195
  1204.2500    685.7410   -563.4168     41.3663     83.5253
  1204.5000    685.7410   -563.4058     41.5685     84.1293
  1204.7500    685.7410   -563.3954     40.9558     85.3190
  1205.0000    685.7410   -563.3857     39.7417     88.3658
  1205.2500    685.7410   -563.3765     39.0968     91.6364
  1205.5000    685.7410   -563.3676     38.2954     98.0597
  1205.7500    685.7410   -563.3588     37.4372    102.1964
  1206.0000    685.7410   -563.3497     36.5968    105.8976
  1206.2500    685.7410   -563.3400     35.8036    106.1638
  1206.5000    685.7410   -563.3296     35.0462    104.1495
  1206.7500    685.7410   -563.3182     34.2929    102.2606
  1207.0000    685.7410   -563.3057     33.5138    100.1970
  1207.2500    685.7410   -563.2922     32.6973     99.7544
  1207.5000    685.7410   -563.2777     31.8534    100.2530
  1207.7500    685.7410   -563.2625     26.9544    100.9140
  1208.0000    685.7410   -563.2468     21.6200    101.8349
  1208.2500    685.7410   -563.2310     21.2218    102.3581
  1208.5000    685.7410   -563.2151     20.8524    103.0860
  1208.7500    685.7410   -563.1995     20.5082    103.4881
  1209.0000    685.7410   -563.1841     20.1677    103.9917
  1209.2500    685.7410   -563.1689     19.7902    104.5511
  1209.5000    685.7410   -563.1537     19.3235    106.4559
  1209.7500    685.7410   -563.1382     18.7221    108.5525
  1210.0000    685.7410   -563.1220     17.9691    112.3420
  1210.2500    685.7410   -563.1047     17.0906    114.9796
  1210.5000    685.7410   -563.0861     16.1503    119.5896
  1210.7500    685.7410   -563.0659     15.1589    123.8240
  1211.0000    685.7410   -563.0440     14.2349    132.5898
  1211.2500    685.7410   -563.0204     13.5746    139.5826
  1211.5000    685.7410   -562.9955     13.0831    149.6639
  1211.7500    685.7410   -562.9695     12.7571    154.5390
  1212.0000    685.7410   -562.9428     12.5712    156.8436
  1212.2500    685.7410   -562.9159     12.4897    154.5184
  1212.5000    685.7410   -562.8893     12.4796    146.1428
  1212.7500    685.7410   -562.8633     12.5236    138.6461
  1213.0000    685.7410   -562.8383     12.6234    127.0806
  1213.2500    685.7410   -562.8146     12.7928    120.1539
  1213.5000    685.7410   -562.7925     13.0437    111.3107
  1213.7500    685.7410   -562.7718     13.3744    106.1373
  1214.0000    685.7410   -562.7521     13.7641     99.1394
  1214.2500    685.7410   -562.7318     14.2303     95.3753
  1214.5000    685.7410   -562.7075     14.7294     92.3235
  1214.7500    685.7410   -562.6743     15.1012     92.2892
  1215.0000    685.7410   -562.6232     15.4226     94.0723
  1215.2500    685.7410   -562.5375     15.6931     95.3422
  1215.5000    685.7410   -562.3893     15.9187     96.2940
  1215.7500    685.7410   -562.1333     16.1129     96.4981
  1216.0000    685.7410   -561.6986     16.2992     96.9699
  1216.2500    685.7410   -560.9791     16.5111     97.4778
