~Version Information
VERS.                      2.0: CWLS Log ASCII Standard - VERSION 2.0
WRAP.                       NO: One line per depth step
~Well Information Block
STRT.FT               645.0000: 
STOP.FT              1320.0000: 
STEP.FT                 0.1000: 
NULL.                -999.2500: 
COMP.          Pioneer Natural Resources: COMPANY
WELL.          Rockfish 11-30 Tr: WELL
FLD.           Purgatoire River: FIELD
LOC.           1063' FNL & 1068' FWL: LOCATION
STAT.                 Colorado: State
CNTY.               Las Animas: COUNTY
CTRY. USA : Country
SECT. 30 : Section
TOWN. 32S : Township
RANG. 65W : Range
SRVC.                Patterson: SERVICE COMPANY
DATE.          Wed Nov 16 07:46:07 2005: LOG DATE
API.           05 071 08585 00: UNIQUE WELL ID
~Curve Information Block
DEPT.FT            0 000 00 00: Depth
DCAL.in                       : CDL Caliper
RHOB.g/cc                     : CDL Bulk Density
RHOC.g/cc                     : CDL Density Correction
DPOR.pu                       : CDL Density Porosity
GR.GAPI                       : Gamma Ray
NPOR.pu                       : Neutron Porosity
~Parameter Information Block
~A  Depth       DCAL        RHOB        RHOC        DPOR         GR         NPOR    
# ...
   779.4000      7.9048      2.5269      0.0401      7.4622    125.5617     22.4654
   779.5000      7.9110      2.5095      0.0713      8.5131    125.0362     21.8208
   779.6000      7.9110      2.4746      0.0065     10.6306    118.1473     21.5528
   779.7000      7.9110      2.4297      0.0071     13.3523    110.7337     21.3401
   779.8000      7.8932      2.3718      0.0358     16.8617    111.6563     20.8179
   779.9000      7.8932      2.2849     -0.0010     22.1291    119.0867     19.9338
   780.0000      7.8921      2.1638     -0.0368     29.4676    124.1857     18.6909
   780.1000      7.8921      2.0184     -0.0461     38.2775    122.2601     17.4279
   780.2000      7.8921      1.8746     -0.0819     46.9923    114.9635     16.5694
   780.3000      7.8688      1.7568     -0.0866     54.1354    107.1164     16.0058
   780.4000      7.8688      1.6656     -0.0887     59.6627    100.9462     15.3497
   780.5000      7.8351      1.6003     -0.0630     63.6165     94.6896     14.5286
   780.6000      7.8351      1.5661      0.0591     65.6932     87.9847     13.7153
   780.7000      7.8351      1.5479      0.0793     66.7942     83.9150     13.1033
   780.8000      7.8047      1.5258      0.1246     68.1346     84.1292     12.7211
   780.9000      7.8047      1.4997      0.0993     69.7127     84.2473     12.5330
   781.0000      7.9291      1.4775      0.0743     71.0597     81.5156     12.6009
   781.1000      7.9291      1.4549      0.0884     72.4317     79.9069     12.9347
   781.2000      7.9291      1.4340     -0.0420     73.6970     80.1358     13.4499
   781.3000      8.1054      1.4360      0.0011     73.5732     76.6640     14.0058
   781.4000      8.1054      1.4613      0.1137     72.0421     66.8225     14.4932
   781.5000      8.2236      1.4814      0.0997     70.8260     55.9283     14.7563
   781.6000      8.2236      1.4783      0.0928     71.0109     51.6089     14.6803
   781.7000      8.2236      1.4567      0.1104     72.3193     52.3479     14.4761
   781.8000      8.2156      1.4283      0.1177     74.0438     51.9504     14.2973
   781.9000      8.2156      1.3999      0.0885     75.7619     50.5804     14.0603
   782.0000      8.2078      1.3755      0.0598     77.2445     50.9623     14.0085
   782.1000      8.2078      1.3581      0.0205     78.2942     51.0180     14.3678
   782.2000      8.2078      1.3416      0.0514     79.2971     47.0075     14.7631
   782.3000      8.2439      1.3144      0.0227     80.9465     40.6916     15.1114
   782.4000      8.2439      1.2900     -0.0220     82.4268     36.4548     15.8400
   782.5000      8.2730      1.3051     -0.0010     81.5121     34.9892     17.0555
   782.6000      8.2730      1.3848      0.0467     76.6811     36.2320     18.6231
   782.7000      8.2730      1.5244      0.0904     68.2163     41.3942     20.3591
   782.8000      8.2286      1.6968      0.1695     57.7710     48.4231     21.8269
   782.9000      8.2286      1.8750      0.2859     46.9692     54.0197     22.9967
   783.0000      8.3254      2.0519      0.2529     36.2487     60.4787     24.4403
   783.1000      8.3254      2.2259      0.3391     25.7060     69.8935     26.0616
   783.2000      8.3254      2.3766      0.3717     16.5670     78.6160     27.2948
   783.3000      8.2711      2.4825      0.3626     10.1497     85.7605     28.1999
   783.4000      8.2711      2.5339      0.2975      7.0359     94.3787     29.1027
   783.5000      8.1861      2.5306      0.2215      7.2381    102.9555     29.9166
   783.6000      8.1861      2.4969      0.1023      9.2809    105.4280     30.3224
   783.7000      8.1861      2.4734      0.0738     10.7013    103.5972     30.2881
   783.8000      8.0412      2.4721      0.0978     10.7813    106.5914     29.9757
   783.9000      8.0412      2.4754      0.0466     10.5831    115.5700     29.5609
   784.0000      7.8569      2.4768      0.0377     10.4999    123.1888     29.0777
   784.1000      7.8569      2.4836      0.0161     10.0862    124.3182     28.5218
   784.2000      7.8569      2.4953      0.1104      9.3778    122.1329     27.7698
   784.3000      7.7553      2.5027      0.0621      8.9302    123.9598     26.3745
   784.4000      7.7553      2.5031      0.0803      8.9052    127.7605     24.6980
   784.5000      7.7470      2.4961      0.0581      9.3268    128.6566     23.6048
   784.6000      7.7470      2.4778      0.0627     10.4381    130.0128     23.0570
   784.7000      7.7470      2.4415      0.0727     12.6379    136.2490     22.6055
   784.8000      7.7575      2.3875      0.0439     15.9080    143.3574     22.1677
   784.9000      7.7575      2.3208      0.0264     19.9517    143.4410     21.8259
   785.0000      7.8315      2.2409      0.0202     24.7947    136.4781     21.4941
   785.1000      7.8315      2.1586     -0.0260     29.7827    129.6318     21.3525
   785.2000      7.8315      2.0987     -0.0349     33.4108    127.9200     21.7889
   785.3000      7.8971      2.0723     -0.0127     35.0119    129.7512     22.6009
   785.4000      7.8971      2.0759     -0.0221     34.7915    129.7680     23.3960
   785.5000      7.8606      2.1089      0.0134     32.7948    126.6533     24.3064
   785.6000      7.8606      2.1672      0.0731     29.2601    125.9078     25.3611
   785.7000      7.8606      2.2412      0.0793     24.7782    127.9536     26.1849
   785.8000      7.8554      2.3200      0.1679     20.0026    124.9409     26.6101
   785.9000      7.8554      2.3962      0.1296     15.3843    116.5042     26.9712
   786.0000      7.8423      2.4671      0.1164     11.0862    110.2813     27.7829
   786.1000      7.8423      2.5221      0.0618      7.7499    107.9960     28.8701
   786.2000      7.8423      2.5485      0.0850      6.1523    108.4963     29.5345
   786.3000      7.9887      2.5506      0.0752      6.0252    114.7169     29.6790
   786.4000      7.9887      2.5493      0.0393      6.1049    127.1955     29.6192
   786.5000      7.9565      2.5596      0.0575      5.4813    139.3349     29.3599
   786.6000      7.9565      2.5686      0.1142      4.9311    147.5362     28.7790
   786.7000      7.9565      2.5552      0.0386      5.7465    152.1416     28.0923
   786.8000      7.9389      2.5261      0.0682      7.5099    150.4807     27.5796
   786.9000      7.9389      2.4999      0.0313      9.0979    145.3076     27.0672
   787.0000      7.9496      2.4712      0.0827     10.8340    143.1360     26.0788
   787.1000      7.9496      2.4060      0.0426     14.7877    144.0276     24.2735
   787.2000      7.9496      2.2818      0.0077     22.3165    144.7175     21.7863
   787.3000      7.9466      2.1213     -0.0586     32.0414    144.7883     19.4078
   787.4000      7.9466      1.9625     -0.0834     41.6668    143.8276     17.8931
   787.5000      7.9374      1.8186     -0.0907     50.3898    140.9991     17.2426
   787.6000      7.9374      1.6987     -0.1276     57.6543    133.9529     17.0500
   787.7000      7.9374      1.6283     -0.1430     61.9201    121.7335     17.2365
   787.8000      7.9229      1.6245     -0.1088     62.1540    111.3046     17.8206
   787.9000      7.9229      1.6785      0.0853     58.8767    107.1895     18.5611
   788.0000      7.9337      1.7740      0.1448     53.0901    104.4479     19.4477
   788.1000      7.9337      1.9037      0.2871     45.2291    100.4482     20.5034
   788.2000      7.9337      2.0529      0.3250     36.1892     97.9817     21.3904
   788.3000      7.9769      2.1898      0.3903     27.8891     99.9129     22.0908
   788.4000      7.9769      2.2885      0.3667     21.9075    104.1189     22.9624
   788.5000      8.0964      2.3502      0.2969     18.1723    106.3102     23.9895
   788.6000      8.0964      2.3918      0.1968     15.6486    107.8527     24.8620
   788.7000      8.0964      2.4281      0.1085     13.4489    111.3064     25.3257
   788.8000      8.1456      2.4660      0.0922     11.1504    114.5145     25.4084
   788.9000      8.1456      2.4966      0.1061      9.2983    118.0811     25.4481
