~Version Information
VERS.                      2.0: CWLS Log ASCII Standard - VERSION 2.0
WRAP.                       NO: One line per depth step
~Well Information Block
STRT.FT                -7.2500: 
STOP.FT              1334.7500: 
STEP.FT                 0.2500: 
NULL.                -999.2500: 
COMP.          Pioneer Natural Resources: COMPANY
WELL.          Buffet 41-36 Tr: WELL
FLD.           Purgatorie River: FIELD
LOC.           119' FNL & 271' FEL--: LOCATION
PROV.                       CO: PROVINCE
CNTY.               Las Animas: COUNTRY
SRVC.          Patterson Wireline: SERVICE COMPANY
DATE.          Tue Jan 03 09:43:31 2006: LOG DATE
UWI.           05 071 08627 00: UNIQUE WELL ID
~Curve Information Block
DEPT.FT            0 000 00 00: Depth
CCL.                          : Casing Collar Locator
TT3.usec                      : CBL 3' Travel Time
AMP3.mV                       : CBL 3' Amplitude
GR.GAPI                       : Gamma Ray
~Parameter Information Block
~A  Depth       CCL         TT3         AMP3         GR     
# ...
   528.7500      0.0000    767.3326      7.3986    116.4389
   529.0000      0.0000    758.4042      7.3005    118.6268
   529.2500      0.0000    751.9040      7.2322    119.2291
   529.5000      0.0000    753.3738      7.2054    116.7146
   529.7500      0.0000    762.7324      7.2260    110.2542
   530.0000      0.0000    775.6491      7.2849    101.4908
   530.2500      0.0000    786.9047      7.3570     93.8869
   530.5000      0.0000    792.9700      7.4149     90.1669
   530.7500      0.0000    793.2554      7.4440     90.2121
   531.0000      0.0000    789.8040      7.4439     91.2270
   531.2500      0.0000    785.3660      7.4210     90.0318
   531.5000      0.0000    781.3404      7.3862     85.3520
   531.7500      0.0000    777.4913      7.3522     78.2254
   532.0000      0.0000    773.3881      7.3259     70.8828
   532.2500      0.0000    769.8267      7.3051     65.3883
   532.5000      0.0000    768.6392      7.2841     62.6651
   532.7500      0.0000    771.0654      7.2614     62.1964
   533.0000      0.0000    776.7245      7.2377     62.6955
   533.2500      0.0000    784.2335      7.2127     63.3656
   533.5000      0.0000    792.0887      7.1847     64.4796
   533.7500      0.0000    798.9266      7.1531     66.5498
   534.0000      0.0000    804.4164      7.1205     69.1532
   534.2500      0.0000    809.9781      7.0927     70.9587
   534.5000      0.0000    816.2402      7.0764     70.6921
   534.7500      0.0000    819.4719      7.0767     67.7711
   535.0000      0.0000    813.9845      7.0954     62.4928
   535.2500      0.0000    799.6524      7.1321     56.2594
   535.5000      0.0000    784.0497      7.1850     51.3273
   535.7500      0.0000    775.1473      7.2501     49.6965
   536.0000      0.0000    773.5952      7.3187     52.0403
   536.2500      0.0000    773.7527      7.3795     57.5822
   536.5000      0.0000    771.2469      7.4243     64.7328
   536.7500      0.0000    767.6078      7.4554     71.8835
   537.0000      0.0000    767.5866      7.4846     77.9714
   537.2500      0.0000    773.7565      7.5254     82.4365
   537.5000      0.0000    784.2739      7.5831     84.6900
   537.7500      0.0000    794.3325      7.6516     84.0037
   538.0000      0.0000    799.2413      7.7213     80.2299
   538.2500      0.0000    797.4424      7.7899     74.4285
   538.5000      0.0000    791.3202      7.8620     68.5582
   538.7500      0.0000    784.7201      7.9371     64.4131
   539.0000      0.0000    779.6666      8.0006     62.5253
   539.2500      0.0000    775.3281      8.0329     61.9018
   539.5000      0.0000    769.2132      8.0268     61.0224
   539.7500      0.0000    759.3100      7.9971     59.2192
   540.0000      0.0000    746.4237      7.9730     57.0824
   540.2500      0.0000    735.2481      7.9776     55.7321
   540.5000      0.0000    732.1285      8.0101     55.8525
   540.7500      0.0000    740.2487      8.0444     57.3429
   541.0000      0.0000    756.5455      8.0456     59.8058
   541.2500      0.0000    773.4065      7.9939     63.3955
   541.5000      0.0000    783.2385      7.8963     69.1869
   541.7500      0.0000    781.8115      7.7770     78.4031
   542.0000      0.0000    769.0660      7.6617     91.0064
   542.2500      0.0000    748.6346      7.5716    105.2651
   542.5000      0.0000    726.4520      7.5261    118.8946
   542.7500      0.0000    708.0877      7.5374    130.3138
   543.0000      0.0000    696.1976      7.5972    138.7806
   543.2500      0.0000    690.1632      7.6692    144.1052
   543.5000      0.0000    687.7891      7.7004    146.6823
   543.7500      0.0000    687.0840      7.6502    147.0809
   544.0000      0.0000    686.9447      7.5166    145.2302
   544.2500      0.0000    686.9880      7.3380    140.7424
   544.5000      0.0000    687.1587      7.1657    134.4366
   544.7500      0.0000    687.4293      7.0329    128.8132
   545.0000      0.0000    687.6843      6.9489    126.3559
   545.2500      0.0000    687.7816      6.9158    127.5619
   545.5000      0.0000    687.6742      6.9407    130.9494
   545.7500      0.0000    687.4473      7.0245    134.5033
   546.0000      0.0000    687.2308      7.1487    136.5372
   546.2500      0.0000    687.0977      7.2805    135.7066
   546.5000      0.0000    687.0455      7.3940    131.4743
   546.7500      0.0000    687.0352      7.4891    124.8578
   547.0000      0.0000    687.0179      7.5882    117.9019
   547.2500      0.0000    686.9504      7.7111    112.2378
   547.5000      0.0000    686.8221      7.8526    108.6045
   547.7500      0.0000    686.6611      7.9876    107.4794
   548.0000      0.0000    686.4921      8.0957    109.3763
   548.2500      0.0000    686.2991      8.1765    114.4041
   548.5000      0.0000    686.0501      8.2419    121.8472
   548.7500      0.0000    685.7512      8.2962    129.9425
   549.0000      0.0000    685.4556      8.3272    135.9653
   549.2500      0.0000    685.2206      8.3160    137.4331
   549.5000      0.0000    685.0731      8.2573    133.9388
   549.7500      0.0000    685.0115      8.1681    127.2592
   550.0000      0.0000    685.0213      8.0751    119.4294
   550.2500      0.0000    685.0817      7.9949    111.5979
   550.5000      0.0000    685.1670      7.9276    104.8433
   550.7500      0.0000    685.2463      7.8664    100.7416
   551.0000      0.0000    685.2767      7.8083    100.3601
   551.2500      0.0000    685.2089      7.7592    103.2688
   551.5000      0.0000    685.0239      7.7279    107.8749
   551.7500      0.0000    684.7642      7.7162    112.1695
   552.0000      0.0000    684.5094      7.7134    114.0221
   552.2500      0.0000    684.3073      7.7063    111.7006
   552.5000      0.0000    684.1426      7.6913    105.1423
   552.7500      0.0000    683.9759      7.6762     96.8627
   553.0000      0.0000    683.7944      7.6704     90.9073
   553.2500      0.0000    683.6145      7.6781     90.2189
   553.5000      0.0000    683.4561      7.6962     94.7626
   553.7500      0.0000    683.3302      7.7176    101.8859
   554.0000      0.0000    683.2450      7.7365    108.2785
   554.2500      0.0000    683.2103      7.7515    111.8823
   554.5000      0.0000    683.2338      7.7588    112.3608
   554.7500      0.0000    683.3189      7.7490    110.3560
   555.0000      0.0000    683.4691      7.7157    106.9040
   555.2500      0.0000    683.6871      7.6633    103.2789
   555.5000      0.0000    683.9625      7.6019    100.5792
   555.7500      0.0000    684.2639      7.5357     99.3534
   556.0000      0.0000    684.5528      7.4633     99.9357
   556.2500      0.0000    684.8013      7.3874    102.7282
   556.5000      0.0000    684.9877      7.3218    107.5234
   556.7500      0.0000    685.0843      7.2883    112.7354
   557.0000      0.0000    685.0661      7.3061    116.0243
   557.2500      0.0000    684.9365      7.3775    116.0451
   557.5000      0.0000    684.7233      7.4809    113.5046
   557.7500      0.0000    684.4545      7.5815    110.2928
   558.0000      0.0000    684.1651      7.6508    107.6525
   558.2500      0.0000    683.9249      7.6741    105.5348
   558.5000      0.0000    683.8296      7.6436    103.5802
   558.7500      0.0000    683.9535      7.5490    101.9669
   559.0000      0.0000    684.4069      7.3843    101.1432
   559.2500      0.0000    685.4958      7.1603    101.3956
   559.5000      0.0000    687.8268      6.9132    102.7724
   559.7500      0.0000    691.8651      6.6986    104.9649
   560.0000      0.0000    697.0364      6.5704    107.5357
   560.2500      0.0000    701.7443      6.5417    110.6461
   560.5000      0.0000    706.1968      6.5567    115.1748
   560.7500      0.0000    715.7335      6.5262    121.7171
   561.0000      0.0000    738.7365      6.4121    129.6963
   561.2500      0.0000    779.0808      6.2596    137.6873
   561.5000      0.0000    831.7184      6.1373    144.5247
   561.7500      0.0000    885.9899      6.0703    149.9501
   562.0000      2.0000    931.0839      6.0417    154.0855
