~Version Information
VERS.                      2.0: CWLS Log ASCII Standard - VERSION 2.0
WRAP.                       NO: One line per depth step
~Well Information Block
STRT.FT               530.7500: 
STOP.FT              1325.2500: 
STEP.FT                 0.2500: 
NULL.                -999.2500: 
COMP.          Pioneer Natural Resources: COMPANY
WELL.            Erin 21-15 Tr: WELL
FLD.           Purgatoire River: FIELD
LOC.           1217' FNL & 2284' FWL--: LOCATION
CNTY.               Las Animas: COUNTY
SRVC.                Patterson: SERVICE COMPANY
DATE.          Fri Mar 03 23:07:06 2006: LOG DATE
UWI.           05 071 08712 00: UNIQUE WELL ID
STAT.                 Colorado: STATE
~Curve Information Block
DEPT.FT            0 000 00 00: Depth
SN.Ohm-m                      : IEL Short Normal
SP.mV                         : IEL Spontaneous Potential
DIR.Ohm-m                     : IEL Induction Resistivity
GR.GAPI                       : Gamma Ray
~Parameter Information Block
~A  Depth        SN          SP         DIR          GR     
# ...
  1200.7500     14.0446    203.6608     14.2351    120.1392
  1201.0000     14.6700    204.2431     14.4373    125.1210
  1201.2500     15.5325    204.8944     14.7345    131.0541
  1201.5000     16.4509    205.5781     15.0893    141.4077
  1201.7500     17.2593    206.2501     15.4457    147.9245
  1202.0000     17.8510    206.8686     15.7415    155.2590
  1202.2500     18.1924    207.4010     15.9299    157.9449
  1202.5000     18.3106    207.8298     16.0005    158.9170
  1202.7500     18.2691    208.1541     15.9835    158.1852
  1203.0000     18.1418    208.3883     15.9328    156.0747
  1203.2500     17.9934    208.5578     15.9024    154.2580
  1203.5000     17.8690    208.6934     15.9292    151.0350
  1203.7500     17.7904    208.8255     16.0276    148.7884
  1204.0000     17.7557    208.9791     16.1908    146.2790
  1204.2500     17.7434    209.1693     16.3968    145.8695
  1204.5000     17.7237    209.4001     16.6156    147.4887
  1204.7500     17.6761    209.6644     16.8163    149.4391
  1205.0000     17.6019    209.9454     16.9716    151.9913
  1205.2500     17.5243    210.2207     17.0633    152.9931
  1205.5000     17.4749    210.4653     17.0890    154.1982
  1205.7500     17.4750    210.6556     17.0689    155.4527
  1206.0000     17.5260    210.7729     17.0441    157.8350
  1206.2500     17.6144    210.8048     17.0632    158.7855
  1206.5000     17.7268    210.7475     17.1626    157.4329
  1206.7500     17.8632    210.6056     17.3553    154.3225
  1207.0000     18.0414    210.3919     17.6322    147.2860
  1207.2500     18.2920    210.1257     17.9741    142.0400
  1207.5000     18.6415    209.8300     18.3633    134.9892
  1207.7500     19.0891    209.5282     18.7852    131.4952
  1208.0000     19.5902    209.2399     19.2216    128.4888
  1208.2500     20.0625    208.9784     19.6430    127.7175
  1208.5000     20.4205    208.7484     20.0113    127.2303
  1208.7500     20.6179    208.5467     20.2932    126.6737
  1209.0000     20.6683    208.3641     20.4759    125.4482
  1209.2500     20.6282    208.1880     20.5702    125.0830
  1209.5000     20.5570    208.0061     20.6010    126.2783
  1209.7500     20.4812    207.8087     20.5925    128.0136
  1210.0000     20.3875    207.5896     20.5572    130.7518
  1210.2500     20.2483    207.3463     20.4927    132.3220
  1210.5000     20.0542    207.0785     20.3855    134.6869
  1210.7500     19.8287    206.7865     20.2236    136.3479
  1211.0000     19.6157    206.4702     20.0144    137.9180
  1211.2500     19.4536    206.1287     19.7952    137.4642
  1211.5000     19.3603    205.7612     19.6242    134.1522
  1211.7500     19.3376    205.3690     19.5561    131.0453
  1212.0000     19.3826    204.9585     19.6198    127.2503
  1212.2500     19.4876    204.5428     19.8086    125.9609
  1212.5000     19.6334    204.1419     20.0854    125.1889
  1212.7500     19.7948    203.7802     20.3969    124.6282
  1213.0000     19.9594    203.4807     20.6929    123.1861
  1213.2500     20.1405    203.2589     20.9456    122.1138
  1213.5000     20.3660    203.1179     21.1574    120.7943
  1213.7500     20.6549    203.0469     21.3506    119.9587
  1214.0000     20.9994    203.0246     21.5463    118.2273
  1214.2500     21.3584    203.0257     21.7458    116.7552
  1214.5000     21.6640    203.0286     21.9279    115.0291
  1214.7500     21.8430    203.0194     22.0597    114.9830
  1215.0000     21.8503    202.9932     22.1127    117.0469
  1215.2500     21.6958    202.9494     22.0774    119.3080
  1215.5000     21.4472    202.8863     21.9687    122.5243
  1215.7500     21.2068    202.7964     21.8246    123.9122
  1216.0000     21.0718    202.6644     21.6969    124.4353
  1216.2500     21.0984    202.4694     21.6397    123.8449
  1216.5000     21.2857    202.1906     21.6991    122.2602
  1216.7500     21.5883    201.8133     21.9045    121.1494
  1217.0000     21.9504    201.3345     22.2641    119.1473
  1217.2500     22.3409    200.7661     22.7639    116.7426
  1217.5000     22.7716    200.1350     23.3722    109.7717
  1217.7500     23.2913    199.4804     24.0471    102.4615
  1218.0000     23.9573    198.8481     24.7459     88.8558
  1218.2500     24.7919    198.2840     25.4335     79.9018
  1218.5000     25.7483    197.8269     26.0898     69.9511
  1218.7500     26.7146    197.5024     26.7101     66.4764
  1219.0000     27.5596    197.3197     27.2952     65.0061
  1219.2500     28.1866    197.2708     27.8382     65.2402
  1219.5000     28.5565    197.3333     28.3168     65.7157
  1219.7500     28.6779    197.4752     28.6977     65.7931
  1220.0000     28.5894    197.6614     28.9481     65.9044
  1220.2500     28.3500    197.8598     29.0481     66.4093
  1220.5000     28.0302    198.0457     29.0018     68.2943
  1220.7500     27.6970    198.2043     28.8451     70.1015
  1221.0000     27.3977    198.3305     28.6392     72.5196
  1221.2500     27.1510    198.4270     28.4464     73.3174
  1221.5000     26.9514    198.5010     28.3063     73.0873
  1221.7500     26.7827    198.5605     28.2294     72.3190
  1222.0000     26.6311    198.6120     28.2094     71.0982
  1222.2500     26.4920    198.6585     28.2346     70.6869
  1222.5000     26.3702    198.7003     28.2891     70.8697
  1222.7500     26.2738    198.7354     28.3492     71.1011
  1223.0000     26.2050    198.7612     28.3878     70.5153
  1223.2500     26.1525    198.7760     28.3841     69.2845
  1223.5000     26.0949    198.7794     28.3261     66.9097
  1223.7500     26.0128    198.7730     28.2054     65.6456
  1224.0000     25.9016    198.7596     28.0172     64.9395
  1224.2500     25.7733    198.7428     27.7685     65.2414
  1224.5000     25.6441    198.7268     27.4803     66.2248
  1224.7500     25.5209    198.7158     27.1800     66.8386
  1225.0000     25.3967    198.7130     26.8903     67.6895
  1225.2500     25.2575    198.7204     26.6266     68.6100
  1225.5000     25.0909    198.7382     26.3984     70.9746
  1225.7500     24.8920    198.7640     26.2080     72.9275
  1226.0000     24.6670    198.7931     26.0465     75.4540
  1226.2500     24.4357    198.8197     25.8971     76.5935
  1226.5000     24.2239    198.8375     25.7475     77.8770
  1226.7500     24.0488    198.8418     25.6027     78.8998
  1227.0000     23.9100    198.8299     25.4846     81.0223
  1227.2500     23.7949    198.8024     25.4193     82.4674
  1227.5000     23.6914    198.7627     25.4202     83.3423
  1227.7500     23.5953    198.7163     25.4799     82.4770
  1228.0000     23.5089    198.6696     25.5725     79.4199
  1228.2500     23.4340    198.6279     25.6628     77.2712
  1228.5000     23.3665    198.5945     25.7172     75.9163
  1228.7500     23.2983    198.5703     25.7136     76.7664
  1229.0000     23.2273    198.5533     25.6500     79.7434
  1229.2500     23.1708    198.5400     25.5478     81.6877
  1229.5000     23.1675    198.5268     25.4452     82.9072
  1229.7500     23.2584    198.5109     25.3801     82.3070
  1230.0000     23.4593    198.4915     25.3727     79.6964
  1230.2500     23.7428    198.4701     25.4200     77.2045
  1230.5000     24.0448    198.4495     25.5036     72.9317
  1230.7500     24.2903    198.4337     25.6015     70.0698
  1231.0000     24.4242    198.4267     25.6938     66.4048
  1231.2500     24.4331    198.4319     25.7630     64.7125
  1231.5000     24.3438    198.4520     25.7965     63.6416
  1231.7500     24.2028    198.4884     25.7930     63.9977
  1232.0000     24.0519    198.5412     25.7679     66.1328
  1232.2500     23.9155    198.6088     25.7464     68.4118
  1232.5000     23.8011    198.6873     25.7473     72.3034
  1232.7500     23.7053    198.7708     25.7701     74.7276
  1233.0000     23.6218    198.8513     25.7971     77.7570
  1233.2500     23.5474    198.9200     25.8066     79.3641
  1233.5000     23.4852    198.9684     25.7880     80.9914
  1233.7500     23.4415    198.9896     25.7442     81.3694
  1234.0000     23.4191    198.9789     25.6832     80.8319
