~Version Information
VERS.                      2.0: CWLS Log ASCII Standard - VERSION 2.0
WRAP.                       NO: One line per depth step
~Well Information Block
STRT.FT               240.0000: 
STOP.FT               902.0000: 
STEP.FT                 0.1000: 
NULL.                -999.2500: 
COMP.          Pioneer Natural Resources: COMPANY
WELL.          Bienville 31-28: WELL
FLD.           Purgatoire River: FIELD
LOC.           1212' FNL & 2271' FEL: LOCATION
PROV.                 Colorado: PROVINCE
CNTY.               Las Animas: COUNTRY
SRVC.                Patterson: SERVICE COMPANY
DATE.          Mon Jan 16 13:39:21 2006: LOG DATE
UWI.           05 071 08666 00: UNIQUE WELL ID
~Curve Information Block
DEPT.FT            0 000 00 00: Depth
DCAL.in                       : CDL Caliper
RHOB.g/cc                     : CDL Bulk Density
RHOC.g/cc                     : CDL Density Correction
DPOR.pu                       : CDL Density Porosity
GR.GAPI                       : Gamma Ray
NPOR.pu                       : Neutron Porosity
~Parameter Information Block
~A  Depth       DCAL        RHOB        RHOC        DPOR         GR         NPOR    
# ...
   844.8000      7.8488      2.5576      0.1263      5.5985     95.6743     25.3655
   844.9000      7.8488      2.5598      0.0502      5.4684     95.7313     25.4768
   845.0000      7.8464      2.5647      0.0973      5.1682     92.0319     25.4207
   845.1000      7.8464      2.5649      0.0890      5.1590     86.7028     25.3233
   845.2000      7.8464      2.5521      0.0194      5.9320     82.1491     25.4207
   845.3000      7.8535      2.5254      0.0142      7.5534     81.1593     25.5227
   845.4000      7.8535      2.4905     -0.0184      9.6641     85.9010     25.3445
   845.5000      7.8551      2.4667     -0.0172     11.1082     93.0675     25.1034
   845.6000      7.8551      2.4679      0.0738     11.0379     94.5987     25.0260
   845.7000      7.8551      2.4951      0.1308      9.3884     89.4299     24.9005
   845.8000      7.8433      2.5502      0.1234      6.0482     83.2387     24.5507
   845.9000      7.8433      2.6269      0.2031      1.4010     79.7706     24.0032
   846.0000      7.7852      2.7009      0.2196     -3.0875     80.2991     23.3833
   846.1000      7.7852      2.7468      0.3409     -5.8687     82.0716     22.9087
   846.2000      7.7852      2.7578      0.2668     -6.5348     81.5932     22.8276
   846.3000      7.7167      2.7435      0.2312     -5.6671     79.6290     23.0632
   846.4000      7.7167      2.7070      0.2113     -3.4539     75.1422     23.0607
   846.5000      7.7102      2.6531      0.0972     -0.1871     68.4942     22.7186
   846.6000      7.7102      2.6004      0.1006      3.0073     67.3852     22.4681
   846.7000      7.7102      2.5729      0.0056      4.6709     73.0189     22.4296
   846.8000      7.7459      2.5873     -0.0158      3.8017     78.5430     22.2074
   846.9000      7.7459      2.6291      0.0256      1.2661     81.2481     21.7702
   847.0000      7.7957      2.6548      0.1335     -0.2898     78.7322     21.6913
   847.1000      7.7957      2.6370      0.0544      0.7856     71.4389     22.0044
   847.2000      7.7957      2.6042     -0.0007      2.7739     67.0398     22.0295
   847.3000      7.8211      2.5946     -0.0049      3.3567     68.4583     21.3850
   847.4000      7.8211      2.5997      0.0811      3.0463     71.2553     20.4613
   847.5000      7.8390      2.5924      0.0370      3.4910     74.0971     19.7501
   847.6000      7.8390      2.5700      0.0486      4.8466     78.2471     19.3700
   847.7000      7.8390      2.5499      0.0094      6.0653     81.6751     19.1894
   847.8000      7.8331      2.5509     -0.0006      6.0034     81.5371     18.9231
   847.9000      7.8331      2.5681      0.0775      4.9620     78.9773     18.5604
   848.0000      7.8424      2.5721      0.1492      4.7203     78.9810     18.3419
   848.1000      7.8424      2.5562      0.0776      5.6845     83.9543     18.3066
   848.2000      7.8424      2.5371      0.1702      6.8394     90.3873     18.4064
   848.3000      7.8313      2.5153      0.1410      8.1622     94.6548     18.5083
   848.4000      7.8313      2.4912      0.1507      9.6232     96.0821     18.4425
   848.5000      7.7764      2.4739      0.1460     10.6758     94.7061     18.3716
   848.6000      7.7764      2.4609      0.1382     11.4600     90.7548     18.4373
   848.7000      7.7764      2.4474      0.1382     12.2774     86.2883     18.5961
   848.8000      7.7240      2.4408      0.1256     12.6788     85.1050     18.9133
   848.9000      7.7240      2.4517      0.1443     12.0164     89.3490     19.2351
   849.0000      7.7534      2.4698      0.2039     10.9229     95.8483     19.4602
   849.1000      7.7534      2.4695      0.1974     10.9374    101.2020     19.7651
   849.2000      7.7534      2.4457      0.1360     12.3792    106.2959     20.0379
   849.3000      7.8077      2.4181      0.1069     14.0534    109.6959     20.0318
   849.4000      7.8077      2.4015      0.1072     15.0600    108.7080     19.8493
   849.5000      7.8310      2.3932      0.1215     15.5615    105.0393     19.8457
   849.6000      7.8310      2.3896      0.0856     15.7842    101.2139     20.2289
   849.7000      7.8310      2.3918      0.0746     15.6463     99.2545     20.7595
   849.8000      7.8455      2.3957      0.0473     15.4098     98.0457     21.0593
   849.9000      7.8455      2.3935      0.0584     15.5465     94.6906     21.1168
   850.0000      7.8454      2.3780      0.1022     16.4839     92.7371     21.0642
   850.1000      7.8454      2.3541      0.0504     17.9359     95.3278     21.1607
   850.2000      7.8454      2.3431      0.0369     18.5972    100.1701     21.4914
   850.3000      7.8535      2.3522      0.0513     18.0506    102.9553     21.6769
   850.4000      7.8535      2.3611      0.0692     17.5085    100.1137     21.5416
   850.5000      7.8490      2.3582      0.0141     17.6862     95.4971     21.3378
   850.6000      7.8490      2.3491      0.0569     18.2387     96.4500     21.2500
   850.7000      7.8490      2.3341      0.0542     19.1435     99.9210     21.0649
   850.8000      7.8453      2.3179     -0.0236     20.1278    100.2812     20.7027
   850.9000      7.8453      2.3121     -0.0296     20.4814     99.7261     20.4865
   851.0000      7.8481      2.3187      0.0203     20.0777     99.5133     20.7415
   851.1000      7.8481      2.3364      0.0279     19.0065     98.1965     21.2503
   851.2000      7.8481      2.3626      0.0405     17.4154     96.9239     21.3938
   851.3000      7.8439      2.3825      0.0857     16.2111     97.2774     21.1959
   851.4000      7.8439      2.3807      0.0312     16.3211     98.7432     21.1792
   851.5000      7.8435      2.3657      0.0423     17.2320     99.4349     21.4592
   851.6000      7.8435      2.3567      0.0631     17.7746     97.5559     21.6914
   851.7000      7.8435      2.3683      0.0005     17.0713     93.9727     21.7122
   851.8000      7.8403      2.4030      0.0372     14.9685     91.3966     21.7032
   851.9000      7.8403      2.4378      0.0532     12.8602     91.1371     21.6822
   852.0000      7.8542      2.4512      0.0776     12.0498     91.5992     21.6995
   852.1000      7.8542      2.4595     -0.0087     11.5439     90.3139     21.8484
   852.2000      7.8542      2.4867      0.0294      9.8952     87.5361     21.9071
   852.3000      7.8714      2.5231      0.0655      7.6922     87.4781     21.7900
   852.4000      7.8714      2.5476      0.0561      6.2067     91.5659     21.7157
   852.5000      7.8481      2.5545      0.1006      5.7904     95.1662     21.7244
   852.6000      7.8481      2.5443      0.1007      6.4052     96.0613     21.7074
   852.7000      7.8481      2.5216      0.0490      7.7835     96.8741     21.6644
   852.8000      7.8411      2.4998     -0.0009      9.1001     99.4417     21.5963
   852.9000      7.8411      2.4884     -0.0029      9.7939    102.0305     21.4978
   853.0000      7.8516      2.4799      0.0332     10.3076     99.7146     21.5895
   853.1000      7.8516      2.4683      0.0034     11.0106     92.5754     21.9097
   853.2000      7.8516      2.4550      0.0352     11.8210     86.7400     21.9298
   853.3000      7.8411      2.4352      0.0289     13.0166     84.2803     21.5536
   853.4000      7.8411      2.4137     -0.0386     14.3211     83.8304     21.2356
   853.5000      7.8374      2.4000      0.0518     15.1532     85.9735     21.0963
   853.6000      7.8374      2.3888      0.0569     15.8276     90.9198     21.2007
   853.7000      7.8374      2.3760      0.0558     16.6036     97.0103     21.4905
   853.8000      7.8399      2.3677      0.0162     17.1098    101.9025     21.4074
   853.9000      7.8399      2.3762      0.0288     16.5926    102.1296     20.6682
   854.0000      7.8500      2.4021      0.0337     15.0269     96.5970     19.8969
   854.1000      7.8500      2.4192      0.0888     13.9859     88.5444     19.8185
   854.2000      7.8500      2.4039      0.0552     14.9164     83.7628     20.2049
   854.3000      7.8470      2.3677     -0.0031     17.1086     82.9253     20.3799
