~Version Information
VERS.                      2.0: CWLS Log ASCII Standard - VERSION 2.0
WRAP.                       NO: One line per depth step
~Well Information Block
STRT.FT               390.0000: 
STOP.FT               825.0000: 
STEP.FT                 0.1000: 
NULL.                -999.2500: 
COMP.          Pioneer Natural Resources: COMPANY
WELL.             Veedol 34-28: WELL
FLD.           Purgatoire River: FIELD
LOC.           357' FSL & 2520' FEL: LOCATION
PROV.                 Colorado: PROVINCE
CNTY.               Las Animas: COUNTRY
SRVC.                Patterson: SERVICE COMPANY
DATE.          Thu Dec 22 14:38:20 2005: LOG DATE
UWI.           05 071 08628 00: UNIQUE WELL ID
~Curve Information Block
DEPT.FT            0 000 00 00: Depth
DCAL.in                       : CDL Caliper
RHOB.g/cc                     : CDL Bulk Density
RHOC.g/cc                     : CDL Density Correction
DPOR.pu                       : CDL Density Porosity
GR.GAPI                       : Gamma Ray
NPOR.pu                       : Neutron Porosity
~Parameter Information Block
~A  Depth       DCAL        RHOB        RHOC        DPOR         GR         NPOR    
# ...
   812.4000      7.8520      2.5455      0.0946      6.3332   -999.2500   -999.2500
   812.5000      7.8521      2.5411      0.0465      6.6010   -999.2500   -999.2500
   812.6000      7.8521      2.5495      0.0533      6.0895   -999.2500   -999.2500
   812.7000      7.8521      2.5786      0.1084      4.3275   -999.2500   -999.2500
   812.8000      7.8509      2.5987      0.1468      3.1103   -999.2500   -999.2500
   812.9000      7.8509      2.5906      0.1202      3.6005   -999.2500   -999.2500
   813.0000      7.8504      2.5625      0.0898      5.3042   -999.2500   -999.2500
   813.1000      7.8504      2.5288      0.0516      7.3484   -999.2500   -999.2500
   813.2000      7.8504      2.5056      0.0135      8.7520   -999.2500   -999.2500
   813.3000      7.8500      2.5067     -0.0088      8.6859   -999.2500   -999.2500
   813.4000      7.8500      2.5280      0.0061      7.3957   -999.2500   -999.2500
   813.5000      7.8452      2.5481      0.0639      6.1729   -999.2500   -999.2500
   813.6000      7.8452      2.5572      0.0520      5.6270   -999.2500   -999.2500
   813.7000      7.8452      2.5665      0.0623      5.0619   -999.2500   -999.2500
   813.8000      7.8357      2.5848      0.0791      3.9525   -999.2500   -999.2500
   813.9000      7.8357      2.6088      0.0976      2.4950   -999.2500   -999.2500
   814.0000      7.8263      2.6293      0.1151      1.2543   -999.2500   -999.2500
   814.1000      7.8263      2.6371      0.1167      0.7803   -999.2500   -999.2500
   814.2000      7.8263      2.6316      0.1439      1.1166   -999.2500   -999.2500
   814.3000      7.8213      2.6216      0.0790      1.7198   -999.2500   -999.2500
   814.4000      7.8213      2.6152      0.0777      2.1115   -999.2500   -999.2500
   814.5000      7.8235      2.6071      0.0716      2.6024   -999.2500   -999.2500
   814.6000      7.8235      2.5917      0.0428      3.5305   -999.2500   -999.2500
   814.7000      7.8235      2.5716      0.0406      4.7495   -999.2500   -999.2500
   814.8000      7.8266      2.5526      0.0215      5.9049   -999.2500   -999.2500
   814.9000      7.8266      2.5403      0.0036      6.6466   -999.2500   -999.2500
   815.0000      7.8281      2.5353     -0.0105      6.9537   -999.2500   -999.2500
   815.1000      7.8281      2.5388      0.0003      6.7370   -999.2500   -999.2500
   815.2000      7.8281      2.5531      0.0322      5.8726   -999.2500   -999.2500
   815.3000      7.8286      2.5698      0.0268      4.8622   -999.2500   -999.2500
   815.4000      7.8286      2.5753      0.0439      4.5285   -999.2500   -999.2500
   815.5000      7.8274      2.5703      0.0229      4.8333   -999.2500   -999.2500
   815.6000      7.8274      2.5687      0.0711      4.9298   -999.2500   -999.2500
   815.7000      7.8274      2.5731      0.0580      4.6616   -999.2500   -999.2500
   815.8000      7.8255      2.5772      0.0594      4.4104   -999.2500   -999.2500
   815.9000      7.8255      2.5763      0.0716      4.4650   -999.2500   -999.2500
   816.0000      7.8265      2.5679      0.0443      4.9737   -999.2500   -999.2500
   816.1000      7.8265      2.5538      0.0498      5.8287   -999.2500   -999.2500
   816.2000      7.8265      2.5377      0.0329      6.8086   -999.2500   -999.2500
   816.3000      7.8290      2.5227      0.0342      7.7127   -999.2500   -999.2500
   816.4000      7.8290      2.5102      0.0308      8.4738   -999.2500   -999.2500
   816.5000      7.8293      2.5012      0.0274      9.0155   -999.2500   -999.2500
   816.6000      7.8293      2.4993      0.0048      9.1348   -999.2500   -999.2500
   816.7000      7.8293      2.4989      0.0497      9.1548   -999.2500   -999.2500
   816.8000      7.8287      2.4896      0.0261      9.7196   -999.2500   -999.2500
   816.9000      7.8287      2.4789      0.0251     10.3686   -999.2500   -999.2500
   817.0000      7.8284      2.4842      0.0140     10.0494   -999.2500   -999.2500
   817.1000      7.8284      2.5045      0.0886      8.8181   -999.2500   -999.2500
   817.2000      7.8284      2.5265      0.0599      7.4822   -999.2500   -999.2500
   817.3000      7.8286      2.5417      0.0892      6.5620   -999.2500   -999.2500
   817.4000      7.8286      2.5403      0.0822      6.6501   -999.2500   -999.2500
   817.5000      7.8284      2.5187      0.0721      7.9594   -999.2500   -999.2500
   817.6000      7.8284      2.4911      0.0275      9.6273   -999.2500   -999.2500
   817.7000      7.8284      2.4771      0.0154     10.4806   -999.2500   -999.2500
   817.8000      7.8282      2.4795      0.0391     10.3361   -999.2500   -999.2500
   817.9000      7.8282      2.4807      0.0672     10.2584   -999.2500   -999.2500
   818.0000      7.8288      2.4746     -0.0154     10.6316   -999.2500   -999.2500
   818.1000      7.8288      2.4810      0.0114     10.2449   -999.2500   -999.2500
   818.2000      7.8288      2.5047      0.0356      8.8057   -999.2500   -999.2500
   818.3000      7.8284      2.5269      0.0613      7.4610   -999.2500   -999.2500
   818.4000      7.8284      2.5461      0.0079      6.2955   -999.2500   -999.2500
   818.5000      7.8182      2.5717      0.0650      4.7452   -999.2500   -999.2500
   818.6000      7.8182      2.5915      0.0830      3.5482   -999.2500   -999.2500
   818.7000      7.8182      2.5955      0.0400      3.3030   -999.2500   -999.2500
   818.8000      7.7976      2.5912      0.0519      3.5613   -999.2500   -999.2500
   818.9000      7.7976      2.5813      0.0775      4.1637   -999.2500   -999.2500
   819.0000      7.7869      2.5643      0.0705      5.1921   -999.2500   -999.2500
   819.1000      7.7869      2.5498      0.0342      6.0739   -999.2500   -999.2500
   819.2000      7.7869      2.5447      0.0267      6.3807   -999.2500   -999.2500
   819.3000      7.7868      2.5489      0.0511      6.1256   -999.2500   -999.2500
   819.4000      7.7868      2.5610      0.0722      5.3949   -999.2500   -999.2500
   819.5000      7.7833      2.5654      0.0915      5.1276   -999.2500   -999.2500
   819.6000      7.7833      2.5493      0.0407      6.1012   -999.2500   -999.2500
   819.7000      7.7833      2.5254      0.0094      7.5544   -999.2500   -999.2500
   819.8000      7.7744      2.5090      0.0149      8.5456   -999.2500   -999.2500
   819.9000      7.7744      2.5064      0.0359      8.7021   -999.2500   -999.2500
   820.0000      7.7645      2.5196      0.0331      7.9011   -999.2500   -999.2500
   820.1000      7.7645      2.5384      0.0853      6.7615   -999.2500   -999.2500
   820.2000      7.7645      2.5483      0.0666      6.1660   -999.2500   -999.2500
   820.3000      7.7593      2.5519      0.0729      5.9453   -999.2500   -999.2500
   820.4000      7.7593      2.5564      0.0918      5.6744   -999.2500   -999.2500
   820.5000      7.7584      2.5558      0.0783      5.7079   -999.2500   -999.2500
   820.6000      7.7584      2.5461      0.0608      6.3000   -999.2500   -999.2500
   820.7000      7.7584      2.5331      0.0225      7.0850   -999.2500   -999.2500
   820.8000      7.7580      2.5243      0.0297      7.6190   -999.2500   -999.2500
   820.9000      7.7580      2.5210      0.0297      7.8177   -999.2500   -999.2500
   821.0000      7.7547      2.5211      0.0253      7.8130   -999.2500   -999.2500
   821.1000      7.7547      2.5210      0.0133      7.8152   -999.2500   -999.2500
   821.2000      7.7547      2.5188      0.0154      7.9541   -999.2500   -999.2500
   821.3000      7.7479      2.5171      0.0232      8.0567   -999.2500   -999.2500
   821.4000      7.7479      2.5145      0.0494      8.2146   -999.2500   -999.2500
   821.5000      7.7382      2.5041      0.0366      8.8406   -999.2500   -999.2500
   821.6000      7.7382      2.4916      0.0199      9.5982   -999.2500   -999.2500
   821.7000      7.7382      2.4871      0.0509      9.8699   -999.2500   -999.2500
   821.8000      7.7259      2.4841      0.1142     10.0522   -999.2500   -999.2500
   821.9000      7.7259      2.4799      0.0010     10.3076   -999.2500   -999.2500
