~Version Information
VERS.                                  2.0 : CWLS LAS VERSION
WRAP.                                   NO : WRAPING MODE
SWARE .                  MController 2.5.1 : SOFTWARE VERSION
~Well Information
WELL.                  Horesfeathers 24-34 : WELL
COMP.  Pioneer Natural Resources USA, Inc. : COMPANY
FLD.                      Purgatoire River : FIELD
LOC.                      SE/SW 34-32S-67W : LOCATION
DATE.                02/03/2006-02/05/2006 : DATE(S) LOGGED
SRVC.                  Entrada GeoSciences : SERVICE COMPANY
STAT.                             Colorado : STATE
CNTY.                           Las Animas : COUNTY
CTRY.                        United States : COUNTRY
API.                          05-071-xxxxx : API NUMBER
STRT.FT                             514.00 : START DEPTH
STOP.FT                            2575.00 : STOP DEPTH
STEP.FT                               1.00 : DEPTH INCREMENT
NULL.                                -9999 : NULL VALUE
~Curve information
DEPTH.FT                                   :
ROP.MIN/FT                                 :
GAS.UNITS                                  :
~ASCII Log data
# ...
     2368.00         0.95        458.4
     2369.00         0.73        466.6
     2370.00         0.90        867.6
     2371.00         1.22        865.3
     2372.00         0.77        860.0
     2373.00         0.67        815.8
     2374.00         0.40        761.3
     2375.00         0.37        741.6
     2376.00         0.63        821.6
     2377.00         0.45        226.4
     2378.00         0.43        266.2
     2379.00         0.50        325.3
     2380.00         0.47        378.4
     2381.00         0.53        386.0
     2382.00         0.30        399.3
     2383.00         0.33        446.5
     2384.00         0.33        844.8
     2385.00         0.35        880.2
     2386.00         0.30        883.1
     2387.00         0.37        875.5
     2388.00         0.47        814.9
     2389.00         0.57        710.3
     2390.00         0.53        400.0
     2391.00         0.77        145.3
     2392.00         0.63         60.8
     2393.00         0.60         23.7
     2394.00         0.68          8.7
     2395.00         0.50         10.0
     2396.00         0.50         14.9
     2397.00         0.47         18.4
     2398.00         0.37         29.5
     2399.00         0.37         76.9
     2400.00         0.43        128.6
     2401.00         0.55        420.0
     2402.00         0.40         58.7
     2403.00         0.40         89.7
     2404.00         0.43        133.6
     2405.00         0.37        303.9
     2406.00         0.50        400.0
     2407.00         0.53        818.7
     2408.00         0.42        795.8
     2409.00         0.47        727.3
     2410.00         0.30        400.0
     2411.00         0.27        400.0
     2412.00         0.33        184.6
     2413.00         0.27        143.8
     2414.00         0.27        110.1
     2415.00         0.17        102.8
     2416.00         0.17         94.1
     2417.00         0.23         91.8
     2418.00         0.27         79.0
     2419.00         0.27         56.9
     2420.00         0.35         51.8
     2421.00         0.43         48.2
     2422.00         0.50         29.8
     2423.00         0.47         23.9
     2424.00         0.43          9.6
     2425.00         0.40          2.1
     2426.00         0.47          1.0
     2427.00         0.75          4.4
     2428.00         0.70         15.4
     2429.00         0.73         55.1
     2430.00         0.53        187.3
     2431.00         0.67        763.3
     2432.00         0.75        336.8
     2433.00         0.50       1205.7
     2434.00         0.33       1538.8
     2435.00         0.23       1576.9
     2436.00         0.27       1571.0
     2437.00         0.23       1524.2
     2438.00         0.27       1231.8
     2439.00         0.27       1063.0
     2440.00         0.27        931.2
     2441.00         0.27        914.5
     2442.00         0.23        714.7
     2443.00         0.20        639.1
     2444.00         0.32        555.9
     2445.00         0.37        501.7
     2446.00         0.37        466.5
     2447.00         0.33        426.1
     2448.00         0.33        400.0
     2449.00         0.33        195.2
     2450.00         0.47        319.3
     2451.00         0.77        353.0
     2452.00         0.40        338.1
     2453.00         0.37        313.7
     2454.00         0.33        229.9
     2455.00         0.33        188.2
     2456.00         0.52        172.6
     2457.00         0.50        118.6
     2458.00         0.50        152.1
     2459.00         0.40        200.2
     2460.00         0.33        255.5
     2461.00         0.42        256.3
     2462.00         0.43        248.8
     2463.00         0.27        259.8
     2464.00         0.27        381.4
     2465.00         0.37        418.2
     2466.00         0.30       1286.5
     2467.00         0.35       1362.6
     2468.00         0.37       1427.4
     2469.00         0.33       1460.9
     2470.00         0.33       1313.6
     2471.00         0.40       1263.3
     2472.00         0.50        718.2
     2473.00         0.40        546.2
     2474.00         0.42        367.0
     2475.00         0.37        249.2
     2476.00         0.63        191.0
     2477.00         0.47        140.9
     2478.00         0.60         99.3
     2479.00         0.53         88.9
     2480.00         0.68         58.4
     2481.00         0.43         17.4
     2482.00         0.23         15.3
     2483.00         0.40         18.5
     2484.00         0.37         23.6
     2485.00         0.33         30.2
     2486.00         0.20         92.0
     2487.00         0.25         32.1
     2488.00         0.23         31.6
     2489.00         0.30         23.5
     2490.00         0.33         21.7
     2491.00         0.33         20.9
     2492.00         0.23         18.4
     2493.00         0.33         16.8
     2494.00         0.27         16.9
     2495.00         0.27         14.9
     2496.00         0.23         10.7
     2497.00         0.20          8.6
     2498.00         0.27          7.6
     2499.00         0.28          7.1
     2500.00         0.23          3.3
     2501.00         0.23          3.3
     2502.00         0.27          3.1
     2503.00         0.17          2.6
     2504.00         0.17          1.9
     2505.00         0.27          1.8
     2506.00         0.33          2.1
     2507.00         0.33          1.3
     2508.00         0.40          1.1
     2509.00         0.40          1.2
     2510.00         0.27          6.6
     2511.00         0.52          5.7
     2512.00         0.57          5.0
     2513.00         0.50          5.6
     2514.00         0.37          5.9
     2515.00         0.30          5.2
     2516.00         0.27          5.7
     2517.00         0.47         14.3
     2518.00         0.48         47.4
     2519.00         0.50         41.3
     2520.00         0.33         28.7
     2521.00         0.50         46.6
     2522.00         0.37         63.8
     2523.00         0.33         75.4
     2524.00         0.23         79.2
     2525.00         0.17         79.2
     2526.00         0.30         94.4
     2527.00         0.40         95.0
     2528.00         0.32         92.8
     2529.00         0.37         84.3
     2530.00         0.40         75.0
     2531.00         0.50         59.7
     2532.00         0.43         97.4
     2533.00         0.37        130.3
     2534.00         0.23        160.3
     2535.00         0.23        250.0
     2536.00         0.23        164.6
     2537.00         0.30        121.7
     2538.00         0.42         99.6
     2539.00         0.40         72.2
     2540.00         0.43         52.9
     2541.00         0.13         31.1
     2542.00         0.78         26.5
     2543.00         0.77         19.5
     2544.00         0.63         20.9
     2545.00         0.60         12.7
     2546.00         0.78          6.9
     2547.00         0.67          5.6
     2548.00         0.53          3.7
     2549.00         0.63          8.8
     2550.00         0.77         13.1
     2551.00         0.43         19.4
     2552.00         0.48         67.5
     2553.00         0.63        474.6
     2554.00         0.47        291.2
     2555.00         0.33        369.8
     2556.00         0.43        440.2
     2557.00         0.50        888.4
     2558.00         0.60        963.1
     2559.00         0.58        960.2
     2560.00         0.47        951.1
     2561.00         0.43        894.3
     2562.00         0.30        790.0
     2563.00         0.27        710.0
     2564.00         0.27        634.1
     2565.00         0.30        662.5
     2566.00         0.33        827.8
     2567.00         0.27        902.5
     2568.00         0.27        949.7
     2569.00         0.28        945.8
     2570.00         0.30        945.8
     2571.00         0.37        922.7
     2572.00         0.40        862.6
     2573.00         0.40        814.0
