~Version Information
VERS.                      2.0: CWLS Log ASCII Standard - VERSION 2.0
WRAP.                       NO: One line per depth step
~Well Information Block
STRT.FT                -8.5000: 
STOP.FT              2591.0000: 
STEP.FT                 0.2500: 
NULL.                -999.2500: 
COMP.          Pioneer Natural Resources: COMPANY
WELL.             Aviator 12-4: WELL
FLD.           Purgatorie River: FIELD
LOC.           1969' FNL & 732' FWL--: LOCATION
CNTY.               Las Animas: COUNTY
SRVC.          Patterson Wireline: SERVICE COMPANY
DATE.          Wed Apr 19 09:09:26 2006: LOG DATE
UWI.           05 071 08714 00: UNIQUE WELL ID
STAT.                       CO: STATE
~Curve Information Block
DEPT.FT            0 000 00 00: Depth
CCL.                          : Casing Collar Locator
TT3.usec                      : CBL 3' Travel Time
AMP3.mV                       : CBL 3' Amplitude
GR.GAPI                       : Gamma Ray
~Parameter Information Block
~A  Depth       CCL         TT3         AMP3         GR     
# ...
  1532.5000      0.0000    688.5912      4.0366    119.8862
  1532.7500      0.0000    699.2710      3.3790    118.4134
  1533.0000      0.0000    706.1453      2.8090    114.9110
  1533.2500      0.0000    710.6724      2.3685    109.1885
  1533.5000      0.0000    714.4532      2.0711    101.1400
  1533.7500      0.0000    717.6948      1.9024     92.1716
  1534.0000      0.0000    718.9822      1.8348     85.0806
  1534.2500      0.0000    716.9453      1.8455     82.1627
  1534.5000      0.0000    712.0658      1.9212     83.7866
  1534.7500      0.0000    706.5714      2.0529     88.7697
  1535.0000      0.0000    702.6161      2.2308     95.4457
  1535.2500      0.0000    700.9761      2.4501    102.1820
  1535.5000      0.0000    701.2811      2.7222    107.6937
  1535.7500      0.0000    702.0447      3.0727    111.8356
  1536.0000      0.0000    699.7537      3.5195    116.1693
  1536.2500      0.0000    689.5044      4.0505    122.9788
  1536.5000      0.0000    668.9006      4.6232    133.2025
  1536.7500      0.0000    641.5460      5.1832    145.3771
  1537.0000      0.0000    614.9413      5.6804    156.7105
  1537.2500      0.0000    594.1604      6.0780    165.1886
  1537.5000      0.0000    578.0786      6.3601    170.9843
  1537.7500      0.0000    561.5819      6.5381    175.9814
  1538.0000      0.0000    540.7999      6.6437    181.5452
  1538.2500      0.0000    516.7626      6.7096    186.5255
  1538.5000      0.0000    495.3181      6.7540    187.7597
  1538.7500      0.0000    483.9059      6.7836    182.8816
  1539.0000      0.0000    487.3101      6.8018    172.6055
  1539.2500      0.0000    504.8320      6.8096    160.2601
  1539.5000      0.0000    530.8200      6.7991    149.1540
  1539.7500      0.0000    558.3638      6.7560    140.2542
  1540.0000      0.0000    583.0638      6.6742    132.4440
  1540.2500      0.0000    603.7538      6.5716    124.9906
  1540.5000      0.0000    620.1450      6.4892    118.9698
  1540.7500      0.0000    629.6996      6.4688    115.6179
  1541.0000      0.0000    626.4471      6.5220    113.8648
  1541.2500      0.0000    603.9874      6.6187    110.4697
  1541.5000      0.0000    561.7024      6.7057    102.8035
  1541.7500      0.0000    508.3870      6.7374     91.1189
  1542.0000      0.0000    458.5985      6.6903     78.1280
  1542.2500      0.0000    425.1263      6.5589     66.8049
  1542.5000      0.0000    413.7683      6.3528     58.5761
  1542.7500      0.0000    421.3886      6.1031     53.0629
  1543.0000      0.0000    436.4729      5.8626     49.2217
  1543.2500      0.0000    444.9784      5.6810     46.7507
  1543.5000      0.0000    440.9026      5.5750     46.3143
  1543.7500      0.0000    432.2648      5.5231     48.3920
  1544.0000      0.0000    435.4124      5.4862     52.2266
  1544.2500      0.0000    462.5781      5.4313     56.1359
  1544.5000      0.0000    512.2094      5.3470     58.7954
  1544.7500      0.0000    567.4600      5.2525     60.0719
  1545.0000      0.0000    604.4772      5.1933     60.6416
  1545.2500      0.0000    606.7951      5.2119     60.9969
  1545.5000      0.0000    576.4667      5.3116     61.0704
  1545.7500      0.0000    533.0850      5.4471     60.8204
  1546.0000      0.0000    500.2816      5.5529     60.8814
  1546.2500      0.0000    490.2691      5.5879     62.4076
  1546.5000      0.0000    499.6140      5.5596     66.2943
  1546.7500      0.0000    517.0042      5.5045     72.4963
  1547.0000      0.0000    531.2790      5.4462     79.9136
  1547.2500      0.0000    534.1478      5.3873     86.9012
  1547.5000      0.0000    523.4429      5.3421     92.0640
  1547.7500      0.0000    507.8550      5.3488     94.8803
  1548.0000      0.0000    503.6799      5.4334     95.9648
  1548.2500      0.0000    521.3121      5.5797     96.8738
  1548.5000      0.0000    554.5801      5.7450     99.3346
  1548.7500     -2.0000    585.2610      5.8917    104.1271
  1549.0000      0.0000    598.8907      6.0001    110.4754
  1549.2500      0.0000    596.6183      6.0659    116.8972
  1549.5000      0.0000    592.5546      6.0933    122.8991
  1549.7500      0.0000    599.6377      6.0859    129.3692
  1550.0000      0.0000    618.2358      6.0504    137.0094
  1550.2500      0.0000    638.5560      6.0203    144.9513
  1550.5000      0.0000    651.5898      6.0482    151.2938
  1550.7500      0.0000    655.1829      6.1461    154.4961
  1551.0000      0.0000    652.7867      6.2477    154.1539
  1551.2500      0.0000    650.7645      6.2604    151.2864
  1551.5000      0.0000    655.2115      6.1411    147.9837
  1551.7500      0.0000    667.6385      5.9147    145.7902
  1552.0000      0.0000    683.7556      5.6428    144.0714
  1552.2500      0.0000    697.6005      5.3884    140.4599
  1552.5000      0.0000    706.1597      5.1937    133.0810
  1552.7500      0.0000    709.9965      5.0696    122.2695
  1553.0000      0.0000    711.0743      5.0012    110.4824
  1553.2500      0.0000    710.9116      4.9664    100.9178
  1553.5000      0.0000    710.0382      4.9530     95.7873
  1553.7500      0.0000    708.1119      4.9615     95.2618
  1554.0000      0.0000    704.1135      4.9996     97.9101
  1554.2500      0.0000    696.5452      5.0779    102.0656
  1554.5000      0.0000    683.8604      5.2093    106.5533
  1554.7500      0.0000    665.4319      5.4010    110.3708
  1555.0000      0.0000    642.6108      5.6412    112.4166
  1555.2500      0.0000    618.5084      5.8942    112.0981
  1555.5000      0.0000    596.1967      6.1146    110.0832
  1555.7500      0.0000    577.2566      6.2716    107.9300
  1556.0000      0.0000    562.1500      6.3628    106.7821
  1556.2500      0.0000    551.2850      6.4079    106.7614
  1556.5000      0.0000    545.1768      6.4310    107.6048
  1556.7500      0.0000    543.7932      6.4450    109.2331
  1557.0000      0.0000    546.0884      6.4472    111.4477
  1557.2500      0.0000    550.4810      6.4250    113.6833
  1557.5000      0.0000    556.1429      6.3664    115.3576
  1557.7500      0.0000    563.7066      6.2695    116.1309
  1558.0000      0.0000    574.2949      6.1459    115.8336
  1558.2500      0.0000    588.2869      6.0090    114.7519
  1558.5000      0.0000    605.5488      5.8605    114.0155
  1558.7500      0.0000    625.9281      5.6902    114.8680
  1559.0000      0.0000    648.1772      5.4916    117.1281
  1559.2500      0.0000    668.8784      5.2720    118.9405
  1559.5000      0.0000    684.0262      5.0484    118.2787
  1559.7500      0.0000    692.0698      4.8371    114.4009
  1560.0000      0.0000    694.7488      4.6476    108.2207
  1560.2500      0.0000    695.0829      4.4830    101.9101
  1560.5000      0.0000    695.3306      4.3438     97.7013
  1560.7500      0.0000    696.5705      4.2291     96.2663
  1561.0000      0.0000    698.9183      4.1353     96.2457
  1561.2500      0.0000    701.6259      4.0535     95.5977
  1561.5000      0.0000    703.5142      3.9722     93.3239
  1561.7500      0.0000    703.5462      3.8818     89.9723
  1562.0000      0.0000    700.9083      3.7791     86.7750
  1562.2500      0.0000    694.9702      3.6680     84.5555
  1562.5000      0.0000    686.0126      3.5563     83.4145
  1562.7500      0.0000    676.3643      3.4520     83.0863
  1563.0000      0.0000    670.1865      3.3605     83.2365
  1563.2500      0.0000    670.9415      3.2876     83.5289
  1563.5000      0.0000    678.5009      3.2435     83.6076
  1563.7500      0.0000    689.1563      3.2422     83.0084
  1564.0000      0.0000    698.7624      3.2902     81.2138
  1564.2500      0.0000    705.4847      3.3748     78.0996
  1564.5000      0.0000    709.6502      3.4628     74.3890
  1564.7500      0.0000    711.9932      3.5142     71.6119
  1565.0000      0.0000    712.7479      3.5019     71.5570
  1565.2500      0.0000    712.0819      3.4259     75.1769
  1565.5000      0.0000    710.6563      3.3108     81.5099
  1565.7500      0.0000    709.4039      3.1880     88.0748
