~Version Information
 VERS.                                  2.0 : CWLS LAS VERSION
 WRAP.                                   NO : WRAPING MODE
 SWARE .                 MController 2.5.0N : SOFTWARE VERSION
~Well Information
 WELL.                        Cayenne 23-23 : WELL
 COMP.    Pioneer Natural Resources USA Inc : COMPANY
 FLD.                      Purgatoire River : FIELD
 LOC.                 NE/SW SEC23 T32S R66W : LOCATION
 DATE.                          08/16-17/05 : DATE(S) LOGGED
 SRVC.       Blanco Geological Services LLC : SERVICE COMPANY
 STAT.                             Colorado : STATE
 CNTY.                           Las Animas : COUNTY
 CTRY.                                  USA : COUNTRY
 API.                       05-071-08476-00 : API NUMBER
 STRT.FT                             901.00 : START DEPTH
 STOP.FT                            2365.00 : STOP DEPTH
 STEP.FT                               1.00 : DEPTH INCREMENT
 NULL.                                -9999 : NULL VALUE
~Curve information
 DEPTH.FT                                   :
 ROP.MIN/FT                                 :
 GAS.UNITS                                  :
~ASCII Log data
# ...
      1701.0         0.20        477.1 
      1702.0         0.20        477.1 
      1703.0         0.37        480.3 
      1704.0         0.30        481.3 
      1705.0         0.68        505.5 
      1706.0         2.43        518.0 
      1707.0         0.68        200.0 
      1708.0         0.37        198.0 
      1709.0         0.40        160.6 
      1710.0         0.43        106.7 
      1711.0         0.40        124.6 
      1712.0         0.33        129.6 
      1713.0         0.30        127.6 
      1714.0         0.27        114.8 
      1715.0         0.27        100.8 
      1716.0         0.30         87.8 
      1717.0         0.28         78.0 
      1718.0         0.27         72.8 
      1719.0         0.27         71.8 
      1720.0         0.23         71.3 
      1721.0         0.23         71.0 
      1722.0         0.17         70.1 
      1723.0         0.27         68.9 
      1724.0         0.30         67.4 
      1725.0         0.27         65.9 
      1726.0         0.40         65.3 
      1727.0         0.23         65.0 
      1728.0         0.23         65.0 
      1729.0         0.30         65.5 
      1730.0         0.42         65.6 
      1731.0         0.37         64.9 
      1732.0         0.27         64.6 
      1733.0         0.20         64.7 
      1734.0         0.30         64.4 
      1735.0         0.97         70.2 
      1736.0         6.43       3100.0 
      1737.0         1.03       3159.3 
      1738.0         0.38        869.6 
      1739.0         0.30        592.8 
      1740.0         0.27        540.3 
      1741.0         0.30        533.5 
      1742.0         0.33        526.1 
      1743.0         0.30        482.3 
      1744.0         0.27        440.0 
      1745.0         0.27         12.7 
      1746.0         0.27          4.2 
      1747.0         0.27          1.8 
      1748.0         0.30          0.9 
      1749.0         0.32          0.6 
      1750.0         0.23          0.4 
      1751.0         0.23          0.7 
      1752.0         0.30          0.9 
      1753.0         0.27          0.5 
      1754.0         0.27          0.8 
      1755.0         0.27          0.5 
      1756.0         0.23          1.0 
      1757.0         0.13          0.5 
      1758.0         0.27          0.9 
      1759.0         0.27          0.9 
      1760.0         0.27          0.7 
      1761.0         0.27          1.2 
      1762.0         0.28          1.2 
      1763.0         0.23          1.0 
      1764.0         0.20          3.2 
      1765.0         0.23         32.2 
      1766.0         6.00       1705.6 
      1767.0         0.50       1487.7 
      1768.0         0.47        887.0 
      1769.0         0.47        627.6 
      1770.0         0.63        605.7 
      1771.0         0.37        600.2 
      1772.0         0.37        578.0 
      1773.0         0.33        555.4 
      1774.0         0.38        536.7 
      1775.0         0.57        534.5 
      1776.0         0.47        538.0 
      1777.0         0.43        539.0 
      1778.0         0.30        537.0 
      1779.0         0.40        535.1 
      1780.0         0.40        531.9 
      1781.0         0.30        532.5 
      1782.0         0.28        531.2 
      1783.0         0.27        531.2 
      1784.0         0.53        530.3 
      1785.0         0.53        530.6 
      1786.0         0.50        529.6 
      1787.0         0.53        529.6 
      1788.0         0.37        528.7 
      1789.0         0.43        528.3 
      1790.0         0.28        528.3 
      1791.0         0.20        526.4 
      1792.0         0.20        524.5 
      1793.0         0.13        525.8 
      1794.0         0.17        525.8 
      1795.0         0.23        525.8 
      1796.0         2.95        555.4 
      1797.0         0.80        313.8 
      1798.0         0.37        357.4 
      1799.0         0.20        349.8 
      1800.0         0.33        287.5 
      1801.0         0.47        165.9 
      1802.0         1.02         81.4 
      1803.0         0.80          1.2 
      1804.0         0.37          0.1 
      1805.0         0.30          0.2 
      1806.0         0.23          0.2 
      1807.0         0.30          0.0 
      1808.0         0.33          0.2 
      1809.0         0.52          0.2 
      1810.0         0.30          0.3 
      1811.0         0.37         27.0 
      1812.0         0.27         62.6 
      1813.0         0.30         74.0 
      1814.0         0.23         76.3 
      1815.0         0.27         77.2 
      1816.0         0.27         77.1 
      1817.0         0.27         76.9 
      1818.0         0.27         76.0 
      1819.0         0.23         74.5 
      1820.0         0.27         73.6 
      1821.0         0.32         72.7 
      1822.0         0.27         71.9 
      1823.0         0.27         70.5 
      1824.0         0.30         71.8 
      1825.0         0.17         73.4 
      1826.0         1.93         89.7 
      1827.0         0.68         53.0 
      1828.0         0.63        141.8 
      1829.0         0.40        229.0 
      1830.0         0.47        343.5 
      1831.0         0.40        382.1 
      1832.0         0.27        379.6 
      1833.0         0.27        351.9 
      1834.0         0.30        299.6 
      1835.0         0.22        237.9 
      1836.0         0.23        196.7 
      1837.0         0.27        148.5 
      1838.0         0.27        114.8 
      1839.0         0.23         95.7 
      1840.0         0.23         85.6 
      1841.0         0.23         79.7 
      1842.0         0.27         77.0 
      1843.0         0.23         76.9 
      1844.0         0.20         78.4 
      1845.0         0.17         79.8 
      1846.0         0.23         81.8 
      1847.0         0.20         82.9 
      1848.0         0.27         83.4 
      1849.0         0.17         83.4 
      1850.0         0.22         83.6 
      1851.0         0.20         83.9 
      1852.0         0.30         84.9 
      1853.0         0.23         85.4 
      1854.0         0.30         85.5 
      1855.0         0.20         84.9 
      1856.0         4.52       1373.0 
      1857.0         0.53       1389.4 
      1858.0         0.48       1181.6 
      1859.0         0.33        858.0 
      1860.0         0.30        732.3 
      1861.0         0.23        665.0 
      1862.0         0.20        625.0 
      1863.0         0.23        604.7 
      1864.0         0.20        578.9 
      1865.0         0.27        571.5 
      1866.0         0.23        555.7 
      1867.0         0.27        545.8 
      1868.0         0.27        544.5 
      1869.0         0.27        544.8 
      1870.0         0.27        545.8 
      1871.0         0.28        547.0 
      1872.0         0.23        546.7 
      1873.0         0.23        546.7 
      1874.0         0.27        546.7 
      1875.0         0.27        545.1 
      1876.0         0.27        545.8 
      1877.0         0.23        546.1 
      1878.0         0.27        548.7 
      1879.0         0.23        551.9 
      1880.0         0.23        554.1 
      1881.0         0.23        553.2 
      1882.0         0.30        555.1 
      1883.0         0.27        555.4 
      1884.0         0.22        554.1 
      1885.0         0.30        555.4 
      1886.0         4.88       1157.1 
      1887.0         0.53       1150.6 
      1888.0         0.50        969.2 
      1889.0         0.42        815.5 
      1890.0         0.40        789.7 
      1891.0         0.33        792.9 
      1892.0         0.33        772.9 
      1893.0         0.43        728.2 
      1894.0         0.33        675.3 
      1895.0         0.33        642.4 
      1896.0         0.33        627.0 
      1897.0         0.23        617.6 
      1898.0         0.27        616.6 
      1899.0         0.25        618.6 
      1900.0         0.27        617.0 
