~Version Information
VERS.                      2.0: CWLS Log ASCII Standard - VERSION 2.0
WRAP.                       NO: One line per depth step
~Well Information Block
STRT.FT               491.0000: 
STOP.FT              1909.5000: 
STEP.FT                 0.1000: 
NULL.                -999.2500: 
COMP.          Pioneer Natural Resources: COMPANY
WELL.            Corazon 13-10: WELL
FLD.           Purgatoire River: FIELD
LOC.           2510' FSL & 439' FWL: LOCATION
PROV.                 Colorado: PROVINCE
CNTY.               Las Animas: COUNTRY
SRVC.                Patterson: SERVICE COMPANY
DATE.          Thu Dec 01 07:28:46 2005: LOG DATE
UWI.           05 071 08613 00: UNIQUE WELL ID
~Curve Information Block
DEPT.FT            0 000 00 00: Depth
DCAL.in                       : CDL Caliper
RHOB.g/cc                     : CDL Bulk Density
RHOC.g/cc                     : CDL Density Correction
DPOR.pu                       : CDL Density Porosity
GR.GAPI                       : Gamma Ray
NPOR.pu                       : Neutron Porosity
~Parameter Information Block
~A  Depth       DCAL        RHOB        RHOC        DPOR         GR         NPOR    
# ...
  1239.8000      8.3048      2.5152     -0.0242      8.1685    128.4959     22.6720
  1239.9000      8.3048      2.5038      0.0192      8.8626    127.6362     22.0525
  1240.0000      8.3057      2.4834     -0.0012     10.0947    126.2979     21.8867
  1240.1000      8.3057      2.4581     -0.0629     11.6317    125.9044     22.9862
  1240.2000      8.3057      2.4386     -0.0380     12.8097    127.7973     24.1082
  1240.3000      8.3038      2.4197     -0.0353     13.9571    129.5616     24.1810
  1240.4000      8.3038      2.3871     -0.0704     15.9320    129.2922     24.7369
  1240.5000      8.3075      2.3237     -0.0333     19.7769    127.3781     26.8041
  1240.6000      8.3075      2.2205     -0.0886     26.0294    125.4039     28.5594
  1240.7000      8.3075      2.0940     -0.1025     33.6942    128.5611     28.4177
  1240.8000      8.3216      1.9704     -0.1458     41.1863    138.4251     27.4210
  1240.9000      8.3216      1.8635     -0.1572     47.6664    145.7913     26.9944
  1241.0000      8.3189      1.7667     -0.1208     53.5310    143.4382     27.4506
  1241.1000      8.3189      1.6792     -0.1534     58.8376    135.8630     28.4267
  1241.2000      8.3189      1.6318     -0.1638     61.7064    129.2470     29.5127
  1241.3000      8.3865      1.6540     -0.0637     60.3629    125.8038     30.3363
  1241.4000      8.3865      1.7305      0.1096     55.7285    127.0791     30.5679
  1241.5000      8.4188      1.8272      0.1260     49.8641    131.1538     30.2893
  1241.6000      8.4188      1.9247      0.1890     43.9602    131.9287     29.6234
  1241.7000      8.4188      2.0116      0.1795     38.6907    126.4201     28.7641
  1241.8000      8.4477      2.0988      0.1355     33.4070    119.0418     28.5728
  1241.9000      8.4477      2.2061      0.1493     26.9042    118.3487     29.6598
  1242.0000      8.5372      2.3203      0.1520     19.9828    125.4678     31.2366
  1242.1000      8.5372      2.4011      0.1241     15.0820    133.8947     32.0329
  1242.2000      8.5372      2.4241      0.0747     13.6896    141.5711     31.6044
  1242.3000      8.3623      2.4141      0.0182     14.2990    149.6326     30.4045
  1242.4000      8.3623      2.4109      0.0522     14.4928    156.1233     29.1647
  1242.5000      8.3314      2.4152      0.0181     14.2310    160.3908     28.4059
  1242.6000      8.3314      2.4041      0.0314     14.9043    163.3364     28.0052
  1242.7000      8.3314      2.3581      0.0152     17.6900    161.6609     27.3775
  1242.8000      8.3320      2.2771      0.0107     22.5996    154.7398     26.6927
  1242.9000      8.3320      2.1847      0.0029     28.2021    149.3908     26.5989
  1243.0000      8.3272      2.1079     -0.0169     32.8520    147.5070     27.0795
  1243.1000      8.3272      2.0613      0.0091     35.6770    146.7744     28.1277
  1243.2000      8.3272      2.0462      0.0493     36.5947    147.9898     29.6419
  1243.3000      8.3406      2.0481      0.1170     36.4797    147.9240     30.9491
  1243.4000      8.3406      2.0512      0.0902     36.2922    144.4221     31.7533
  1243.5000      8.3442      2.0712     -0.0052     35.0817    141.7979     31.8455
  1243.6000      8.3442      2.1315      0.1336     31.4256    142.0361     30.9227
  1243.7000      8.3442      2.2173      0.1945     26.2252    141.0836     29.5373
  1243.8000      8.3396      2.2985      0.1835     21.3057    135.3152     28.6078
  1243.9000      8.3396      2.3505      0.2028     18.1530    127.4641     28.2257
  1244.0000      8.3917      2.3689      0.0605     17.0365    123.2968     27.8954
  1244.1000      8.3917      2.3831      0.0253     16.1771    123.8411     27.5463
  1244.2000      8.3917      2.4084      0.0420     14.6404    123.5704     27.3349
  1244.3000      8.4483      2.4284      0.0760     13.4292    119.3228     26.8474
  1244.4000      8.4483      2.4334      0.0108     13.1296    116.6139     25.9162
  1244.5000      8.3289      2.4363      0.0038     12.9494    121.6265     24.8958
  1244.6000      8.3289      2.4537     -0.0031     11.8943    132.0040     24.1597
  1244.7000      8.3289      2.4915     -0.0246      9.6052    136.6279     23.3133
  1244.8000      8.3058      2.5394      0.0146      6.7027    130.8009     22.0229
  1244.9000      8.3058      2.5710      0.0581      4.7868    125.6960     21.1384
  1245.0000      8.2897      2.5759      0.0071      4.4892    128.7368     20.9475
  1245.1000      8.2897      2.5682      0.0420      4.9554    133.0788     21.1044
  1245.2000      8.2897      2.5543      0.0410      5.7970    133.5572     21.8036
  1245.3000      8.2844      2.5350      0.0548      6.9668    132.7767     22.4430
  1245.4000      8.2844      2.5165      0.0098      8.0899    130.4041     21.9474
  1245.5000      8.2805      2.5101     -0.0257      8.4798    126.0109     21.1004
  1245.6000      8.2805      2.5222     -0.0019      7.7462    122.4696     21.2828
  1245.7000      8.2805      2.5393      0.0417      6.7084    121.4491     22.4577
  1245.8000      8.2743      2.5493      0.0205      6.1005    123.6299     23.1167
  1245.9000      8.2743      2.5554      0.0314      5.7313    127.2901     21.8858
  1246.0000      8.2742      2.5508      0.0778      6.0140    130.4987     19.7300
  1246.1000      8.2742      2.5340     -0.0367      7.0310    132.0542     18.1762
  1246.2000      8.2742      2.5251      0.0146      7.5688    127.7518     17.0431
  1246.3000      8.2674      2.5290      0.0044      7.3320    119.2163     16.4083
  1246.4000      8.2674      2.5394     -0.0256      6.7040    113.8199     17.1427
  1246.5000      8.2531      2.5449      0.0549      6.3677    111.8063     18.9422
  1246.6000      8.2531      2.5288     -0.0355      7.3484    109.4701     19.8826
  1246.7000      8.2531      2.4998     -0.0406      9.1053    107.9967     19.6341
  1246.8000      8.2479      2.4829     -0.0487     10.1251    109.7831     19.8674
  1246.9000      8.2479      2.4813     -0.0190     10.2214    112.3375     20.9885
  1247.0000      8.2378      2.4828     -0.0473     10.1328    113.7558     22.0047
  1247.1000      8.2378      2.4903     -0.0395      9.6779    114.4707     21.9388
  1247.2000      8.2378      2.5127     -0.0566      8.3229    113.3765     20.5364
  1247.3000      8.2449      2.5382      0.0204      6.7740    111.6851     18.7811
  1247.4000      8.2449      2.5516      0.0279      5.9614    112.8114     17.7573
  1247.5000      8.2402      2.5618      0.0368      5.3474    118.0700     17.5625
  1247.6000      8.2402      2.5782      0.0428      4.3524    124.8175     17.8683
  1247.7000      8.2402      2.5839      0.1074      4.0065    127.1588     18.8549
  1247.8000      8.2336      2.5695      0.0410      4.8758    125.1591     20.5662
  1247.9000      8.2336      2.5519      0.0542      5.9463    126.0984     22.0308
  1248.0000      8.2328      2.5409      0.0496      6.6119    127.8966     22.5146
  1248.1000      8.2328      2.5355      0.0329      6.9379    124.5533     22.5505
  1248.2000      8.2328      2.5341      0.0397      7.0241    120.5377     22.5475
  1248.3000      8.2302      2.5352      0.0113      6.9596    118.1828     22.2388
  1248.4000      8.2302      2.5379     -0.0013      6.7932    116.0337     21.7933
  1248.5000      8.2338      2.5400     -0.0116      6.6640    115.2686     21.2714
  1248.6000      8.2338      2.5361      0.0347      6.9033    116.5613     20.3645
  1248.7000      8.2338      2.5257      0.0000      7.5304    117.8885     19.7683
  1248.8000      8.2343      2.5199     -0.0540      7.8860    114.9222     20.2300
  1248.9000      8.2343      2.5224      0.0084      7.7343    108.6312     21.0533
  1249.0000      8.2364      2.5254     -0.0017      7.5526    104.9989     21.1515
  1249.1000      8.2364      2.5344      0.0174      7.0047    106.1913     20.8388
  1249.2000      8.2364      2.5602      0.0199      5.4443    111.1970     20.9945
  1249.3000      8.2323      2.5834      0.0905      4.0351    116.6995     21.3303
