~Version Information
VERS.                      2.0: CWLS Log ASCII Standard - VERSION 2.0
WRAP.                       NO: One line per depth step
~Well Information Block
STRT.FT               294.3000: 
STOP.FT              1461.0000: 
STEP.FT                 0.1000: 
NULL.                -999.2500: 
COMP.          Pioneer Natural Resources: COMPANY
WELL.              Lucky 21-36: WELL
FLD.           Purgatoire River: FIELD
CDN. :
PROV. :
UWI. :
STAT. :
CNTY. :
CTRY. :
API. :
COMP. :
WELL. :
FLD. :
LOC. :
DATE. :
SRVC. :
LOC.           799' FNL & 1578' FWL--: LOCATION
CNTY.               Las Animas: COUNTY
SRVC.          Superior Well Services: SERVICE COMPANY
DATE.          Tue Jul 08 08-29-33 2008: LOG DATE
UWI.           05 071 08456 00: UNIQUE WELL ID
STAT.                 Colorado: STATE
~Curve Information Block
DEPT.FT            0 000 00 00: Depth
DCAL.in                       : CDL Caliper
RHOB.g/cc                     : CDL Bulk Density
RHOC.g/cc                     : CDL Density Correction
DPOR.pu                       : CDL Density Porosity
NPOR.pu                       : Neutron Porosity
GR.GAPI                       : Gamma Ray
~Parameter Information Block
~A  Depth       DCAL        RHOB        RHOC        DPOR        NPOR         GR     
# ...
   524.7000      8.0700      2.4221     -0.0040     13.8131     23.0474    126.4686
   524.8000      8.0706      2.4204      0.0293     13.9132     22.7500    126.6224
   524.9000      8.0712      2.4244      0.0423     13.6734     22.3915    125.3624
   525.0000      8.0719      2.4195      0.0794     13.9708     22.1699    124.5068
   525.1000      8.0726      2.4091      0.0621     14.5984     22.0042    124.3222
   525.2000      8.0731      2.4084      0.0709     14.6410     21.6273    124.8105
   525.3000      8.0734      2.4222      0.1214     13.8065     21.2898    126.5777
   525.4000      8.0735      2.4397      0.1329     12.7465     21.2965    129.6303
   525.5000      8.0732      2.4511      0.1340     12.0574     21.4336    131.9534
   525.6000      8.0726      2.4497      0.1182     12.1384     21.3471    132.0698
   525.7000      8.0720      2.4362      0.0805     12.9569     21.1064    129.7550
   525.8000      8.0715      2.4234      0.0756     13.7360     20.9035    127.5516
   525.9000      8.0712      2.4195      0.1298     13.9721     20.6158    127.3909
   526.0000      8.0712      2.4169      0.1177     14.1281     20.2131    126.8777
   526.1000      8.0712      2.4126      0.0843     14.3909     19.8354    125.0665
   526.2000      8.0712      2.4177      0.0715     14.0811     19.5421    123.6887
   526.3000      8.0708      2.4300      0.1062     13.3353     19.2211    121.8760
   526.4000      8.0702      2.4289      0.1156     13.3990     18.8284    117.7344
   526.5000      8.0694      2.4103      0.0868     14.5257     18.8237    115.1408
   526.6000      8.0684      2.3988      0.0572     15.2267     19.5708    119.7655
   526.7000      8.0677      2.4307      0.0539     13.2924     20.7381    126.3935
   526.8000      8.0676      2.5345      0.0950      6.9983     21.7222    124.2565
   526.9000      8.0682      2.7067      0.1777     -3.4355     22.4112    113.6254
   527.0000      8.0694      2.9066      0.2955    -15.5518     23.1607    104.7776
   527.1000      8.0707      3.0842      0.3958    -26.3152     24.3223    102.5119
   527.2000      8.0716      3.2033      0.4374    -33.5319     25.9020    102.0881
   527.3000      8.0717      3.2514      0.3557    -36.4475     27.4824     99.2453
   527.4000      8.0712      3.2358      0.2997    -35.5045     28.8677     93.9717
   527.5000      8.0703      3.1768      0.1641    -31.9294     30.0552     88.1716
   527.6000      8.0696      3.1116      0.0504    -27.9767     30.6937     85.0908
   527.7000      8.0696      3.0633     -0.0243    -25.0470     30.4521     87.1706
   527.8000      8.0704      3.0125     -0.1143    -21.9669     29.5738     90.9562
   527.9000      8.0721      2.9300     -0.0902    -16.9701     28.6332     91.8418
   528.0000      8.0743      2.8147     -0.1348     -9.9845     28.0036     90.8636
   528.1000      8.0767      2.6976     -0.1890     -2.8864     27.6154     92.0644
   528.2000      8.0790      2.6088     -0.1362      2.4941     27.2290     96.6956
   528.3000      8.0809      2.5469     -0.0790      6.2455     26.8891    103.5322
   528.4000      8.0821      2.5033     -0.1544      8.8909     26.6142    111.5952
   528.5000      8.0828      2.4875     -0.1269      9.8462     26.1504    119.7228
   528.6000      8.0832      2.4978     -0.0854      9.2243     25.4893    124.4350
   528.7000      8.0836      2.5071     -0.0417      8.6618     24.8848    123.9815
   528.8000      8.0842      2.4975     -0.0713      9.2447     24.3971    122.1311
   528.9000      8.0849      2.4834     -0.0613     10.0954     23.8494    121.6223
   529.0000      8.0857      2.4787      0.0319     10.3809     23.5406    119.2386
   529.1000      8.0864      2.4710      0.0396     10.8473     23.7202    114.2289
   529.2000      8.0870      2.4529     -0.0231     11.9474     23.8501    111.4027
   529.3000      8.0875      2.4436     -0.0155     12.5082     23.7666    113.0680
   529.4000      8.0879      2.4576      0.0235     11.6622     23.7368    114.8693
   529.5000      8.0882      2.4844      0.0720     10.0340     23.7549    113.9456
   529.6000      8.0881      2.5105      0.0686      8.4536     23.9158    113.7932
   529.7000      8.0877      2.5249      0.0922      7.5791     24.0788    115.8998
   529.8000      8.0871      2.5185      0.0902      7.9718     23.8837    116.5601
   529.9000      8.0865      2.5023      0.0530      8.9500     23.5353    115.8710
   530.0000      8.0861      2.5003      0.0564      9.0711     23.3129    115.8241
   530.1000      8.0861      2.5156      0.0789      8.1480     23.0707    116.2056
   530.2000      8.0865      2.5298      0.0862      7.2867     22.9010    115.6402
   530.3000      8.0872      2.5276      0.1038      7.4207     23.1594    113.7809
   530.4000      8.0884      2.5144      0.0673      8.2159     23.7655    112.4545
   530.5000      8.0902      2.5054      0.0981      8.7645     24.4293    110.9160
   530.6000      8.0928      2.5058      0.0579      8.7419     25.0417    108.1208
   530.7000      8.0962      2.5169      0.0690      8.0660     25.4234    106.3665
   530.8000      8.1001      2.5315      0.1131      7.1848     25.4330    105.3007
   530.9000      8.1044      2.5348      0.0667      6.9793     25.1503    104.0718
   531.0000      8.1088      2.5252      0.0629      7.5642     24.7177    103.8759
   531.1000      8.1127      2.5140      0.0689      8.2417     24.3191    104.6918
   531.2000      8.1160      2.5157      0.0492      8.1376     24.1706    105.0842
   531.3000      8.1181      2.5388      0.0520      6.7411     24.2746    104.4444
   531.4000      8.1191      2.5745      0.1018      4.5768     24.5003    106.7310
   531.5000      8.1190      2.6073      0.0751      2.5852     24.9676    113.8777
   531.6000      8.1185      2.6349      0.1105      0.9137     25.8805    118.6635
   531.7000      8.1182      2.6567      0.0954     -0.4072     26.8344    116.9683
   531.8000      8.1185      2.6654      0.1481     -0.9355     27.1888    113.6523
   531.9000      8.1198      2.6537      0.0901     -0.2270     27.0008    111.6464
   532.0000      8.1221      2.6206      0.0823      1.7831     26.8409    109.9301
   532.1000      8.1255      2.5707      0.0187      4.8045     26.7857    109.5326
   532.2000      8.1301      2.5160     -0.0570      8.1208     26.2606    113.8652
   532.3000      8.1359      2.4695     -0.0496     10.9397     25.3104    120.2940
   532.4000      8.1428      2.4390     -0.0812     12.7905     24.6332    122.9725
   532.5000      8.1504      2.4311     -0.1016     13.2687     24.0148    123.7141
   532.6000      8.1576      2.4446     -0.0324     12.4500     23.1500    125.4900
   532.7000      8.1635      2.4653      0.0445     11.1916     22.5888    126.7086
   532.8000      8.1674      2.4815      0.0762     10.2149     22.5125    122.7993
   532.9000      8.1691      2.4934      0.0393      9.4933     22.5331    112.7492
   533.0000      8.1691      2.5068      0.0657      8.6768     22.6096    105.6107
   533.1000      8.1681      2.5175      0.1031      8.0282     22.9364    105.4736
   533.2000      8.1669      2.5213      0.0467      7.7970     23.3359    106.8307
   533.3000      8.1659      2.5263      0.0520      7.4972     23.5345    107.9841
   533.4000      8.1654      2.5349      0.0521      6.9780     23.5728    110.0737
   533.5000      8.1653      2.5395      0.0299      6.6985     23.6062    112.2563
   533.6000      8.1657      2.5409      0.0178      6.6092     23.6658    113.5678
   533.7000      8.1668      2.5438      0.0371      6.4368     23.7648    113.7997
   533.8000      8.1686      2.5471      0.0294      6.2366     24.0294    113.0238
   533.9000      8.1712      2.5561     -0.0111      5.6924     24.4192    111.0577
   534.0000      8.1747      2.5663      0.0411      5.0699     24.5294    107.2564
   534.1000      8.1790      2.5627      0.0243      5.2919     24.3672    103.6037
   534.2000      8.1848      2.5521     -0.0192      5.9356     24.4361    102.9748
