~Version Information
VERS.                      2.0: CWLS Log ASCII Standard - VERSION 2.0
WRAP.                       NO: One line per depth step
~Well Information Block
STRT.FT               240.0000: 
STOP.FT              1159.2500: 
STEP.FT                 0.2500: 
NULL.                -999.2500: 
COMP.          Pioneer Natural Resources: COMPANY
WELL.               Ryan 41-17: WELL
FLD.           Purgatoire River: FIELD
LOC.           822' FNL & 532' FEL--: LOCATION
CNTY.               Las Animas: COUNTY
SRVC.                Patterson: SERVICE COMPANY
DATE.          Thu Mar 16 16:50:09 2006: LOG DATE
UWI.           05 071 08719 00: UNIQUE WELL ID
STAT.                 Colorado: STATE
~Curve Information Block
DEPT.FT            0 000 00 00: Depth
SN.Ohm-m                      : IEL Short Normal
SP.mV                         : IEL Spontaneous Potential
DIR.Ohm-m                     : IEL Induction Resistivity
GR.GAPI                       : Gamma Ray
~Parameter Information Block
~A  Depth        SN          SP         DIR          GR     
# ...
   407.5000   2000.0000   2000.0000     14.0545    130.7200
   407.7500   2000.0000   2000.0000     14.8939    119.8077
   408.0000   2000.0000   2000.0000     15.6996    103.1457
   408.2500   2000.0000   2000.0000     16.4298     94.3040
   408.5000   2000.0000   2000.0000     17.0765     87.4642
   408.7500   2000.0000   2000.0000     17.6568     87.4186
   409.0000   2000.0000   2000.0000     18.1898     92.1245
   409.2500   2000.0000   2000.0000     18.6769     96.6450
   409.5000   2000.0000   2000.0000     19.0993    102.8539
   409.7500   2000.0000   2000.0000     19.4272    105.8588
   410.0000   2000.0000   2000.0000     19.6326    108.8494
   410.2500   2000.0000   2000.0000     19.6982    110.3817
   410.5000   2000.0000   2000.0000     19.6189    112.5915
   410.7500   2000.0000   2000.0000     19.4028    113.8986
   411.0000   2000.0000   2000.0000     19.0706    115.1789
   411.2500   2000.0000   2000.0000     18.6556    115.6327
   411.5000   2000.0000   2000.0000     18.2007    116.5401
   411.7500   2000.0000   2000.0000     17.7498    117.9468
   412.0000   2000.0000   2000.0000     17.3388    122.0079
   412.2500   2000.0000   2000.0000     16.9882    125.9140
   412.5000   2000.0000   2000.0000     16.7024    132.1148
   412.7500   2000.0000   2000.0000     16.4736    135.1143
   413.0000   2000.0000   2000.0000     16.2880    136.1086
   413.2500   2000.0000   2000.0000     16.1331    134.4216
   413.5000   2000.0000   2000.0000     16.0042    129.8882
   413.7500   2000.0000   2000.0000     15.9092    126.4262
   414.0000   2000.0000   2000.0000     15.8673    121.0111
   414.2500   2000.0000   2000.0000     15.9004    117.1459
   414.5000   2000.0000   2000.0000     16.0218    111.3354
   414.7500   2000.0000   2000.0000     16.2288    108.1194
   415.0000   2000.0000   2000.0000     16.5025    105.2188
   415.2500   2000.0000   2000.0000     16.8115    104.4488
   415.5000   2000.0000   2000.0000     17.1173    103.9326
   415.7500   2000.0000   2000.0000     17.3821    103.5970
   416.0000   2000.0000   2000.0000     17.5788    103.6601
   416.2500   2000.0000   2000.0000     17.7024    104.6860
   416.5000   2000.0000   2000.0000     17.7734    107.5896
   416.7500   2000.0000   2000.0000     17.8304    109.5065
   417.0000   2000.0000   2000.0000     17.9144    110.7900
   417.2500   2000.0000   2000.0000     18.0531    110.4931
   417.5000   2000.0000   2000.0000     18.2539    109.2763
   417.7500   2000.0000   2000.0000     18.5079    108.3983
   418.0000   2000.0000   2000.0000     18.8006    106.9248
   418.2500   2000.0000   2000.0000     19.1204    105.6430
   418.5000   2000.0000   2000.0000     19.4577    103.3386
   418.7500   2000.0000   2000.0000     19.7971    101.8450
   419.0000   2000.0000   2000.0000     20.1127    100.3224
   419.2500   2000.0000   2000.0000     20.3744    100.1125
   419.5000   2000.0000   2000.0000     20.5616    101.2399
   419.7500   2000.0000   2000.0000     20.6708    102.8333
   420.0000   2000.0000   2000.0000     20.7055    105.9398
   420.2500   2000.0000   2000.0000     20.6601    108.0924
   420.5000   2000.0000   2000.0000     20.5144    111.0162
   420.7500   2000.0000   2000.0000     20.2476    112.9029
   421.0000   2000.0000   2000.0000     19.8582    116.4122
   421.2500   2000.0000   2000.0000     19.3710    119.4530
   421.5000   2000.0000   2000.0000     18.8301    124.4937
   421.7500   2000.0000   2000.0000     18.2865    127.5601
   422.0000   2000.0000   2000.0000     17.7906    131.1655
   422.2500   2000.0000   2000.0000     17.3869    132.9906
   422.5000   2000.0000   2000.0000     17.1066    135.0003
   422.7500   2000.0000   2000.0000     16.9594    135.4306
   423.0000   2000.0000   2000.0000     16.9311    132.9626
   423.2500   2000.0000   2000.0000     16.9939    128.3347
   423.5000   2000.0000   2000.0000     17.1274    117.4144
   423.7500   2000.0000   2000.0000     17.3388    109.1262
   424.0000   2000.0000   2000.0000     17.6632     98.4901
   424.2500   2000.0000   2000.0000     18.1447     93.6920
   424.5000   2000.0000   2000.0000     18.8114     89.8725
   424.7500   2000.0000   2000.0000     19.6599     88.8628
   425.0000   2000.0000   2000.0000     20.6519     88.2744
   425.2500   2000.0000   2000.0000     21.7202     87.9551
   425.5000   2000.0000   2000.0000     22.7817     87.2359
   425.7500   2000.0000   2000.0000     23.7538     86.5751
   426.0000   2000.0000   2000.0000     24.5724     85.3112
   426.2500   2000.0000   2000.0000     25.2023     84.3678
   426.5000   2000.0000   2000.0000     25.6387     83.2308
   426.7500   2000.0000   2000.0000     25.9042     82.9318
   427.0000   2000.0000   2000.0000     26.0398     83.2082
   427.2500   2000.0000   2000.0000     26.0917     83.6302
   427.5000   2000.0000   2000.0000     26.0906     84.2722
   427.7500   2000.0000   2000.0000     26.0363     84.7973
   428.0000   2000.0000   2000.0000     25.8965     86.1903
   428.2500   2000.0000   2000.0000     25.6229     87.6299
   428.5000   2000.0000   2000.0000     25.1750     90.2224
   428.7500   2000.0000   2000.0000     24.5360     91.9873
   429.0000   2000.0000   2000.0000     23.7164     94.7773
   429.2500   2000.0000   2000.0000     22.7495     97.1198
   429.5000   2000.0000   2000.0000     21.6844    101.9803
   429.7500   2000.0000   2000.0000     20.5770    106.0931
   430.0000   2000.0000   2000.0000     19.4809    112.7542
   430.2500   2000.0000   2000.0000     18.4393    116.9022
   430.5000   2000.0000   2000.0000     17.4809    122.2024
   430.7500   2000.0000   2000.0000     16.6205    125.4111
   431.0000   2000.0000   2000.0000     15.8588    130.7087
   431.2500   2000.0000   2000.0000     15.1842    134.7216
   431.5000   2000.0000   2000.0000     14.5758    140.2620
   431.7500   2000.0000   2000.0000     14.0121    142.5113
   432.0000   2000.0000   2000.0000     13.4804    142.8230
   432.2500   2000.0000   2000.0000     12.9845    141.4982
   432.5000   2000.0000   2000.0000     12.5442    138.9330
   432.7500   2000.0000   2000.0000     12.1872    137.6533
   433.0000   2000.0000   2000.0000     11.9392    137.1111
   433.2500   2000.0000   2000.0000     11.8175    137.8060
   433.5000   2000.0000   2000.0000     11.8288    140.0230
   433.7500   2000.0000   2000.0000     11.9704    141.4610
   434.0000   2000.0000   2000.0000     12.2325    141.1953
   434.2500   2000.0000   2000.0000     12.6008    137.9291
   434.5000   2000.0000   2000.0000     13.0597    127.1003
   434.7500   2000.0000   2000.0000     13.5964    116.4611
   435.0000   2000.0000   2000.0000     14.2057     98.3940
   435.2500   2000.0000   2000.0000     14.8937     87.2029
   435.5000   2000.0000   2000.0000     15.6816     74.6199
   435.7500   2000.0000   2000.0000     16.6002     69.5838
   436.0000   2000.0000   2000.0000     17.6765     66.1710
   436.2500   2000.0000   2000.0000     18.9112     65.6403
   436.5000   2000.0000   2000.0000     20.2575     65.9308
   436.7500   2000.0000   2000.0000     21.6165     66.3010
   437.0000   2000.0000   2000.0000     22.8579     66.6154
   437.2500   2000.0000   2000.0000     23.8663     66.5431
   437.5000   2000.0000   2000.0000     24.5877     66.1686
   437.7500   2000.0000   2000.0000     25.0457     65.9821
   438.0000   2000.0000   2000.0000     25.3197     65.9896
   438.2500   2000.0000   2000.0000     25.5037     66.0045
   438.5000   2000.0000   2000.0000     25.6674     65.6001
   438.7500   2000.0000   2000.0000     25.8335     65.0450
   439.0000   2000.0000   2000.0000     25.9707     64.2487
   439.2500   2000.0000   2000.0000     26.0039     63.9854
   439.5000   2000.0000   2000.0000     25.8397     64.0598
   439.7500   2000.0000   2000.0000     25.3993     64.4358
   440.0000   2000.0000   2000.0000     24.6475     65.9617
   440.2500   2000.0000   2000.0000     23.6057     68.2341
   440.5000   2000.0000   2000.0000     22.3437     74.9141
   440.7500   2000.0000   2000.0000     20.9565     82.2273
