~Version Information
VERS.                      2.0: CWLS Log ASCII Standard - VERSION 2.0
WRAP.                       NO: One line per depth step
~Well Information Block
STRT.FT                -9.0000: 
STOP.FT              1841.0000: 
STEP.FT                 0.2500: 
NULL.                -999.2500: 
COMP.          Pioneer Natural Resources: COMPANY
WELL.          Cooper 11-13 Tr: WELL
FLD.           Purgatorie River: FIELD
LOC.           476' FNL & 738' FWL: LOCATION
STAT.                       CO: State
CNTY.               Las Animas: COUNTY
CTRY. USA : Country
SECT. 13 : Section
TOWN. 32S : Township
RANG. 67W : Range
SRVC.          Patterson Wireline: SERVICE COMPANY
DATE.          Thu Sep 29 08:59:13 2005: LOG DATE
API.           05 071 08525 00: UNIQUE WELL ID
~Curve Information Block
DEPT.FT            0 000 00 00: Depth
CCL.                          : Casing Collar Locator
TT3.usec                      : CBL 3' Travel Time
AMP3.mV                       : CBL 3' Amplitude
GR.GAPI                       : Gamma Ray
~Parameter Information Block
~A  Depth       CCL         TT3         AMP3         GR     
# ...
  1565.5000      2.0000    766.7947      3.6360     74.0617
  1565.7500      0.0000    770.0963      3.5400     70.6003
  1566.0000      0.0000    766.4534      3.4019     69.2627
  1566.2500      0.0000    754.9752      3.2454     68.3304
  1566.5000      0.0000    742.2209      3.1024     66.3277
  1566.7500      0.0000    735.1028      2.9992     63.7270
  1567.0000      0.0000    734.6705      2.9566     62.5676
  1567.2500      0.0000    737.9238      2.9847     64.6159
  1567.5000      0.0000    741.5300      3.0660     70.3406
  1567.7500      0.0000    741.9155      3.1573     79.4386
  1568.0000      0.0000    735.6301      3.2126     91.5741
  1568.2500      0.0000    722.5342      3.1995    106.0676
  1568.5000      0.0000    706.5326      3.1075    121.1462
  1568.7500      0.0000    691.1141      2.9716    134.3027
  1569.0000      0.0000    674.8982      2.8876    143.8408
  1569.2500      0.0000    652.3798      2.9683    149.9236
  1569.5000      0.0000    619.3182      3.2488    153.9165
  1569.7500      0.0000    578.2964      3.6380    156.7540
  1570.0000      0.0000    539.7822      3.9853    158.0428
  1570.2500      0.0000    516.8224      4.2010    156.7827
  1570.5000      0.0000    516.5052      4.3029    152.6199
  1570.7500      0.0000    534.2715      4.3538    146.0922
  1571.0000      0.0000    556.5632      4.3758    138.0655
  1571.2500      0.0000    571.6666      4.3386    129.5106
  1571.5000      0.0000    578.9436      4.2274    121.6127
  1571.7500      0.0000    585.3815      4.1020    115.4182
  1572.0000      0.0000    594.0135      4.0657    111.0737
  1572.2500      0.0000    600.0227      4.1670    107.7293
  1572.5000      0.0000    597.3861      4.3434    104.4652
  1572.7500      0.0000    583.7424      4.4738    101.3938
  1573.0000      0.0000    558.9683      4.4813     99.8150
  1573.2500      0.0000    524.9566      4.3867    100.9350
  1573.5000      0.0000    487.9597      4.2747    104.1543
  1573.7500      0.0000    456.8429      4.2267    107.0746
  1574.0000      0.0000    437.3092      4.2764    107.8012
  1574.2500      0.0000    429.1575      4.4071    107.0138
  1574.5000      0.0000    428.9106      4.5724    107.2352
  1574.7500      0.0000    433.4259      4.7227    110.2973
  1575.0000      0.0000    440.8451      4.8274    115.9841
  1575.2500      0.0000    449.2647      4.8835    122.7458
  1575.5000      0.0000    455.7859      4.9080    129.1068
  1575.7500      0.0000    458.2036      4.9202    134.3880
  1576.0000      0.0000    458.5186      4.9304    138.2707
  1576.2500      0.0000    464.0030      4.9379    139.7990
  1576.5000      0.0000    482.5798      4.9345    137.4182
  1576.7500      0.0000    515.2870      4.9124    130.6975
  1577.0000      0.0000    552.9153      4.8766    121.5897
  1577.2500      0.0000    581.2598      4.8515    113.0785
  1577.5000      0.0000    591.7416      4.8666    106.6077
  1577.7500      0.0000    588.1492      4.9323    101.5417
  1578.0000      0.0000    582.5236      5.0298     97.0791
  1578.2500      0.0000    583.8691      5.1253     93.8039
  1578.5000      0.0000    590.7863      5.1884     93.0261
  1578.7500      0.0000    594.4380      5.2007     95.2268
  1579.0000      0.0000    587.8093      5.1541     99.4998
  1579.2500      0.0000    571.9653      5.0477    104.1143
  1579.5000      0.0000    554.2797      4.8918    107.4853
  1579.7500      0.0000    542.1282      4.7189    108.9460
  1580.0000      0.0000    538.5184      4.5855    108.7918
  1580.2500      0.0000    541.9745      4.5502    107.5927
  1580.5000      0.0000    548.7727      4.6376    105.9002
  1580.7500      0.0000    555.3665      4.8189    104.8998
  1581.0000      0.0000    559.8579      5.0255    106.4730
  1581.2500      0.0000    562.0464      5.1865    111.4471
  1581.5000      0.0000    562.5783      5.2622    117.9006
  1581.7500      0.0000    562.4011      5.2516    122.2222
  1582.0000      0.0000    563.0832      5.1800    122.2928
  1582.2500      0.0000    567.1645      5.0780    119.2995
  1582.5000      0.0000    577.2036      4.9705    116.2794
  1582.7500      0.0000    593.8703      4.8747    115.3664
  1583.0000      0.0000    615.2701      4.8036    116.7985
  1583.2500      0.0000    638.1031      4.7713    120.0481
  1583.5000      0.0000    658.1592      4.7977    124.8982
  1583.7500      0.0000    669.4064      4.8991    130.9826
  1584.0000      0.0000    665.3171      5.0651    136.9772
  1584.2500      0.0000    644.1552      5.2460    141.2878
  1584.5000      0.0000    612.8265      5.3777    143.4917
  1584.7500      0.0000    583.2786      5.4204    144.2731
  1585.0000      0.0000    564.6481      5.3755    144.0378
  1585.2500      0.0000    559.5672      5.2708    142.5371
  1585.5000      0.0000    566.2453      5.1366    139.8872
  1585.7500      0.0000    581.1995      4.9943    137.1059
  1586.0000      0.0000    600.2632      4.8593    135.3554
  1586.2500      0.0000    619.3499      4.7511    135.1442
  1586.5000      0.0000    635.3919      4.6936    136.4352
  1586.7500      0.0000    646.6004      4.6956    139.1064
  1587.0000      0.0000    652.4049      4.7316    142.9895
  1587.2500      0.0000    654.2575      4.7515    147.5594
  1587.5000      0.0000    655.7819      4.7194    151.8328
  1587.7500      0.0000    659.8312      4.6431    154.6979
  1588.0000      0.0000    665.2689      4.5663    155.6384
  1588.2500      0.0000    668.2600      4.5319    155.4530
  1588.5000      0.0000    666.0388      4.5527    156.0445
  1588.7500      0.0000    658.3426      4.6098    158.8444
  1589.0000      0.0000    647.2231      4.6705    163.1790
  1589.2500      0.0000    636.7559      4.7084    166.5884
  1589.5000      0.0000    630.0426      4.7135    167.0201
  1589.7500      0.0000    624.5257      4.6900    164.3109
  1590.0000      0.0000    613.4186      4.6495    159.3685
  1590.2500      0.0000    594.1982      4.6029    152.8223
  1590.5000      0.0000    573.1469      4.5600    145.2010
  1590.7500      0.0000    558.9998      4.5318    137.9156
  1591.0000      0.0000    554.0040      4.5293    133.1062
  1591.2500      0.0000    553.4700      4.5544    132.0945
  1591.5000      0.0000    551.8486      4.5940    134.1241
  1591.7500      0.0000    546.6182      4.6265    136.8609
  1592.0000      0.0000    537.6711      4.6340    138.1723
  1592.2500      0.0000    525.6439      4.6061    137.3020
  1592.5000      0.0000    511.3516      4.5402    134.6389
  1592.7500      0.0000    495.9607      4.4455    130.9183
  1593.0000      0.0000    480.8117      4.3460    126.7185
  1593.2500      0.0000    467.1315      4.2740    122.2576
  1593.5000      0.0000    457.0900      4.2551    117.5408
  1593.7500      0.0000    455.1346      4.2956    112.9846
  1594.0000      0.0000    466.0238      4.3816    109.8172
  1594.2500      0.0000    489.5272      4.4872    109.3404
  1594.5000      0.0000    517.2626      4.5866    111.5596
  1594.7500      0.0000    536.0906      4.6619    114.8189
  1595.0000      0.0000    536.0471      4.7060    117.0293
  1595.2500      0.0000    516.5327      4.7229    117.1697
  1595.5000      0.0000    486.1351      4.7207    115.5483
  1595.7500      0.0000    456.5351      4.7009    112.8717
  1596.0000      0.0000    435.4491      4.6531    109.2892
  1596.2500      0.0000    424.0469      4.5653    104.2695
  1596.5000      0.0000    419.3984      4.4393     97.2657
  1596.7500      0.0000    418.1193      4.2955     88.5291
  1597.0000      0.0000    418.1100      4.1643     79.4686
  1597.2500      0.0000    418.4038      4.0719     72.0921
  1597.5000      0.0000    418.4786      4.0333     67.7093
  1597.7500      0.0000    417.7889      4.0518     66.0413
  1598.0000      0.0000    415.7325      4.1235     65.7277
  1598.2500      0.0000    412.1639      4.2363     65.5640
  1598.5000      0.0000    408.3307      4.3630     65.0952
  1598.7500      0.0000    407.5342      4.4602     64.4462
