~Version Information
VERS.                      2.0: CWLS Log ASCII Standard - VERSION 2.0
WRAP.                       NO: One line per depth step
~Well Information Block
STRT.FT                -6.7500: 
STOP.FT              1250.5000: 
STEP.FT                 0.2500: 
NULL.                -999.2500: 
COMP.          Pioneer Natural Resources: COMPANY
WELL.          Irish Eyes 33-21: WELL
FLD.           Purgatorie River: FIELD
LOC.           1379' FSL & 2544' FEL--: LOCATION
PROV.                       CO: PROVINCE
CNTY.               Las Animas: COUNTRY
SRVC.          Patterson Wireline: SERVICE COMPANY
DATE.          Mon Jan 23 11:57:23 2006: LOG DATE
UWI.           05 071 08658 00: UNIQUE WELL ID
~Curve Information Block
DEPT.FT            0 000 00 00: Depth
CCL.                          : Casing Collar Locator
TT3.usec                      : CBL 3' Travel Time
AMP3.mV                       : CBL 3' Amplitude
GR.GAPI                       : Gamma Ray
~Parameter Information Block
~A  Depth       CCL         TT3         AMP3         GR     
# ...
    60.2500      0.0000    557.4324     14.7468     77.1401
    60.5000      0.0000    568.6234     14.8102     78.0249
    60.7500      0.0000    594.8291     14.8084     80.0533
    61.0000      0.0000    620.7273     14.7811     82.5334
    61.2500      0.0000    631.0250     14.7746     84.4221
    61.5000      0.0000    617.1650     14.8124     84.9646
    61.7500      0.0000    580.1478     14.8778     84.4907
    62.0000      0.0000    527.4731     14.9268     84.1289
    62.2500      0.0000    469.5494     14.9262     84.5327
    62.5000      0.0000    417.9507     14.8817     85.4060
    62.7500      0.0000    381.6351     14.8279     86.3609
    63.0000      0.0000    362.3703     14.7989     87.3912
    63.2500      0.0000    355.1015     14.8139     88.3154
    63.5000      0.0000    353.0542     14.8799     88.5805
    63.7500      0.0000    352.5945     14.9975     87.9666
    64.0000      0.0000    355.5211     15.1540     86.9051
    64.2500      0.0000    369.6590     15.3139     85.7986
    64.5000      0.0000    407.8254     15.4229     84.2470
    64.7500      0.0000    482.1015     15.4308     81.2720
    65.0000      0.0000    593.1725     15.3199     76.5726
    65.2500      0.0000    723.3077     15.1122     71.3977
    65.5000      0.0000    843.1132     14.8500     67.6433
    65.7500      0.0000    927.9968     14.5737     66.1296
    66.0000      0.0000    969.7911     14.3145     66.2751
    66.2500      0.0000    976.4369     14.0967     67.1889
    66.5000      0.0000    963.9340     13.9293     68.4627
    66.7500      0.0000    947.3225     13.7972     70.2189
    67.0000      0.0000    935.3771     13.6671     73.0207
    67.2500      0.0000    930.0873     13.5065     77.5056
    67.5000      0.0000    928.8624     13.2952     83.5405
    67.7500      0.0000    927.5800     13.0256     89.8295
    68.0000      0.0000    923.6406     12.7017     94.6198
    68.2500      0.0000    917.9314     12.3449     96.7537
    68.5000      0.0000    914.3770     12.0025     96.1110
    68.7500      0.0000    917.4103     11.7370     93.4162
    69.0000      0.0000    928.9633     11.5887     89.8896
    69.2500      0.0000    945.9445     11.5408     86.8836
    69.5000      0.0000    959.8351     11.5259     85.3958
    69.7500      0.0000    960.7746     11.4741     85.6700
    70.0000      0.0000    945.4226     11.3437     87.2146
    70.2500      0.0000    921.8969     11.0986     89.0571
    70.5000      0.0000    906.0924     10.6784     89.9895
    70.7500      0.0000    911.6010     10.0442     88.8220
    71.0000      0.0000    939.7514      9.2746     84.8078
    71.2500      0.0000    977.2345      8.5656     78.3434
    71.5000      0.0000   1005.7079      8.0899     71.3225
    71.7500      0.0000   1015.8278      7.8696     66.1473
    72.0000      2.0000   1010.3283      7.8006     63.9665
    72.2500      0.0000    994.4612      7.7767     64.1529
    72.5000      0.0000    969.8524      7.7967     65.5448
    72.7500      0.0000    939.1387      7.9942     67.8322
    73.0000      0.0000    909.0888      8.5614     71.6953
    73.2500      0.0000    886.3876      9.5736     77.8372
    73.5000      0.0000    875.1950     10.8605     85.8094
    73.7500      0.0000    877.4878     12.0961     93.4888
    74.0000      0.0000    889.7642     13.0352     97.8644
    74.2500      0.0000    901.6990     13.6365     97.0979
    74.5000      0.0000    904.2817     13.9928     92.3958
    74.7500      0.0000    897.8928     14.2249     87.5157
    75.0000      0.0000    888.9985     14.4363     85.7847
    75.2500      0.0000    881.9397     14.6915     87.5000
    75.5000      0.0000    876.8403     14.9960     90.3066
    75.7500      0.0000    872.7574     15.3069     91.7527
    76.0000      0.0000    869.6126     15.5765     91.2472
    76.2500      0.0000    867.5416     15.7853     89.9617
    76.5000      0.0000    865.9720     15.9374     89.4925
    76.7500      0.0000    863.2884     16.0354     90.6902
    77.0000      0.0000    856.7098     16.0720     93.1936
    77.2500      0.0000    842.4216     16.0459     95.6667
    77.5000      0.0000    816.9761     15.9758     96.6448
    77.7500      0.0000    780.0972     15.8864     95.5760
    78.0000      0.0000    736.7831     15.7768     93.2349
    78.2500      0.0000    695.2786     15.6081     91.0594
    78.5000      0.0000    660.8890     15.3375     90.0467
    78.7500      0.0000    631.6198     14.9750     90.3229
    79.0000      0.0000    601.6418     14.6033     91.4992
    79.2500      0.0000    569.9012     14.3312     93.0023
    79.5000      0.0000    544.5583     14.2240     94.1215
    79.7500      0.0000    538.4115     14.2744     94.2129
    80.0000      0.0000    559.8104     14.4257     93.1148
    80.2500      0.0000    606.1529     14.6082     91.2294
    80.5000      0.0000    664.0222     14.7584     89.1707
    80.7500      0.0000    716.5178     14.8305     87.4294
    81.0000      0.0000    752.9827     14.8102     86.4304
    81.2500      0.0000    773.1920     14.7239     86.6948
    81.5000      0.0000    784.1199     14.6366     88.4143
    81.7500      0.0000    794.5554     14.6269     90.6122
    82.0000      0.0000    811.3835     14.7387     91.3926
    82.2500      0.0000    835.9282     14.9392     89.7953
    82.5000      0.0000    860.4057     15.1304     87.0183
    82.7500      0.0000    870.2312     15.2187     85.1170
    83.0000      0.0000    854.2537     15.1897     84.7110
    83.2500      0.0000    814.3325     15.1209     84.4828
    83.5000      0.0000    765.1979     15.1219     82.8834
    83.7500      0.0000    725.6489     15.2605     79.9701
    84.0000      0.0000    705.8734     15.5419     77.4266
    84.2500      0.0000    697.6555     15.9429     77.0213
    84.5000      0.0000    680.1752     16.4352     79.2962
    84.7500      0.0000    644.3360     16.9673     83.5214
    85.0000      0.0000    611.7137     17.4404     88.3699
    85.2500      0.0000    621.2487     17.7342     92.4087
    85.5000      0.0000    691.3252     17.7797     94.3368
    85.7500      0.0000    795.6954     17.6224     93.3853
    86.0000      0.0000    878.5269     17.4189     89.8757
    86.2500      0.0000    893.6431     17.3555     85.3593
    86.5000      0.0000    832.5237     17.5451     81.9176
    86.7500      0.0000    723.9742     17.9744     81.0384
    87.0000      0.0000    613.1921     18.5311     82.9508
    87.2500      0.0000    535.2260     19.0766     86.7873
    87.5000      0.0000    497.7520     19.5091     91.1112
    87.7500      0.0000    486.8264     19.7778     94.4023
    88.0000      0.0000    490.2826     19.8689     95.6096
    88.2500      0.0000    510.6520     19.7980     94.6872
    88.5000      0.0000    553.0085     19.6147     92.6809
    88.7500      0.0000    610.4903     19.3870     91.2413
    89.0000      0.0000    671.4119     19.1670     91.7041
    89.2500      0.0000    733.6464     18.9696     94.0776
    89.5000      0.0000    799.4408     18.7942     96.7395
    89.7500      0.0000    857.9491     18.6638     97.3676
    90.0000      0.0000    884.5276     18.6310     94.4969
    90.2500      0.0000    863.6859     18.7256     88.5882
    90.5000      0.0000    811.8269     18.8860     81.8995
    90.7500      0.0000    772.2960     18.9597     77.2111
    91.0000      0.0000    780.4780     18.7978     76.2871
    91.2500      0.0000    832.3331     18.3637     79.0385
    91.5000      0.0000    892.1028     17.7452     83.7887
    91.7500      0.0000    929.6542     17.0673     88.4666
    92.0000      0.0000    944.0356     16.4095     91.9011
    92.2500      0.0000    953.8853     15.8000     94.0833
    92.5000      0.0000    974.9926     15.2596     95.2193
    92.7500      0.0000   1007.6187     14.8250     94.8425
    93.0000      0.0000   1037.9885     14.5299     92.2114
    93.2500      0.0000   1049.1790     14.3714     87.4056
    93.5000      0.0000   1034.0966     14.3018     81.7760
