~Version Information
VERS.                      2.0: CWLS Log ASCII Standard - VERSION 2.0
WRAP.                       NO: One line per depth step
~Well Information Block
STRT.FT                -8.2500: 
STOP.FT               686.7500: 
STEP.FT                 0.2500: 
NULL.                -999.2500: 
COMP.          Pioneer Natural Resources: COMPANY
WELL.           Quintessa 23-7: WELL
FLD.           Purgatorie River: FIELD
LOC.           1964' FSL & 2589' FWL--: LOCATION
PROV.                       CO: PROVINCE
CNTY.               Las Animas: COUNTRY
SRVC.          Patterson Wireline: SERVICE COMPANY
DATE.          Wed Nov 23 10:31:07 2005: LOG DATE
UWI.           05 071 08558 00: UNIQUE WELL ID
~Curve Information Block
DEPT.FT            0 000 00 00: Depth
CCL.                          : Casing Collar Locator
TT3.usec                      : CBL 3' Travel Time
AMP3.mV                       : CBL 3' Amplitude
GR.GAPI                       : Gamma Ray
~Parameter Information Block
~A  Depth       CCL         TT3         AMP3         GR     
# ...
   561.2500      0.0000    322.1255     32.6313     95.5110
   561.5000      0.0000    322.1272     32.5215     94.5116
   561.7500      0.0000    322.1470     32.3443     95.6794
   562.0000      0.0000    322.1670     32.1497     98.8802
   562.2500      0.0000    322.1747     31.9753    102.2603
   562.5000      0.0000    322.1664     31.8438    103.7252
   562.7500      0.0000    322.1477     31.7536    102.4579
   563.0000      0.0000    322.1298     31.6803     99.4742
   563.2500      0.0000    322.1227     31.5945     96.6773
   563.5000      0.0000    322.1307     31.4785     94.7989
   563.7500      0.0000    322.1541     31.3256     92.3442
   564.0000      0.0000    322.1912     31.1317     87.0931
   564.2500      0.0000    322.2367     30.8966     78.6353
   564.5000      0.0000    322.2775     30.6327     69.0821
   564.7500      0.0000    322.2975     30.3636     61.3244
   565.0000      0.0000    322.2880     30.1100     56.8178
   565.2500      0.0000    322.2531     29.8842     54.9238
   565.5000      0.0000    322.2050     29.7009     53.9510
   565.7500      0.0000    322.1592     29.5805     52.5573
   566.0000      0.0000    322.1597     29.5251     50.5061
   566.2500      0.0000    322.3480     29.4848     48.6977
   566.5000      0.0000    323.2821     29.3417     48.5540
   566.7500      0.0000    326.8622     28.9162     50.9288
   567.0000      0.0000    337.6315     27.9950     55.3883
   567.2500      0.0000    363.0870     26.3947     60.6368
   567.5000      0.0000    410.4228     24.0948     65.4938
   567.7500      0.0000    480.9600     21.3954     69.1539
   568.0000      0.0000    569.0282     18.8795     70.7352
   568.2500      0.0000    667.5110     17.0385     69.2911
   568.5000      0.0000    769.6238     15.9038     64.5424
   568.7500      0.0000    861.4456     15.1671     57.3016
   569.0000      0.0000    920.9644     14.6119     49.0471
   569.2500      0.0000    934.8451     14.2682     41.2969
   569.5000      0.0000    913.9181     14.2174     35.3065
   569.7500      2.0000    884.2531     14.4597     31.9282
   570.0000      0.0000    861.3671     14.9939     31.5024
   570.2500      0.0000    835.1515     15.9393     33.9610
   570.5000      0.0000    781.0386     17.5316     39.0890
   570.7500      0.0000    686.8942     19.9502     46.6468
   571.0000      0.0000    568.8890     23.0818     56.0913
   571.2500      0.0000    459.9282     26.4793     66.1581
   571.5000      0.0000    384.0629     29.6320     75.0103
   571.7500      0.0000    343.8266     32.2320     81.1657
   572.0000      0.0000    327.5860     34.1619     84.4482
   572.2500      0.0000    322.6608     35.3699     85.9080
   572.5000      0.0000    321.5715     35.8634     86.6272
   572.7500      0.0000    321.4038     35.7565     86.8018
   573.0000      0.0000    321.4004     35.2422     86.3059
   573.2500      0.0000    321.4337     34.5128     85.7291
   573.5000      0.0000    321.4920     33.7089     86.0864
   573.7500      0.0000    321.5702     32.9249     87.6868
   574.0000      0.0000    321.6529     32.2256     90.1437
   574.2500      0.0000    321.7235     31.6516     93.4318
   574.5000      0.0000    321.7751     31.2143     97.8789
   574.7500      0.0000    321.8084     30.8993    102.7902
   575.0000      0.0000    321.8289     30.6714    106.1485
   575.2500      0.0000    321.8452     30.4847    106.6303
   575.5000      0.0000    321.8654     30.3027    105.4051
   575.7500      0.0000    321.8916     30.1170    105.0429
   576.0000      0.0000    321.9187     29.9431    106.8150
   576.2500      0.0000    321.9398     29.7972    109.6922
   576.5000      0.0000    321.9528     29.6719    111.7540
   576.7500      0.0000    321.9954     29.5223    111.9036
   577.0000      0.0000    322.2239     29.2665    110.3612
   577.2500      0.0000    323.3127     28.8028    108.2090
   577.5000      0.0000    327.4587     28.0409    106.5868
   577.7500      0.0000    339.9304     26.9355    105.8521
   578.0000      0.0000    369.3671     25.5072    105.1543
   578.2500      0.0000    423.6741     23.8558    102.8873
   578.5000      0.0000    501.8893     22.1575     97.8736
   578.7500      0.0000    589.9188     20.6216     90.2973
   579.0000      0.0000    667.5362     19.4106     81.4723
   579.2500      0.0000    721.1446     18.5813     72.7547
   579.5000      0.0000    749.4819     18.0830     64.7931
   579.7500      0.0000    759.3915     17.8002     57.7104
   580.0000      0.0000    759.3843     17.6117     51.8085
   580.2500      0.0000    756.2759     17.4412     48.0663
   580.5000      0.0000    754.0814     17.2878     47.8898
   580.7500      0.0000    753.4398     17.2248     52.0939
   581.0000      0.0000    751.2572     17.3603     59.9763
   581.2500      0.0000    740.6821     17.7700     69.6049
   581.5000      0.0000    712.3411     18.4442     79.1186
   581.7500      0.0000    658.8138     19.2884     87.5269
   582.0000      0.0000    581.7771     20.1711     94.3264
   582.2500      0.0000    495.4516     20.9744     99.0014
   582.5000      0.0000    419.8151     21.6242    101.2166
   582.7500      0.0000    368.0112     22.0983    101.1462
   583.0000      0.0000    340.2952     22.4202     99.5618
   583.2500      0.0000    328.7090     22.6356     97.9408
   583.5000      0.0000    324.9125     22.7867     97.9775
   583.7500      0.0000    323.9226     22.8996    100.2485
   584.0000      0.0000    323.7007     22.9820    103.5917
   584.2500      0.0000    323.6471     23.0269    106.1942
   584.5000      0.0000    323.6405     23.0229    107.0445
   584.7500      0.0000    323.6613     22.9682    106.2045
   585.0000      0.0000    323.7168     22.8743    104.0702
   585.2500      0.0000    323.8164     22.7571    100.6478
   585.5000      0.0000    323.9705     22.6253     95.5750
   585.7500      0.0000    324.1804     22.4770     88.9293
   586.0000      0.0000    324.4347     22.3028     81.8659
   586.2500      0.0000    324.7444     22.0933     76.1031
   586.5000      0.0000    325.1961     21.8449     72.7752
   586.7500      0.0000    326.2498     21.5593     71.9847
   587.0000      0.0000    329.3149     21.2448     73.3263
   587.2500      0.0000    337.2997     20.9230     76.5754
   587.5000      0.0000    353.5454     20.6253     81.7770
   587.7500      0.0000    377.7469     20.3757     88.6975
   588.0000      0.0000    401.9668     20.1820     96.2380
   588.2500      0.0000    413.8970     20.0417    102.5641
   588.5000      0.0000    407.6597     19.9388    105.9582
   588.7500      0.0000    390.4218     19.8422    105.6800
   589.0000      0.0000    376.9753     19.7259    102.2569
   589.2500      0.0000    380.4372     19.5907     97.0119
   589.5000      0.0000    408.2808     19.4494     91.1067
   589.7500      0.0000    460.5552     19.3004     84.9270
   590.0000      0.0000    525.6859     19.1326     78.3754
   590.2500      0.0000    579.9396     18.9493     71.6227
   590.5000      0.0000    598.3558     18.7802     65.4848
   590.7500      0.0000    571.7640     18.6735     61.0549
   591.0000      0.0000    514.2699     18.6750     58.8009
   591.2500      0.0000    453.4063     18.8033     57.9478
   591.5000      0.0000    412.7077     19.0390     57.0631
   591.7500      0.0000    401.3076     19.3397     55.4434
   592.0000      0.0000    413.3094     19.6599     53.7368
   592.2500      0.0000    432.0408     19.9561     53.1287
   592.5000      0.0000    439.0230     20.1885     54.1639
   592.7500      0.0000    426.6930     20.3365     56.3819
   593.0000      0.0000    404.7801     20.4076     58.8173
   593.2500      0.0000    393.3485     20.4122     60.8323
   593.5000      0.0000    409.4945     20.3329     62.6266
   593.7500      0.0000    457.7968     20.1412     64.8898
   594.0000      0.0000    527.3267     19.8458     67.8705
   594.2500      0.0000    596.6829     19.5063     70.9428
   594.5000      0.0000    647.0969     19.1939     73.1698
