~Version Information
VERS.                      2.0: CWLS Log ASCII Standard - VERSION 2.0
WRAP.                       NO: One line per depth step
~Well Information Block
STRT.FT                -2.0000: 
STOP.FT              2017.5000: 
STEP.FT                 0.2500: 
NULL.                -999.2500: 
COMP.          Pioneer Natural Resources: COMPANY
WELL.            Zink 44-10 Tr: WELL
FLD.           Purgatoire River: FIELD
LOC.           486' FSL & 554' FEL--: LOCATION
PROV.                 Colorado: PROVINCE
CNTY.               Las Animas: COUNTRY
SRVC.                Patterson: SERVICE COMPANY
DATE.          Mon Aug 01 14:01:23 2005: LOG DATE
UWI.           05 071 08446 00: UNIQUE WELL ID
~Curve Information Block
DEPT.FT            0 000 00 00: Depth
CCL.                          : Casing Collar Locator
TT3.usec                      : CBL 3' Travel Time
AMP3.mV                       : CBL 3' Amplitude
GR.GAPI                       : Gamma Ray
~Parameter Information Block
~A  Depth       CCL         TT3         AMP3         GR     
# ...
   802.0000      0.0000    853.8401     11.1631    136.3136
   802.2500      0.0000    854.0468     11.0933    140.5520
   802.5000      0.0000    854.1896     11.1084    143.9750
   802.7500      0.0000    854.2634     11.1777    147.1212
   803.0000      0.0000    854.2835     11.2526    148.9541
   803.2500      0.0000    854.2573     11.2904    147.6783
   803.5000      0.0000    854.1808     11.2740    142.1507
   803.7500      0.0000    854.0597     11.2191    132.7856
   804.0000      0.0000    853.9233     11.1632    121.4652
   804.2500      0.0000    853.8184     11.1411    110.7072
   804.5000      0.0000    853.7961     11.1647    102.3608
   804.7500      0.0000    853.9489     11.2232     96.5805
   805.0000      0.0000    854.5169     11.2988     92.1749
   805.2500      0.0000    856.0301     11.3801     88.0843
   805.5000      0.0000    859.2709     11.4671     84.4900
   805.7500      0.0000    864.7828     11.5658     82.7269
   806.0000      0.0000    872.0036     11.6771     84.2050
   806.2500      0.0000    878.9055     11.7895     89.0434
   806.5000      0.0000    882.9949     11.8839     95.6332
   806.7500      0.0000    882.9947     11.9478    101.8146
   807.0000      0.0000    879.4572     11.9840    106.5325
   807.2500      0.0000    873.8944     12.0035    110.2374
   807.5000      0.0000    867.8259     12.0136    114.0512
   807.7500      0.0000    862.5988     12.0164    118.8959
   808.0000      0.0000    859.7921     12.0148    125.0178
   808.2500      0.0000    862.2432     12.0183    131.6969
   808.5000      0.0000    876.0000     12.0388    137.3424
   808.7500      0.0000    910.6887     12.0816    140.3144
   809.0000      0.0000    973.5171     12.1401    139.9494
   809.2500      0.0000   1056.9869     12.2009    136.8307
   809.5000      0.0000   1132.3835     12.2537    132.1620
   809.7500      0.0000   1163.2253     12.2976    127.1238
   810.0000      0.0000   1132.5820     12.3379    122.8084
   810.2500      0.0000   1057.4592     12.3782    120.2325
   810.5000      0.0000    974.3120     12.4143    119.8245
   810.7500      0.0000    911.6908     12.4356    120.8573
   811.0000      0.0000    876.8166     12.4349    121.9267
   811.2500      0.0000    862.0823     12.4165    122.4285
   811.5000      0.0000    857.3621     12.3932    123.4585
   811.7500      0.0000    856.2372     12.3774    126.6544
   812.0000      0.0000    856.0039     12.3741    131.9397
   812.2500      0.0000    855.8544     12.3811    136.9367
   812.5000      0.0000    855.6887     12.3900    139.1271
   812.7500      0.0000    855.5768     12.3899    138.3243
   813.0000      0.0000    855.5816     12.3741    136.5430
   813.2500      0.0000    855.6765     12.3461    135.8138
   813.5000      0.0000    855.7712     12.3176    136.7934
   813.7500      0.0000    855.7842     12.2980    139.0714
   814.0000      0.0000    855.7079     12.2847    141.7798
   814.2500      0.0000    855.6406     12.2618    143.8143
   814.5000      0.0000    855.8075     12.2130    144.3570
   814.7500      0.0000    856.9516     12.1353    143.5285
   815.0000      0.0000    861.5334     12.0399    142.0556
   815.2500      0.0000    875.4344     11.9384    140.2406
   815.5000      0.0000    907.6252     11.8343    137.7739
   815.7500      0.0000    963.7374     11.7273    134.5281
   816.0000      0.0000   1035.5784     11.6197    131.0256
   816.2500      0.0000   1099.7482     11.5155    128.0465
   816.5000      0.0000   1135.4299     11.4184    126.0635
   816.7500      0.0000   1146.4257     11.3306    124.9360
   817.0000      0.0000   1159.4838     11.2537    123.9805
   817.2500      0.0000   1197.5234     11.1869    122.5518
   817.5000      0.0000   1257.8617     11.1292    120.6742
   817.7500      0.0000   1316.8970     11.0813    118.9113
   818.0000      0.0000   1349.2988     11.0433    117.6262
   818.2500      0.0000   1339.5835     11.0145    116.6413
   818.5000      0.0000   1283.3954     10.9994    115.7738
   818.7500      0.0000   1189.0300     11.0094    115.3966
   819.0000      0.0000   1078.8585     11.0535    116.0898
   819.2500      0.0000    980.9774     11.1265    117.6770
   819.5000      0.0000    913.6301     11.2105    118.8178
   819.7500      0.0000    877.6346     11.2836    117.7563
   820.0000      0.0000    862.7029     11.3272    113.4716
   820.2500      0.0000    857.8964     11.3334    106.1530
   820.5000      0.0000    856.7836     11.3103     96.9741
   820.7500      0.0000    857.0900     11.2792     87.5974
   821.0000      0.0000    858.5855     11.2619     79.4571
   821.2500      0.0000    861.2557     11.2661     73.0635
   821.5000      0.0000    864.3018     11.2797     68.0199
   821.7500      0.0000    866.4908     11.2795     63.7909
   822.0000      0.0000    867.3145     11.2498     60.3338
   822.2500      0.0000    867.3240     11.1959     58.0884
   822.5000      0.0000    867.0001     11.1360     57.7887
   822.7500      0.0000    865.9158     11.0819     60.2811
   823.0000      0.0000    863.5401     11.0339     65.8255
   823.2500      0.0000    860.3238     10.9948     73.2307
   823.5000      0.0000    857.4065     10.9761     80.3000
   823.7500      0.0000    855.5553     10.9853     85.5111
   824.0000      0.0000    854.7745     11.0121     88.7958
   824.2500      0.0000    854.6888     11.0315     90.5938
   824.5000      0.0000    854.9373     11.0199     90.8854
   824.7500      0.0000    855.2710     10.9667     89.3284
   825.0000      0.0000    855.5198     10.8762     85.7855
   825.2500      0.0000    855.5965     10.7616     80.5980
   825.5000      0.0000    855.5122     10.6384     74.6528
   825.7500      0.0000    855.3618     10.5218     69.0165
   826.0000      0.0000    855.2662     10.4289     64.2512
   826.2500      0.0000    855.3195     10.3749     60.2632
   826.5000      0.0000    855.5948     10.3678     56.8421
   826.7500      0.0000    856.2117     10.4066     54.0311
   827.0000      0.0000    857.4150     10.4833     52.0155
   827.2500      0.0000    859.4898     10.5863     51.1216
   827.5000      0.0000    862.3887     10.7012     52.0064
   827.7500      0.0000    865.3828     10.8144     55.2578
   828.0000      0.0000    867.4834     10.9174     60.3650
   828.2500      0.0000    868.5208     11.0073     65.3942
   828.5000      0.0000    869.4516     11.0834     68.3005
   828.7500      0.0000    871.1780     11.1425     68.7107
   829.0000      0.0000    873.3991     11.1753     68.3306
   829.2500      0.0000    875.0907     11.1627     69.6529
   829.5000      0.0000    875.8802     11.0872     74.2737
   829.7500      0.0000    876.3931     10.9545     82.1416
   830.0000      0.0000    877.0477     10.8038     91.9295
   830.2500      0.0000    876.9156     10.6848    101.9983
   830.5000      0.0000    874.4813     10.6244    111.3776
   830.7500      0.0000    869.5673     10.6173    120.0196
   831.0000      0.0000    863.8409     10.6473    127.9179
   831.2500      0.0000    859.2728     10.7084    133.9816
   831.5000      0.0000    856.6451     10.8048    136.1250
   831.7500      0.0000    855.5604     10.9333    132.9408
   832.0000      0.0000    855.2833     11.0718    125.5564
   832.2500      0.0000    855.2895     11.1878    117.5309
   832.5000      0.0000    855.3305     11.2581    112.3399
   832.7500      0.0000    855.3156     11.2821    110.8010
   833.0000      0.0000    855.2332     11.2782    111.1367
   833.2500      0.0000    855.1381     11.2697    111.3212
   833.5000      0.0000    855.1448     11.2722    110.9113
   833.7500      0.0000    855.3636     11.2902    110.7365
   834.0000      0.0000    855.8045     11.3210    111.6160
   834.2500      0.0000    856.3248     11.3615    113.7865
   834.5000      0.0000    856.6932     11.4048    117.0914
   834.7500      0.0000    856.5902     11.4251    121.0742
   835.0000      0.0000    855.4837     11.3677    124.8038
   835.2500      0.0000    852.5731     11.1722    127.0095
