~Version Information
VERS.                      2.0: CWLS Log ASCII Standard - VERSION 2.0
WRAP.                       NO: One line per depth step
~Well Information Block
STRT.FT                 0.0000: 
STOP.FT              1923.5000: 
STEP.FT                 0.2500: 
NULL.                -999.2500: 
COMP.          Petrogulf Corporation: COMPANY
WELL.            Montoya 7-14R: WELL
FLD.           Purgatorie River: FIELD
LOC.           628' FSL & 454' FWL: LOCATION
STAT.                 Colorado: State
CNTY.               Las Animas: COUNTY
CTRY. USA : Country
SECT. 7 : Section
TOWN. 33S : Township
RANG. 67W : Range
SRVC.                Patterson: SERVICE COMPANY
DATE.          Wed Nov 09 12:02:27 2005: LOG DATE
API. 05-071-08554                         : UNIQUE WELL ID
~Curve Information Block
DEPT.FT            0 000 00 00: Depth
CCL.                          : Casing Collar Locator
TT3.usec                      : CBL 3' Travel Time
AMP3.mV                       : CBL 3' Amplitude
GR.GAPI                       : Gamma Ray
~Parameter Information Block
~A  Depth       CCL         TT3         AMP3         GR     
# ...
  1507.5000      0.0000    382.4611     16.7464     77.8248
  1507.7500      0.0000    460.8721     13.4856     70.0266
  1508.0000      0.0000    547.4426     10.8020     65.9987
  1508.2500      0.0000    610.8382      8.7896     64.5723
  1508.5000      0.0000    639.6301      7.4322     64.0777
  1508.7500      0.0000    644.9691      6.7455     63.5133
  1509.0000      0.0000    637.6629      6.7191     62.5302
  1509.2500      0.0000    619.7661      7.2480     61.0580
  1509.5000      0.0000    593.5716      8.1996     59.4036
  1509.7500      0.0000    559.6710      9.4169     58.4084
  1510.0000      0.0000    511.0599     10.5914     59.0516
  1510.2500      0.0000    451.9281     11.2708     61.7497
  1510.5000      0.0000    410.7044     11.2155     66.0170
  1510.7500      0.0000    413.8478     10.7081     70.8701
  1511.0000      0.0000    456.6729     10.3049     75.5987
  1511.2500      0.0000    505.3979     10.3633     80.0348
  1511.5000      0.0000    532.4570     10.8727     84.1128
  1511.7500      0.0000    544.2298     11.5804     87.4921
  1512.0000      0.0000    548.5604     12.2456     89.8058
  1512.2500      0.0000    526.5496     12.7647     91.1261
  1512.5000      0.0000    473.2500     13.0694     91.9482
  1512.7500      0.0000    418.4377     13.1212     92.7059
  1513.0000      0.0000    385.3235     13.1012     93.5592
  1513.2500      0.0000    369.1139     13.4940     94.7070
  1513.5000      0.0000    356.8164     14.8479     96.5578
  1513.7500      0.0000    343.5525     17.3262     99.2763
  1514.0000      0.0000    330.7156     20.4923    102.3057
  1514.2500      0.0000    319.4588     23.5648    104.6907
  1514.5000      0.0000    310.7743     25.7427    105.9837
  1514.7500      0.0000    307.6466     26.4106    106.5148
  1515.0000      0.0000    312.8803     25.4341    106.4938
  1515.2500      0.0000    328.2054     23.2513    105.2912
  1515.5000      0.0000    356.8488     20.5597    102.1892
  1515.7500      0.0000    399.2055     17.9291     97.5793
  1516.0000      0.0000    445.4864     15.5516     92.8556
  1516.2500      0.0000    483.4013     13.3690     89.1911
  1516.5000      0.0000    503.9030     11.5782     86.6793
  1516.7500      0.0000    501.5379     10.5142     84.4345
  1517.0000      0.0000    495.2676      9.8438     81.3332
  1517.2500      0.0000    519.2259      8.9255     76.9265
  1517.5000      0.0000    569.1069      7.8883     71.8679
  1517.7500      0.0000    602.3412      7.2143     67.3549
  1518.0000      0.0000    591.0227      6.8971     64.1459
  1518.2500     -2.0000    540.9639      6.7042     62.2027
  1518.5000      2.0000    482.4906      6.5830     61.0990
  1518.7500      0.0000    456.5898      6.5357     60.4847
  1519.0000      0.0000    486.2830      6.4861     60.1231
  1519.2500      0.0000    556.6004      6.4461     59.7456
  1519.5000      0.0000    627.8913      6.5387     59.2356
  1519.7500      0.0000    668.4271      6.6989     59.0609
  1520.0000      0.0000    675.9542      6.7588     60.3150
  1520.2500      0.0000    669.5573      6.7851     64.1617
  1520.5000      0.0000    664.9603      6.8815     71.2396
  1520.7500      0.0000    665.8127      6.9819     81.4593
  1521.0000      0.0000    671.5931      7.0197     94.0180
  1521.2500      0.0000    679.8818      7.0005    107.3697
  1521.5000      0.0000    684.1000      6.9356    119.2800
  1521.7500      0.0000    679.9409      6.8331    127.3690
  1522.0000      0.0000    671.7912      6.7308    130.2351
  1522.2500      0.0000    666.0493      6.7186    128.4091
  1522.5000      0.0000    663.7041      6.9320    124.1714
  1522.7500      0.0000    662.5208      7.4822    120.4171
  1523.0000      0.0000    660.0504      8.3345    119.5276
  1523.2500      0.0000    651.4340      9.3324    122.4609
  1523.5000      0.0000    628.2877     10.4033    128.1573
  1523.7500      0.0000    587.8301     11.6362    134.1509
  1524.0000      0.0000    538.6851     13.1490    138.4977
  1524.2500      0.0000    484.7904     15.0020    141.1811
  1524.5000      0.0000    422.3947     17.2361    143.5926
  1524.7500      0.0000    362.2122     19.8558    146.9574
  1525.0000      0.0000    322.5050     22.6427    151.2661
  1525.2500      0.0000    305.4405     25.0666    155.2712
  1525.5000      0.0000    301.4681     26.5153    157.3945
  1525.7500      0.0000    305.6192     26.5516    156.9481
  1526.0000      0.0000    324.3845     25.0702    154.6082
  1526.2500      0.0000    372.0988     22.4482    151.6423
  1526.5000      0.0000    453.2916     19.4101    148.6941
  1526.7500      0.0000    545.3670     16.5598    145.4449
  1527.0000      0.0000    614.4010     14.1296    141.3860
  1527.2500      0.0000    648.9372     12.1536    136.6644
  1527.5000      0.0000    662.9981     10.6988    132.1618
  1527.7500      0.0000    673.8521      9.8692    128.8370
  1528.0000      0.0000    686.2150      9.6592    126.9422
  1528.2500      0.0000    690.4848      9.9435    125.8748
  1528.5000      0.0000    674.0411     10.6246    124.7356
  1528.7500      0.0000    630.3653     11.7340    122.7469
  1529.0000      0.0000    559.1420     13.4248    119.2147
  1529.2500      0.0000    473.6791     15.8514    113.6731
  1529.5000      0.0000    398.6516     18.9993    106.3849
  1529.7500      0.0000    348.0028     22.6377     98.4698
  1530.0000      0.0000    318.7762     26.4530     91.3596
  1530.2500      0.0000    302.8954     30.2497     86.0921
  1530.5000      0.0000    293.0510     33.9377     82.8333
  1530.7500      0.0000    284.6265     37.2026     80.8598
  1531.0000      0.0000    278.5011     39.4468     79.2640
  1531.2500      0.0000    278.3851     40.3535     77.9139
  1531.5000      0.0000    283.8839     40.2339     77.5176
  1531.7500      0.0000    290.1349     39.6153     78.6182
  1532.0000      0.0000    293.7849     38.8094     80.9102
  1532.2500      0.0000    295.0773     37.9465     83.6743
  1532.5000      0.0000    295.3305     37.0849     86.3109
  1532.7500      0.0000    295.2967     36.1541     88.0645
  1533.0000      0.0000    295.2595     34.9533     87.8561
  1533.2500      0.0000    295.3387     33.3662     85.2388
  1533.5000      0.0000    295.5904     31.5303     81.5275
  1533.7500      0.0000    296.0565     29.6697     79.3700
  1534.0000      0.0000    296.9135     27.8133     80.7087
  1534.2500      0.0000    298.8116     25.8413     85.0116
  1534.5000      0.0000    302.9616     23.7999     89.5283
  1534.7500      0.0000    310.0011     21.9099     91.5539
  1535.0000      0.0000    318.2798     20.2805     90.6918
  1535.2500      0.0000    324.7491     18.8813     88.7996
  1535.5000      0.0000    328.0635     17.7338     87.7341
  1535.7500      0.0000    329.1636     16.9575     87.6317
  1536.0000      0.0000    329.3373     16.6765     87.5599
  1536.2500      0.0000    329.2084     16.9115     87.0882
  1536.5000      0.0000    328.9844     17.4810     86.5982
  1536.7500      0.0000    328.7533     18.0045     86.5108
  1537.0000      0.0000    328.6259     18.1044     86.9132
  1537.2500      0.0000    329.1051     17.6447     87.8134
  1537.5000      0.0000    332.4857     16.7698     89.2754
  1537.7500      0.0000    345.8813     15.7649     91.2447
  1538.0000      0.0000    382.1863     14.8510     93.3507
  1538.2500      0.0000    450.2446     14.0455     94.7916
  1538.5000      0.0000    538.7320     13.2320     94.5558
  1538.7500      0.0000    619.7728     12.2920     92.2023
  1539.0000      0.0000    674.2789     11.1369     88.3771
  1539.2500      0.0000    702.9789      9.7683     84.1595
  1539.5000      0.0000    714.4695      8.3273     80.0200
  1539.7500      0.0000    715.6480      6.9922     75.9318
  1540.0000      0.0000    712.1777      5.8622     72.2917
  1540.2500      0.0000    707.8088      4.9634     69.8810
  1540.5000      0.0000    700.0605      4.2966     68.7319
  1540.7500      0.0000    685.4761      3.8295     67.8011
