~Version Information
VERS.                      2.0: CWLS Log ASCII Standard - VERSION 2.0
WRAP.                       NO: One line per depth step
~Well Information Block
STRT.FT               460.0000: 
STOP.FT              2311.7500: 
STEP.FT                 0.2500: 
NULL.                -999.2500: 
COMP.          Pioneer Natural Resources: COMPANY
WELL.          McDonald 33-31 R: WELL
FLD.           Purgatoire River: FIELD
LOC.           1386' FSL & 1926' FEL: LOCATION
STAT.                 Colorado: State
CNTY.               Las Animas: COUNTY
CTRY.                      USA: Country
SECT.                       31: Section
TOWN.                      32S: Township
RANG.                      66W: Range
SRVC.                Patterson: SERVICE COMPANY
DATE.          Fri Sep 23 00:08:18 2005: LOG DATE
API.           05 071 08533 00: API#
~Curve Information Block
DEPT.FT            0 000 00 00: Depth
SN.Ohm-m                      : IEL Short Normal
SP.mV                         : IEL Spontaneous Potential
DIR.Ohm-m                     : IEL Induction Resistivity
GR.GAPI                       : Gamma Ray
~Parameter Information Block
~A  Depth        SN          SP         DIR          GR     
   460.0000      0.3391   -422.2229 100000.0000     73.5383
   460.2500      0.3386   -422.2696 100000.0000     72.5326
   460.5000      0.3405   -422.3037 100000.0000     70.5785
   460.7500      0.3378   -422.3245 100000.0000     68.7899
   461.0000      0.3284   -422.3314 100000.0000     65.5129
   461.2500      0.3207   -422.3248 100000.0000     63.3012
   461.5000      0.3231   -422.3067 100000.0000     60.6370
   461.7500      0.3314   -422.2815 100000.0000     59.5591
   462.0000      0.3325   -422.2557 100000.0000     59.1749
   462.2500      0.3183   -422.2379     24.2007     59.6777
   462.5000      0.2940   -422.2378      6.5598     60.9610
   462.7500      0.2726   -422.2646      3.6624     61.4975
   463.0000      0.2635   -422.3253      2.7897     60.7096
   463.2500      0.2650   -422.4229      2.7057     59.0684
   463.5000      0.2693   -422.5544      3.3223     56.4219
   463.7500      0.2724   -422.7097      5.4573     55.9501
   464.0000      0.2757   -422.8715     16.6265     59.0243
   464.2500      0.2796   -423.0162 100000.0000     63.7555
   464.5000      0.2827   -423.1172 100000.0000     73.8250
   464.7500      0.2868   -423.1489 100000.0000     81.7348
   465.0000      0.2998   -423.0909 100000.0000     94.4759
   465.2500      0.3291   -422.9337 100000.0000    103.0710
   465.5000      0.3687   -422.6812 100000.0000    114.6834
   465.7500      0.3974   -422.3528     42.3928    120.5551
   466.0000      0.3964   -421.9823     17.8296    125.7638
   466.2500      0.3663   -421.6134     13.0175    127.2958
   466.5000      0.3234   -421.2931     11.4898    128.2738
   466.7500      0.2851   -421.0627     11.1259    128.7653
   467.0000      0.2624   -420.9507     11.2931    129.7263
   467.2500      0.2590   -420.9670     11.6897    130.5383
   467.5000      0.2717   -421.1031     12.1016    131.8541
   467.7500      0.2940   -421.3361     12.3667    132.5123
   468.0000      0.3183   -421.6351     12.4382    132.3932
   468.2500      0.3354   -421.9691     12.4302    131.2023
   468.5000      0.3366   -422.3125     12.5545    127.6267
   468.7500      0.3214   -422.6476     13.0033    124.2509
   469.0000      0.2960   -422.9654     13.8501    118.2803
   469.2500      0.2670   -423.2637     14.9495    114.1184
   469.5000      0.2376   -423.5458     15.8743    108.4799
   469.7500      0.2093   -423.8193     16.1092    105.6719
   470.0000      0.1863   -424.0945     15.5163    103.5489
   470.2500      0.1757   -424.3843     14.4567    103.5447
   470.5000      0.1829   -424.7036     13.3936    104.9739
   470.7500      0.2057   -425.0682     12.5961    106.2185
   471.0000      0.2365   -425.4955     12.1466    107.2972
   471.2500      0.2666   -426.0022     12.0304    106.9734
   471.5000      0.2864   -426.6049     12.1869    104.8581
   471.7500      0.2897   -427.3195     12.5266    102.8172
   472.0000      0.2790   -428.1616     12.9467     99.8262
   472.2500      0.2637   -429.1452     13.3557     98.2766
   472.5000      0.2525   -430.2819     13.6972     96.8824
   472.7500      0.2481   -431.5773     13.9518     96.5851
   473.0000      0.2470   -433.0237     14.1193     96.9422
   473.2500      0.2423   -434.5894     14.1982     97.5851
   473.5000      0.2311   -436.2071     14.1779     98.9770
   473.7500      0.2184   -437.7644     14.0439    100.1694
   474.0000      0.2109   -439.1058     13.7888    102.5571
   474.2500      0.2087   -440.0473     13.4225    104.7537
   474.5000      0.2060   -440.4079     12.9724    109.0471
   474.7500      0.2003   -440.0507     12.4765    112.3474
   475.0000      0.1969   -438.9211     11.9714    117.4304
   475.2500      0.2041   -437.0716     11.4840    120.7150
   475.5000      0.2262   -434.6591     11.0296    125.2137
   475.7500      0.2592   -431.9183     10.6151    127.6973
   476.0000      0.2933   -429.1173     10.2427    130.2918
   476.2500      0.3172   -426.5071      9.9133    131.2052
   476.5000      0.3231   -424.2852      9.6260    131.4718
   476.7500      0.3109   -422.5766      9.3788    130.9875
   477.0000      0.2874   -421.4326      9.1675    129.2677
   477.2500      0.2626   -420.8404      8.9866    127.5518
   477.5000      0.2474   -420.7336      8.8298    124.8415
   477.7500      0.2512   -420.9982      8.6913    123.5622
   478.0000      0.2748   -421.4756      8.5688    123.1645
   478.2500      0.3064   -421.9706      8.4654    123.9673
   478.5000      0.3278   -422.2708      8.3908    126.3264
   478.7500      0.3270   -422.1812      8.3590    128.1839
   479.0000      0.3098   -421.5657      8.3839    130.3208
   479.2500      0.2959   -420.3837      8.4748    130.7282
   479.5000      0.3016   -418.7065      8.6340    129.4006
   479.7500      0.3255   -416.7035      8.8588    127.4840
   480.0000      0.3532   -414.6017      9.1448    124.0243
   480.2500      0.3700   -412.6310      9.4907    121.7987
   480.5000      0.3693   -410.9695      9.9004    118.8600
   480.7500      0.3518   -409.7177     10.3813    117.1078
   481.0000      0.3244   -408.8913     10.9409    114.7062
   481.2500      0.2965   -408.4388     11.5818    113.3513
   481.5000      0.2765   -408.2741     12.2977    111.9112
   481.7500      0.2667   -408.3085     13.0720    111.3161
   482.0000      0.2606   -408.4741     13.8794    110.6466
   482.2500      0.2478   -408.7305     14.6903    110.1549
   482.5000      0.2272   -409.0586     15.4764    109.0878
   482.7500      0.2107   -409.4419     16.2171    108.0344
   483.0000      0.2090   -409.8489     16.9073    105.9846
   483.2500      0.2181   -410.2245     17.5637    104.4598
   483.5000      0.2265   -410.4996     18.2222    101.8752
   483.7500      0.2283   -410.6178     18.9235     99.6003
   484.0000      0.2265   -410.5679     19.6894     94.9528
   484.2500      0.2247   -410.4061     20.5044     91.3647
   484.5000      0.2183   -410.2552     21.3108     86.5377
   484.7500      0.1950   -410.2705     22.0200     84.3506
   485.0000      0.1475   -410.5908     22.5329     83.1261
   485.2500      0.0843   -411.2887     22.7620     83.6673
   485.5000      0.0268   -412.3456     22.6524     86.0567
   485.7500     -0.0014   -413.6571     22.2034     88.2645
   486.0000      0.0107   -415.0674     21.4766     91.9655
   486.2500      0.0536   -416.4149     20.5737     94.7453
   486.5000      0.1064   -417.5724     19.5945     99.7592
   486.7500      0.1537   -418.4682     18.6020    103.4967
   487.0000      0.1901   -419.0885     17.6146    108.1684
   487.2500      0.2179   -419.4640     16.6218    109.5050
   487.5000      0.2458   -419.6504     15.6099    108.0891
   487.7500      0.2812   -419.7101     14.5838    105.5834
   488.0000      0.3175   -419.6992     13.5728    101.9047
   488.2500      0.3357   -419.6616     12.6210    100.8383
   488.5000      0.3217   -419.6281     11.7685    102.5741
   488.7500      0.2751   -419.6187     11.0374    106.0012
   489.0000      0.2065   -419.6411     10.4281    113.7778
   489.2500      0.1316   -419.6970      9.9253    120.0225
   489.5000      0.0661   -419.7831      9.5068    129.5423
   489.7500      0.0176   -419.8918      9.1532    135.0133
   490.0000     -0.0147   -420.0118      8.8525    140.3248
   490.2500     -0.0345   -420.1300      8.6008    141.3831
   490.5000     -0.0445   -420.2335      8.3987    139.2607
   490.7500     -0.0489   -420.3114      8.2466    135.9324
   491.0000     -0.0510   -420.3562      8.1419    129.8156
   491.2500     -0.0509   -420.3647      8.0790    126.1572
   491.5000     -0.0439   -420.3372      8.0504    122.4955
   491.7500     -0.0245   -420.2771      8.0483    121.1391
   492.0000      0.0065   -420.1891      8.0644    119.7072
   492.2500      0.0367   -420.0797      8.0906    118.8591
   492.5000      0.0496   -419.9575      8.1188    118.2254
   492.7500      0.0409   -419.8345      8.1425    118.5524
   493.0000      0.0248   -419.7263      8.1563    119.8301
   493.2500      0.0189   -419.6508      8.1550    120.6763
