~Version Information
 VERS.                                  2.0 : CWLS LAS VERSION
 WRAP.                                   NO : WRAPING MODE
 SWARE .                 MController 2.5.0N : SOFTWARE VERSION
~Well Information
 WELL.                      Whitecoat 14-36 : WELL
 COMP.   Pioneer Natural Resources USA Inc. : COMPANY
 FLD.                      Purgatoire River : FIELD
 LOC.               SW/SW Sec 36 T34S  R65W : LOCATION
 DATE.                            12/4-5/05 : DATE(S) LOGGED
 SRVC.       BLANCO Geological Services LLC : SERVICE COMPANY
 STAT.                                   CO : STATE
 CNTY.                           Las Animas : COUNTY
 CTRY.                                  USA : COUNTRY
 API.                       05-071-08593-00 : API NUMBER
 STRT.FT                             161.00 : START DEPTH
 STOP.FT                            1182.00 : STOP DEPTH
 STEP.FT                               1.00 : DEPTH INCREMENT
 NULL.                                -9999 : NULL VALUE
~Curve information
 DEPTH.FT                                   :
 ROP.MIN/FT                                 :
 GAS.UNITS                                  :
~ASCII Log data
# ...
       961.0         0.37         49.9 
       962.0         0.33         50.5 
       963.0         0.33         50.1 
       964.0         0.37         49.9 
       965.0         0.35         48.8 
       966.0         0.33         50.2 
       967.0         0.37         50.1 
       968.0         0.33         49.2 
       969.0         0.33         49.5 
       970.0         0.33         49.5 
       971.0         0.37         49.5 
       972.0         0.37         48.8 
       973.0         0.40         50.3 
       974.0         0.32         58.9 
       975.0         0.27         77.2 
       976.0         0.33         77.7 
       977.0         0.40         64.7 
       978.0         0.33         56.7 
       979.0         0.33          9.3 
       980.0         0.80          7.7 
       981.0         1.18         40.7 
       982.0         3.55        109.0 
       983.0         0.57         70.3 
       984.0         0.47         71.5 
       985.0         0.37         74.5 
       986.0         0.40         72.6 
       987.0         0.23         65.3 
       988.0         0.20         65.2 
       989.0         0.27         64.0 
       990.0         0.42         62.0 
       991.0         0.33         57.3 
       992.0         0.30         56.0 
       993.0         0.50         54.4 
       994.0         0.33         51.7 
       995.0         0.37         50.4 
       996.0         0.33         49.4 
       997.0         0.33         49.7 
       998.0         0.30         49.4 
       999.0         0.37         48.9 
      1000.0         0.32         48.6 
      1001.0         0.37         49.1 
      1002.0         0.43         49.5 
      1003.0         0.43         49.4 
      1004.0         0.50         63.1 
      1005.0         0.33         60.2 
      1006.0         0.30         59.0 
      1007.0         0.40         14.7 
      1008.0         0.32          7.8 
      1009.0         0.50          8.0 
      1010.0         0.50         39.6 
      1011.0         0.83         46.7 
      1012.0         2.68        106.2 
      1013.0         0.53         83.7 
      1014.0         0.43         77.9 
      1015.0         0.43         67.3 
      1016.0         0.50         61.2 
      1017.0         0.45         56.5 
      1018.0         0.40         51.7 
      1019.0         0.37         50.6 
      1020.0         0.37         49.1 
      1021.0         0.33         48.0 
      1022.0         0.33         45.7 
      1023.0         0.33         44.0 
      1024.0         0.33         42.4 
      1025.0         0.33         41.0 
      1026.0         0.38         40.5 
      1027.0         0.43         39.3 
      1028.0         0.33         39.2 
      1029.0         0.33         38.9 
      1030.0         0.37         39.4 
      1031.0         0.33         39.9 
      1032.0         0.40         40.1 
      1033.0         0.37         43.6 
      1034.0         0.33         53.6 
      1035.0         0.33         60.3 
      1036.0         0.42         60.0 
      1037.0         0.30         49.0 
      1038.0         0.30         42.6 
      1039.0         0.20         38.9 
      1040.0         0.30         40.1 
      1041.0         0.67         13.4 
      1042.0         6.17        134.8 
      1043.0         0.47         62.1 
      1044.0         0.40         57.4 
      1045.0         0.47         53.2 
      1046.0         0.43         49.1 
      1047.0         0.42         45.5 
      1048.0         0.40         43.9 
      1049.0         0.40         41.7 
      1050.0         0.40         40.6 
      1051.0         0.37         39.8 
      1052.0         0.40         39.0 
      1053.0         0.37         37.8 
      1054.0         0.37         37.3 
      1055.0         0.42         37.1 
      1056.0         0.37         36.6 
      1057.0         0.37         36.6 
      1058.0         0.30         36.5 
      1059.0         0.37         36.3 
      1060.0         0.37         36.0 
      1061.0         0.33         35.9 
      1062.0         0.33         36.4 
      1063.0         0.33         42.7 
      1064.0         0.37         55.5 
      1065.0         0.38         89.4 
      1066.0         0.33         38.3 
      1067.0         0.33          8.3 
      1068.0         0.33          8.3 
      1069.0         0.33         15.5 
      1070.0         0.57         23.2 
      1071.0         0.60         41.8 
      1072.0         2.32         83.9 
      1073.0         0.73         64.1 
      1074.0         0.57         62.8 
      1075.0         0.55         59.9 
      1076.0         0.50         53.7 
      1077.0         0.47         50.1 
      1078.0         0.43         46.9 
      1079.0         0.33         45.8 
      1080.0         0.33         43.1 
      1081.0         0.37         42.7 
      1082.0         0.37         41.0 
      1083.0         0.38         42.1 
      1084.0         0.33         42.3 
      1085.0         0.40         42.2 
      1086.0         0.37         41.6 
      1087.0         0.37         41.2 
      1088.0         0.33         40.5 
      1089.0         0.30         40.1 
      1090.0         0.33         40.3 
      1091.0         0.33         40.0 
      1092.0         0.30         40.4 
      1093.0         0.38         40.2 
      1094.0         0.33         39.4 
      1095.0         0.30         48.5 
      1096.0         0.33         81.3 
      1097.0         0.33         83.4 
      1098.0         0.40         39.3 
      1099.0         0.33          9.4 
      1100.0         0.37          8.7 
      1101.0         0.72         27.9 
      1102.0         4.15        103.3 
      1103.0         0.53          9.3 
      1104.0         0.47          8.6 
      1105.0         0.53          9.2 
      1106.0         0.43          8.8 
      1107.0         0.40          8.9 
      1108.0         0.45          9.0 
      1109.0         0.43          8.5 
      1110.0         0.37          8.7 
      1111.0         0.43          8.7 
      1112.0         0.43          8.7 
      1113.0         0.40          9.0 
      1114.0         0.40          9.0 
      1115.0         0.40          8.6 
      1116.0         0.35          8.5 
      1117.0         0.37          8.5 
      1118.0         0.37          8.5 
      1119.0         0.37          8.6 
      1120.0         0.37          8.7 
      1121.0         0.40          8.7 
      1122.0         0.37          8.4 
      1123.0         0.33          8.1 
      1124.0         0.27         19.5 
      1125.0         0.38         25.9 
      1126.0         0.33          8.7 
      1127.0         0.33          8.6 
      1128.0         0.33          8.5 
      1129.0         0.30          8.2 
      1130.0         0.63          8.6 
      1131.0         0.47         10.7 
      1132.0         5.37          9.8 
      1133.0         0.37          8.3 
      1134.0         0.33          8.8 
      1135.0         0.40          8.8 
      1136.0         0.30          8.5 
      1137.0         0.30          8.4 
      1138.0         0.33          8.6 
      1139.0         0.35          8.6 
      1140.0         0.30          8.3 
      1141.0         0.30          8.4 
      1142.0         0.30          8.3 
      1143.0         0.30          8.3 
      1144.0         0.30          8.3 
      1145.0         0.30          8.6 
      1146.0         0.30          8.6 
      1147.0         0.33          8.4 
      1148.0         0.40          8.3 
      1149.0         0.38          8.4 
      1150.0         0.40          8.7 
      1151.0         0.37          8.7 
      1152.0         0.37          8.7 
      1153.0         0.30          8.9 
      1154.0         0.37          8.9 
      1155.0         0.33          8.7 
      1156.0         0.37          8.6 
      1157.0         0.33          8.6 
      1158.0         0.37          8.7 
      1159.0         0.55          8.4 
      1160.0         0.53          8.9 
