~Version Information
VERS.                      2.0: CWLS Log ASCII Standard - VERSION 2.0
WRAP.                       NO: One line per depth step
~Well Information Block
STRT.FT               491.0000: 
STOP.FT              1911.5000: 
STEP.FT                 0.2500: 
NULL.                -999.2500: 
COMP.          Pioneer Natural Resources: COMPANY
WELL.            Corazon 13-10: WELL
FLD.           Purgatoire River: FIELD
LOC.           2510' FSL & 439' FWL: LOCATION
PROV.                 Colorado: PROVINCE
CNTY.               Las Animas: COUNTRY
SRVC.                Patterson: SERVICE COMPANY
DATE.          Wed Nov 30 22:14:48 2005: LOG DATE
UWI.           05 071 08613 00: UNIQUE WELL ID
~Curve Information Block
DEPT.FT            0 000 00 00: Depth
SN.Ohm-m                      : IEL Short Normal
SP.mV                         : IEL Spontaneous Potential
DIR.Ohm-m                     : IEL Induction Resistivity
GR.GAPI                       : Gamma Ray
~Parameter Information Block
~A  Depth        SN          SP         DIR          GR     
# ...
  1596.5000     12.8954     69.7932     11.3145    103.1642
  1596.7500     13.0291     69.7168     11.3144    103.3441
  1597.0000     13.0592     69.6153     11.3473    104.0548
  1597.2500     12.9962     69.4894     11.4017    104.5130
  1597.5000     12.9183     69.3531     11.4731    104.3578
  1597.7500     12.8724     69.2295     11.5635    103.4519
  1598.0000     12.8346     69.1430     11.6768    101.4751
  1598.2500     12.7802     69.1060     11.8120    100.4112
  1598.5000     12.7232     69.1071     11.9592     99.6645
  1598.7500     12.7167     69.1150     12.1018     99.3804
  1599.0000     12.8368     69.0990     12.2232     98.5910
  1599.2500     13.0834     69.0486     12.3152     97.9324
  1599.5000     13.3284     68.9770     12.3827     97.4214
  1599.7500     13.4610     68.9071     12.4414     97.4737
  1600.0000     13.5186     68.8567     12.5098     97.5466
  1600.2500     13.6011     68.8330     12.6014     97.2958
  1600.5000     13.7335     68.8345     12.7211     96.4695
  1600.7500     13.8677     68.8509     12.8670     95.6108
  1601.0000     13.9625     68.8636     13.0346     93.4874
  1601.2500     14.0171     68.8527     13.2204     91.4131
  1601.5000     14.0650     68.8089     13.4213     87.9024
  1601.7500     14.1567     68.7407     13.6315     85.8261
  1602.0000     14.3131     68.6688     13.8413     83.4858
  1602.2500     14.4856     68.6153     14.0420     82.2936
  1602.5000     14.6135     68.5938     14.2330     80.6584
  1602.7500     14.7014     68.6068     14.4248     79.4921
  1603.0000     14.7383     68.6485     14.6339     77.3897
  1603.2500     14.6253     68.7058     14.8722     75.7088
  1603.5000     14.3525     68.7621     15.1392     73.0801
  1603.7500     14.1673     68.8022     15.4214     71.6258
  1604.0000     14.3321     68.8180     15.7012     70.3915
  1604.2500     14.7732     68.8094     15.9662     70.1581
  1604.5000     15.2455     68.7809     16.2144     70.1010
  1604.7500     15.6907     68.7391     16.4516     69.8654
  1605.0000     16.1911     68.6915     16.6845     68.9463
  1605.2500     16.7283     68.6434     16.9157     68.1335
  1605.5000     17.1736     68.5920     17.1410     67.2339
  1605.7500     17.4760     68.5249     17.3494     67.0652
  1606.0000     17.7057     68.4238     17.5246     67.2127
  1606.2500     17.8921     68.2718     17.6496     67.2099
  1606.5000     17.9770     68.0560     17.7157     66.5514
  1606.7500     17.9885     67.7644     17.7299     65.6424
  1607.0000     18.1089     67.3820     17.7140     63.9765
  1607.2500     18.4220     66.8992     17.6916     62.9735
  1607.5000     18.7523     66.3253     17.6741     61.8095
  1607.7500     18.8989     65.6939     17.6563     61.1654
  1608.0000     18.8347     65.0486     17.6257     60.3976
  1608.2500     18.6475     64.4207     17.5764     60.2385
  1608.5000     18.4532     63.8191     17.5152     60.8450
  1608.7500     18.3432     63.2390     17.4574     61.7088
  1609.0000     18.3296     62.6777     17.4192     63.1169
  1609.2500     18.3618     62.1433     17.4113     63.8025
  1609.5000     18.4178     61.6513     17.4363     64.2237
  1609.7500     18.5122     61.2131     17.4886     64.1833
  1610.0000     18.6252     60.8276     17.5582     63.9011
  1610.2500     18.7266     60.4833     17.6387     63.5903
  1610.5000     18.8364     60.1686     17.7357     62.6905
  1610.7500     18.9836     59.8814     17.8674     61.6624
  1611.0000     19.1899     59.6288     18.0588     59.5348
  1611.2500     19.5015     59.4189     18.3299     57.8905
  1611.5000     19.9297     59.2550     18.6855     55.3791
  1611.7500     20.4033     59.1360     19.1106     53.8587
  1612.0000     20.8177     59.0602     19.5704     52.3054
  1612.2500     21.1481     59.0265     20.0158     52.0969
  1612.5000     21.5236     59.0350     20.3897     53.1831
  1612.7500     22.0818     59.0906     20.6323     54.3938
  1613.0000     22.7902     59.2049     20.6874     55.4186
  1613.2500     23.4946     59.3935     20.5158     54.8138
  1613.5000     24.0612     59.6724     20.1134     51.9736
  1613.7500     24.4171     60.0568     19.5200     49.6191
  1614.0000     24.4743     60.5607     18.8071     47.4190
  1614.2500     24.0763     61.1985     18.0508     47.8967
  1614.5000     23.0790     61.9852     17.3067     52.7058
  1614.7500     21.5213     62.9266     16.5987     58.7946
  1615.0000     19.6824     63.9977     15.9212     71.1676
  1615.2500     17.9145     65.1266     15.2490     80.1303
  1615.5000     16.4266     66.2080     14.5513     91.8164
  1615.7500     15.2696     67.1450     13.8030     97.3645
  1616.0000     14.4551     67.8911     12.9945    102.0704
  1616.2500     13.9439     68.4571     12.1383    103.3149
  1616.5000     13.5955     68.8873     11.2676    103.6724
  1616.7500     13.2515     69.2274     10.4285    103.6728
  1617.0000     12.7965     69.5108      9.6660    104.2696
  1617.2500     12.1499     69.7591      9.0128    105.2735
  1617.5000     11.3298     69.9868      8.4845    107.5596
  1617.7500     10.5188     70.2007      8.0786    109.4648
  1618.0000      9.9441     70.3984      7.7792    112.8198
  1618.2500      9.6734     70.5707      7.5631    115.3165
  1618.5000      9.5945     70.7084      7.4066    118.9297
  1618.7500      9.5518     70.8053      7.2910    120.7775
  1619.0000      9.4568     70.8581      7.2038    122.2862
  1619.2500      9.3017     70.8676      7.1374    122.6677
  1619.5000      9.1023     70.8448      7.0879    122.9780
  1619.7500      8.8603     70.8119      7.0544    123.1365
  1620.0000      8.6096     70.7910      7.0404    123.0091
  1620.2500      8.4545     70.7898      7.0523    122.6389
  1620.5000      8.4958     70.7979      7.0979    122.4682
  1620.7500      8.7462     70.7983      7.1820    123.4401
  1621.0000      9.1822     70.7810      7.3050    127.2311
  1621.2500      9.7981     70.7461      7.4624    130.7028
  1621.5000     10.5130     70.6982      7.6474    135.0648
  1621.7500     11.1341     70.6427      7.8530    136.3117
  1622.0000     11.5011     70.5876      8.0740    135.0439
  1622.2500     11.6114     70.5443      8.3065    132.2374
  1622.5000     11.5793     70.5221      8.5465    125.7491
  1622.7500     11.4825     70.5225      8.7882    120.6248
  1623.0000     11.2896     70.5385      9.0250    113.5726
  1623.2500     11.0053     70.5589      9.2499    110.3793
  1623.5000     10.7981     70.5709      9.4565    108.6781
  1623.7500     10.8478     70.5614      9.6386    109.1220
  1624.0000     11.1729     70.5208      9.7908    110.2533
  1624.2500     11.6814     70.4492      9.9113    110.3180
  1624.5000     12.2579     70.3598     10.0059    108.6470
  1624.7500     12.7574     70.2733     10.0893    106.4689
  1625.0000     13.0139     70.2058     10.1821    102.5829
  1625.2500     12.9690     70.1609     10.3051    100.4738
  1625.5000     12.7661     70.1313     10.4743     99.2940
  1625.7500     12.6180     70.1047     10.6986     99.8558
  1626.0000     12.6136     70.0699     10.9825    101.3386
  1626.2500     12.7109     70.0208     11.3299    101.6632
  1626.5000     12.8934     69.9586     11.7452    100.2675
  1626.7500     13.2658     69.8892     12.2297     98.4332
  1627.0000     13.9724     69.8190     12.7756     95.5350
  1627.2500     15.0572     69.7491     13.3611     93.8946
  1627.5000     16.3963     69.6723     13.9495     91.6489
  1627.7500     17.7724     69.5718     14.4914     89.8986
  1628.0000     19.0691     69.4308     14.9299     86.1534
  1628.2500     20.3668     69.2453     15.2089     82.5165
  1628.5000     21.8023     69.0296     15.2863     75.0358
  1628.7500     23.3765     68.8117     15.1496     68.9641
  1629.0000     24.9214     68.6312     14.8197     59.6018
  1629.2500     26.1988     68.5458     14.3424     54.3681
  1629.5000     26.9536     68.6264     13.7719     50.1866
  1629.7500     26.8533     68.9289     13.1590     50.8345
