~Version Information
VERS.                      2.0: CWLS Log ASCII Standard - VERSION 2.0
WRAP.                       NO: One line per depth step
~Well Information Block
STRT.FT               460.0000: 
STOP.FT              1349.5000: 
STEP.FT                 0.2500: 
NULL.                -999.2500: 
COMP.          Pioneer Natural Resources: COMPANY
WELL.              Dicks 32-5R: WELL
FLD.           Purgatorie River: FIELD
LOC.           1485' FNL & 1684' FEL: LOCATION
PROV.                 Colorado: PROVINCE
CNTY.               Las Animas: COUNTRY
SRVC.                Patterson: SERVICE COMPANY
DATE.          Thu Dec 08 23:11:15 2005: LOG DATE
UWI.                          : UNIQUE WELL ID
~Curve Information Block
DEPT.FT            0 000 00 00: Depth
SN.Ohm-m                      : IEL Short Normal
SP.mV                         : IEL Spontaneous Potential
DIR.Ohm-m                     : IEL Induction Resistivity
GR.GAPI                       : Gamma Ray
~Parameter Information Block
~A  Depth        SN          SP         DIR          GR     
# ...
   862.0000     26.2135    192.5952     21.8722     84.0106
   862.2500     25.1349    192.4122     20.7523     84.3116
   862.5000     23.9147    192.2668     19.5732     83.5824
   862.7500     22.6277    192.2034     18.3675     82.2633
   863.0000     21.3190    192.2443     17.1819     80.1668
   863.2500     20.0260    192.3889     16.0590     79.6565
   863.5000     18.7960    192.6280     15.0206     81.3095
   863.7500     17.6388    192.9491     14.0671     84.0136
   864.0000     16.5521    193.3238     13.1895     89.5259
   864.2500     15.5961    193.7017     12.3841     93.4361
   864.5000     14.8238    194.0260     11.6583     98.8377
   864.7500     14.1896    194.2602     11.0266    102.1435
   865.0000     13.6226    194.4003     10.5014    107.2773
   865.2500     13.1159    194.4698     10.0860    111.1096
   865.5000     12.6968    194.5027      9.7744    117.2537
   865.7500     12.3742    194.5240      9.5567    121.1479
   866.0000     12.1320    194.5390      9.4238    126.1448
   866.2500     11.9373    194.5399      9.3702    129.1431
   866.5000     11.7486    194.5216      9.3923    134.1659
   866.7500     11.5480    194.4852      9.4860    138.1620
   867.0000     11.3778    194.4296      9.6448    144.2434
   867.2500     11.3170    194.3506      9.8609    147.2824
   867.5000     11.4140    194.2565     10.1259    148.9132
   867.7500     11.6770    194.1814     10.4320    148.0071
   868.0000     12.1341    194.1709     10.7704    144.6102
   868.2500     12.8662    194.2525     11.1300    141.5302
   868.5000     13.9292    194.4134     11.4965    135.9948
   868.7500     15.2343    194.6036     11.8535    131.7721
   869.0000     16.5418    194.7606     12.1826    125.3732
   869.2500     17.5983    194.8415     12.4632    121.7639
   869.5000     18.2783    194.8453     12.6706    117.8639
   869.7500     18.5985    194.8102     12.7783    115.7599
   870.0000     18.6225    194.7875     12.7655    111.9055
   870.2500     18.3810    194.8158     12.6294    108.6133
   870.5000     17.8866    194.9162     12.3879    103.6960
   870.7500     17.1750    195.1074     12.0721    101.3959
   871.0000     16.2976    195.4123     11.7143    100.3336
   871.2500     15.3191    195.8420     11.3406    101.1586
   871.5000     14.3561    196.3802     10.9705    104.0685
   871.7500     13.5381    196.9937     10.6183    106.7281
   872.0000     12.8973    197.6595     10.2944    111.2255
   872.2500     12.3777    198.3786     10.0055    114.2974
   872.5000     11.9274    199.1678      9.7549    118.7861
   872.7500     11.5018    200.0376      9.5437    121.6760
   873.0000     11.0807    200.9735      9.3712    125.7926
   873.2500     10.7083    201.9298      9.2371    128.3539
   873.5000     10.4254    202.8361      9.1424    132.1746
   873.7500     10.2247    203.6164      9.0882    135.0243
   874.0000     10.1224    204.2135      9.0750    139.9416
   874.2500     10.1913    204.6075      9.1014    143.2442
   874.5000     10.4912    204.8142      9.1641    146.8833
   874.7500     11.0090    204.8654      9.2585    147.7437
   875.0000     11.6785    204.7892      9.3784    146.5200
   875.2500     12.4115    204.6071      9.5164    144.6067
   875.5000     13.0826    204.3419      9.6645    141.5513
   875.7500     13.5464    204.0197      9.8151    139.9458
   876.0000     13.7432    203.6626      9.9626    137.9948
   876.2500     13.7486    203.2857     10.1043    136.4271
   876.5000     13.6760    202.9064     10.2427    133.0601
   876.7500     13.5844    202.5556     10.3855    130.4886
   877.0000     13.4918    202.2714     10.5434    127.6586
   877.2500     13.4263    202.0770     10.7269    127.2159
   877.5000     13.4328    201.9671     10.9421    128.9202
   877.7500     13.5302    201.9157     11.1905    131.1700
   878.0000     13.6968    201.8890     11.4720    135.1128
   878.2500     13.9067    201.8491     11.7888    137.5959
   878.5000     14.1444    201.7562     12.1494    140.5777
   878.7500     14.3864    201.5819     12.5674    141.9472
   879.0000     14.6380    201.3260     13.0602    143.0014
   879.2500     15.0054    201.0201     13.6469    142.9090
   879.5000     15.6863    200.7089     14.3484    141.0067
   879.7500     16.8775    200.4224     15.1852    138.2479
   880.0000     18.6694    200.1648     16.1696    132.2373
   880.2500     20.9266    199.9307     17.2922    127.8704
   880.5000     23.2649    199.7247     18.5103    122.5463
   880.7500     25.3392    199.5594     19.7499    120.2724
   881.0000     27.2066    199.4413     20.9183    117.8708
   881.2500     29.2279    199.3692     21.9178    115.5294
   881.5000     31.5371    199.3466     22.6525    108.1021
   881.7500     33.7380    199.3891     23.0425     99.7046
   882.0000     35.1950    199.5168     23.0512     83.2417
   882.2500     35.5289    199.7428     22.7040     71.7339
   882.5000     34.7967    200.0619     22.0782     57.2599
   882.7500     33.3245    200.4418     21.2719     50.6567
   883.0000     31.4276    200.8244     20.3740     45.6519
   883.2500     29.2687    201.1415     19.4431     45.2755
   883.5000     26.9470    201.3390     18.5016     48.4780
   883.7500     24.6083    201.3983     17.5484     52.6617
   884.0000     22.4172    201.3429     16.5850     60.9798
   884.2500     20.4731    201.2264     15.6337     67.2961
   884.5000     18.7639    201.1109     14.7347     77.3995
   884.7500     17.2106    201.0478     13.9266     84.6046
   885.0000     15.7804    201.0586     13.2276     96.3712
   885.2500     14.5416    201.1229     12.6295    104.7478
   885.5000     13.6124    201.1908     12.1070    117.2733
   885.7500     13.0725    201.2244     11.6327    124.9298
   886.0000     12.8670    201.2338     11.1895    134.4311
   886.2500     12.7976    201.2660     10.7719    139.1091
   886.5000     12.6980    201.3628     10.3815    143.3752
   886.7500     12.5643    201.5370     10.0231    144.4257
   887.0000     12.4403    201.7793      9.7045    143.9058
   887.2500     12.2977    202.0686      9.4364    142.7566
   887.5000     12.0730    202.3671      9.2301    140.6380
   887.7500     11.7650    202.6187      9.0925    139.0729
   888.0000     11.4625    202.7672      9.0229    136.4009
   888.2500     11.2409    202.7861      9.0151    134.4929
   888.5000     11.0829    202.6875      9.0609    131.9133
   888.7500     10.9511    202.5021      9.1530    130.6943
   889.0000     10.8680    202.2576      9.2856    130.0407
   889.2500     10.8563    201.9798      9.4534    130.4858
   889.5000     10.8877    201.7039      9.6498    132.2689
   889.7500     10.9692    201.4715      9.8668    133.9636
   890.0000     11.1832    201.3137     10.0955    136.9972
   890.2500     11.5887    201.2366     10.3283    139.2354
   890.5000     12.1688    201.2253     10.5623    142.3333
   890.7500     12.8756    201.2688     10.8008    143.6102
   891.0000     13.6355    201.3841     11.0530    143.2910
   891.2500     14.3352    201.6118     11.3310    141.1996
   891.5000     14.9059    201.9856     11.6451    135.1663
   891.7500     15.3772    202.5052     11.9999    129.6537
   892.0000     15.7760    203.1314     12.3923    120.6629
   892.2500     16.0562    203.7998     12.8096    115.0653
   892.5000     16.1535    204.4405     13.2271    107.9278
   892.7500     16.0500    205.0005     13.6055    104.0104
   893.0000     15.7856    205.4574     13.8920     99.7113
   893.2500     15.4294    205.8167     14.0300     98.5091
   893.5000     15.0283    206.0941     13.9778    100.2502
   893.7500     14.5717    206.3003     13.7287    103.7761
   894.0000     14.0467    206.4396     13.3164    111.2890
   894.2500     13.4998    206.5168     12.8023    116.6280
   894.5000     12.9911    206.5393     12.2529    123.4878
   894.7500     12.5412    206.5189     11.7223    126.8191
   895.0000     12.1348    206.4788     11.2452    129.8082
   895.2500     11.7452    206.4584     10.8371    130.5296
