~Version Information
VERS.                      2.0: CWLS Log ASCII Standard - VERSION 2.0
WRAP.                       NO: One line per depth step
~Well Information Block
STRT.FT               970.0000: 
STOP.FT              1881.0000: 
STEP.FT                 0.1000: 
NULL.                -999.2500: 
COMP.          Petrogulf Corporation: COMPANY
WELL.             Norton 9-14R: WELL
FLD.           Purgatorie River: FIELD
LOC.           725' FSL & 1103' FWL: LOCATION
PROV.                 Colorado: PROVINCE
CNTY.               Las Animas: COUNTRY
SRVC.                Patterson: SERVICE COMPANY
DATE.          Fri Oct 07 07:52:23 2005: LOG DATE
UWI.                          : UNIQUE WELL ID
~Curve Information Block
DEPT.FT            0 000 00 00: Depth
DCAL.in                       : CDL Caliper
RHOB.g/cc                     : CDL Bulk Density
RHOC.g/cc                     : CDL Density Correction
DPOR.pu                       : CDL Density Porosity
GR.GAPI                       : Gamma Ray
NPOR.pu                       : Neutron Porosity
~Parameter Information Block
~A  Depth       DCAL        RHOB        RHOC        DPOR         GR         NPOR    
   970.0000      8.1217      2.3216     -0.4270     19.9005     66.8775     31.7704
   970.1000      8.1217      2.2787     -0.5231     22.5042     62.7101     32.2222
   970.2000      8.1217      2.2290     -0.5867     25.5147     65.7277     32.3436
   970.3000      8.1154      2.1833     -0.5295     28.2842     74.5107     32.2575
   970.4000      8.1154      2.1214     -0.6335     32.0339     82.2113     32.2155
   970.5000      8.1261      2.0400     -0.5902     36.9688     84.2080     32.2848
   970.6000      8.1261      1.9560     -0.6202     42.0625     80.8339     32.6000
   970.7000      8.1261      1.8886     -0.6340     46.1439     74.8978     33.0917
   970.8000      8.1306      1.8388     -0.6101     49.1644     69.9078     33.5348
   970.9000      8.1306      1.7869     -0.6311     52.3096     68.5440     33.8456
   971.0000      8.1307      1.7322     -0.7493     55.6254     70.5774     34.0232
   971.1000      8.1307      1.6881     -0.6761     58.2975     73.1685     34.0811
   971.2000      8.1307      1.6531     -0.7543     60.4169     75.7690     34.0014
   971.3000      8.1356      1.6307     -0.7886     61.7766     77.9943     33.8908
   971.4000      8.1356      1.6296     -0.8202     61.8395     77.7034     33.9605
   971.5000      8.1358      1.6410     -0.7371     61.1541     74.6306     34.2327
   971.6000      8.1358      1.6542     -0.7666     60.3507     70.9170     34.4104
   971.7000      8.1358      1.6844     -0.8055     58.5195     68.0218     34.2790
   971.8000      8.1391      1.7423     -0.7048     55.0126     66.2264     33.9554
   971.9000      8.1391      1.8117     -0.6873     50.8057     67.5516     33.6427
   972.0000      8.1346      1.8797     -0.6688     46.6850     73.8252     33.5107
   972.1000      8.1346      1.9468     -0.6385     42.6211     81.0760     33.6408
   972.2000      8.1346      2.0145     -0.6113     38.5135     84.5194     33.8449
   972.3000      8.1348      2.0965     -0.6707     33.5475     84.0336     33.8255
   972.4000      8.1348      2.2007     -0.5903     27.2290     80.2235     33.6038
   972.5000      8.1341      2.2947     -0.5089     21.5346     75.9127     33.4216
   972.6000      8.1341      2.3474     -0.5458     18.3366     74.9539     33.3031
   972.7000      8.1341      2.3777     -0.5602     16.5054     76.0060     33.0886
   972.8000      8.1348      2.4076     -0.4707     14.6921     76.6565     32.8330
   972.9000      8.1348      2.4237     -0.5093     13.7151     77.7718     32.6920
   973.0000      8.1314      2.4136     -0.5223     14.3285     79.7708     32.6380
   973.1000      8.1314      2.3839     -0.5275     16.1247     81.1140     32.5279
   973.2000      8.1314      2.3549     -0.5707     17.8864     81.0260     32.2194
   973.3000      8.1124      2.3492     -0.5534     18.2329     80.8356     31.8519
   973.4000      8.1124      2.3616     -0.4728     17.4764     82.2785     31.7520
   973.5000      8.1087      2.3651     -0.4722     17.2683     85.5491     31.8968
   973.6000      8.1087      2.3460     -0.5153     18.4259     89.4106     31.9791
   973.7000      8.1087      2.3105     -0.4652     20.5776     91.3890     31.9500
   973.8000      8.1149      2.2756     -0.5629     22.6929     91.1681     31.9882
   973.9000      8.1149      2.2607     -0.5034     23.5929     91.2034     32.0754
   974.0000      8.1092      2.2673     -0.5648     23.1934     90.5953     32.1240
   974.1000      8.1092      2.2808     -0.4627     22.3738     88.3495     32.2904
   974.2000      8.1092      2.2836     -0.4894     22.2062     87.4209     32.6039
   974.3000      8.1041      2.2745     -0.4999     22.7605     89.7204     32.8199
   974.4000      8.1041      2.2675     -0.5223     23.1828     92.3949     33.0110
   974.5000      8.0939      2.2644     -0.4892     23.3694     92.4627     33.3562
   974.6000      8.0939      2.2610     -0.5365     23.5785     92.1595     33.6344
   974.7000      8.0939      2.2649     -0.4730     23.3413     93.4758     33.6856
   974.8000      8.0820      2.2791     -0.4995     22.4811     93.6917     33.7173
   974.9000      8.0820      2.2979     -0.5114     21.3419     91.4597     33.8353
   975.0000      8.0846      2.3199     -0.4976     20.0045     90.8274     33.7548
   975.1000      8.0846      2.3415     -0.4482     18.6982     93.0164     33.4406
   975.2000      8.0846      2.3559     -0.4586     17.8225     93.8315     33.0633
   975.3000      8.0851      2.3685     -0.5094     17.0590     91.0430     32.6510
   975.4000      8.0851      2.3828     -0.4527     16.1964     86.6861     32.4102
   975.5000      8.0869      2.3944     -0.4358     15.4931     83.1523     32.4144
   975.6000      8.0869      2.4077     -0.4892     14.6838     81.1886     32.4069
   975.7000      8.0869      2.4242     -0.5042     13.6866     79.9665     32.2637
   975.8000      8.1007      2.4336     -0.4828     13.1172     79.1745     31.9388
   975.9000      8.1007      2.4202     -0.3924     13.9246     78.7308     31.5154
   976.0000      8.1033      2.3787     -0.4561     16.4425     78.6343     31.3198
   976.1000      8.1033      2.3354     -0.5301     19.0657     79.5312     31.5242
   976.2000      8.1033      2.3093     -0.4795     20.6507     82.8111     31.9219
   976.3000      8.0954      2.2876     -0.5640     21.9662     86.5748     32.1757
   976.4000      8.0954      2.2629     -0.5043     23.4587     87.2137     32.2140
   976.5000      8.1027      2.2435     -0.5033     24.6374     86.4805     32.4652
   976.6000      8.1027      2.2447     -0.5887     24.5630     86.5962     33.0342
   976.7000      8.1027      2.2724     -0.5163     22.8828     86.8928     33.4081
   976.8000      8.1052      2.3130     -0.5127     20.4238     87.7914     33.4331
   976.9000      8.1052      2.3441     -0.4686     18.5394     88.7157     33.3069
   977.0000      8.1004      2.3612     -0.4818     17.5025     88.8944     33.0613
   977.1000      8.1004      2.3882     -0.4696     15.8696     87.5657     32.9112
   977.2000      8.1004      2.4320     -0.4505     13.2140     83.4934     33.1581
   977.3000      8.1009      2.4685     -0.3918     11.0025     78.2120     33.4583
   977.4000      8.1009      2.4860     -0.4330      9.9370     73.7570     33.2952
   977.5000      8.1024      2.5036     -0.4667      8.8733     70.8939     32.9519
   977.6000      8.1024      2.5393     -0.4381      6.7100     69.0175     32.9095
   977.7000      8.1024      2.5824     -0.3742      4.0983     66.4452     33.1936
   977.8000      8.1050      2.6053     -0.3648      2.7098     64.4310     33.3843
   977.9000      8.1050      2.5983     -0.3970      3.1339     65.0290     33.1166
   978.0000      8.1067      2.5874     -0.4382      3.7921     65.5403     32.7397
   978.1000      8.1067      2.6011     -0.4300      2.9627     63.6302     32.6930
   978.2000      8.1067      2.6150     -0.3511      2.1215     62.2745     32.7884
   978.3000      8.0925      2.5910     -0.5197      3.5727     62.8582     32.7308
   978.4000      8.0925      2.5452     -0.5223      6.3506     63.8799     32.4816
   978.5000      8.0741      2.5084     -0.4899      8.5803     66.6573     32.1654
   978.6000      8.0741      2.4878     -0.4533      9.8314     71.8558     32.0559
   978.7000      8.0741      2.4719     -0.4346     10.7920     76.3237     32.3007
   978.8000      8.0708      2.4457     -0.4217     12.3814     78.0571     32.6953
   978.9000      8.0708      2.4144     -0.4664     14.2795     78.5246     32.8628
   979.0000      8.0690      2.4036     -0.4920     14.9336     78.7777     32.6507
   979.1000      8.0690      2.4231     -0.4339     13.7532     78.7343     32.4328
   979.2000      8.0690      2.4433     -0.3712     12.5266     79.7285     32.5572
   979.3000      8.0560      2.4314     -0.4941     13.2511     80.3571     32.9010
   979.4000      8.0560      2.4031     -0.4878     14.9609     77.7980     33.2331
   979.5000      8.0502      2.3860     -0.4093     15.9970     73.7275     33.3588
