~Version Information
VERS.                      2.0: CWLS Log ASCII Standard - VERSION 2.0
WRAP.                       NO: One line per depth step
~Well Information Block
STRT.FT               585.0000: 
STOP.FT              2277.5000: 
STEP.FT                 0.1000: 
NULL.                -999.2500: 
COMP.          Pioneer Natural Resources: COMPANY
WELL.          Interceptor 43-13 Tr: WELL
FLD.           Purgatoire River: FIELD
LOC.           2006' FSL & 438' FEL: LOCATION
PROV.                 Colorado: PROVINCE
CNTY.               Las Animas: COUNTRY
SRVC.                Patterson: SERVICE COMPANY
DATE.          Mon Oct 17 07:15:06 2005: LOG DATE
UWI.           05 071 08549 00: UNIQUE WELL ID
~Curve Information Block
DEPT.FT            0 000 00 00: Depth
DCAL.in                       : CDL Caliper
RHOB.g/cc                     : CDL Bulk Density
RHOC.g/cc                     : CDL Density Correction
DPOR.pu                       : CDL Density Porosity
GR.GAPI                       : Gamma Ray
NPOR.pu                       : Neutron Porosity
~Parameter Information Block
~A  Depth       DCAL        RHOB        RHOC        DPOR         GR         NPOR    
# ...
   805.8000      8.0463      2.5438      0.1808      6.4378    139.0929     27.0354
   805.9000      8.0463      2.5231      0.1677      7.6881    137.4859     26.7992
   806.0000      7.9860      2.4823      0.1310     10.1647    139.9243     26.8169
   806.1000      7.9860      2.4494      0.0899     12.1547    138.5825     27.3202
   806.2000      7.9860      2.4438      0.0840     12.4959    132.3781     27.8684
   806.3000      7.9195      2.4628      0.0830     11.3473    128.3355     27.9760
   806.4000      7.9195      2.4910      0.1258      9.6365    130.4531     27.7504
   806.5000      7.9158      2.5115      0.1949      8.3911    138.5448     27.5742
   806.6000      7.9158      2.5250      0.1155      7.5752    148.1424     27.5411
   806.7000      7.9158      2.5469      0.1548      6.2506    151.4480     27.3117
   806.8000      7.9245      2.5787      0.2261      4.3202    149.5856     26.6876
   806.9000      7.9245      2.6106      0.1844      2.3891    148.8504     25.9010
   807.0000      7.9226      2.6366      0.1542      0.8124    145.3728     25.4524
   807.1000      7.9226      2.6465      0.1954      0.2115    135.8546     25.6794
   807.2000      7.9226      2.6370      0.1195      0.7904    127.2085     26.2027
   807.3000      8.0029      2.6278      0.1251      1.3430    121.3949     26.3946
   807.4000      8.0029      2.6254      0.1357      1.4921    112.8807     26.1982
   807.5000      8.0198      2.6115      0.1040      2.3360    103.1415     25.7041
   807.6000      8.0198      2.5851      0.0999      3.9324     99.4415     24.8426
   807.7000      8.0198      2.5635      0.0712      5.2420    102.0949     24.0324
   807.8000      8.0141      2.5547      0.0494      5.7741    105.3530     23.7828
   807.9000      8.0141      2.5509      0.0625      6.0047    108.5825     23.7335
   808.0000      7.9938      2.5414      0.0561      6.5800    110.6746     23.4360
   808.1000      7.9938      2.5257      0.0747      7.5341    107.1719     23.2094
   808.2000      7.9938      2.5076      0.0551      8.6319     99.9675     23.2671
   808.3000      7.9753      2.4856      0.0352      9.9657     93.4483     23.2234
   808.4000      7.9753      2.4580     -0.0347     11.6356     87.5597     22.6985
   808.5000      7.9503      2.4384     -0.0560     12.8269     80.7550     22.0084
   808.6000      7.9503      2.4441     -0.0204     12.4790     73.7619     21.7901
   808.7000      7.9503      2.4723     -0.0097     10.7712     70.6518     22.0379
   808.8000      7.9302      2.5050      0.0096      8.7850     73.1032     22.1410
   808.9000      7.9302      2.5324      0.0143      7.1249     78.6660     22.0598
   809.0000      7.9372      2.5506      0.0739      6.0218     84.4664     22.4260
   809.1000      7.9372      2.5537      0.0919      5.8337     89.6213     23.3148
   809.2000      7.9372      2.5469      0.0211      6.2513     91.8900     23.9510
   809.3000      7.9784      2.5388      0.0519      6.7382     89.7788     24.0640
   809.4000      7.9784      2.5232      0.0230      7.6844     86.6470     24.1151
   809.5000      7.9941      2.4909      0.0144      9.6441     85.6964     23.9600
   809.6000      7.9941      2.4427      0.0050     12.5607     86.9750     23.1630
   809.7000      7.9941      2.4064     -0.0938     14.7607     88.6905     22.1308
   809.8000      7.9848      2.4148     -0.0425     14.2569     87.9303     21.8520
   809.9000      7.9848      2.4557     -0.0077     11.7788     82.0157     22.3059
   810.0000      7.9860      2.4938      0.0489      9.4675     73.4757     22.4928
   810.1000      7.9860      2.5127      0.0567      8.3188     66.3640     22.2738
   810.2000      7.9860      2.5243      0.0222      7.6158     62.6077     22.1640
   810.3000      7.9551      2.5460      0.0538      6.3007     62.0906     22.1697
   810.4000      7.9551      2.5665      0.1278      5.0591     63.2519     22.0725
   810.5000      7.9900      2.5654      0.1000      5.1284     66.8547     21.8050
   810.6000      7.9900      2.5547      0.0473      5.7754     71.5895     21.5595
   810.7000      7.9900      2.5565      0.0653      5.6672     71.8050     21.5340
   810.8000      8.0032      2.5715      0.0748      4.7592     65.6527     21.6840
   810.9000      8.0032      2.5942      0.0577      3.3825     60.2201     21.9984
   811.0000      8.0118      2.6191      0.0942      1.8700     64.0462     22.6361
   811.1000      8.0118      2.6338      0.0814      0.9841     74.6621     23.3730
   811.2000      8.0118      2.6283      0.0784      1.3137     79.9539     23.6814
   811.3000      8.0107      2.6015      0.0998      2.9388     75.4428     23.3287
   811.4000      8.0107      2.5655      0.0259      5.1224     70.3884     22.6639
   811.5000      7.9744      2.5347      0.0381      6.9896     71.4292     22.4681
   811.6000      7.9744      2.4977      0.1050      9.2317     74.0529     23.0803
   811.7000      7.9744      2.4483     -0.0137     12.2252     75.3976     24.0419
   811.8000      7.9424      2.4183     -0.0192     14.0426     80.2791     24.7875
   811.9000      7.9424      2.4270      0.0195     13.5146     90.7425     25.2025
   812.0000      8.0020      2.4644      0.0013     11.2474    101.3365     25.5402
   812.1000      8.0020      2.5196      0.1087      7.9053    110.1132     25.9336
   812.2000      8.0020      2.5747      0.1199      4.5640    118.6177     26.3823
   812.3000      8.2024      2.6085      0.2172      2.5137    125.1415     26.9230
   812.4000      8.2024      2.6147      0.2118      2.1398    128.0554     27.6758
   812.5000      8.3501      2.6125      0.1671      2.2753    128.2223     28.4591
   812.6000      8.3501      2.6193      0.1929      1.8579    126.9289     28.7854
   812.7000      8.3501      2.6203      0.2007      1.8028    127.4141     28.5762
   812.8000      8.3370      2.6008      0.1370      2.9833    133.6896     28.0906
   812.9000      8.3370      2.5745      0.1326      4.5778    142.0829     27.5429
   813.0000      8.2518      2.5569      0.0727      5.6450    145.6405     26.9839
   813.1000      8.2518      2.5485      0.1010      6.1545    145.9964     26.4419
   813.2000      8.2518      2.5432      0.1259      6.4707    147.6207     26.2976
   813.3000      8.3140      2.5424      0.1251      6.5228    148.3348     26.7039
   813.4000      8.3140      2.5463      0.1319      6.2848    146.4821     26.9802
   813.5000      8.2209      2.5435      0.1184      6.4547    143.3131     26.6111
   813.6000      8.2209      2.5292      0.0952      7.3210    140.7207     25.7725
   813.7000      8.2209      2.5170      0.0909      8.0588    140.2198     24.8476
   813.8000      8.1555      2.5178      0.1069      8.0093    142.4871     24.2335
   813.9000      8.1555      2.5240      0.1436      7.6389    145.7063     24.0848
   814.0000      8.1220      2.5272      0.1444      7.4418    146.2140     24.1736
   814.1000      8.1220      2.5295      0.1712      7.3018    147.4355     23.9709
   814.2000      8.1220      2.5256      0.1488      7.5408    154.9501     23.1143
   814.3000      8.1303      2.5054      0.1697      8.7655    161.7596     22.3388
   814.4000      8.1303      2.4782      0.0825     10.4135    158.1313     22.3476
   814.5000      8.1108      2.4655      0.0807     11.1835    148.1395     22.5357
   814.6000      8.1108      2.4652      0.1067     11.2007    142.8296     22.2517
   814.7000      8.1108      2.4647      0.0909     11.2280    143.8411     21.8049
   814.8000      8.1407      2.4677      0.1203     11.0455    145.0768     21.7785
   814.9000      8.1407      2.4783      0.1377     10.4039    145.5130     22.0708
   815.0000      8.1797      2.4952      0.1270      9.3798    142.7819     22.2569
   815.1000      8.1797      2.5180      0.1330      7.9998    136.7054     22.1564
   815.2000      8.1797      2.5403      0.1622      6.6512    136.5559     21.8918
   815.3000      8.1066      2.5502      0.1997      6.0485    142.2734     21.8794
