~Version Information
VERS.                      2.0: CWLS Log ASCII Standard - VERSION 2.0
WRAP.                       NO: One line per depth step
~Well Information Block
STRT.FT               670.0000: 
STOP.FT              2110.0000: 
STEP.FT                 0.2500: 
NULL.                -999.2500: 
COMP.          Petrogulf Corporation: COMPANY
WELL.           Montoya 12-44R: WELL
FLD.           Purgatorie River: FIELD
LOC.           713' FSL & 798' FEL: LOCATION
PROV.                 Colorado: PROVINCE
CNTY.               Las Animas: COUNTRY
SRVC.                Patterson: SERVICE COMPANY
DATE.          Sun Oct 02 01:06:45 2005: LOG DATE
UWI.           05-071-08538               : UNIQUE WELL ID
~Curve Information Block
DEPT.FT            0 000 00 00: Depth
SP.mV                         : DIL Spontaneous Potential
RILD.Ohm-m                    : DIL Deep Resistivity
RILM.Ohm-m                    : DIL Medium Resistivity
RLL3.Ohm-m                    : DIL Shallow Resistivity
GR.GAPI                       : Gamma Ray
~Parameter Information Block
~A  Depth        SP         RILD        RILM        RLL3         GR     
# ...
  1706.0000    208.6199      8.6399      9.2456     10.0053    142.5102
  1706.2500    208.9850      8.5638      9.1726      9.7211    144.4510
  1706.5000    209.3087      8.4837      9.0969      9.4820    147.3589
  1706.7500    209.6011      8.4003      9.0183      9.3590    150.2277
  1707.0000    209.8818      8.3135      8.9353      9.3287    156.2185
  1707.2500    210.1676      8.2224      8.8452      9.3191    160.5383
  1707.5000    210.4696      8.1261      8.7447      9.2770    166.0600
  1707.7500    210.7975      8.0239      8.6309      9.1943    168.8458
  1708.0000    211.1599      7.9162      8.5019      9.0895    171.6973
  1708.2500    211.5602      7.8039      8.3579      8.9759    172.4487
  1708.5000    211.9908      7.6885      8.2006      8.8498    171.2651
  1708.7500    212.4364      7.5716      8.0336      8.7001    169.2318
  1709.0000    212.8809      7.4552      7.8613      8.5262    166.2086
  1709.2500    213.3136      7.3422      7.6887      8.3419    165.3658
  1709.5000    213.7291      7.2360      7.5210      8.1643    166.4055
  1709.7500    214.1221      7.1403      7.3627      8.0006    168.0119
  1710.0000    214.4792      7.0580      7.2183      7.8454    169.9948
  1710.2500    214.7736      6.9912      7.0913      7.6928    170.1141
  1710.5000    214.9680      6.9410      6.9847      7.5522    167.8363
  1710.7500    215.0285      6.9081      6.9008      7.4513    165.0423
  1711.0000    214.9375      6.8926      6.8410      7.4185    160.4782
  1711.2500    214.6983      6.8944      6.8063      7.4573    158.0462
  1711.5000    214.3294      6.9130      6.7973      7.5371    155.8121
  1711.7500    213.8565      6.9487      6.8145      7.6118    155.0857
  1712.0000    213.3111      7.0028      6.8583      7.6547    154.8298
  1712.2500    212.7285      7.0772      6.9294      7.6798    155.1405
  1712.5000    212.1449      7.1734      7.0285      7.7364    155.9281
  1712.7500    211.5924      7.2913      7.1561      7.8799    156.2004
  1713.0000    211.0957      7.4294      7.3122      8.1358    155.5195
  1713.2500    210.6702      7.5856      7.4963      8.4821    154.1685
  1713.5000    210.3219      7.7584      7.7072      8.8635    150.6924
  1713.7500    210.0470      7.9467      7.9428      9.2271    147.4873
  1714.0000    209.8350      8.1489      8.2012      9.5500    142.4108
  1714.2500    209.6733      8.3625      8.4798      9.8389    139.9481
  1714.5000    209.5468      8.5836      8.7758     10.1129    138.8275
  1714.7500    209.4346      8.8072      9.0859     10.3951    139.4849
  1715.0000    209.3098      9.0282      9.4053     10.7128    141.1419
  1715.2500    209.1464      9.2420      9.7280     11.0902    142.0929
  1715.5000    208.9280      9.4456     10.0461     11.5325    143.0223
  1715.7500    208.6520      9.6361     10.3509     12.0155    143.2307
  1716.0000    208.3278      9.8111     10.6330     12.4934    142.2721
  1716.2500    207.9733      9.9690     10.8842     12.9162    140.2877
  1716.5000    207.6103     10.1099     11.0976     13.2514    135.4251
  1716.7500    207.2589     10.2356     11.2686     13.4962    131.7934
  1717.0000    206.9322     10.3489     11.3952     13.6619    127.3465
  1717.2500    206.6337     10.4511     11.4782     13.7361    125.3235
  1717.5000    206.3638     10.5416     11.5214     13.6716    123.5555
  1717.7500    206.1280     10.6188     11.5314     13.4347    123.4049
  1718.0000    205.9393     10.6821     11.5170     13.0662    125.2509
  1718.2500    205.8109     10.7339     11.4885     12.6733    127.6154
  1718.5000    205.7501     10.7803     11.4574     12.3525    131.3160
  1718.7500    205.7541     10.8304     11.4358     12.1283    132.9894
  1719.0000    205.8076     10.8944     11.4362     11.9662    133.7369
  1719.2500    205.8818     10.9826     11.4713     11.8260    133.3126
  1719.5000    205.9412     11.1032     11.5540     11.7025    132.5387
  1719.7500    205.9589     11.2606     11.6967     11.6396    132.8932
  1720.0000    205.9306     11.4542     11.9107     11.7373    135.5470
  1720.2500    205.8770     11.6788     12.2051     12.1658    138.1207
  1720.5000    205.8359     11.9263     12.5846     13.1721    140.8818
  1720.7500    205.8512     12.1882     13.0480     15.0399    140.9648
  1721.0000    205.9637     12.4573     13.5854     17.9518    138.3118
  1721.2500    206.2025     12.7284     14.1774     21.7613    135.1398
  1721.5000    206.5780     12.9978     14.7946     25.8132    128.6862
  1721.7500    207.0786     13.2620     15.4008     29.0578    123.2848
  1722.0000    207.6745     13.5183     15.9574     30.5480    114.3411
  1722.2500    208.3286     13.7652     16.4301     30.0217    108.9437
  1722.5000    209.0083     14.0021     16.7933     28.0726    103.6434
  1722.7500    209.6905     14.2266     17.0331     25.7125    102.3736
  1723.0000    210.3571     14.4302     17.1472     23.6846    103.1264
  1723.2500    210.9858     14.5981     17.1434     22.1100    104.6223
  1723.5000    211.5415     14.7142     17.0380     20.7008    107.3909
  1723.7500    211.9825     14.7711     16.8532     19.2272    109.4718
  1724.0000    212.2777     14.7746     16.6156     17.7562    113.3586
  1724.2500    212.4254     14.7424     16.3531     16.5212    116.7438
  1724.5000    212.4567     14.6953     16.0930     15.6745    122.8895
  1724.7500    212.4226     14.6499     15.8595     15.1886    127.1132
  1725.0000    212.3772     14.6150     15.6727     14.9404    132.3274
  1725.2500    212.3652     14.5941     15.5477     14.8451    134.7107
  1725.5000    212.4190     14.5899     15.4944     14.9110    137.1798
  1725.7500    212.5616     14.6068     15.5179     15.1965    138.6197
  1726.0000    212.8123     14.6502     15.6184     15.7419    140.6430
  1726.2500    213.1906     14.7238     15.7918     16.5486    141.3913
  1726.5000    213.7142     14.8267     16.0295     17.5903    140.3385
  1726.7500    214.3931     14.9535     16.3184     18.8062    137.8864
  1727.0000    215.2233     15.0960     16.6403     20.0741    132.5891
  1727.2500    216.1863     15.2447     16.9730     21.2198    129.1037
  1727.5000    217.2522     15.3899     17.2904     22.0885    125.3350
  1727.7500    218.3821     15.5225     17.5651     22.6191    123.9130
  1728.0000    219.5272     15.6338     17.7720     22.8305    122.8988
  1728.2500    220.6290     15.7162     17.8916     22.7195    122.6880
  1728.5000    221.6279     15.7637     17.9141     22.2074    123.0682
  1728.7500    222.4756     15.7727     17.8409     21.2329    124.0908
  1729.0000    223.1469     15.7417     17.6839     19.8915    127.3964
  1729.2500    223.6433     15.6712     17.4614     18.4378    130.7936
  1729.5000    223.9917     15.5625     17.1943     17.1464    136.5603
  1729.7500    224.2345     15.4167     16.9010     16.1867    139.6435
  1730.0000    224.4138     15.2347     16.5951     15.6077    141.1898
  1730.2500    224.5594     15.0183     16.2850     15.3808    139.9647
  1730.5000    224.6888     14.7732     15.9753     15.4270    136.6277
  1730.7500    224.8165     14.5092     15.6693     15.6216    135.0168
  1731.0000    224.9597     14.2390     15.3710     15.8101    134.9806
  1731.2500    225.1353     13.9753     15.0865     15.8543    136.2979
  1731.5000    225.3549     13.7288     14.8234     15.6927    138.9871
  1731.7500    225.6257     13.5057     14.5895     15.3700    140.4771
  1732.0000    225.9502     13.3073     14.3903     15.0035    141.2187
  1732.2500    226.3240     13.1293     14.2269     14.7177    140.4937
  1732.5000    226.7314     12.9645     14.0953     14.5903    138.0825
  1732.7500    227.1455     12.8049     13.9854     14.6242    136.1194
  1733.0000    227.5348     12.6427     13.8830     14.7456    133.2671
  1733.2500    227.8728     12.4708     13.7709     14.8457    131.6839
  1733.5000    228.1437     12.2832     13.6317     14.8601    130.4455
  1733.7500    228.3441     12.0778     13.4508     14.8162    130.6212
