~Version Information
VERS.                      2.0: CWLS Log ASCII Standard - VERSION 2.0
WRAP.                       NO: One line per depth step
~Well Information Block
STRT.FT               360.0000: 
STOP.FT              1349.5000: 
STEP.FT                 0.1000: 
NULL.                -999.2500: 
COMP.          Pioneer Natural Resources: COMPANY
WELL.          Challenger 31-29: WELL
FLD.           Purgatoire River: FIELD
LOC.           51' FNL & 1923' FEL: LOCATION
STAT.                 Colorado: State
CNTY.               Las Animas: COUNTY
CTRY. USA : Country
SECT. 29 : Section
TOWN. 33S : Township
RANG. 65W : Range
SRVC.                Patterson: SERVICE COMPANY
DATE.          Thu Sep 15 13:35:50 2005: LOG DATE
API.           05 071 08514 00: UNIQUE WELL ID
~Curve Information Block
DEPT.FT            0 000 00 00: Depth
DCAL.in                       : CDL Caliper
RHOB.g/cc                     : CDL Bulk Density
RHOC.g/cc                     : CDL Density Correction
DPOR.pu                       : CDL Density Porosity
GR.GAPI                       : Gamma Ray
NPOR.pu                       : Neutron Porosity
~Parameter Information Block
~A  Depth       DCAL        RHOB        RHOC        DPOR         GR         NPOR    
# ...
   686.4000      8.0288      2.6343      0.1394      0.9534    137.3776     26.7228
   686.5000      8.0602      2.6382      0.1396      0.7131    135.9716     27.6518
   686.6000      8.0602      2.6373      0.1627      0.7710    133.5594     28.4440
   686.7000      8.0602      2.6449      0.1020      0.3110    129.7405     28.9156
   686.8000      8.0692      2.6567      0.1528     -0.4034    127.3443     28.7995
   686.9000      8.0692      2.6602      0.1110     -0.6178    125.2638     28.4336
   687.0000      8.0662      2.6604      0.1115     -0.6333    121.5844     28.5319
   687.1000      8.0662      2.6629      0.1379     -0.7810    118.4803     29.2329
   687.2000      8.0662      2.6585      0.1135     -0.5125    116.2261     29.9362
   687.3000      8.0557      2.6453      0.0517      0.2839    114.8417     30.0467
   687.4000      8.0557      2.6293      0.0473      1.2523    116.1080     29.5562
   687.5000      8.0474      2.6051      0.1001      2.7233    121.1156     28.8789
   687.6000      8.0474      2.5760     -0.0253      4.4863    125.8466     28.3828
   687.7000      8.0474      2.5644      0.0590      5.1887    126.9038     28.1698
   687.8000      8.0320      2.5690      0.1178      4.9071    128.0699     28.1983
   687.9000      8.0320      2.5741      0.0683      4.5986    132.8824     28.3930
   688.0000      8.0017      2.5816      0.1383      4.1461    139.3676     28.8254
   688.1000      8.0017      2.5986      0.1223      3.1152    146.2330     29.3865
   688.2000      8.0017      2.6225      0.1483      1.6669    152.6164     29.4590
   688.3000      8.0268      2.6450      0.1433      0.3043    155.6396     28.6293
   688.4000      8.0268      2.6596      0.1505     -0.5821    157.5564     27.1775
   688.5000      8.0538      2.6565      0.1694     -0.3912    163.1956     26.0516
   688.6000      8.0538      2.6314      0.1216      1.1298    167.7077     25.7749
   688.7000      8.0538      2.6004      0.0807      3.0054    163.2217     25.8366
   688.8000      8.0620      2.5819      0.0537      4.1296    153.1770     25.7089
   688.9000      8.0620      2.5743      0.0707      4.5884    142.0695     25.2509
   689.0000      8.0699      2.5687      0.0301      4.9255    129.9664     24.8140
   689.1000      8.0699      2.5735      0.0295      4.6384    118.4454     24.7634
   689.2000      8.0699      2.5956      0.0559      3.2963    112.2510     24.7280
   689.3000      8.0515      2.6137      0.0789      2.2006    113.5555     24.1642
   689.4000      8.0515      2.6049      0.0516      2.7306    116.2304     23.0999
   689.5000      8.0376      2.5836      0.0236      4.0236    114.0528     22.0473
   689.6000      8.0376      2.5786      0.0278      4.3259    107.8452     21.4302
   689.7000      8.0376      2.5907      0.0183      3.5915    101.7266     21.2845
   689.8000      8.0340      2.5995      0.0551      3.0630     98.6846     21.4623
   689.9000      8.0340      2.5924      0.0679      3.4907     99.1799     21.7717
   690.0000      8.0508      2.5687      0.0505      4.9282    101.8765     22.2191
   690.1000      8.0508      2.5406      0.0230      6.6288    104.8417     22.6818
   690.2000      8.0508      2.5309     -0.0052      7.2162    106.3972     22.6055
   690.3000      8.0388      2.5423      0.0696      6.5257    106.7188     21.8646
   690.4000      8.0388      2.5588      0.0425      5.5278    105.4968     21.1524
   690.5000      8.0275      2.5720      0.0975      4.7290    103.3626     21.1843
   690.6000      8.0275      2.5785      0.0815      4.3322    103.6017     21.9241
   690.7000      8.0275      2.5733      0.1179      4.6481    105.7161     22.7103
   690.8000      8.0342      2.5600      0.0641      5.4528    107.6306     23.1989
   690.9000      8.0342      2.5601      0.0532      5.4477    110.5763     23.7083
   691.0000      8.0256      2.5884      0.0804      3.7315    113.9138     24.5585
   691.1000      8.0256      2.6332      0.1390      1.0164    113.2756     25.2146
   691.2000      8.0256      2.6729      0.1439     -1.3897    109.9505     25.0318
   691.3000      8.0179      2.6972      0.1703     -2.8633    109.4435     24.6424
   691.4000      8.0179      2.7095      0.1417     -3.6051    110.5155     24.7848
   691.5000      8.0269      2.7098      0.1532     -3.6257    110.2955     24.8332
   691.6000      8.0269      2.6917      0.1367     -2.5272    110.0063     24.2580
   691.7000      8.0269      2.6657      0.0590     -0.9514    110.1887     23.5566
   691.8000      8.0438      2.6485      0.0731      0.0912    109.8528     23.3458
   691.9000      8.0438      2.6344      0.0710      0.9441    108.5143     23.7386
   692.0000      8.0258      2.6141      0.0277      2.1744    107.8892     24.5385
   692.1000      8.0258      2.5939     -0.0061      3.3971    109.8064     25.6292
   692.2000      8.0258      2.5798      0.0205      4.2548    112.7753     26.4167
   692.3000      8.0321      2.5668      0.0856      5.0411    116.3098     26.4071
   692.4000      8.0321      2.5564      0.0519      5.6750    120.6858     26.0957
   692.5000      8.0474      2.5586      0.0997      5.5397    123.0322     25.8369
   692.6000      8.0474      2.5806      0.1259      4.2069    121.3179     25.8108
   692.7000      8.0474      2.6223      0.1806      1.6792    117.8669     26.2915
   692.8000      8.0550      2.6654      0.1953     -0.9308    116.9059     26.7776
   692.9000      8.0550      2.6823      0.2512     -1.9575    120.5949     26.5520
   693.0000      8.0067      2.6646      0.1761     -0.8833    127.5109     25.7378
   693.1000      8.0067      2.6271      0.1793      1.3852    131.0785     24.8146
   693.2000      8.0067      2.5923      0.1033      3.4989    125.6696     24.0204
   693.3000      8.0023      2.5796      0.1043      4.2684    114.7564     23.2852
   693.4000      8.0023      2.5882      0.0848      3.7464    106.6786     22.7474
   693.5000      8.0094      2.5917      0.1152      3.5321    103.2765     22.7784
   693.6000      8.0094      2.5800      0.0439      4.2405    101.6353     22.8262
   693.7000      8.0094      2.5800      0.0307      4.2394    101.0727     22.2193
   693.8000      8.0162      2.6038      0.0718      2.7975    102.2190     21.3289
   693.9000      8.0162      2.6284      0.1166      1.3110    102.9020     20.6532
   694.0000      8.0375      2.6376      0.1156      0.7488    101.1881     20.4616
   694.1000      8.0375      2.6333      0.1818      1.0094     98.0061     21.0282
   694.2000      8.0375      2.6162      0.1659      2.0461     93.2210     21.8042
   694.3000      8.0469      2.5923      0.1147      3.4958     87.6839     21.9357
   694.4000      8.0469      2.5697      0.1258      4.8662     85.0717     21.7112
   694.5000      7.9878      2.5494      0.0432      6.0948     85.6084     21.8183
   694.6000      7.9878      2.5378      0.0369      6.8008     85.2005     22.2389
   694.7000      7.9878      2.5372      0.0428      6.8348     82.6229     22.6267
   694.8000      7.9972      2.5376      0.0521      6.8137     81.7521     22.8102
   694.9000      7.9972      2.5321      0.0348      7.1453     85.3356     22.9838
   695.0000      8.0195      2.5273      0.0162      7.4367     92.7461     23.3615
   695.1000      8.0195      2.5293     -0.0018      7.3126    101.9452     23.7529
   695.2000      8.0195      2.5337      0.0066      7.0477    109.2277     23.8071
   695.3000      8.0636      2.5349      0.0045      6.9733    112.3307     23.4195
   695.4000      8.0636      2.5278      0.0645      7.4056    111.4165     22.9835
   695.5000      8.0806      2.5111     -0.0386      8.4171    108.9646     23.0095
   695.6000      8.0806      2.5034     -0.0233      8.8820    109.6819     23.3904
   695.7000      8.0806      2.5130     -0.0014      8.3029    113.6552     23.9235
   695.8000      8.1230      2.5244      0.0371      7.6124    115.9834     24.4761
   695.9000      8.1230      2.5320      0.0172      7.1491    116.3805     24.4699
