~Version Information
VERS.                      2.0: CWLS Log ASCII Standard - VERSION 2.0
WRAP.                       NO: One line per depth step
~Well Information Block
STRT.FT               230.0000: 
STOP.FT               707.5000: 
STEP.FT                 0.2500: 
NULL.                -999.2500: 
COMP.          Pioneer Natural Resources: COMPANY
WELL.          Razor Clam 23-27: WELL
FLD.           Purgatoire River: FIELD
LOC.           2499' FSL & 2636' FWL: LOCATION
CNTY.               Las Animas: COUNTY
SRVC.                Patterson: SERVICE COMPANY
DATE.          Sun Feb 12 15:35:16 2006: LOG DATE
UWI.           05 071 08667 00: UNIQUE WELL ID
STAT.                 Colorado: STATE
~Curve Information Block
DEPT.FT            0 000 00 00: Depth
SN.Ohm-m                      : IEL Short Normal
SP.mV                         : IEL Spontaneous Potential
DIR.Ohm-m                     : IEL Induction Resistivity
GR.GAPI                       : Gamma Ray
~Parameter Information Block
~A  Depth        SN          SP         DIR          GR     
# ...
   364.0000   2000.0000   2000.0000     23.2748     56.4497
   364.2500   2000.0000   2000.0000     24.0760     57.5533
   364.5000   2000.0000   2000.0000     24.8271     59.9093
   364.7500   2000.0000   2000.0000     25.5029     61.0288
   365.0000   2000.0000   2000.0000     26.0838     60.9339
   365.2500   2000.0000   2000.0000     26.5581     59.6549
   365.5000   2000.0000   2000.0000     26.9197     56.9229
   365.7500   2000.0000   2000.0000     27.1692     55.3681
   366.0000   2000.0000   2000.0000     27.3242     54.1083
   366.2500   2000.0000   2000.0000     27.4270     53.7656
   366.5000   2000.0000   2000.0000     27.5327     53.3439
   366.7500   2000.0000   2000.0000     27.6795     53.0148
   367.0000   2000.0000   2000.0000     27.8614     52.6250
   367.2500   2000.0000   2000.0000     28.0248     52.5398
   367.5000   2000.0000   2000.0000     28.0886     52.9705
   367.7500   2000.0000   2000.0000     27.9719     53.9496
   368.0000   2000.0000   2000.0000     27.6081     56.6903
   368.2500   2000.0000   2000.0000     26.9473     58.9756
   368.5000   2000.0000   2000.0000     25.9603     61.9751
   368.7500   2000.0000   2000.0000     24.6601     63.4663
   369.0000   2000.0000   2000.0000     23.1267     65.8979
   369.2500   2000.0000   2000.0000     21.5009     68.6364
   369.5000   2000.0000   2000.0000     19.9331     75.8039
   369.7500   2000.0000   2000.0000     18.5231     82.9470
   370.0000   2000.0000   2000.0000     17.2969     96.7745
   370.2500   2000.0000   2000.0000     16.2282    107.2404
   370.5000   2000.0000   2000.0000     15.2770    122.9205
   370.7500   2000.0000   2000.0000     14.4187    132.4585
   371.0000   2000.0000   2000.0000     13.6484    144.4053
   371.2500   2000.0000   2000.0000     12.9698    150.2719
   371.5000   2000.0000   2000.0000     12.3843    155.2159
   371.7500   2000.0000   2000.0000     11.8888    156.1308
   372.0000   2000.0000   2000.0000     11.4801    155.5423
   372.2500   2000.0000   2000.0000     11.1585    154.9855
   372.5000   2000.0000   2000.0000     10.9261    155.0921
   372.7500   2000.0000   2000.0000     10.7831    155.9006
   373.0000   2000.0000   2000.0000     10.7252    157.8103
   373.2500   2000.0000   2000.0000     10.7449    159.1801
   373.5000   2000.0000   2000.0000     10.8359    160.7486
   373.7500   2000.0000   2000.0000     10.9956    161.1661
   374.0000   2000.0000   2000.0000     11.2245    160.3451
   374.2500   2000.0000   2000.0000     11.5200    158.4120
   374.5000   2000.0000   2000.0000     11.8713    152.7645
   374.7500   2000.0000   2000.0000     12.2569    147.3286
   375.0000   2000.0000   2000.0000     12.6472    138.1499
   375.2500   2000.0000   2000.0000     13.0095    132.2846
   375.5000   2000.0000   2000.0000     13.3103    124.4594
   375.7500   2000.0000   2000.0000     13.5192    119.7547
   376.0000   2000.0000   2000.0000     13.6144    113.4943
   376.2500   2000.0000   2000.0000     13.5915    110.3862
   376.5000     27.9421     37.0651     13.4668    108.6374
   376.7500     22.5035     38.1507     13.2729    109.8017
   377.0000     16.2739     38.9213     13.0471    114.6019
   377.2500     12.1998     39.4030     12.8206    119.2763
   377.5000     11.0809     39.6779     12.6110    127.5322
   377.7500     11.7167     39.8272     12.4208    133.1879
   378.0000     12.5900     39.9011     12.2421    140.3857
   378.2500     12.9957     39.9200     12.0650    143.5042
   378.5000     13.0646     39.8878     11.8845    145.0768
   378.7500     13.0820     39.8008     11.7040    144.3114
   379.0000     13.1025     39.6545     11.5345    141.5512
   379.2500     13.0716     39.4533     11.3915    139.3911
   379.5000     12.9885     39.2152     11.2933    136.8008
   379.7500     12.9153     38.9636     11.2573    135.9481
   380.0000     12.9096     38.7153     11.2964    136.0729
   380.2500     12.9817     38.4768     11.4167    136.6204
   380.5000     13.0984     38.2503     11.6176    136.7166
   380.7500     13.2210     38.0399     11.8953    135.6615
   381.0000     13.3567     37.8505     12.2468    132.5753
   381.2500     13.5345     37.6805     12.6698    130.2346
   381.5000     13.7573     37.5193     13.1592    127.4542
   381.7500     14.0023     37.3520     13.7031    126.3278
   382.0000     14.2279     37.1709     14.2833    125.7343
   382.2500     14.4407     36.9814     14.8811    126.1789
   382.5000     14.7424     36.8002     15.4833    128.3260
   382.7500     15.1605     36.6464     16.0848    130.4088
   383.0000     15.5264     36.5336     16.6853    132.6103
   383.2500     15.6781     36.4664     17.2808    132.1102
   383.5000     15.7341     36.4404     17.8565    127.6247
   383.7500     16.0438     36.4409     18.3902    122.9382
   384.0000     16.8426     36.4427     18.8659    115.3213
   384.2500     18.0348     36.4153     19.2882    110.4713
   384.5000     19.3432     36.3347     19.6819    103.8133
   384.7500     20.4925     36.1970     20.0772     99.8964
   385.0000     21.2664     36.0266     20.4919     94.9342
   385.2500     21.6753     35.8723     20.9200     92.1460
   385.5000     21.9484     35.7868     21.3331     88.5100
   385.7500     22.2031     35.7998     21.6937     86.4307
   386.0000     22.3280     35.9013     21.9731     84.0987
   386.2500     22.1932     36.0489     22.1634     83.2865
   386.5000     21.9035     36.1856     22.2707     83.1849
   386.7500     21.7560     36.2563     22.3021     83.4537
   387.0000     21.8520     36.2158     22.2597     83.2946
   387.2500     21.9495     36.0400     22.1455     82.4388
   387.5000     21.7923     35.7342     21.9681     80.4360
   387.7500     21.3848     35.3273     21.7463     79.3576
   388.0000     20.8825     34.8471     21.5088     79.3408
   388.2500     20.3268     34.3012     21.2891     80.6365
   388.5000     19.6274     33.6841     21.1121     83.9669
   388.7500     18.8323     33.0094     20.9777     86.3656
   389.0000     18.2491     32.3272     20.8589     88.7150
   389.2500     18.2049     31.7039     20.7198     88.7878
   389.5000     18.7133     31.1795     20.5416     86.5844
   389.7500     19.4372     30.7446     20.3355     84.1633
   390.0000     20.0390     30.3545     20.1330     80.4191
   390.2500     20.4346     29.9583     19.9644     78.3812
   390.5000     20.6393     29.5173     19.8437     76.4483
   390.7500     20.5883     29.0053     19.7664     76.0143
   391.0000     20.2495     28.4016     19.7173     76.4674
   391.2500     19.7889     27.6922     19.6786     77.1268
   391.5000     19.4045     26.8796     19.6311     78.0058
   391.7500     19.0918     25.9906     19.5539     78.5154
   392.0000     18.8258     25.0690     19.4296     79.8205
   392.2500     18.7038     24.1582     19.2549     81.3805
   392.5000     18.7343     23.2947     19.0460     84.3869
   392.7500     18.7959     22.5117     18.8349     86.0525
   393.0000     18.7622     21.8315     18.6584     86.7311
   393.2500     18.5051     21.2429     18.5444     85.8784
   393.5000     18.0288     20.7019     18.4994     83.7227
   393.7500     17.6067     20.1662     18.5017     82.4657
   394.0000     17.5022     19.6272     18.5118     81.5045
   394.2500     17.6732     19.1104     18.4972     81.5312
   394.5000     17.8967     18.6565     18.4535     82.5436
   394.7500     18.0218     18.3034     18.4039     83.8064
   395.0000     18.0327     18.0692     18.3792     86.2022
   395.2500     17.9385     17.9365     18.4014     87.7341
   395.5000     17.7495     17.8526     18.4790     89.1365
   395.7500     17.5669     17.7494     18.6117     89.1459
   396.0000     17.5159     17.5739     18.7911     87.9248
   396.2500     17.6127     17.3162     18.9975     86.8250
   396.5000     17.8145     17.0160     19.1995     85.5863
   396.7500     18.0810     16.7420     19.3621     85.0060
   397.0000     18.3211     16.5521     19.4579     83.9412
   397.2500     18.4655     16.4641     19.4790     83.1200
