~Version Information
VERS.                      2.0: CWLS Log ASCII Standard - VERSION 2.0
WRAP.                       NO: One line per depth step
~Well Information Block
STRT.FT                -8.2500: 
STOP.FT              1118.7500: 
STEP.FT                 0.2500: 
NULL.                -999.2500: 
COMP.          Pioneer Natural Resources: COMPANY
WELL.             Croc 42-9 Tr: WELL
FLD.           Purgatorie River: FIELD
LOC.           --2429' FNL & 315' FEL------: LOCATION
STAT.                       CO: State
CNTY.               Las Animas: COUNTY
CTRY. USA : Country
SECT. 9 : Section
TOWN. 32S : Township
RANG. 66W : Range
SRVC.          Patterson Wireline: SERVICE COMPANY
DATE.          Tue Oct 18 14:14:43 2005: LOG DATE
API.           05 071 08550 00: UNIQUE WELL ID
~Curve Information Block
DEPT.FT            0 000 00 00: Depth
CCL.                          : Casing Collar Locator
TT3.usec                      : CBL 3' Travel Time
AMP3.mV                       : CBL 3' Amplitude
GR.GAPI                       : Gamma Ray
~Parameter Information Block
~A  Depth       CCL         TT3         AMP3         GR     
# ...
   125.7500      0.0000    826.0115     11.5396     71.3799
   126.0000      0.0000    835.1049     11.6476     73.4355
   126.2500      0.0000    839.4826     11.7288     75.9144
   126.5000      0.0000    840.4585     11.7774     78.5142
   126.7500      0.0000    839.2654     11.8135     81.0652
   127.0000      0.0000    836.8390     11.8671     83.6426
   127.2500      0.0000    834.3644     11.9528     86.4968
   127.5000      0.0000    833.2411     12.0578     89.7186
   127.7500      0.0000    834.1228     12.1566     92.9197
   128.0000      0.0000    836.2685     12.2323     95.3903
   128.2500      0.0000    838.1758     12.2821     96.5933
   128.5000      0.0000    838.6947     12.3091     96.4870
   128.7500      0.0000    837.4584     12.3147     95.5174
   129.0000      0.0000    834.7456     12.2987     94.4046
   129.2500      0.0000    831.2446     12.2612     93.7724
   129.5000      0.0000    827.5424     12.2050     93.7309
   129.7500      0.0000    823.4839     12.1372     93.7435
   130.0000      0.0000    818.4124     12.0654     93.0240
   130.2500      0.0000    812.3429     11.9909     91.2979
   130.5000      0.0000    806.4306     11.9101     89.3473
   130.7500      0.0000    801.9899     11.8260     88.7344
   131.0000      0.0000    799.4225     11.7542     90.6742
   131.2500      0.0000    798.2642     11.7107     94.7844
   131.5000      0.0000    797.8710     11.6960     98.8793
   131.7500      0.0000    797.8276     11.6938    100.4460
   132.0000      0.0000    797.9205     11.6879     98.6940
   132.2500      0.0000    798.0063     11.6759     95.0581
   132.5000      0.0000    797.9768     11.6675     91.7701
   132.7500      0.0000    797.8102     11.6718     90.2264
   133.0000      0.0000    797.5917     11.6883     90.3724
   133.2500      0.0000    797.4435     11.7106     90.9986
   133.5000      0.0000    797.4621     11.7382     90.6074
   133.7500      0.0000    797.7549     11.7825     88.5200
   134.0000      0.0000    798.5475     11.8590     85.4423
   134.2500      0.0000    800.1296     11.9683     82.8946
   134.5000      0.0000    802.4553     12.0873     81.8700
   134.7500      0.0000    804.7458     12.1824     81.9888
   135.0000      0.0000    805.8549     12.2347     82.1100
   135.2500      0.0000    805.4203     12.2509     81.5563
   135.5000      0.0000    804.4402     12.2537     80.3498
   135.7500      0.0000    804.2766     12.2627     78.7450
   136.0000      0.0000    805.2224     12.2839     77.3272
   136.2500      0.0000    806.5724     12.3113     77.1110
   136.5000      0.0000    808.0846     12.3335     78.6138
   136.7500      0.0000    810.6086     12.3378     81.1638
   137.0000      0.0000    814.7290     12.3112     83.7292
   137.2500      0.0000    819.2701     12.2448     86.0389
   137.5000      0.0000    822.0575     12.1385     88.2750
   137.7500      0.0000    822.3370     12.0038     89.9700
   138.0000      0.0000    821.8604     11.8635     89.9088
   138.2500      0.0000    823.1428     11.7501     87.4734
   138.5000      0.0000    826.9356     11.7003     84.0240
   138.7500      0.0000    831.7969     11.7381     82.5375
   139.0000      0.0000    835.7746     11.8587     85.2366
   139.2500      0.0000    837.8647     12.0266     91.3215
   139.5000      0.0000    837.9180     12.1935     97.4648
   139.7500      0.0000    835.8828     12.3226    100.7959
   140.0000      0.0000    831.7408     12.3996    101.1256
   140.2500      0.0000    826.2401     12.4296    100.3116
   140.5000      0.0000    821.2407     12.4288    100.0291
   140.7500      0.0000    818.7915     12.4196    100.3600
   141.0000      0.0000    819.7753     12.4229    100.0150
   141.2500      0.0000    823.5618     12.4460     97.6132
   141.5000      0.0000    828.6882     12.4770     93.0731
   141.7500      0.0000    833.6378     12.4951     87.9857
   142.0000      0.0000    837.3494     12.4797     84.2921
   142.2500      0.0000    839.4200     12.4122     82.4314
   142.5000      0.0000    839.8405     12.2832     81.2637
   142.7500      0.0000    838.4088     12.1025     79.9687
   143.0000      0.0000    834.3163     11.8945     79.1830
   143.2500      0.0000    826.4668     11.6819     79.5834
   143.5000      0.0000    814.6217     11.4848     80.1224
   143.7500      0.0000    800.3799     11.3342     78.8849
   144.0000      0.0000    786.6705     11.2707     75.4774
   144.2500      0.0000    775.9720     11.3202     71.4029
   144.5000      0.0000    769.0066     11.4704     68.0310
   144.7500      0.0000    764.8143     11.6683     65.3858
   145.0000      0.0000    761.7226     11.8416     63.1697
   145.2500      0.0000    758.5420     11.9342     61.8569
   145.5000      0.0000    755.2363     11.9379     62.0179
   145.7500      0.0000    752.4888     11.8963     63.0538
   146.0000      0.0000    750.7673     11.8780     63.3402
   146.2500      0.0000    750.0002     11.9370     61.6954
   146.5000      0.0000    749.9512     12.0876     58.3860
   146.7500      0.0000    750.6337     12.3033     54.6814
   147.0000      0.0000    752.3093     12.5397     51.6167
   147.2500      0.0000    755.0958     12.7628     49.1691
   147.5000      0.0000    758.5990     12.9591     46.5627
   147.7500      0.0000    762.1669     13.1227     43.4111
   148.0000      0.0000    765.5142     13.2395     40.4021
   148.2500      0.0000    768.6054     13.2891     38.6547
   148.5000      0.0000    770.7488     13.2602     38.5046
   148.7500      0.0000    770.4266     13.1510     39.0892
   149.0000      0.0000    766.5651     12.9413     39.0296
   149.2500      0.0000    760.3903     12.5838     37.4862
   149.5000      0.0000    756.7657     12.0643     34.7944
   149.7500      0.0000    763.2637     11.4724     32.2237
   150.0000      0.0000    785.5886     10.9639     30.9473
   150.2500      0.0000    822.3881     10.6411     31.1088
   150.5000      0.0000    865.6913     10.5096     31.8979
   150.7500      0.0000    907.2906     10.5368     32.4848
   151.0000      0.0000    943.2900     10.6862     32.7675
   151.2500     -2.0000    971.9419     10.9001     33.2927
   151.5000      2.0000    989.9279     11.1161     34.6696
   151.7500      0.0000    992.6068     11.3147     37.1190
   152.0000      0.0000    974.8718     11.5393     40.3406
   152.2500      0.0000    930.0209     11.8706     43.5975
   152.5000      0.0000    854.4524     12.3696     46.0138
   152.7500      0.0000    760.4540     13.0110     47.2321
   153.0000      0.0000    679.2564     13.6698     48.0129
   153.2500      0.0000    640.8151     14.2098     49.7893
   153.5000      0.0000    649.2888     14.5788     53.2796
   153.7500      0.0000    682.9919     14.7981     57.8699
   154.0000      0.0000    716.3698     14.8982     62.5613
   154.2500      0.0000    737.3094     14.9035     66.9536
   154.5000      0.0000    746.7628     14.8477     70.9795
   154.7500      0.0000    749.9843     14.7656     74.2590
   155.0000      0.0000    750.8464     14.6693     76.1146
   155.2500      0.0000    751.0276     14.5497     75.9831
   155.5000      0.0000    751.0304     14.3999     73.7411
   155.7500      0.0000    750.9827     14.2259     69.8951
   156.0000      0.0000    750.9394     14.0386     65.4009
   156.2500      0.0000    750.9296     13.8436     61.1208
   156.5000      0.0000    750.9625     13.6445     57.4543
   156.7500      0.0000    751.0221     13.4509     54.3964
   157.0000      0.0000    751.0848     13.2746     51.7824
   157.2500      0.0000    751.1432     13.1207     49.5890
   157.5000      0.0000    751.2125     12.9867     48.1602
   157.7500      0.0000    751.3139     12.8668     47.9404
   158.0000      0.0000    751.4534     12.7552     48.6949
   158.2500      0.0000    751.6201     12.6468     49.1786
   158.5000      0.0000    751.7958     12.5383     48.1744
   158.7500      0.0000    751.9615     12.4244     45.9931
   159.0000      0.0000    752.0977     12.2978     44.3654
