~Version Information
VERS.                      2.0: CWLS Log ASCII Standard - VERSION 2.0
WRAP.                       NO: One line per depth step
~Well Information Block
STRT.FT               -10.2500: 
STOP.FT              2437.2500: 
STEP.FT                 0.2500: 
NULL.                -999.2500: 
COMP.          Pioneer Natural Resources: COMPANY
WELL.          Hellzonfire 32-31: WELL
FLD.           Purgatorie River: FIELD
LOC.           1993' FNL & 2265' FEL------: LOCATION
STAT.                       CO: State
CNTY.               Las Animas: COUNTY
CTRY. USA : Country
SECT. 31 : Section
TOWN. 32S : Township
RANG. 66W : Range
SRVC.          Patterson Wireline: SERVICE COMPANY
DATE.          Thu Sep 08 11:10:17 2005: LOG DATE
API.           05 071 08483 00: UNIQUE WELL ID
~Curve Information Block
DEPT.FT            0 000 00 00: Depth
CCL.                          : Casing Collar Locator
TT3.usec                      : CBL 3' Travel Time
AMP3.mV                       : CBL 3' Amplitude
GR.GAPI                       : Gamma Ray
~Parameter Information Block
~A  Depth       CCL         TT3         AMP3         GR     
# ...
  1262.7500      0.0000    820.0845     14.0594    113.8117
  1263.0000      0.0000    802.4053     13.8313    123.2130
  1263.2500      0.0000    789.3422     13.6829    130.8119
  1263.5000      0.0000    779.6338     13.6786    136.1253
  1263.7500      0.0000    774.3343     13.8150    139.2163
  1264.0000      0.0000    774.9175     14.0229    140.9593
  1264.2500      0.0000    780.4171     14.2121    142.4929
  1264.5000      0.0000    787.5291     14.3158    144.1912
  1264.7500      0.0000    793.2012     14.3055    145.6534
  1265.0000      0.0000    796.3863     14.1926    146.7271
  1265.2500      0.0000    797.3398     14.0259    147.7724
  1265.5000      0.0000    795.8399     13.8843    148.5999
  1265.7500      0.0000    789.9415     13.8546    148.0071
  1266.0000      0.0000    776.7933     13.9853    144.9356
  1266.2500      0.0000    756.6422     14.2206    139.4499
  1266.5000      0.0000    737.2646     14.3669    132.2825
  1266.7500      0.0000    731.2886     14.1808    124.0869
  1267.0000      0.0000    744.9568     13.5736    115.2223
  1267.2500      0.0000    770.2896     12.7467    105.5014
  1267.5000      0.0000    791.4081     12.0641     94.1177
  1267.7500      0.0000    798.1021     11.7613     80.6782
  1268.0000      0.0000    792.1204     11.8034     66.5804
  1268.2500     -2.0000    782.2569     12.0077     54.7782
  1268.5000      0.0000    774.9944     12.2421     47.7363
  1268.7500      0.0000    769.2498     12.5177     45.5626
  1269.0000      0.0000    758.1261     12.9733     46.0754
  1269.2500      0.0000    735.1147     13.7772     46.5816
  1269.5000      0.0000    700.4550     14.9445     45.5920
  1269.7500      0.0000    663.8372     16.2008     43.1455
  1270.0000      0.0000    640.6628     17.1114     40.0233
  1270.2500      0.0000    643.1630     17.4115     36.9937
  1270.5000      0.0000    672.7820     17.1769     34.6337
  1270.7500      0.0000    719.0823     16.6734     33.3774
  1271.0000      0.0000    765.6735     16.1229     33.3879
  1271.2500      0.0000    799.4960     15.6216     34.3914
  1271.5000      0.0000    816.6883     15.1868     35.8449
  1271.7500      0.0000    820.6368     14.8180     37.4584
  1272.0000      0.0000    816.1249     14.5185     39.5012
  1272.2500      0.0000    806.4383     14.2883     42.2790
  1272.5000      0.0000    794.3498     14.1078     45.2792
  1272.7500      0.0000    783.0460     13.9387     47.3338
  1273.0000      0.0000    774.8577     13.7511     47.8835
  1273.2500      0.0000    769.9856     13.5483     47.6917
  1273.5000      0.0000    766.7615     13.3606     48.0636
  1273.7500      0.0000    762.9631     13.2117     49.6483
  1274.0000      0.0000    757.1017     13.1023     52.1084
  1274.2500      0.0000    749.5201     13.0266     54.5142
  1274.5000      0.0000    742.7781     12.9969     55.9135
  1274.7500      0.0000    740.4471     13.0387     55.9259
  1275.0000      0.0000    744.7285     13.1641     55.0367
  1275.2500      0.0000    754.9346     13.3526     54.2136
  1275.5000      0.0000    768.1555     13.5560     54.3455
  1275.7500      0.0000    781.1461     13.7259     56.2361
  1276.0000      0.0000    791.5739     13.8419     60.8955
  1276.2500      0.0000    798.1953     13.9111     69.3299
  1276.5000      0.0000    800.8094     13.9422     81.7285
  1276.7500      0.0000    800.1941     13.9307     96.7661
  1277.0000      0.0000    797.4242     13.8714    111.8711
  1277.2500      0.0000    792.9407     13.7760    124.6819
  1277.5000      0.0000    786.6289     13.6679    134.5529
  1277.7500      0.0000    779.1077     13.5659    142.3882
  1278.0000      0.0000    772.6612     13.4759    148.9330
  1278.2500      0.0000    770.2621     13.3942    153.7966
  1278.5000      0.0000    773.2608     13.3102    156.1770
  1278.7500      0.0000    780.1628     13.2140    155.6970
  1279.0000      0.0000    787.8371     13.1019    152.4486
  1279.2500      0.0000    793.8060     12.9717    147.1311
  1279.5000      0.0000    797.3719     12.8154    141.2571
  1279.7500      0.0000    799.1078     12.6261    136.3676
  1280.0000      0.0000    799.8542     12.4093    132.8250
  1280.2500      0.0000    800.1742     12.1776    130.1093
  1280.5000      0.0000    800.3001     11.9372    128.5138
  1280.7500      0.0000    800.2838     11.6858    129.5517
  1281.0000      0.0000    800.1537     11.4207    133.8835
  1281.2500      0.0000    799.9960     11.1452    139.3546
  1281.5000      0.0000    799.9144     10.8700    142.1951
  1281.7500      0.0000    799.9360     10.6176    140.4071
  1282.0000      0.0000    799.9495     10.4234    135.3090
  1282.2500      0.0000    799.7158     10.3185    129.5751
  1282.5000      0.0000    799.0557     10.3033    124.4498
  1282.7500      0.0000    798.3124     10.3418    119.1782
  1283.0000      0.0000    799.0501     10.3873    112.4699
  1283.2500      0.0000    803.9258     10.4155    103.9628
  1283.5000      0.0000    814.2488     10.4376     94.5415
  1283.7500      0.0000    826.4772     10.4873     85.8026
  1284.0000      0.0000    832.2288     10.5949     79.2734
  1284.2500      0.0000    823.7098     10.7720     75.8950
  1284.5000      0.0000    799.0374     11.0105     75.7987
  1284.7500      0.0000    761.6187     11.2869     78.1286
  1285.0000      0.0000    716.0933     11.5669     81.2186
  1285.2500      0.0000    667.2255     11.8132     83.5203
  1285.5000      0.0000    622.2955     12.0018     84.6080
  1285.7500      0.0000    590.6907     12.1362     84.9227
  1286.0000      0.0000    578.3080     12.2463     84.4954
  1286.2500      0.0000    583.6420     12.3675     82.5904
  1286.5000      0.0000    601.3281     12.5120     78.9757
  1286.7500      0.0000    627.7592     12.6544     74.9839
  1287.0000      0.0000    660.8604     12.7449     72.7562
  1287.2500      0.0000    696.5217     12.7410     73.6011
  1287.5000      0.0000    728.9809     12.6307     77.2314
  1287.7500      0.0000    754.3954     12.4383     82.1640
  1288.0000      0.0000    772.2261     12.2205     86.5981
  1288.2500      0.0000    783.8239     12.0593     89.6272
  1288.5000      0.0000    790.8694     12.0402     92.2160
  1288.7500      0.0000    794.8636     12.2197     96.5327
  1289.0000      0.0000    797.0760     12.6106    103.7329
  1289.2500      0.0000    798.3863     13.1986    112.7162
  1289.5000      0.0000    799.2021     13.9547    121.2662
  1289.7500      0.0000    799.5265     14.8203    127.7145
  1290.0000      0.0000    798.8867     15.6975    131.2319
  1290.2500      0.0000    795.5051     16.4838    131.5858
  1290.5000      0.0000    785.0453     17.1258    129.5787
  1290.7500      0.0000    760.8359     17.6404    127.2282
  1291.0000      0.0000    718.2892     18.0838    126.5334
  1291.2500      0.0000    661.5540     18.4945    128.0404
  1291.5000      0.0000    603.4874     18.8565    130.9513
  1291.7500      0.0000    554.8297     19.1213    134.2116
  1292.0000      0.0000    514.9910     19.2669    137.0014
  1292.2500      0.0000    477.9051     19.3242    138.6618
  1292.5000      0.0000    444.2215     19.3396    138.8236
  1292.7500      0.0000    422.6682     19.3268    137.4315
  1293.0000      0.0000    421.1560     19.2635    134.3537
  1293.2500      0.0000    439.5980     19.1260    129.3410
  1293.5000      0.0000    469.9699     18.9151    122.5313
  1293.7500      0.0000    502.6231     18.6486    114.6865
  1294.0000      0.0000    533.0470     18.3377    106.9280
  1294.2500      0.0000    560.3777     17.9793    100.3442
  1294.5000      0.0000    581.0897     17.5690     95.5396
  1294.7500      0.0000    592.4490     17.1180     92.2354
  1295.0000      0.0000    602.7863     16.6566     89.4780
  1295.2500      0.0000    627.5920     16.2208     86.6368
  1295.5000      0.0000    671.6639     15.8353     84.2307
  1295.7500      0.0000    722.4037     15.5009     83.6540
  1296.0000      0.0000    762.9720     15.1984     86.1896
