~Version Information
VERS.                      2.0: CWLS Log ASCII Standard - VERSION 2.0
WRAP.                       NO: One line per depth step
~Well Information Block
STRT.FT               460.0000: 
STOP.FT              3058.5000: 
STEP.FT                 0.1000: 
NULL.                -999.2500: 
COMP.          Pioneer Natural Resources: COMPANY
WELL.            Cleaver 24-12: WELL
FLD.           Purgatoire River: FIELD
LOC.           204' FSL & 2351' FWL: LOCATION
PROV.                 Colorado: PROVINCE
CNTY.               Las Animas: COUNTRY
SRVC.                Patterson: SERVICE COMPANY
DATE.          Mon Jan 09 13:49:27 2006: LOG DATE
UWI.           05 071 08634 00: UNIQUE WELL ID
~Curve Information Block
DEPT.FT            0 000 00 00: Depth
DCAL.in                       : CDL Caliper
RHOB.g/cc                     : CDL Bulk Density
RHOC.g/cc                     : CDL Density Correction
DPOR.pu                       : CDL Density Porosity
GR.GAPI                       : Gamma Ray
NPOR.pu                       : Neutron Porosity
~Parameter Information Block
~A  Depth       DCAL        RHOB        RHOC        DPOR         GR         NPOR    
# ...
  2869.6000      7.8647      1.6266      0.0172     62.0226     62.1856     31.6168
  2869.7000      7.8647      1.6268      0.0533     62.0138     52.4130     31.2233
  2869.8000      7.8553      1.6296      0.0426     61.8396     43.5838     31.3301
  2869.9000      7.8553      1.6333      0.0557     61.6211     39.8761     31.5143
  2870.0000      7.8288      1.6505      0.0436     60.5732     40.1700     31.0801
  2870.1000      7.8288      1.6903      0.0711     58.1624     41.4903     30.7977
  2870.2000      7.8288      1.7462      0.0740     54.7782     42.4837     30.8087
  2870.3000      7.8024      1.8041      0.0898     51.2691     42.2071     30.1471
  2870.4000      7.8024      1.8664      0.0999     47.4896     41.3928     29.3674
  2870.5000      7.7491      1.9539      0.0764     42.1904     42.5832     29.5393
  2870.6000      7.7491      2.0602      0.1629     35.7427     44.5233     29.9966
  2870.7000      7.7491      2.1424      0.1726     30.7648     44.4034     29.6746
  2870.8000      7.7390      2.1850      0.1048     28.1837     44.0634     28.3972
  2870.9000      7.7390      2.2009      0.1700     27.2152     43.8775     26.4822
  2871.0000      7.7130      2.1781      0.1459     28.6006     42.6466     25.0399
  2871.1000      7.7130      2.1063      0.0688     32.9494     44.7457     25.0413
  2871.2000      7.7130      2.0250     -0.0649     37.8774     51.0278     26.1619
  2871.3000      7.6995      1.9878     -0.0133     40.1341     55.4401     27.4161
  2871.4000      7.6995      2.0035      0.0265     39.1804     57.1793     28.3281
  2871.5000      7.7223      2.0475      0.1222     36.5125     62.2958     28.9689
  2871.6000      7.7223      2.1030      0.1552     33.1529     71.6104     29.4306
  2871.7000      7.7223      2.1719      0.1771     28.9746     81.1468     29.7319
  2871.8000      7.7495      2.2554      0.2242     23.9170     90.7356     29.6420
  2871.9000      7.7495      2.3432      0.1819     18.5953    100.4439     29.1010
  2872.0000      7.8234      2.4184      0.1980     14.0380    106.6626     28.5380
  2872.1000      7.8234      2.4573      0.2045     11.6804    106.7436     28.0797
  2872.2000      7.8234      2.4500      0.1900     12.1186    102.1517     27.7600
  2872.3000      7.9133      2.4137      0.0663     14.3195     96.8240     28.1023
  2872.4000      7.9133      2.3616      0.0595     17.4803     94.8517     29.1503
  2872.5000      7.9249      2.2880     -0.0002     21.9419     95.9292     29.9048
  2872.6000      7.9249      2.2078     -0.0898     26.7980     92.8505     29.4641
  2872.7000      7.9249      2.1525     -0.0587     30.1500     82.6034     28.2386
  2872.8000      7.9402      2.1199     -0.0179     32.1273     73.4062     27.4555
  2872.9000      7.9402      2.0858     -0.0533     34.1913     71.7131     27.5985
  2873.0000      7.9802      2.0443     -0.0205     36.7074     74.3005     28.0214
  2873.1000      7.9802      1.9986      0.0220     39.4810     74.5536     27.9651
  2873.2000      7.9802      1.9456     -0.0164     42.6892     69.8569     27.5029
  2873.3000      7.9797      1.8907     -0.0286     46.0190     63.2558     26.9129
  2873.4000      7.9797      1.8500     -0.0560     48.4850     58.4324     26.2976
  2873.5000      7.9434      1.8298      0.0248     49.7081     57.2134     26.2249
  2873.6000      7.9434      1.8188      0.0289     50.3783     56.8248     27.1124
  2873.7000      7.9434      1.8102      0.0064     50.8949     52.6142     28.1444
  2873.8000      7.9546      1.8015      0.0119     51.4229     47.1417     28.5218
  2873.9000      7.9546      1.7783      0.0559     52.8328     45.1266     28.6965
  2874.0000      7.9175      1.7394     -0.0630     55.1858     44.4643     28.6783
  2874.1000      7.9175      1.7116     -0.0087     56.8736     41.3827     27.9943
  2874.2000      7.9175      1.7054      0.0220     57.2484     37.1988     26.8636
  2874.3000      7.9018      1.7166     -0.0091     56.5718     35.8125     26.2321
  2874.4000      7.9018      1.7562      0.0195     54.1717     36.7660     26.6632
  2874.5000      7.9656      1.8270      0.1083     49.8810     35.9126     27.3049
  2874.6000      7.9656      1.9073      0.1420     45.0112     35.0250     27.3519
  2874.7000      7.9656      1.9799      0.1080     40.6130     39.0940     27.1961
  2874.8000      7.9799      2.0475      0.1003     36.5135     45.3199     27.4679
  2874.9000      7.9799      2.1191      0.1462     32.1760     48.9731     28.2057
  2875.0000      7.9052      2.2007      0.1542     27.2329     51.0262     29.0114
  2875.1000      7.9052      2.2991      0.1485     21.2637     50.5516     29.6078
  2875.2000      7.9052      2.4108      0.1749     14.4949     47.3427     30.2430
  2875.3000      7.9067      2.5079      0.1785      8.6124     45.3315     30.7801
  2875.4000      7.9067      2.5697      0.1418      4.8641     45.7640     30.3815
  2875.5000      7.8969      2.6074      0.1886      2.5830     47.9722     28.8235
  2875.6000      7.8969      2.6378      0.1926      0.7393     49.0640     27.1665
  2875.7000      7.8969      2.6626      0.1573     -0.7666     46.4829     26.2820
  2875.8000      7.8704      2.6682      0.1454     -1.1007     43.7052     25.9139
  2875.9000      7.8704      2.6484     -0.0067      0.0941     45.6264     25.6435
  2876.0000      7.9010      2.6262      0.0240      1.4450     53.1809     25.6106
  2876.1000      7.9010      2.6164      0.0475      2.0379     60.6609     25.9817
  2876.2000      7.9010      2.6067      0.0420      2.6234     60.5919     26.4722
  2876.3000      7.8936      2.5888      0.0413      3.7086     56.5400     26.6602
  2876.4000      7.8936      2.5685      0.0455      4.9400     56.9343     26.2611
  2876.5000      7.9020      2.5559     -0.0597      5.7005     59.8172     25.6722
  2876.6000      7.9020      2.5663     -0.0278      5.0736     59.6321     25.3276
  2876.7000      7.9020      2.5942      0.0437      3.3832     58.3794     25.2450
  2876.8000      7.9078      2.6103      0.0311      2.4069     58.8946     25.5307
  2876.9000      7.9078      2.5956      0.0688      3.2989     59.5674     26.1103
  2877.0000      7.9080      2.5678     -0.0455      4.9834     60.6747     26.6606
  2877.1000      7.9080      2.5659     -0.0280      5.0988     63.2464     27.1014
  2877.2000      7.9080      2.5910      0.0075      3.5771     64.3013     27.1029
  2877.3000      7.9056      2.5954      0.0806      3.3113     63.2002     26.2706
  2877.4000      7.9056      2.5451      0.0367      6.3561     61.4371     24.9422
  2877.5000      7.9066      2.4585     -0.0655     11.6054     55.8670     24.1458
  2877.6000      7.9066      2.3630     -0.0417     17.3964     48.1263     24.4630
  2877.7000      7.9066      2.2578     -0.0489     23.7694     44.8771     25.2682
  2877.8000      7.9025      2.1394     -0.0653     30.9453     45.8850     25.8584
  2877.9000      7.9025      2.0318     -0.1555     37.4669     47.4974     26.1694
  2878.0000      7.8913      1.9579     -0.1090     41.9466     48.5893     26.2527
  2878.1000      7.8913      1.9074     -0.0938     45.0049     46.4636     26.3032
  2878.2000      7.8913      1.8746     -0.0882     46.9967     41.0883     26.8438
  2878.3000      7.8803      1.8785     -0.0420     46.7580     41.0583     27.8443
  2878.4000      7.8803      1.9148      0.1198     44.5570     49.7935     28.7111
  2878.5000      7.8933      1.9509      0.0750     42.3697     59.7000     28.9631
  2878.6000      7.8933      1.9845      0.0755     40.3350     67.1542     28.4868
  2878.7000      7.8933      2.0424      0.0623     36.8243     73.1737     27.9290
  2878.8000      7.9088      2.1307      0.0820     31.4746     77.4520     28.1160
  2878.9000      7.9088      2.2197      0.1151     26.0770     84.4198     28.8988
  2879.0000      7.9185      2.2786      0.1632     22.5072     96.6862     29.6382
  2879.1000      7.9185      2.3176      0.0878     20.1438    107.2464     30.0350
