~Version Information
VERS.                      2.0: CWLS Log ASCII Standard - VERSION 2.0
WRAP.                       NO: One line per depth step
~Well Information Block
STRT.FT                -8.2500: 
STOP.FT              1653.2500: 
STEP.FT                 0.2500: 
NULL.                -999.2500: 
COMP.          Pioneer Natural Resources: COMPANY
WELL.            Relay 12-7 Tr: WELL
FLD.           Purgatorie River: FIELD
LOC.           2025' FNL & 790' FWL--: LOCATION
PROV.                       CO: PROVINCE
CNTY.               Las Animas: COUNTRY
SRVC.          Patterson Wireline: SERVICE COMPANY
DATE.          Tue Jan 24 10:25:08 2006: LOG DATE
UWI.           05 071 08603 00: UNIQUE WELL ID
~Curve Information Block
DEPT.FT            0 000 00 00: Depth
CCL.                          : Casing Collar Locator
TT3.usec                      : CBL 3' Travel Time
AMP3.mV                       : CBL 3' Amplitude
GR.GAPI                       : Gamma Ray
~Parameter Information Block
~A  Depth       CCL         TT3         AMP3         GR     
# ...
   527.7500      0.0000    724.5482      5.0189     70.2293
   528.0000      0.0000    726.1013      4.9836     67.7606
   528.2500      0.0000    727.7734      4.9692     69.8791
   528.5000      0.0000    729.3597      4.9859     77.5384
   528.7500      0.0000    729.4131      5.0326     89.5927
   529.0000      0.0000    726.9728      5.0990    102.8789
   529.2500      0.0000    722.9214      5.1745    113.8594
   529.5000      0.0000    719.7673      5.2521    120.7758
   529.7500      0.0000    719.8082      5.3253    124.3988
   530.0000      0.0000    723.2152      5.3867    126.7252
   530.2500      0.0000    728.0637      5.4317    129.0335
   530.5000      0.0000    732.1860      5.4618    131.0137
   530.7500      0.0000    734.6834      5.4819    131.4426
   531.0000      0.0000    735.8573      5.4959    129.6563
   531.2500      0.0000    736.3222      5.5042    126.6138
   531.5000      0.0000    736.3711      5.5038    124.4712
   531.7500      0.0000    735.7985      5.4919    124.8397
   532.0000      0.0000    734.0435      5.4702    127.3877
   532.2500      0.0000    730.5981      5.4469    130.2431
   532.5000      0.0000    725.4477      5.4318    131.6041
   532.7500      0.0000    719.1019      5.4290    130.7114
   533.0000      0.0000    712.2496      5.4342    127.4997
   533.2500      0.0000    705.5816      5.4410    122.0657
   533.5000      0.0000    699.8449      5.4477    114.9986
   533.7500      0.0000    695.6373      5.4576    107.8549
   534.0000      0.0000    693.0348      5.4739    102.5599
   534.2500      0.0000    691.6143      5.4955    100.2009
   534.5000      0.0000    690.8554      5.5180    100.6536
   534.7500      0.0000    690.4367      5.5388    103.0250
   535.0000      0.0000    690.2353      5.5602    106.0048
   535.2500      0.0000    690.2081      5.5849    108.2251
   535.5000      0.0000    690.3231      5.6115    108.9125
   535.7500      0.0000    690.5411      5.6355    108.2638
   536.0000      0.0000    690.8282      5.6553    107.1902
   536.2500      0.0000    691.2064      5.6747    106.7909
   536.5000      0.0000    691.8765      5.7005    107.7702
   536.7500      0.0000    693.3834      5.7400    109.9358
   537.0000      0.0000    696.6290      5.7966    112.2736
   537.2500      0.0000    702.4297      5.8659    113.6091
   537.5000      0.0000    710.6755      5.9360    113.1714
   537.7500      0.0000    719.8812      5.9935    111.0107
   538.0000      0.0000    727.9051      6.0326    108.4753
   538.2500      0.0000    733.3380      6.0577    107.7115
   538.5000      0.0000    736.2001      6.0776    109.6559
   538.7500      0.0000    737.5070      6.0978    112.6865
   539.0000      0.0000    738.5458      6.1191    114.0996
   539.2500      0.0000    740.6144      6.1422    112.7443
   539.5000      0.0000    744.9425      6.1685    109.4796
   539.7500      0.0000    751.9846      6.1983    105.6523
   540.0000      0.0000    760.2083      6.2274    102.3646
   540.2500      0.0000    766.1243      6.2481    100.8069
   540.5000      0.0000    766.7979      6.2538    101.9694
   540.7500      0.0000    762.8362      6.2437    105.7341
   541.0000      0.0000    758.1878      6.2235    110.4243
   541.2500      0.0000    756.4937      6.2008    113.2257
   541.5000      0.0000    757.7771      6.1797    111.6726
   541.7500      0.0000    758.8275      6.1615    105.5914
   542.0000      0.0000    756.6988      6.1486     97.5649
   542.2500      0.0000    751.5104      6.1473     91.1814
   542.5000      0.0000    745.5098      6.1639     88.9613
   542.7500      0.0000    739.8314      6.1948     91.6770
   543.0000      0.0000    733.2625      6.2229     98.6580
   543.2500      0.0000    724.3490      6.2297    108.1601
   543.5000      0.0000    713.6443      6.2128    117.7451
   543.7500      0.0000    703.3351      6.1886    125.0918
   544.0000      0.0000    695.2401      6.1765    129.0063
   544.2500      0.0000    689.5181      6.1826    129.8270
   544.5000      0.0000    684.9548      6.1970    128.9698
   544.7500      0.0000    680.3962      6.2037    128.1676
   545.0000      0.0000    676.3306      6.1934    128.7315
   545.2500      0.0000    675.2844      6.1655    130.9218
   545.5000      0.0000    680.1580      6.1243    133.8372
   545.7500      0.0000    691.4894      6.0750    135.9825
   546.0000      0.0000    706.1301      6.0269    136.2104
   546.2500      0.0000    718.7792      5.9927    134.6627
   546.5000      0.0000    725.2004      5.9832    132.9000
   546.7500      0.0000    724.3686      5.9994    132.6004
   547.0000      0.0000    718.1743      6.0318    133.9558
   547.2500      0.0000    709.9034      6.0672    135.5251
   547.5000      0.0000    703.0648      6.0978    135.6556
   547.7500      0.0000    700.4847      6.1245    134.0329
   548.0000      0.0000    703.3965      6.1507    131.8923
   548.2500      0.0000    711.1772      6.1750    130.7101
   548.5000      0.0000    722.2139      6.1929    130.7099
   548.7500      0.0000    735.1082      6.2046    130.7197
   549.0000      0.0000    748.8539      6.2155    129.1812
   549.2500      0.0000    761.9442      6.2310    125.0099
   549.5000      0.0000    771.9368      6.2538    117.8959
   549.7500      0.0000    776.6121      6.2850    108.4975
   550.0000      0.0000    776.1125      6.3233     98.5701
   550.2500      0.0000    773.7668      6.3610     90.5443
   550.5000      0.0000    773.7987      6.3868     86.3196
   550.7500      0.0000    777.4520      6.3942     85.8158
   551.0000      0.0000    781.6124      6.3851     86.6474
   551.2500      0.0000    781.5925      6.3649     85.8342
   551.5000      0.0000    775.2860      6.3368     82.2905
   551.7500      0.0000    764.7203      6.3020     77.5594
   552.0000      0.0000    754.0533      6.2635     74.2331
   552.2500      0.0000    746.3115      6.2292     73.8677
   552.5000      0.0000    741.7250      6.2103     76.0325
   552.7500      0.0000    738.4825      6.2138     78.7923
   553.0000      0.0000    734.6414      6.2352     80.1443
   553.2500      0.0000    729.3644      6.2601     79.3508
   553.5000      0.0000    722.7192      6.2726     77.1102
   553.7500      0.0000    715.0491      6.2630     74.7131
   554.0000      0.0000    707.0446      6.2328     73.1144
   554.2500      0.0000    699.8958      6.1954     72.4761
   554.5000      0.0000    694.6658      6.1709     72.2743
   554.7500      0.0000    691.5681      6.1727     71.8395
   555.0000      0.0000    690.0618      6.1980     70.9472
   555.2500      0.0000    689.4380      6.2299     70.0657
   555.5000      0.0000    689.2475      6.2504     70.0930
   555.7500      0.0000    689.4562      6.2519     71.5677
   556.0000      0.0000    690.4644      6.2385     73.8372
   556.2500      0.0000    692.8633      6.2163     75.2608
   556.5000      0.0000    696.7116      6.1781     74.6510
   556.7500      0.0000    700.6177      6.0953     72.4339
   557.0000      0.0000    701.8239      5.9426     70.1835
   557.2500      0.0000    698.2162      5.7486     69.0888
   557.5000      0.0000    690.8886      5.6023     68.9590
   557.7500      0.0000    684.5460      5.5669     68.7025
   558.0000      0.0000    685.0818      5.5965     67.6755
   558.2500      0.0000    696.7416      5.5870     66.3245
   558.5000      0.0000    720.9146      5.5030     65.5263
   558.7500      0.0000    755.4266      5.4039     65.8148
   559.0000      0.0000    793.0864      5.3596     67.4691
   559.2500     -2.0000    822.5256      5.3905     70.7083
   559.5000      2.0000    834.6097      5.4832     75.1797
   559.7500      0.0000    829.4949      5.6265     79.6201
   560.0000      0.0000    815.7585      5.8161     82.6655
   560.2500      0.0000    802.6136      6.0235     83.9345
   560.5000      0.0000    794.1549      6.1699     83.9500
   560.7500      0.0000    789.4625      6.1696     83.2248
   561.0000      0.0000    785.3879      6.0285     81.7823
