~Version Information
VERS.                      2.0: CWLS Log ASCII Standard - VERSION 2.0
WRAP.                       NO: One line per depth step
~Well Information Block
STRT.FT                -8.0000: 
STOP.FT              1661.0000: 
STEP.FT                 0.2500: 
NULL.                -999.2500: 
COMP.          Pioneer Natural Resources: COMPANY
WELL.          Rollerball 34-30: WELL
FLD.           Purgatorie River: FIELD
LOC.           893' FSL & 2408' FEL----: LOCATION
CNTY.               Las Animas: COUNTY
SRVC.          Patterson Wireline: SERVICE COMPANY
DATE.          Mon Feb 20 08:34:38 2006: LOG DATE
UWI.           05 071 08581 00: UNIQUE WELL ID
STAT.                       CO: STATE
~Curve Information Block
DEPT.FT            0 000 00 00: Depth
CCL.                          : Casing Collar Locator
TT3.usec                      : CBL 3' Travel Time
AMP3.mV                       : CBL 3' Amplitude
GR.GAPI                       : Gamma Ray
~Parameter Information Block
~A  Depth       CCL         TT3         AMP3         GR     
# ...
    92.5000      0.0000    807.6024      6.2363     81.0568
    92.7500      0.0000    808.3556      6.1614     76.2811
    93.0000      0.0000    811.1085      6.1027     70.4321
    93.2500      0.0000    813.6328      6.0482     64.9761
    93.5000      0.0000    812.9933      5.9904     60.6878
    93.7500      0.0000    809.5837      5.9385     58.0693
    94.0000      0.0000    806.0576      5.9103     57.0301
    94.2500      0.0000    804.3309      5.9117     56.5955
    94.5000      0.0000    804.6064      5.9275     55.5048
    94.7500      0.0000    805.8099      5.9349     53.1367
    95.0000      0.0000    805.9658      5.9222     49.8555
    95.2500      0.0000    803.0300      5.8954     46.6374
    95.5000      0.0000    796.2859      5.8732     44.4797
    95.7500      0.0000    786.8649      5.8715     44.0710
    96.0000      0.0000    776.8217      5.8903     45.6499
    96.2500      0.0000    768.0216      5.9155     48.7579
    96.5000      0.0000    761.9554      5.9376     52.1540
    96.7500      0.0000    759.5821      5.9635     54.4116
    97.0000      0.0000    760.1890      6.0058     54.9278
    97.2500      0.0000    760.8195      6.0646     54.3249
    97.5000      0.0000    758.1801      6.1260     53.6674
    97.7500      0.0000    751.5540      6.1771     53.3313
    98.0000      0.0000    743.2851      6.2168     52.8875
    98.2500      0.0000    736.1239      6.2515     52.0399
    98.5000      0.0000    730.5121      6.2831     51.1447
    98.7500      0.0000    724.7656      6.3024     50.5541
    99.0000      0.0000    717.4914      6.2959     49.8957
    99.2500      0.0000    709.2513      6.2606     48.3981
    99.5000      0.0000    701.9834      6.2114     45.8613
    99.7500      0.0000    697.3648      6.1726     43.1254
   100.0000      0.0000    696.0169      6.1606     41.5299
   100.2500      0.0000    697.8512      6.1782     41.9267
   100.5000      0.0000    702.3840      6.2205     44.3093
   100.7500      0.0000    708.4017      6.2815     48.3366
   101.0000      0.0000    713.8045      6.3487     53.7925
   101.2500      0.0000    716.5514      6.4001     60.1871
   101.5000      0.0000    715.9617      6.4132     66.1834
   101.7500      0.0000    713.0622      6.3806     70.1020
   102.0000      0.0000    709.8815      6.3145     71.3550
   102.2500      0.0000    708.3502      6.2383     71.1348
   102.5000      0.0000    709.2549      6.1755     71.3422
   102.7500      0.0000    711.9204      6.1467     72.9246
   103.0000      0.0000    715.0256      6.1639     75.3953
   103.2500      0.0000    717.5750      6.2235     77.7111
   103.5000      0.0000    718.8805      6.3035     79.2301
   103.7500      0.0000    718.0714      6.3734     79.8741
   104.0000      0.0000    714.4619      6.4078     79.8319
   104.2500      0.0000    708.6044      6.3955     79.3390
   104.5000      0.0000    702.3892      6.3427     78.5196
   104.7500      0.0000    697.7590      6.2680     77.2794
   105.0000      0.0000    695.5311      6.1935     75.3632
   105.2500      0.0000    695.4998      6.1379     72.4853
   105.5000      0.0000    697.1369      6.1139     68.4612
   105.7500      0.0000    699.7698      6.1245     63.5550
   106.0000      0.0000    702.2687      6.1572     58.8951
   106.2500      0.0000    703.2651      6.1881     56.1329
   106.5000      0.0000    702.1415      6.1973     56.1263
   106.7500      0.0000    699.6290      6.1825     58.0749
   107.0000      0.0000    697.1229      6.1565     60.3514
   107.2500      0.0000    695.5397      6.1312     61.9807
   107.5000      0.0000    694.9452      6.1075     63.0069
   107.7500      0.0000    694.9467      6.0768     63.9062
   108.0000      0.0000    695.1149      6.0255     65.2649
   108.2500      0.0000    695.0912      5.9354     67.7615
   108.5000      0.0000    694.4798      5.7895     71.6686
   108.7500      0.0000    692.9787      5.5963     76.1811
   109.0000      0.0000    691.2561      5.4148     79.7291
   109.2500      0.0000    692.5334      5.3302     81.3322
   109.5000      0.0000    702.8779      5.3702     81.5352
   109.7500      0.0000    727.2640      5.4581     81.7831
   110.0000      0.0000    762.8582      5.4897     82.7974
   110.2500      0.0000    797.6321      5.4434     83.6802
   110.5000      0.0000    819.6662      5.3800     82.7449
   110.7500      0.0000    828.0543      5.3535     79.1850
   111.0000      2.0000    830.9824      5.3646     73.7733
   111.2500      2.0000    832.9125      5.3882     68.1864
   111.5000      0.0000    828.4548      5.4217     64.1554
   111.7500      0.0000    811.0720      5.5054     62.9860
   112.0000      0.0000    784.0897      5.6896     64.9839
   112.2500      0.0000    759.7043      5.9667     69.1697
   112.5000      0.0000    748.2254      6.2497     74.0458
   112.7500      0.0000    750.2513      6.4454     78.7138
   113.0000      0.0000    758.6058      6.5309     83.1001
   113.2500      0.0000    765.6705      6.5408     87.2982
   113.5000      0.0000    767.7664      6.5124     91.0199
   113.7500      0.0000    764.2325      6.4686     93.8177
   114.0000      0.0000    755.5812      6.4245     95.6898
   114.2500      0.0000    743.7928      6.3840     97.1757
   114.5000      0.0000    732.7169      6.3379     98.7719
   114.7500      0.0000    726.2322      6.2775    100.3670
   115.0000      0.0000    725.7951      6.2075    101.2162
   115.2500      0.0000    729.7120      6.1394    100.3791
   115.5000      0.0000    734.1171      6.0749     97.3596
   115.7500      0.0000    734.9662      5.9977     92.5888
   116.0000      0.0000    730.6450      5.8849     87.3543
   116.2500      0.0000    723.3203      5.7281     83.1635
   116.5000      0.0000    717.0949      5.5449     80.9811
   116.7500      0.0000    714.6251      5.3699     80.8304
   117.0000      0.0000    715.8206      5.2335     82.0683
   117.2500      0.0000    719.5639      5.1471     84.1070
   117.5000      0.0000    725.5714      5.1051     86.7400
   117.7500      0.0000    733.5487      5.0977     89.5619
   118.0000      0.0000    740.7830      5.1228     91.2290
   118.2500      0.0000    742.5376      5.1834     89.9198
   118.5000      0.0000    736.5214      5.2734     85.0469
   118.7500      0.0000    725.9423      5.3709     78.3272
   119.0000      0.0000    716.4721      5.4492     72.7685
   119.2500      0.0000    710.9164      5.4963     70.6582
   119.5000      0.0000    708.0316      5.5208     72.5520
   119.7500      0.0000    705.5364      5.5415     77.4125
   120.0000      0.0000    702.7810      5.5721     83.0205
   120.2500      0.0000    700.7837      5.6156     86.7472
   120.5000      0.0000    701.2026      5.6669     87.1000
   120.7500      0.0000    705.9095      5.7209     85.0358
   121.0000      0.0000    716.6332      5.7810     83.5635
   121.2500      0.0000    733.7756      5.8603     85.6370
   121.5000      0.0000    755.2422      5.9677     91.8402
   121.7500      0.0000    777.0459      6.0887     99.5436
   122.0000      0.0000    795.6355      6.1885    104.3847
   122.2500      0.0000    809.9228      6.2411    103.3693
   122.5000      0.0000    821.3210      6.2529     97.1501
   122.7500      0.0000    832.0595      6.2579     89.2506
   123.0000      0.0000    843.1180      6.2941     83.1191
   123.2500      0.0000    853.3600      6.3797     80.1077
   123.5000      0.0000    860.8906      6.5000     79.7175
   123.7500      0.0000    865.5517      6.6110     80.6965
   124.0000      0.0000    868.5981      6.6659     81.7087
   124.2500      0.0000    868.4133      6.6448     81.7963
   124.5000      0.0000    859.0388      6.5603     80.8847
   124.7500      0.0000    836.8462      6.4369     79.8171
   125.0000      0.0000    807.7396      6.2934     79.6788
   125.2500      0.0000    784.7402      6.1445     80.9058
   125.5000      0.0000    778.7228      6.0063     82.9227
   125.7500      0.0000    792.0215      5.8945     84.5973
