~Version Information
VERS.                      2.0: CWLS Log ASCII Standard - VERSION 2.0
WRAP.                       NO: One line per depth step
~Well Information Block
STRT.FT               555.0000: 
STOP.FT              2286.5000: 
STEP.FT                 0.1000: 
NULL.                -999.2500: 
COMP.          Pioneer Natural Resources: COMPANY
WELL.          Roadster 41-33 Kv: WELL
FLD.           Purgatoire River: FIELD
LOC.           903' FNL & 248' FEL: LOCATION
PROV.                 Colorado: PROVINCE
CNTY.               Las Animas: COUNTRY
SRVC.                Patterson: SERVICE COMPANY
DATE.          Thu Dec 15 10:28:25 2005: LOG DATE
UWI.           05 071 08615 00: UNIQUE WELL ID
~Curve Information Block
DEPT.FT            0 000 00 00: Depth
DCAL.in                       : CDL Caliper
RHOB.g/cc                     : CDL Bulk Density
RHOC.g/cc                     : CDL Density Correction
DPOR.pu                       : CDL Density Porosity
GR.GAPI                       : Gamma Ray
NPOR.pu                       : Neutron Porosity
~Parameter Information Block
~A  Depth       DCAL        RHOB        RHOC        DPOR         GR         NPOR    
# ...
  2043.0000      7.9898      2.6092      0.1109      2.4705     86.2701     21.0833
  2043.1000      7.9898      2.6204      0.1304      1.7920     89.2683     20.8982
  2043.2000      7.9898      2.6290      0.0875      1.2721     90.2499     20.2960
  2043.3000      7.9991      2.6291      0.0997      1.2637     90.7895     20.5019
  2043.4000      7.9991      2.6135      0.0947      2.2116     90.0616     20.7516
  2043.5000      8.0045      2.5885      0.0555      3.7269     87.5660     20.3248
  2043.6000      8.0045      2.5659      0.0551      5.0949     91.4704     20.5521
  2043.7000      8.0045      2.5400      0.1022      6.6677     99.4918     21.9178
  2043.8000      8.0122      2.4982      0.0299      9.2029     99.7880     22.7860
  2043.9000      8.0122      2.4435      0.0300     12.5153     96.1709     22.5071
  2044.0000      8.0147      2.3848      0.0149     16.0740     96.2078     22.0782
  2044.1000      8.0147      2.3361     -0.0405     19.0239     96.7643     21.8131
  2044.2000      8.0147      2.3176      0.0009     20.1454     96.3348     21.8625
  2044.3000      8.0161      2.3314      0.0128     19.3099     96.7654     22.8652
  2044.4000      8.0161      2.3585      0.0565     17.6646     99.1719     24.1370
  2044.5000      8.0228      2.3778      0.0847     16.4988    102.9578     24.3944
  2044.6000      8.0228      2.3843      0.0606     16.1003    104.6821     23.7976
  2044.7000      8.0228      2.3930      0.0554     15.5766    102.0508     22.8421
  2044.8000      8.0665      2.4198      0.0598     13.9531     97.4332     21.9878
  2044.9000      8.0665      2.4612      0.1241     11.4420     94.3621     21.8505
  2045.0000      8.0585      2.4993      0.0687      9.1345     95.3996     22.4556
  2045.1000      8.0585      2.5233      0.0666      7.6810     98.6825     23.1286
  2045.2000      8.0585      2.5323      0.0566      7.1344     97.2879     23.2303
  2045.3000      7.9971      2.5321      0.0562      7.1474     91.4989     22.9269
  2045.4000      7.9971      2.5257      0.0488      7.5319     88.5953     22.1971
  2045.5000      7.9984      2.5088      0.0482      8.5547     89.9790     20.8798
  2045.6000      7.9984      2.4860      0.0367      9.9419     94.7057     20.0074
  2045.7000      7.9984      2.4696      0.0225     10.9346     99.7770     20.2501
  2045.8000      8.0078      2.4575      0.0697     11.6667     99.9481     21.0648
  2045.9000      8.0078      2.4375      0.0564     12.8765    100.0574     22.2428
  2046.0000      8.0080      2.4164      0.0171     14.1569    109.0030     23.6922
  2046.1000      8.0080      2.4100      0.0369     14.5474    120.7776     24.6641
  2046.2000      8.0080      2.4172      0.0288     14.1083    123.1001     24.4229
  2046.3000      8.0068      2.4320      0.0158     13.2111    118.9675     23.7283
  2046.4000      8.0068      2.4550      0.0351     11.8184    114.1377     23.8275
  2046.5000      8.0050      2.4814      0.1012     10.2177    108.8810     24.5480
  2046.6000      8.0050      2.4989      0.1269      9.1582    109.0089     25.1080
  2046.7000      8.0050      2.5023      0.0907      8.9544    115.7705     25.5806
  2046.8000      8.0259      2.5009      0.0866      9.0345    122.5538     25.9926
  2046.9000      8.0259      2.5015      0.0901      9.0005    128.9776     26.0885
  2047.0000      8.0460      2.4919      0.1123      9.5847    137.2838     26.0321
  2047.1000      8.0460      2.4663      0.0364     11.1333    144.7701     25.5286
  2047.2000      8.0460      2.4388      0.0417     12.8027    147.2682     25.0542
  2047.3000      8.0334      2.4181      0.0224     14.0526    142.6971     25.7669
  2047.4000      8.0334      2.4078     -0.0154     14.6785    133.4017     26.9868
  2047.5000      8.0366      2.4107      0.0251     14.5059    125.8394     27.0180
  2047.6000      8.0366      2.4253      0.0356     13.6169    124.6300     26.0751
  2047.7000      8.0366      2.4504      0.0554     12.0949    127.0317     25.9505
  2047.8000      8.0343      2.4773      0.1039     10.4649    127.4877     26.9893
  2047.9000      8.0343      2.4897      0.1002      9.7163    126.1301     27.6806
  2048.0000      8.0404      2.4819      0.0900     10.1886    124.7449     27.0506
  2048.1000      8.0404      2.4609      0.0491     11.4604    121.7591     25.6173
  2048.2000      8.0404      2.4417      0.0339     12.6260    117.6656     24.5534
  2048.3000      8.0512      2.4386      0.0620     12.8138    119.3023     23.9558
  2048.4000      8.0512      2.4502      0.0746     12.1089    129.6864     23.2081
  2048.5000      8.0639      2.4639      0.0808     11.2807    139.3206     22.5410
  2048.6000      8.0639      2.4735      0.0807     10.6996    138.2980     22.6782
  2048.7000      8.0639      2.4827      0.0881     10.1415    128.7154     23.5851
  2048.8000      8.0359      2.4901      0.0819      9.6903    119.3972     24.2518
  2048.9000      8.0359      2.4863      0.0850      9.9232    115.6436     24.1451
  2049.0000      8.0280      2.4745      0.0310     10.6367    116.3257     24.0885
  2049.1000      8.0280      2.4802      0.0487     10.2928    118.8593     24.1926
  2049.2000      8.0280      2.5219      0.0678      7.7644    120.7250     23.6211
  2049.3000      8.0217      2.5799      0.1270      4.2456    119.0521     22.6671
  2049.4000      8.0217      2.6109      0.1639      2.3669    111.8803     22.2898
  2049.5000      8.0187      2.6003      0.0883      3.0112    101.4171     22.5988
  2049.6000      8.0187      2.5679      0.0967      4.9733     91.8033     22.7406
  2049.7000      8.0187      2.5392      0.0132      6.7137     85.0913     22.1675
  2049.8000      8.0172      2.5360      0.0373      6.9080     81.5559     21.2061
  2049.9000      8.0172      2.5557      0.0446      5.7139     79.3555     20.5894
  2050.0000      8.0215      2.5757      0.0633      4.5055     77.7355     20.8516
  2050.1000      8.0215      2.5834      0.0502      4.0380     77.9199     21.5824
  2050.2000      8.0215      2.5859      0.0379      3.8864     79.6325     21.4440
  2050.3000      8.0326      2.5951      0.0855      3.3278     79.7331     20.0548
  2050.4000      8.0326      2.6082      0.0867      2.5307     75.9577     18.6622
  2050.5000      8.0335      2.6137      0.0599      2.2014     71.2280     17.6356
  2050.6000      8.0335      2.6077      0.0357      2.5646     69.9788     16.7295
  2050.7000      8.0335      2.5915      0.0325      3.5473     71.3314     16.2153
  2050.8000      8.0326      2.5734      0.0080      4.6413     70.4059     16.1977
  2050.9000      8.0326      2.5688     -0.0462      4.9224     66.5453     16.6065
  2051.0000      8.0384      2.5712      0.0504      4.7742     62.8505     17.4947
  2051.1000      8.0384      2.5645     -0.0380      5.1831     61.2436     18.1083
  2051.2000      8.0384      2.5602     -0.0311      5.4419     62.2070     17.5600
  2051.3000      8.0354      2.5622      0.0461      5.3202     64.9308     16.3242
  2051.4000      8.0354      2.5566     -0.0444      5.6636     68.1511     15.1550
  2051.5000      8.0313      2.5567     -0.0496      5.6516     68.1917     14.2367
  2051.6000      8.0313      2.5831      0.0250      4.0548     63.4572     13.8541
  2051.7000      8.0313      2.6249      0.0496      1.5240     59.0323     14.0266
  2051.8000      8.0306      2.6563      0.0833     -0.3798     60.0942     14.0896
  2051.9000      8.0306      2.6609      0.0683     -0.6618     62.0180     13.8827
  2052.0000      8.0292      2.6440      0.0439      0.3632     57.6576     13.7675
  2052.1000      8.0292      2.6204      0.0291      1.7959     52.5824     14.0980
  2052.2000      8.0292      2.6008     -0.0056      2.9829     54.4868     15.2153
  2052.3000      8.0306      2.5929     -0.0104      3.4607     58.6615     16.7353
  2052.4000      8.0306      2.5938      0.0361      3.4062     59.9278     17.4299
  2052.5000      8.0256      2.5944      0.0232      3.3720     61.8716     17.3922
