~Version Information
VERS.                      2.0: CWLS Log ASCII Standard - VERSION 2.0
WRAP.                       NO: One line per depth step
~Well Information Block
STRT.FT               420.0000: 
STOP.FT              2888.7000: 
STEP.FT                 0.1000: 
NULL.                -999.2500: 
COMP.          Pioneer Natural Resources: COMPANY
WELL.          Touchstone 11-32: WELL
FLD.           Purgatoire River: FIELD
LOC.           853' FNL & 407' FWL--: LOCATION
CNTY.               Las Animas: COUNTY
SRVC.                Patterson: SERVICE COMPANY
DATE.          Fri Feb 24 11:16:52 2006: LOG DATE
UWI.           05 071 08564 00: UNIQUE WELL ID
STAT.                 Colorado: STATE
~Curve Information Block
DEPT.FT            0 000 00 00: Depth
DCAL.in                       : CDL Caliper
RHOB.g/cc                     : CDL Bulk Density
RHOC.g/cc                     : CDL Density Correction
DPOR.pu                       : CDL Density Porosity
NPOR.pu                       : Neutron Porosity
GR.GAPI                       : Gamma Ray
~Parameter Information Block
~A  Depth       DCAL        RHOB        RHOC        DPOR        NPOR         GR     
# ...
   583.2000      8.0570      2.4562      0.0957     11.7464     12.6199     63.4428
   583.3000      8.0576      2.4530      0.0614     11.9417     12.9362     62.0107
   583.4000      8.0576      2.4387      0.0427     12.8048     12.9394     59.7101
   583.5000      8.0584      2.4336      0.0528     13.1161     12.9179     58.7257
   583.6000      8.0584      2.4412      0.0222     12.6551     13.0929     59.5834
   583.7000      8.0584      2.4485      0.0822     12.2102     13.2928     59.5561
   583.8000      8.0580      2.4407      0.0512     12.6819     13.2755     58.8483
   583.9000      8.0580      2.4197      0.0276     13.9549     12.9782     59.7059
   584.0000      8.0571      2.3954      0.0373     15.4288     12.6429     62.6003
   584.1000      8.0571      2.3794      0.0052     16.3996     12.4020     66.2604
   584.2000      8.0571      2.3819      0.0156     16.2469     12.1101     67.1584
   584.3000      8.0562      2.3969      0.0363     15.3422     11.9558     63.3798
   584.4000      8.0562      2.4093      0.0490     14.5872     12.1084     59.8357
   584.5000      8.0546      2.4145      0.0798     14.2737     12.2585     61.7632
   584.6000      8.0546      2.4192      0.0434     13.9889     12.1109     66.5060
   584.7000      8.0546      2.4281      0.0642     13.4488     12.0062     69.0241
   584.8000      8.0540      2.4326      0.0841     13.1728     12.3597     70.0374
   584.9000      8.0540      2.4254      0.0632     13.6148     12.7119     70.8005
   585.0000      8.0546      2.4215     -0.0145     13.8507     12.5525     69.4579
   585.1000      8.0546      2.4362      0.0520     12.9605     12.2776     65.6523
   585.2000      8.0546      2.4486      0.0721     12.2045     12.2350     62.5609
   585.3000      8.0567      2.4409      0.0680     12.6705     12.3640     62.6279
   585.4000      8.0567      2.4281      0.0222     13.4496     12.5950     64.8925
   585.5000      8.0612      2.4236      0.0422     13.7242     12.8722     64.6945
   585.6000      8.0612      2.4216      0.0321     13.8439     13.0681     60.2056
   585.7000      8.0612      2.4107      0.0842     14.5018     12.9910     58.0554
   585.8000      8.0658      2.3884      0.0218     15.8561     12.4476     62.2414
   585.9000      8.0658      2.3722     -0.0123     16.8343     11.7203     66.7885
   586.0000      8.0672      2.3810      0.0210     16.3018     11.3078     68.7235
   586.1000      8.0672      2.4043      0.0705     14.8939     11.2452     70.3621
   586.2000      8.0672      2.4177      0.0636     14.0794     11.3260     70.5640
   586.3000      8.0670      2.4179      0.0540     14.0696     11.5611     68.3213
   586.4000      8.0670      2.4088      0.0579     14.6165     12.0534     64.8501
   586.5000      8.0672      2.3894      0.0355     15.7923     12.3837     62.1540
   586.6000      8.0672      2.3733     -0.0102     16.7710     12.2009     63.8842
   586.7000      8.0672      2.3719      0.0403     16.8524     12.0517     68.7877
   586.8000      8.0685      2.3716      0.0284     16.8754     12.4181     72.1535
   586.9000      8.0685      2.3605      0.0265     17.5442     12.8894     72.1804
   587.0000      8.0698      2.3482      0.0124     18.2911     12.8237     70.4272
   587.1000      8.0698      2.3497      0.0068     18.2000     12.3882     69.8653
   587.2000      8.0698      2.3673      0.0454     17.1355     12.1697     70.9007
   587.3000      8.0692      2.3870      0.0715     15.9370     12.2969     70.5573
   587.4000      8.0692      2.3972      0.0582     15.3193     12.4784     67.0202
   587.5000      8.0680      2.4013      0.0727     15.0710     12.4599     63.8510
   587.6000      8.0680      2.4092      0.0453     14.5965     12.4415     65.0266
   587.7000      8.0680      2.4221      0.0768     13.8118     12.6957     69.0963
   587.8000      8.0685      2.4310      0.1105     13.2717     13.0322     71.4392
   587.9000      8.0685      2.4316      0.0715     13.2348     13.1237     70.0730
   588.0000      8.0685      2.4281      0.0985     13.4476     13.0366     67.2650
   588.1000      8.0685      2.4238      0.0863     13.7069     13.1203     66.7205
   588.2000      8.0685      2.4220      0.1078     13.8155     13.4493     67.6566
   588.3000      8.0683      2.4204      0.1038     13.9175     13.6296     65.1714
   588.4000      8.0683      2.4098      0.0794     14.5603     13.2519     59.6568
   588.5000      8.0697      2.3870      0.0618     15.9372     12.6271     55.6615
   588.6000      8.0697      2.3632      0.0210     17.3803     12.2970     52.8514
   588.7000      8.0697      2.3510      0.0562     18.1196     12.2277     48.7756
   588.8000      8.0698      2.3484      0.0588     18.2804     12.2811     45.7342
   588.9000      8.0698      2.3503      0.0327     18.1637     12.4476     46.7160
   589.0000      8.0653      2.3542      0.0742     17.9288     12.6321     49.5121
   589.1000      8.0653      2.3583      0.0450     17.6783     12.6359     52.4140
   589.2000      8.0653      2.3673      0.0680     17.1330     12.1642     56.1071
   589.3000      8.0569      2.3816      0.0532     16.2637     11.3411     59.8815
   589.4000      8.0569      2.3953      0.0678     15.4371     10.8375     61.5148
   589.5000      8.0468      2.4064      0.0480     14.7618     10.9677     60.7115
   589.6000      8.0468      2.4198      0.0500     13.9486     11.3271     59.9880
   589.7000      8.0468      2.4310      0.1156     13.2753     11.4410     60.7224
   589.8000      8.0360      2.4290      0.0957     13.3944     11.3011     62.5308
   589.9000      8.0360      2.4201      0.0632     13.9359     11.0624     62.3998
   590.0000      8.0295      2.4204      0.0469     13.9149     11.0486     60.6785
   590.1000      8.0295      2.4353      0.0760     13.0143     11.4574     61.0907
   590.2000      8.0295      2.4567      0.0822     11.7169     12.0674     62.4584
   590.3000      8.0287      2.4778      0.0672     10.4341     12.6951     63.1714
   590.4000      8.0287      2.4938      0.0999      9.4657     13.2204     63.2317
   590.5000      8.0300      2.4907      0.0894      9.6560     13.1928     61.4854
   590.6000      8.0300      2.4628      0.0566     11.3480     12.6527     60.5605
   590.7000      8.0300      2.4270      0.0210     13.5180     12.3202     62.7005
   590.8000      8.0305      2.4029      0.0341     14.9764     12.3947     64.1182
   590.9000      8.0305      2.3944      0.0154     15.4922     12.6232     62.3885
   591.0000      8.0340      2.3935      0.0403     15.5440     12.7348     60.1534
   591.1000      8.0340      2.3938      0.0368     15.5294     12.7681     61.0433
   591.2000      8.0340      2.4000      0.0138     15.1508     13.0449     66.4636
   591.3000      8.0430      2.4189      0.0568     14.0071     13.4542     71.5167
   591.4000      8.0430      2.4429      0.0412     12.5540     13.7140     72.3618
   591.5000      8.0523      2.4536      0.1008     11.9040     14.0248     71.8627
   591.6000      8.0523      2.4467      0.0426     12.3207     14.4814     70.6942
   591.7000      8.0523      2.4454      0.0207     12.3998     14.8979     68.2716
   591.8000      8.0612      2.4614      0.0951     11.4315     15.3728     67.7127
   591.9000      8.0612      2.4821      0.0568     10.1737     16.2809     70.5423
   592.0000      8.0680      2.5017      0.0632      8.9866     17.5663     73.1704
   592.1000      8.0680      2.5176      0.0880      8.0251     18.5872     71.6980
   592.2000      8.0680      2.5247      0.1059      7.5955     19.1111     67.2449
   592.3000      8.0701      2.5272      0.1082      7.4416     19.3137     64.4611
   592.4000      8.0701      2.5337      0.0836      7.0457     19.2938     67.3021
   592.5000      8.0702      2.5371      0.0801      6.8443     19.2216     73.5624
   592.6000      8.0702      2.5196      0.0465      7.9015     19.3224     77.4659
   592.7000      8.0702      2.4827     -0.0159     10.1423     19.6036     78.0215
