~Version Information
VERS.                      2.0: CWLS Log ASCII Standard - VERSION 2.0
WRAP.                       NO: One line per depth step
~Well Information Block
STRT.FT                10.0000: 
STOP.FT               715.0000: 
STEP.FT                 0.1000: 
NULL.                -999.2500: 
COMP.          Pioneer Natural Resources: COMPANY
WELL.           Belvedere 14-7: WELL
FLD.           Purgatorie River: FIELD
LOC.           786' FSL & 1283' FWL: LOCATION
PROV.                 Colorado: PROVINCE
CNTY.               Las Animas: COUNTRY
SRVC.                Patterson: SERVICE COMPANY
DATE.          Mon Nov 28 07:30:54 2005: LOG DATE
UWI.           05-071-08557               : UNIQUE WELL ID
~Curve Information Block
DEPT.FT            0 000 00 00: Depth
DCAL.in                       : CDL Caliper
RHOB.g/cc                     : CDL Bulk Density
RHOC.g/cc                     : CDL Density Correction
DPOR.pu                       : CDL Density Porosity
GR.GAPI                       : Gamma Ray
NPOR.pu                       : Neutron Porosity
~Parameter Information Block
~A  Depth       DCAL        RHOB        RHOC        DPOR         GR         NPOR    
# ...
    58.0000      2.7444      0.5614      1.7443     -0.0418    152.8712     21.4576
    58.1000      2.7444      0.5576      1.7465     -0.0419    152.2699     21.5434
    58.2000      2.7444      0.5529      1.7085     -0.0420    153.6087     21.8701
    58.3000      2.7444      0.5572      1.7235     -0.0419    154.7786     21.9235
    58.4000      2.7444      0.5783      1.7300     -0.0415    151.6846     21.4686
    58.5000      2.7444      0.6077      1.8033     -0.0409    145.3446     20.8998
    58.6000      2.7444      0.6319      1.8001     -0.0404    141.7512     20.8519
    58.7000      2.7444      0.6505      1.8069     -0.0400    143.0989     21.0255
    58.8000      2.7444      0.6665      1.8254     -0.0397    146.2636     20.8395
    58.9000      2.7444      0.6788      1.8260     -0.0394    149.8356     20.6453
    59.0000      2.7444      0.6870      1.8324     -0.0393    154.8793     20.6710
    59.1000      2.7444      0.6911      1.8422     -0.0392    159.4441     20.7055
    59.2000      2.7444      0.6945      1.8310     -0.0391    160.8680     20.8349
    59.3000      2.7444      0.7068      1.8293     -0.0389    158.0462     21.0836
    59.4000      2.7444      0.7334      1.8533     -0.0384    152.3020     21.1362
    59.5000      2.7444      0.7609      1.9407     -0.0378    148.0697     20.8823
    59.6000      2.7444      0.7723      1.9040     -0.0376    148.6365     20.7976
    59.7000      2.7444      0.7699      1.8885     -0.0376    153.1999     21.3168
    59.8000      2.7444      0.7662      1.8800     -0.0377    158.0827     22.0523
    59.9000      2.7444      0.7632      1.9150     -0.0378    160.8038     22.4448
    60.0000      2.7444      0.7583      1.8699     -0.0379    162.2701     22.3229
    60.1000      2.7444      0.7586      1.8473     -0.0378    164.7259     22.0712
    60.2000      2.7444      0.7713      1.8806     -0.0376    167.2206     22.1925
    60.3000      2.7444      0.7929      1.8956     -0.0372    168.6359     22.5614
    60.4000      2.7444      0.8175      1.9006     -0.0367    169.3466     22.8679
    60.5000      2.7444      0.8375      1.9636     -0.0363    169.1093     23.0344
    60.6000      2.7444      0.8450      1.9657     -0.0361    169.4410     23.1514
    60.7000      2.7444      0.8439      1.9342     -0.0361    169.4581     23.3905
    60.8000      2.7444      0.8457      1.9409     -0.0361    165.7704     23.8121
    60.9000      2.7444      0.8497      1.9607     -0.0360    159.3370     24.2181
    61.0000      2.7444      0.8462      1.9466     -0.0361    152.5922     24.2737
    61.1000      2.7444      0.8323      1.9573     -0.0364    147.8008     24.0692
    61.2000      2.7444      0.8192      1.8746     -0.0366    148.5541     23.9735
    61.3000      2.7444      0.8226      1.9031     -0.0366    154.1704     23.6168
    61.4000      2.7444      0.8366      1.9660     -0.0363    157.8935     22.8020
    61.5000      2.7444      0.8465      1.9217     -0.0361    155.9650     22.1778
    61.6000      2.7444      0.8541      1.9457     -0.0359    152.0405     22.0741
    61.7000      2.7444      0.8688      1.9340     -0.0356    153.0558     22.2022
    61.8000      2.7444      0.8949      1.9684     -0.0351    160.8284     22.2732
    61.9000      2.7444      0.9221      2.0422     -0.0346    167.9309     22.2736
    62.0000      2.7444      0.9314      2.0619     -0.0344    167.0836     22.5168
    62.1000      2.7444      0.9219      1.9685     -0.0346    160.4617     23.1652
    62.2000      2.7444      0.9115      1.9883     -0.0348    156.1692     23.9156
    62.3000      2.7444      0.9093      1.9778     -0.0348    158.9003     24.3748
    62.4000      2.7444      0.9111      2.0009     -0.0348    166.2306     24.3323
    62.5000      2.7444      0.9137      1.9630     -0.0347    172.3659     23.9108
    62.6000      2.7444      0.9196      1.9779     -0.0346    175.1725     23.4973
    62.7000      2.7444      0.9295      2.0108     -0.0344    175.7586     23.4617
    62.8000      2.7444      0.9421      1.9826     -0.0342    174.2219     23.6245
    62.9000      2.7444      0.9581      2.0252     -0.0339    171.7959     23.5156
    63.0000      2.7444      0.9765      2.0188     -0.0335    171.5033     23.3537
    63.1000      2.7444      0.9923      2.0681     -0.0332    174.0636     23.4725
    63.2000      2.7444      0.9995      2.0384     -0.0330    176.5093     23.6106
    63.3000      2.7444      1.0007      2.0432     -0.0330    175.2152     23.6357
    63.4000      2.7444      1.0035      2.0444     -0.0329    172.0510     23.6835
    63.5000      2.7444      1.0126      2.0462     -0.0328    172.4471     23.7284
    63.6000      2.7444      1.0294      2.0567     -0.0324    175.2583     23.7789
    63.7000      2.7444      1.0490      2.0735     -0.0320    172.9019     24.0549
    63.8000      2.7444      1.0609      2.1193     -0.0318    165.4850     24.6970
    63.9000      2.7444      1.0604      2.0626     -0.0318    160.9045     25.3209
    64.0000      2.7444      1.0573      2.0703     -0.0319    159.7496     25.5888
    64.1000      2.7444      1.0615      2.0722     -0.0318    155.8468     25.7810
    64.2000      2.7444      1.0697      2.1012     -0.0316    148.7899     25.8481
    64.3000      2.7444      1.0768      2.0858     -0.0315    143.2501     25.6364
    64.4000      2.7444      1.0861      2.0895     -0.0313    139.5990     25.7180
    64.5000      2.7444      1.1024      2.1167     -0.0310    134.6369     26.3222
    64.6000      2.7444      1.1261      2.1146     -0.0305    130.1909     26.9582
    64.7000      2.7444      1.1532      2.1458     -0.0300    130.4318     27.2670
    64.8000      2.7444      1.1769      2.1653     -0.0295    132.5777     27.4415
    64.9000      2.7444      1.1947      2.1716     -0.0291    132.7629     27.8919
    65.0000      2.7444      1.2118      2.1363     -0.0288    131.2849     28.6175
    65.1000      2.7444      1.2390      2.1396     -0.0282    129.6125     29.4236
    65.2000      2.7444      1.2817      2.1583     -0.0274    128.6729     30.4345
    65.3000      2.7444      1.3344      2.2020     -0.0263    128.7642     31.7001
    65.4000      2.7444      1.3869      2.2259     -0.0253    127.7155     32.7637
    65.5000      2.7444      1.4334      2.2508     -0.0243    124.4036     33.1690
    65.6000      2.7444      1.4702      2.2653     -0.0236    123.2323     32.9393
    65.7000      2.7444      1.4901      2.2764     -0.0232    126.2410     32.1702
    65.8000      2.7444      1.4867      2.2831     -0.0233    129.6393     31.1044
    65.9000      2.7444      1.4653      2.2374     -0.0237    131.1711     30.2474
    66.0000      2.7444      1.4368      2.2590     -0.0243    132.3195     29.7447
    66.1000      2.7444      1.4049      2.2501     -0.0249    133.9736     29.2678
    66.2000      2.7444      1.3755      2.1960     -0.0255    136.0725     28.4235
    66.3000      2.7444      1.3595      2.2235     -0.0258    140.3699     27.2341
    66.4000      2.7444      1.3571      2.2379     -0.0259    146.4846     26.2994
    66.5000      2.7444      1.3601      2.2630     -0.0258    150.2884     25.7650
    66.6000      2.7444      1.3610      2.2523     -0.0258    150.4465     24.9675
    66.7000      2.7444      1.3580      2.2641     -0.0259    149.3891     23.6564
    66.8000      2.7444      1.3538      2.2577     -0.0259    149.1297     22.6097
    66.9000      2.7444      1.3557      2.2413     -0.0259    150.1675     22.3228
    67.0000      2.7444      1.3699      2.2559     -0.0256    154.3621     22.4283
    67.1000      2.7444      1.3917      2.2806     -0.0252    159.8960     22.7350
    67.2000      2.7444      1.4075      2.3019     -0.0249    160.8605     23.2973
    67.3000      2.7444      1.4154      2.2553     -0.0247    157.8136     23.8058
    67.4000      2.7444      1.4228      2.3132     -0.0246    154.8726     24.0269
    67.5000      2.7444      1.4278      2.3172     -0.0245    151.7662     24.1549
