~Version Information
VERS.                      2.0: CWLS Log ASCII Standard - VERSION 2.0
WRAP.                       NO: One line per depth step
~Well Information Block
STRT.FT                -6.0000: 
STOP.FT              1295.2500: 
STEP.FT                 0.2500: 
NULL.                -999.2500: 
COMP.          Pioneer Natural Resources: COMPANY
WELL.            Erin 21-15 Tr: WELL
FLD.           Purgatoire River: FIELD
LOC.           1217' FNL & 2284' FWL--: LOCATION
CNTY.               Las Animas: COUNTY
SRVC.                         : SERVICE COMPANY
DATE.          Fri Mar 10 09:14:17 2006: LOG DATE
UWI.           05 071 08712 00: UNIQUE WELL ID
STAT.                       CO: STATE
~Curve Information Block
DEPT.FT            0 000 00 00: Depth
GR.GAPI                       : Gamma Ray
CCL.                          : Casing Collar Locator
TT3.usec                      : CBL 3' Travel Time
AMP3.mV                       : CBL 3' Amplitude
~Parameter Information Block
~A  Depth        GR         CCL         TT3         AMP3    
# ...
  1099.5000    119.8960      0.0000    779.6391      6.5194
  1099.7500    121.7266      0.0000    781.7010      6.3840
  1100.0000    119.9271      0.0000    777.4378      6.3078
  1100.2500    114.5426      0.0000    769.1293      6.3036
  1100.5000    107.4349      0.0000    759.4144      6.3549
  1100.7500    100.8215      0.0000    751.0701      6.4387
  1101.0000     95.6716      0.0000    746.6288      6.5394
  1101.2500     91.6409      0.0000    746.3756      6.6438
  1101.5000     88.3034      0.0000    747.9526      6.7284
  1101.7500     86.0035      0.0000    748.5350      6.7661
  1102.0000     85.5052      0.0000    746.5456      6.7486
  1102.2500     87.0665      0.0000    741.8743      6.6987
  1102.5000     89.9766      0.0000    735.9083      6.6554
  1102.7500     92.9585      0.0000    731.3676      6.6462
  1103.0000     95.0243      0.0000    731.0588      6.6725
  1103.2500     96.0436      0.0000    736.1105      6.7160
  1103.5000     96.6348      0.0000    745.0879      6.7571
  1103.7500     97.6981      0.0000    754.9664      6.7886
  1104.0000    100.2072      0.0000    763.3911      6.8159
  1104.2500    105.1090      0.0000    769.7084      6.8453
  1104.5000    112.7111      0.0000    773.7358      6.8713
  1104.7500    122.1019      0.0000    774.9172      6.8739
  1105.0000    131.7022      0.0000    773.3270      6.8298
  1105.2500    140.3924      0.0000    770.1664      6.7305
  1105.5000    147.7717      0.0000    766.8144      6.5925
  1105.7500    153.7045      0.0000    764.6142      6.4485
  1106.0000    158.1925      0.0000    764.9305      6.3302
  1106.2500    161.4476      0.0000    767.2314      6.2576
  1106.5000    163.6230      0.0000    767.7482      6.2416
  1106.7500    164.6266      0.0000    762.5560      6.2891
  1107.0000    164.4267      0.0000    751.9296      6.4017
  1107.2500    163.1746      0.0000    740.1637      6.5684
  1107.5000    160.7783      0.0000    731.5441      6.7648
  1107.7500    156.8267      0.0000    727.6236      6.9666
  1108.0000    151.2624      0.0000    727.7074      7.1637
  1108.2500    144.7842      0.0000    730.3303      7.3588
  1108.5000    138.3348      0.0000    734.0083      7.5502
  1108.7500    132.5872      0.0000    737.5944      7.7240
  1109.0000    128.2023      0.0000    740.3516      7.8685
  1109.2500    126.1239      0.0000    740.9055      7.9859
  1109.5000    127.0405      0.0000    735.7114      8.0880
  1109.7500    130.4246      0.0000    720.1337      8.1894
  1110.0000    134.3982      0.0000    693.0712      8.3152
  1110.2500    137.0406      0.0000    660.5572      8.5047
  1110.5000    138.0063      0.0000    633.1045      8.7881
  1110.7500    138.6611      0.0000    618.5239      9.1474
  1111.0000    140.4741      0.0000    617.4735      9.5099
  1111.2500    143.3936      0.0000    625.5403      9.7937
  1111.5000    145.9554      0.0000    638.3510      9.9634
  1111.7500    146.8246      0.0000    654.2064     10.0368
  1112.0000    146.0139      0.0000    672.6719     10.0480
  1112.2500    144.6937      0.0000    692.1729     10.0149
  1112.5000    143.9116      0.0000    709.9513      9.9398
  1112.7500    143.4038      0.0000    723.8994      9.8261
  1113.0000    141.8558      0.0000    733.4803      9.6871
  1113.2500    138.5419      0.0000    739.1891      9.5343
  1113.5000    134.3714      0.0000    742.0916      9.3614
  1113.7500    131.0757      0.0000    743.6362      9.1470
  1114.0000    129.6114      0.0000    744.8624      8.8812
  1114.2500    129.4117      0.0000    745.6058      8.5844
  1114.5000    129.0228      0.0000    744.8781      8.2946
  1114.7500    127.5064      0.0000    742.0742      8.0409
  1115.0000    125.2251      0.0000    737.7178      7.8336
  1115.2500    123.1164      0.0000    733.1913      7.6712
  1115.5000    121.3602      0.0000    729.9031      7.5486
  1115.7500    119.1911      0.0000    728.7800      7.4577
  1116.0000    116.0765      0.0000    730.3869      7.3832
  1116.2500    112.8040      0.0000    735.0222      7.3025
  1116.5000    111.3560      0.0000    742.2086      7.1943
  1116.7500    113.4615      0.0000    750.1900      7.0496
  1117.0000    118.8049      0.0000    756.3743      6.8713
  1117.2500    124.8631      0.0000    758.5508      6.6686
  1117.5000    129.0026      0.0000    755.8773      6.4528
  1117.7500    130.4413      0.0000    749.2472      6.2378
  1118.0000    129.8160      0.0000    741.0317      6.0388
  1118.2500    127.6383      0.0000    734.0023      5.8690
  1118.5000    124.1803      0.0000    729.7520      5.7393
  1118.7500    120.6476      0.0000    727.7842      5.6554
  1119.0000    119.3292      0.0000    726.3925      5.6095
  1119.2500    121.7778      0.0000    725.0360      5.5723
  1119.5000    126.8781      0.0000    725.7953      5.5079
  1119.7500    131.3110      0.0000    731.3361      5.4057
  1120.0000    132.4246      0.0000    741.0809      5.2969
  1120.2500    130.6112      0.0000    750.6509      5.2322
  1120.5000    128.6073      0.0000    755.5020      5.2495
  1120.7500    128.4070      0.0000    754.1478      5.3596
  1121.0000    129.0981      0.0000    748.1112      5.5548
  1121.2500    127.8630      0.0000    740.2288      5.8237
  1121.5000    122.9411      0.0000    733.2088      6.1577
  1121.7500    115.5796      0.0000    728.7765      6.5433
  1122.0000    109.3011      0.0000    727.5473      6.9516
  1122.2500    107.4101      0.0000    729.5722      7.3450
  1122.5000    111.1204      0.0000    734.7281      7.6979
  1122.7500    119.5755      0.0000    742.3729      8.0102
  1123.0000    130.8391      0.0000    750.9167      8.2983
  1123.2500    142.5950      0.0000    758.2147      8.5774
  1123.5000    152.4811      0.0000    762.5324      8.8452
  1123.7500    158.6813      0.0000    763.0535      9.0710
  1124.0000    160.7004      0.0000    759.7596      9.2042
  1124.2500    159.5505      0.0000    753.3616      9.2058
  1124.5000    157.0789      0.0000    745.3669      9.0725
  1124.7500    155.1191      0.0000    737.7667      8.8295
  1125.0000    154.8772      0.0000    732.3663      8.5102
  1125.2500    156.2283      0.0000    730.0442      8.1473
  1125.5000    157.4876      0.0000    729.9166      7.7721
  1125.7500    156.9209      0.0000    729.0994      7.4119
  1126.0000    154.7821      0.0000    724.3675      7.0892
  1126.2500    153.0882      0.0000    714.7234      6.8217
  1126.5000    153.3805      0.0000    701.8954      6.6177
  1126.7500    155.5098      0.0000    688.4920      6.4718
  1127.0000    158.3837      0.0000    676.8798      6.3718
  1127.2500    160.8381      0.0000    669.8037      6.3112
  1127.5000    161.6164      0.0000    670.1476      6.2915
  1127.7500    159.4644      0.0000    678.5495      6.3125
  1128.0000    153.9701      0.0000    691.6870      6.3664
  1128.2500    146.2784      0.0000    704.1572      6.4427
  1128.5000    138.4005      0.0000    712.4106      6.5379
  1128.7500    131.3787      0.0000    716.5491      6.6547
  1129.0000    124.3830      0.0000    718.6156      6.7911
  1129.2500    116.1082      0.0000    720.0809      6.9327
  1129.5000    106.9036      0.0000    721.1764      7.0605
  1129.7500     99.1490      0.0000    721.7264      7.1653
  1130.0000     95.5775      0.0000    721.8660      7.2486
  1130.2500     97.2999      0.0000    722.1042      7.3054
  1130.5000    103.2393      0.0000    723.2122      7.3129
  1130.7500    111.2942      0.0000    726.1102      7.2456
  1131.0000    119.9202      0.0000    731.4561      7.1013
  1131.2500    128.4679      0.0000    738.8404      6.9071
  1131.5000    136.2752      0.0000    746.4511      6.7007
  1131.7500    142.1810      0.0000    751.8890      6.5117
  1132.0000    145.2381      0.0000    753.2717      6.3592
  1132.2500    145.4307      0.0000    749.3470      6.2512
  1132.5000    143.3593      0.0000    739.4503      6.1784
  1132.7500    139.6920      0.0000    724.8714      6.1164
