~Version Information
VERS.                      2.0: CWLS Log ASCII Standard - VERSION 2.0
WRAP.                       NO: One line per depth step
~Well Information Block
STRT.FT                -6.5000: 
STOP.FT              1564.2500: 
STEP.FT                 0.2500: 
NULL.                -999.2500: 
COMP.          Pioneer Natural Resources: COMPANY
WELL.            Bluesky 44-17: WELL
FLD.           Purgatorie River: FIELD
LOC.           --39' FSL & 288' FEL------: LOCATION
STAT.                       CO: State
CNTY.               Las Animas: COUNTY
CTRY. USA : Country
SECT. 17 : Section
TOWN. 33S : Township
RANG. 66W : Range
SRVC.          Patterson Wireline: SERVICE COMPANY
DATE.          Tue Sep 13 13:24:14 2005: LOG DATE
API.           05 071 08511 00: UNIQUE WELL ID
~Curve Information Block
DEPT.FT            0 000 00 00: Depth
CCL.                          : Casing Collar Locator
TT3.usec                      : CBL 3' Travel Time
AMP3.mV                       : CBL 3' Amplitude
GR.GAPI                       : Gamma Ray
~Parameter Information Block
~A  Depth       CCL         TT3         AMP3         GR     
# ...
   496.0000      0.0000    737.3119     10.4324     85.2515
   496.2500      0.0000    732.0714     10.4874     90.8550
   496.5000      0.0000    727.3315     10.5275     93.9859
   496.7500      0.0000    724.2856     10.5540     93.8454
   497.0000      0.0000    723.0135     10.5711     91.7983
   497.2500      0.0000    723.2229     10.5847     89.8279
   497.5000      0.0000    725.1762     10.5974     88.6505
   497.7500      0.0000    729.7763     10.6071     87.7046
   498.0000      0.0000    737.4523     10.6075     86.3426
   498.2500      0.0000    746.4956     10.5905     84.2471
   498.5000      0.0000    752.8768     10.5507     81.1140
   498.7500      0.0000    753.0071     10.4906     76.8732
   499.0000      0.0000    747.1494     10.4247     72.2967
   499.2500      0.0000    739.4907     10.3763     68.7276
   499.5000      0.0000    734.5510     10.3666     66.9379
   499.7500      0.0000    733.6468     10.3972     66.6236
   500.0000      0.0000    734.5439     10.4308     67.1318
   500.2500      0.0000    734.6016     10.3803     68.2846
   500.5000      0.0000    735.0437     10.1299     70.3463
   500.7500      0.0000    741.6775      9.6133     73.5443
   501.0000      0.0000    759.6671      8.9053     77.7623
   501.2500      0.0000    787.1824      8.2160     82.3877
   501.5000      0.0000    815.5688      7.7510     86.3398
   501.7500      0.0000    836.5566      7.5709     88.5181
   502.0000      0.0000    848.6189      7.5860     88.5184
   502.2500     -2.0000    856.3511      7.6565     86.9314
   502.5000      0.0000    864.8898      7.6845     84.7756
   502.7500      0.0000    875.2051      7.6514     82.6026
   503.0000      0.0000    883.0948      7.6139     80.3364
   503.2500      0.0000    882.0657      7.6629     77.9231
   503.5000      0.0000    869.1500      7.8614     75.9005
   503.7500      0.0000    848.8658      8.2072     75.2839
   504.0000      0.0000    830.0839      8.6402     76.7522
   504.2500      0.0000    818.6216      9.0670     79.6977
   504.5000      0.0000    813.5835      9.3953     82.3178
   504.7500      0.0000    810.2452      9.5811     83.0735
   505.0000      0.0000    805.4766      9.6451     81.9398
   505.2500      0.0000    800.2160      9.6349     80.1292
   505.5000      0.0000    797.1860      9.5837     78.9672
   505.7500      0.0000    797.3151      9.5119     79.1120
   506.0000      0.0000    799.0685      9.4436     80.4723
   506.2500      0.0000    800.4440      9.4038     82.7393
   506.5000      0.0000    800.3933      9.4040     85.9562
   506.7500      0.0000    798.7534      9.4408     90.3037
   507.0000      0.0000    795.9891      9.5048     95.5190
   507.2500      0.0000    793.2990      9.5918    100.9607
   507.5000      0.0000    792.2136      9.7034    106.1113
   507.7500      0.0000    793.4066      9.8379    110.7056
   508.0000      0.0000    795.9739      9.9757    114.5501
   508.2500      0.0000    798.0750     10.0823    117.5847
   508.5000      0.0000    798.0365     10.1318    119.9945
   508.7500      0.0000    794.8716     10.1269    121.8727
   509.0000      0.0000    788.7223     10.0920    122.8224
   509.2500      0.0000    781.6120     10.0504    122.2487
   509.5000      0.0000    777.1221     10.0149    119.8754
   509.7500      0.0000    777.9760      9.9929    115.7718
   510.0000      0.0000    783.6537      9.9901    110.2365
   510.2500      0.0000    790.9697     10.0040    103.9798
   510.5000      0.0000    796.9027     10.0189     98.2065
   510.7500      0.0000    800.4280     10.0129     94.0740
   511.0000      0.0000    802.0810      9.9718     91.9704
   511.2500      0.0000    802.7203      9.8929     91.6122
   511.5000      0.0000    802.8948      9.7813     92.9021
   511.7500      0.0000    802.8925      9.6509     96.0845
   512.0000      0.0000    802.9801      9.5268    100.6183
   512.2500      0.0000    803.5630      9.4383    104.4573
   512.5000      0.0000    805.0814      9.4015    105.1809
   512.7500      0.0000    807.5459      9.4094    101.7586
   513.0000      0.0000    810.0775      9.4390     94.8593
   513.2500      0.0000    811.2495      9.4705     85.8828
   513.5000      0.0000    810.2709      9.5001     76.2245
   513.7500      0.0000    807.6799      9.5369     67.1667
   514.0000      0.0000    804.5887      9.5902     59.7001
   514.2500      0.0000    801.4070      9.6629     54.2210
   514.5000      0.0000    797.4824      9.7582     50.6245
   514.7500      0.0000    791.9568      9.8846     48.6645
   515.0000      0.0000    784.9729     10.0432     47.9925
   515.2500      0.0000    778.0867     10.2082     47.9142
   515.5000      0.0000    773.4067     10.3336     47.4326
   515.7500      0.0000    772.3105     10.3925     45.7486
   516.0000      0.0000    774.6912     10.4083     42.8388
   516.2500      0.0000    778.8405     10.4387     39.6101
   516.5000      0.0000    782.0948     10.5279     37.5026
   516.7500      0.0000    782.3621     10.6766     37.9710
   517.0000      0.0000    779.3078     10.8546     42.3323
   517.2500      0.0000    774.0580     11.0333     51.7473
   517.5000      0.0000    768.1939     11.2011     66.5977
   517.7500      0.0000    763.1175     11.3495     85.4696
   518.0000      0.0000    759.6551     11.4570    105.1096
   518.2500      0.0000    757.7399     11.5011    121.9714
   518.5000      0.0000    756.5396     11.4862    133.9907
   518.7500      0.0000    755.0916     11.4511    140.9641
   519.0000      0.0000    753.0070     11.4435    143.6778
   519.2500      0.0000    750.8245     11.4858    143.2240
   519.5000      0.0000    749.6234     11.5645    141.1309
   519.7500      0.0000    750.0505     11.6474    139.4158
   520.0000      0.0000    751.7228     11.7112    139.5390
   520.2500      0.0000    753.6849     11.7560    141.1408
   520.5000      0.0000    755.2887     11.7955    142.4927
   520.7500      0.0000    756.5569     11.8385    142.3356
   521.0000      0.0000    758.0308     11.8850    140.8042
   521.2500      0.0000    760.4783     11.9342    138.8087
   521.5000      0.0000    764.5114     11.9894    137.4735
   521.7500      0.0000    770.1834     12.0526    138.0332
   522.0000      0.0000    776.9600     12.1195    141.0299
   522.2500      0.0000    784.0800     12.1791    145.1801
   522.5000      0.0000    790.7098     12.2237    147.8502
   522.7500      0.0000    795.7463     12.2571    147.2137
   523.0000      0.0000    797.7341     12.2923    143.7884
   523.2500      0.0000    795.1541     12.3362    139.7265
   523.5000      0.0000    787.1940     12.3785    136.7395
   523.7500      0.0000    775.0582     12.3992    134.8478
   524.0000      0.0000    762.7844     12.3846    133.0742
   524.2500      0.0000    755.8700     12.3358    130.9161
   524.5000      0.0000    758.0034     12.2681    128.6701
   524.7500      0.0000    768.7164     12.2043    126.2711
   525.0000      0.0000    784.1143     12.1643    122.4581
   525.2500      0.0000    799.5601     12.1573    115.9788
   525.5000      0.0000    811.6032     12.1833    107.7347
   525.7500      0.0000    818.2837     12.2378    100.7667
   526.0000      0.0000    819.1688     12.3128     97.5513
   526.2500      0.0000    815.6797     12.3930     97.7749
   526.5000      0.0000    810.5531     12.4550     99.1208
   526.7500      0.0000    806.2191     12.4730     99.6056
   527.0000      0.0000    803.6388     12.4320     98.6367
   527.2500      0.0000    802.5398     12.3401     96.3842
   527.5000      0.0000    802.3088     12.2273     93.0929
   527.7500      0.0000    802.5876     12.1270     89.1990
   528.0000      0.0000    803.4121     12.0559     85.5858
   528.2500      0.0000    805.0156     12.0077     83.2224
   528.5000      0.0000    807.3335     11.9636     82.4669
   528.7500      0.0000    809.5540     11.9099     82.9267
   529.0000      0.0000    810.4304     11.8487     84.0405
   529.2500      0.0000    809.3625     11.7940     85.4247
