~Version Information
VERS.                      2.0: CWLS Log ASCII Standard - VERSION 2.0
WRAP.                       NO: One line per depth step
~Well Information Block
STRT.FT               520.0000: 
STOP.FT              2555.2000: 
STEP.FT                 0.1000: 
NULL.                -999.2500: 
COMP.          Pioneer Natural Resources: COMPANY
WELL.          Horsefeathers 24-34: WELL
FLD.           Purgatoire River: FIELD
LOC.           183' FSL & 1570' FWL--: LOCATION
CNTY.               Las Animas: COUNTY
SRVC.                Patterson: SERVICE COMPANY
DATE.          Mon Feb 06 08:03:40 2006: LOG DATE
UWI.           05 071 08675 00: UNIQUE WELL ID
STAT.                 Colorado: STATE
~Curve Information Block
DEPT.FT            0 000 00 00: Depth
DCAL.in                       : CDL Caliper
RHOB.g/cc                     : CDL Bulk Density
RHOC.g/cc                     : CDL Density Correction
DPOR.pu                       : CDL Density Porosity
NPOR.pu                       : Neutron Porosity
GR.GAPI                       : Gamma Ray
~Parameter Information Block
~A  Depth       DCAL        RHOB        RHOC        DPOR        NPOR         GR     
# ...
   788.8000      8.0668      2.5398      0.0302      6.6812     23.0710    106.7394
   788.9000      8.0668      2.5330      0.0082      7.0884     23.3262    105.5010
   789.0000      8.0659      2.5280     -0.0066      7.3965     23.2677    103.9937
   789.1000      8.0659      2.5339      0.0554      7.0336     23.1429    102.2451
   789.2000      8.0659      2.5438      0.0790      6.4392     23.4510     98.9962
   789.3000      8.0644      2.5348      0.0435      6.9813     23.7169     98.6225
   789.4000      8.0644      2.5133     -0.0318      8.2868     23.3042    100.6958
   789.5000      8.0642      2.5130     -0.0222      8.3003     22.7731     99.4844
   789.6000      8.0642      2.5454      0.0365      6.3423     22.9524     97.5142
   789.7000      8.0642      2.5888      0.0611      3.7066     23.5858    100.2305
   789.8000      8.0678      2.6191      0.1051      1.8735     23.7086    107.0830
   789.9000      8.0678      2.6315      0.0546      1.1188     23.1439    115.9204
   790.0000      8.0729      2.6359      0.0743      0.8531     22.6096    123.8901
   790.1000      8.0729      2.6306      0.0575      1.1779     22.1921    125.5247
   790.2000      8.0729      2.6122      0.0393      2.2917     21.9143    120.7745
   790.3000      8.0766      2.5882      0.0345      3.7452     22.2047    113.1781
   790.4000      8.0766      2.5678      0.0204      4.9801     22.8285    104.3840
   790.5000      8.0792      2.5555      0.0537      5.7260     23.2938     98.2878
   790.6000      8.0792      2.5493      0.0121      6.1034     23.5070     96.5086
   790.7000      8.0792      2.5452      0.0372      6.3523     23.3680     95.5668
   790.8000      8.0799      2.5438      0.0357      6.4339     22.9787     96.9122
   790.9000      8.0799      2.5547     -0.0018      5.7740     22.5726    101.8078
   791.0000      8.0779      2.5774      0.0551      4.3987     22.1744    102.2892
   791.1000      8.0779      2.5937      0.0568      3.4130     21.8823     95.0683
   791.2000      8.0779      2.5893      0.0694      3.6789     22.0126     89.6225
   791.3000      8.0764      2.5642      0.0667      5.1996     22.4354     91.2435
   791.4000      8.0764      2.5398      0.0073      6.6799     22.6083     96.0274
   791.5000      8.0778      2.5431      0.0285      6.4774     22.7293    100.2725
   791.6000      8.0778      2.5745      0.0426      4.5777     23.1388    100.6206
   791.7000      8.0778      2.6180      0.0550      1.9411     23.5132     96.6726
   791.8000      8.0796      2.6604      0.0621     -0.6303     23.6302     93.8525
   791.9000      8.0796      2.6890      0.1091     -2.3666     23.6012     94.4662
   792.0000      8.0794      2.6982      0.1066     -2.9205     23.6190     96.3182
   792.1000      8.0794      2.6969      0.0922     -2.8419     23.9314     97.3770
   792.2000      8.0794      2.6897      0.1003     -2.4047     24.3952     95.9935
   792.3000      8.0787      2.6722      0.0841     -1.3477     24.7046     92.4191
   792.4000      8.0787      2.6540      0.0543     -0.2451     24.8048     89.9811
   792.5000      8.0783      2.6415      0.0569      0.5129     24.8419     90.7064
   792.6000      8.0783      2.6238      0.0251      1.5867     24.7763     92.9253
   792.7000      8.0783      2.6021     -0.0101      2.9015     24.3888     95.4984
   792.8000      8.0798      2.5820      0.0393      4.1195     24.1002     97.9313
   792.9000      8.0798      2.5582      0.0345      5.5620     24.1294    100.6636
   793.0000      8.0823      2.5488     -0.0177      6.1306     23.7627    104.5783
   793.1000      8.0823      2.5763      0.0460      4.4640     22.9496    107.1345
   793.2000      8.0823      2.6170      0.1055      1.9996     22.5347    106.4403
   793.3000      8.0821      2.6270      0.1242      1.3924     22.7242    105.9292
   793.4000      8.0821      2.5993      0.0514      3.0737     22.8865    106.4097
   793.5000      8.0791      2.5654      0.0121      5.1263     22.6488    103.4717
   793.6000      8.0791      2.5521      0.0032      5.9331     22.5803     97.3505
   793.7000      8.0791      2.5591      0.0183      5.5078     22.9962     93.8740
   793.8000      8.0778      2.5686      0.0285      4.9332     23.2436     94.9281
   793.9000      8.0778      2.5693      0.0247      4.8920     23.0764     97.3667
   794.0000      8.0778      2.5704      0.0352      4.8233     22.9383    100.2589
   794.1000      8.0778      2.5831      0.0261      4.0547     22.9103    103.3600
   794.2000      8.0778      2.6016      0.0790      2.9317     22.7131    104.7654
   794.3000      8.0768      2.6103      0.0704      2.4056     22.6848    105.4007
   794.4000      8.0768      2.6034      0.0839      2.8273     23.3059    104.4173
   794.5000      8.0774      2.5953      0.0583      3.3158     23.8100    100.1457
   794.6000      8.0774      2.6042      0.0544      2.7786     23.3887     98.3426
   794.7000      8.0774      2.6244      0.0719      1.5487     22.6416    101.7656
   794.8000      8.0790      2.6371      0.0983      0.7825     22.2505    103.3790
   794.9000      8.0790      2.6426      0.0664      0.4487     22.1940     99.2488
   795.0000      8.0787      2.6543      0.0598     -0.2578     22.4785     95.1159
   795.1000      8.0787      2.6635      0.1079     -0.8185     23.1701     95.7409
   795.2000      8.0787      2.6577      0.0538     -0.4686     23.8091     99.0901
   795.3000      8.0784      2.6492      0.0924      0.0482     23.7443    101.9715
   795.4000      8.0784      2.6483      0.0810      0.1011     23.1580    103.9332
   795.5000      8.0784      2.6460      0.0902      0.2428     22.9282    106.2091
   795.6000      8.0784      2.6279      0.0846      1.3415     23.2032    107.5195
   795.7000      8.0784      2.5969      0.0195      3.2153     23.5529    104.0622
   795.8000      8.0796      2.5725      0.0531      4.6977     23.7855     97.6883
   795.9000      8.0796      2.5653      0.0318      5.1339     23.6253     95.1961
   796.0000      8.0827      2.5722      0.0330      4.7147     22.8887     97.2154
   796.1000      8.0827      2.5819      0.0678      4.1283     22.0655    100.1880
   796.2000      8.0827      2.5927      0.0071      3.4710     21.6356    103.9179
   796.3000      8.0838      2.6064      0.0733      2.6421     21.4369    107.6249
   796.4000      8.0838      2.6070      0.0789      2.6040     21.3959    109.8977
   796.5000      8.0818      2.5949      0.0304      3.3402     21.6074    110.3146
   796.6000      8.0818      2.5928      0.0454      3.4644     21.8446    106.7740
   796.7000      8.0818      2.6016      0.0853      2.9342     22.0535    100.6929
   796.8000      8.0806      2.6078      0.0488      2.5595     22.2361     98.0678
   796.9000      8.0806      2.6136      0.0423      2.2072     22.1313    100.4567
   797.0000      8.0840      2.6207      0.0689      1.7749     21.9931    103.5727
   797.1000      8.0840      2.6200      0.0671      1.8164     22.2574    105.3384
   797.2000      8.0840      2.6089      0.0342      2.4930     22.8111    106.4342
   797.3000      8.0886      2.5984      0.0029      3.1261     23.2241    107.7173
   797.4000      8.0886      2.6047      0.0302      2.7433     23.2316    109.8005
   797.5000      8.0874      2.6248      0.0715      1.5273     23.0864    111.1442
   797.6000      8.0874      2.6345      0.0740      0.9416     23.2185    110.5572
   797.7000      8.0874      2.6264      0.0225      1.4288     23.7558    109.0744
   797.8000      8.0850      2.6169      0.0168      2.0077     24.3523    107.2919
   797.9000      8.0850      2.6130      0.0716      2.2440     24.6459    106.1341
   798.0000      8.0873      2.6109      0.0559      2.3683     24.5489    106.1607
   798.1000      8.0873      2.6053      0.0746      2.7069     24.3463    106.9415
   798.2000      8.0873      2.5864      0.0228      3.8557     24.4727    106.6639
   798.3000      8.0912      2.5552      0.0233      5.7444     24.5827    104.6026
