~Version Information
VERS.                      2.0: CWLS Log ASCII Standard - VERSION 2.0
WRAP.                       NO: One line per depth step
~Well Information Block
STRT.FT               555.0000: 
STOP.FT              1158.0000: 
STEP.FT                 0.1000: 
NULL.                -999.2500: 
COMP.          Pioneer Natural Resources: COMPANY
WELL.              Draco 31-21: WELL
FLD.           Purgatoire River: FIELD
LOC.           491' FNL & 2446' FEL: LOCATION
CNTY.               Las Animas: COUNTY
SRVC.                Patterson: SERVICE COMPANY
DATE.          Wed Feb 01 07:01:32 2006: LOG DATE
UWI.           05 071 08672 00: UNIQUE WELL ID
STAT.                 Colorado: STATE
~Curve Information Block
DEPT.FT            0 000 00 00: Depth
DCAL.in                       : CDL Caliper
RHOB.g/cc                     : CDL Bulk Density
RHOC.g/cc                     : CDL Density Correction
DPOR.pu                       : CDL Density Porosity
GR.GAPI                       : Gamma Ray
NPOR.pu                       : Neutron Porosity
~Parameter Information Block
~A  Depth       DCAL        RHOB        RHOC        DPOR         GR         NPOR    
   555.0000      2.8435      2.1681      0.3386     29.2037    154.9420     18.1476
   555.1000      2.8435      2.1601      0.3595     29.6899    158.8292     18.0399
   555.2000      2.8435      2.1327      0.3291     31.3520    163.2468     18.2529
   555.3000      2.8458      2.1022      0.2912     33.2015    162.5769     18.5707
   555.4000      2.8458      2.0830      0.2745     34.3655    158.0870     18.8327
   555.5000      2.8470      2.0801      0.2520     34.5385    154.0653     19.1423
   555.6000      2.8470      2.0933      0.2822     33.7422    152.4588     19.5666
   555.7000      2.8470      2.1164      0.2892     32.3366    152.6545     20.1117
   555.8000      2.8476      2.1382      0.3125     31.0185    150.6898     20.6220
   555.9000      2.8476      2.1545      0.2936     30.0313    144.9969     20.8626
   556.0000      2.8418      2.1707      0.3012     29.0479    139.5316     20.8498
   556.1000      2.8418      2.1870      0.3335     28.0581    138.5910     20.7329
   556.2000      2.8418      2.1982      0.3375     27.3844    144.2635     20.5737
   556.3000      2.8431      2.1982      0.3333     27.3823    148.9552     20.6939
   556.4000      2.8431      2.1847      0.3178     28.1983    144.2836     21.3917
   556.5000      2.8423      2.1643      0.3128     29.4366    137.1163     21.9873
   556.6000      2.8423      2.1528      0.2927     30.1306    131.8016     21.8783
   556.7000      2.8423      2.1621      0.3055     29.5720    125.5492     21.1772
   556.8000      2.8466      2.1821      0.3680     28.3561    118.8786     20.5035
   556.9000      2.8466      2.2013      0.3499     27.1914    111.4103     20.8141
   557.0000      2.9910      2.2470      0.3302     24.4243    103.5365     22.1202
   557.1000      2.9910      2.3782      0.3042     16.4701    100.2535     23.1320
   557.2000      2.9910      2.6068      0.4123      2.6187    105.8683     23.0245
   557.3000      4.4526      2.8458      0.5230    -11.8673    114.7318     22.4450
   557.4000      4.4526      3.0055      0.5529    -21.5433    116.4698     22.2431
   557.5000      7.5609      3.0844      0.5458    -26.3273    111.7338     22.3762
   557.6000      7.5609      3.0971      0.5744    -27.0997    108.9887     22.5751
   557.7000      7.5609      2.9865      0.5881    -20.3940    110.9704     22.5184
   557.8000      7.9620      2.7190      0.0546     -4.1840    119.6516     21.9324
   557.9000      7.9620      2.4130     -0.4753     14.3641    130.8320     21.2418
   558.0000      7.9617      2.2204     -0.5687     26.0392    132.4323     21.0257
   558.1000      7.9617      2.1590     -0.5464     29.7585    125.4636     21.0341
   558.2000      7.9617      2.1736     -0.5328     28.8747    119.1867     20.8463
   558.3000      7.9623      2.2341     -0.5325     25.2081    114.2176     20.6904
   558.4000      7.9623      2.3050     -0.3821     20.9063    110.6683     20.4609
   558.5000      7.9628      2.3258     -0.3814     19.6476    113.5860     19.7190
   558.6000      7.9628      2.2798     -0.5275     22.4352    123.5868     18.7599
   558.7000      7.9628      2.2148     -0.4850     26.3775    133.9604     18.0543
   558.8000      7.9640      2.1631     -0.5059     29.5091    137.5506     17.5117
   558.9000      7.9640      2.1135     -0.4713     32.5174    135.3890     16.9166
   559.0000      7.9649      2.0473     -0.5219     36.5267    131.2571     16.4902
   559.1000      7.9649      1.9631     -0.6039     41.6328    127.0304     16.4680
   559.2000      7.9649      1.8821     -0.6832     46.5412    126.0649     16.8061
   559.3000      7.9637      1.8383     -0.6709     49.1935    128.7025     17.2271
   559.4000      7.9637      1.8418     -0.6764     48.9822    129.9974     17.2824
   559.5000      7.9644      1.8674     -0.5476     47.4277    128.4357     16.7159
   559.6000      7.9644      1.8982     -0.6838     45.5658    128.2975     15.8634
   559.7000      7.9644      1.9408     -0.5258     42.9829    131.0678     15.3382
   559.8000      7.9705      1.9855     -0.4720     40.2702    132.3250     15.4383
   559.9000      7.9705      2.0171     -0.3940     38.3573    132.1805     16.0570
   560.0000      7.9678      2.0362     -0.3283     37.1974    135.8862     16.5931
   560.1000      7.9678      2.0476     -0.3224     36.5070    143.2014     16.4166
   560.2000      7.9678      2.0539     -0.3534     36.1247    147.6244     15.7746
   560.3000      7.9644      2.0553     -0.3499     36.0401    147.2114     15.4886
   560.4000      7.9644      2.0587     -0.3995     35.8352    146.5217     15.8157
   560.5000      7.9641      2.0707     -0.4069     35.1117    147.1852     16.2889
   560.6000      7.9641      2.0802     -0.4067     34.5361    144.9069     16.4670
   560.7000      7.9641      2.0816     -0.4303     34.4460    137.5662     16.2579
   560.8000      7.9628      2.0920     -0.4180     33.8201    130.3261     15.9152
   560.9000      7.9628      2.1218     -0.3969     32.0144    126.8273     15.7663
   561.0000      7.9644      2.1529     -0.3801     30.1252    122.5744     15.8233
   561.1000      7.9644      2.1642     -0.3764     29.4427    115.2549     15.8592
   561.2000      7.9644      2.1555     -0.3786     29.9715    108.3330     15.9088
   561.3000      7.9641      2.1456     -0.4438     30.5681    101.4026     15.8845
   561.4000      7.9641      2.1536     -0.4275     30.0822     95.2306     15.6614
   561.5000      7.9642      2.1680     -0.3657     29.2128     95.2023     15.1945
   561.6000      7.9642      2.1687     -0.4147     29.1672    100.2850     14.5447
   561.7000      7.9642      2.1588     -0.4205     29.7680    105.6754     14.1830
   561.8000      7.9631      2.1468     -0.4255     30.4983    110.3637     14.6042
   561.9000      7.9631      2.1389     -0.4579     30.9772    113.8376     15.6028
   562.0000      7.9636      2.1401     -0.4028     30.9030    113.7353     16.3938
   562.1000      7.9636      2.1505     -0.4132     30.2729    110.1444     16.5589
   562.2000      7.9636      2.1711     -0.4009     29.0221    107.6602     16.2667
   562.3000      7.9599      2.2000     -0.4114     27.2701    109.5122     15.8854
   562.4000      7.9599      2.2181     -0.3696     26.1762    112.9244     15.5776
   562.5000      7.9647      2.2052     -0.3802     26.9570    117.8361     15.5836
   562.6000      7.9647      2.1707     -0.4177     29.0458    125.9019     15.9440
   562.7000      7.9647      2.1440     -0.4842     30.6681    132.0405     16.1753
   562.8000      7.9644      2.1433     -0.5046     30.7078    132.2440     15.9123
   562.9000      7.9644      2.1594     -0.3711     29.7360    129.3759     15.3329
   563.0000      7.9631      2.1766     -0.4361     28.6907    127.9079     15.0296
   563.1000      7.9631      2.1961     -0.3967     27.5087    126.9528     15.6070
   563.2000      7.9631      2.2120     -0.3694     26.5473    124.6381     16.9140
   563.3000      7.9620      2.2169     -0.4198     26.2510    123.1858     18.0442
   563.4000      7.9620      2.2205     -0.4244     26.0282    126.2317     18.3854
   563.5000      7.9620      2.2207     -0.3262     26.0209    133.3708     17.9185
   563.6000      7.9620      2.2067     -0.3724     26.8670    138.0013     17.0818
   563.7000      7.9620      2.1904     -0.3797     27.8553    134.4710     16.5031
   563.8000      7.9630      2.1856     -0.4132     28.1481    123.8698     16.2628
   563.9000      7.9630      2.1859     -0.4080     28.1294    113.4137     16.1768
   564.0000      7.9629      2.1833     -0.4447     28.2846    110.9140     16.2347
   564.1000      7.9629      2.1839     -0.4393     28.2490    118.4044     16.3305
   564.2000      7.9629      2.1851     -0.3660     28.1757    125.8992     16.4622
   564.3000      7.9615      2.1817     -0.4458     28.3791    123.0913     16.5995
   564.4000      7.9615      2.1859     -0.4340     28.1285    113.7786     16.7390
   564.5000      7.9628      2.1996     -0.3734     27.2961    105.1267     16.9282
