~Version Information
VERS.                      2.0: CWLS Log ASCII Standard - VERSION 2.0
WRAP.                       NO: One line per depth step
~Well Information Block
STRT.FT               -16.0000: 
STOP.FT              2827.7500: 
STEP.FT                 0.2500: 
NULL.                -999.2500: 
COMP.          Pioneer Natural Resources: COMPANY
WELL.          Touchstone 11-32: WELL
FLD.           Purgatorie River: FIELD
LOC.           853' FNL & 407' FWL--: LOCATION
CNTY.               Las Animas: COUNTY
SRVC.          Patterson Wireline: SERVICE COMPANY
DATE.          Wed Mar 15 10:09:19 2006: LOG DATE
UWI.           05 071 08564 00: UNIQUE WELL ID
STAT.                       CO: STATE
~Curve Information Block
DEPT.FT            0 000 00 00: Depth
CCL.                          : Casing Collar Locator
TT3.usec                      : CBL 3' Travel Time
AMP3.mV                       : CBL 3' Amplitude
GR.GAPI                       : Gamma Ray
~Parameter Information Block
~A  Depth       CCL         TT3         AMP3         GR     
# ...
  2597.0000      0.0000    621.2046      7.0397     46.9045
  2597.2500      0.0000    623.0532      6.9471     43.8778
  2597.5000      0.0000    641.8796      6.8257     42.4576
  2597.7500      0.0000    666.7806      6.6773     42.3993
  2598.0000      0.0000    686.9647      6.5103     43.1391
  2598.2500      0.0000    698.5725      6.3378     43.9423
  2598.5000      0.0000    703.4773      6.1712     44.1806
  2598.7500      0.0000    704.8956      6.0137     43.7247
  2599.0000      0.0000    704.9266      5.8589     42.8637
  2599.2500      0.0000    704.4389      5.6980     41.9749
  2599.5000      0.0000    703.6862      5.5257     41.5268
  2599.7500      0.0000    702.7748      5.3406     42.0225
  2600.0000      0.0000    701.8320      5.1452     43.4667
  2600.2500      0.0000    701.0077      4.9494     45.1660
  2600.5000      0.0000    700.4230      4.7753     46.4083
  2600.7500      0.0000    700.1498      4.6527     47.0909
  2601.0000      0.0000    700.2657      4.6057     47.4474
  2601.2500      0.0000    700.9454      4.6422     47.4515
  2601.5000      0.0000    702.4193      4.7509     46.8779
  2601.7500      0.0000    704.5099      4.9095     45.8780
  2602.0000      0.0000    706.0087      5.0981     45.1848
  2602.2500      0.0000    704.7700      5.3085     45.6582
  2602.5000      0.0000    699.2802      5.5404     47.6405
  2602.7500      0.0000    691.0343      5.7913     50.7281
  2603.0000      0.0000    685.3716      6.0507     54.1187
  2603.2500      0.0000    688.5786      6.3018     57.1188
  2603.5000      0.0000    702.6664      6.5253     59.2786
  2603.7500      0.0000    723.0355      6.7031     60.2438
  2604.0000      0.0000    741.2939      6.8218     59.7399
  2604.2500      0.0000    749.2886      6.8753     57.7622
  2604.5000      0.0000    740.7101      6.8662     54.7066
  2604.7500      0.0000    711.7529      6.8060     51.3846
  2605.0000      0.0000    663.0711      6.7091     48.8499
  2605.2500      0.0000    601.7799      6.5856     47.9376
  2605.5000      0.0000    540.3390      6.4408     48.7929
  2605.7500      0.0000    491.2993      6.2863     50.7855
  2606.0000      0.0000    461.6918      6.1466     52.8100
  2606.2500      0.0000    451.9346      6.0500     53.8280
  2606.5000      0.0000    459.0932      6.0058     53.4712
  2606.7500      0.0000    479.5905      5.9899     52.1780
  2607.0000      0.0000    509.1718      5.9612     50.6373
  2607.2500      0.0000    542.7786      5.8952     49.2602
  2607.5000      0.0000    576.3674      5.8035     48.2169
  2607.7500      0.0000    608.4330      5.7229     47.6303
  2608.0000      0.0000    638.5546      5.6894     47.5244
  2608.2500      0.0000    665.0859      5.7177     47.8281
  2608.5000      0.0000    685.7061      5.7957     48.6171
  2608.7500      0.0000    699.9295      5.8972     50.2696
  2609.0000      0.0000    709.2766      5.9971     53.1805
  2609.2500      0.0000    714.4337      6.0720     57.2457
  2609.5000      0.0000    713.1801      6.0919     61.8100
  2609.7500      0.0000    702.2963      6.0244     66.3470
  2610.0000      0.0000    682.0177      5.8555     70.9981
  2610.2500      0.0000    658.1302      5.6121     76.2114
  2610.5000      0.0000    639.0745      5.3623     82.0092
  2610.7500      0.0000    631.3239      5.1824     87.7094
  2611.0000      0.0000    638.0493      5.0990     92.1340
  2611.2500      0.0000    660.1854      5.0603     94.1409
  2611.5000      0.0000    694.8904      4.9889     93.4572
  2611.7500      0.0000    732.7756      4.8839     91.2686
  2612.0000      0.0000    760.7421      4.8499     89.6855
  2612.2500      0.0000    769.9208      5.0025     90.2203
  2612.5000      0.0000    760.4500      5.3533     92.6088
  2612.7500      2.0000    739.6660      5.8069     95.1083
  2613.0000      0.0000    717.7379      6.2603     96.0987
  2613.2500      0.0000    703.4714      6.6947     95.4657
  2613.5000      0.0000    700.1243      7.1929     94.3528
  2613.7500      0.0000    703.7723      7.8871     93.8675
  2614.0000      0.0000    707.1597      8.8417     94.6093
  2614.2500      0.0000    706.0721      9.9268     97.1678
  2614.5000      0.0000    701.5497     10.8390    101.9576
  2614.7500      0.0000    696.5953     11.3193    108.1932
  2615.0000      0.0000    692.5648     11.3471    113.7787
  2615.2500      0.0000    689.0471     11.0898    116.8214
  2615.5000      0.0000    685.5837     10.7038    117.0573
  2615.7500      0.0000    682.8364     10.2379    115.6555
  2616.0000      0.0000    682.4268      9.6927    113.9758
  2616.2500      0.0000    685.3743      9.1043    112.7700
  2616.5000      0.0000    690.6181      8.5516    112.2782
  2616.7500      0.0000    695.5632      8.1058    112.4418
  2617.0000      0.0000    697.8077      7.7899    112.6211
  2617.2500      0.0000    695.5040      7.5815    111.5942
  2617.5000      0.0000    686.5765      7.4421    108.5940
  2617.7500      0.0000    669.3115      7.3440    104.2284
  2618.0000      0.0000    644.9171      7.2810     99.9357
  2618.2500      0.0000    618.9416      7.2625     96.6371
  2618.5000      0.0000    598.5103      7.2994     94.1684
  2618.7500      0.0000    587.6138      7.3941     91.9743
  2619.0000      0.0000    585.6172      7.5399     90.1406
  2619.2500      0.0000    589.9077      7.7240     89.3929
  2619.5000      0.0000    598.5436      7.9289     89.9760
  2619.7500      0.0000    610.2783      8.1344     91.0648
  2620.0000      0.0000    623.4521      8.3194     91.5381
  2620.2500      0.0000    635.9506      8.4644     90.8026
  2620.5000      0.0000    646.4210      8.5536     88.6227
  2620.7500      0.0000    655.5659      8.5805     84.9475
  2621.0000      0.0000    666.2790      8.5502     80.4184
  2621.2500      0.0000    681.9524      8.4733     76.3701
  2621.5000      0.0000    703.5097      8.3583     73.6426
  2621.7500      0.0000    727.4409      8.2098     71.7745
  2622.0000      0.0000    747.4019      8.0330     69.8815
  2622.2500      0.0000    758.7475      7.8360     67.9845
  2622.5000      0.0000    761.7655      7.6283     66.9596
  2622.7500      0.0000    760.5348      7.4203     67.3006
  2623.0000      0.0000    759.0416      7.2228     68.3398
  2623.2500      0.0000    758.5152      7.0432     68.7400
  2623.5000      0.0000    757.8845      6.8820     67.5886
  2623.7500      0.0000    755.9954      6.7342     65.1698
  2624.0000      0.0000    752.9766      6.5977     62.9454
  2624.2500      0.0000    749.6856      6.4776     62.6033
  2624.5000      0.0000    746.4028      6.3798     64.7753
  2624.7500      0.0000    742.3459      6.2995     68.6596
  2625.0000      0.0000    736.3544      6.2198     72.9247
  2625.2500      0.0000    728.0899      6.1254     76.7123
  2625.5000      0.0000    718.6769      6.0179     79.6039
  2625.7500      0.0000    709.9327      5.9153     81.0502
  2626.0000      0.0000    702.5930      5.8372     80.5034
  2626.2500      0.0000    694.9129      5.7906     78.3197
  2626.5000      0.0000    682.8280      5.7685     76.1079
  2626.7500      0.0000    662.2291      5.7576     75.6440
  2627.0000      0.0000    632.8093      5.7481     77.4028
  2627.2500      0.0000    600.7239      5.7376     80.3787
  2627.5000      0.0000    576.5247      5.7278     83.0525
  2627.7500      0.0000    568.1743      5.7202     84.1037
  2628.0000      0.0000    574.3173      5.7146     82.5863
  2628.2500      0.0000    584.8076      5.7130     78.2842
  2628.5000      0.0000    590.0345      5.7231     72.1022
  2628.7500      0.0000    590.4180      5.7563     65.7127
  2629.0000      0.0000    594.9986      5.8213     60.8098
  2629.2500      0.0000    610.2404      5.9141     58.7309
  2629.5000      0.0000    631.9739      6.0172     60.2219
  2629.7500      0.0000    648.9083      6.1088     64.9343
  2630.0000      0.0000    653.2706      6.1793     71.1728
  2630.2500      0.0000    648.1950      6.2375     76.6397
