~Version Information
 VERS.                                  2.0 : CWLS LAS VERSION
 WRAP.                                   NO : WRAPING MODE
 SWARE .                 MController 2.5.0N : SOFTWARE VERSION
~Well Information
 WELL.                     Challenger 31-29 : WELL
 COMP.   Pioneer Natural Resources USA, Inc : COMPANY
 FLD.                      Purgatoire River : FIELD
 LOC.               NW/NE Sec 29 T33S  R65W : LOCATION
 DATE.                             09/15/05 : DATE(S) LOGGED
 SRVC.       BLANCO Geological Services LLC : SERVICE COMPANY
 STAT.                                   CO : STATE
 CNTY.                           Las Animas : COUNTY
 CTRY.                                  USA : COUNTRY
 API.                       05-071-08514-00 : API NUMBER
 STRT.FT                             396.00 : START DEPTH
 STOP.FT                            1345.00 : STOP DEPTH
 STEP.FT                               1.00 : DEPTH INCREMENT
 NULL.                                -9999 : NULL VALUE
~Curve information
 DEPTH.FT                                   :
 ROP.MIN/FT                                 :
 GAS.UNITS                                  :
~ASCII Log data
# ...
      1196.0         1.07        197.5 
      1197.0         0.27        226.9 
      1198.0         0.20        228.0 
      1199.0         0.33        230.4 
      1200.0         0.25        216.0 
      1201.0         0.13        204.1 
      1202.0         0.23        183.3 
      1203.0         0.33        179.8 
      1204.0         0.20        129.6 
      1205.0         0.17        120.1 
      1206.0         0.17        116.6 
      1207.0         0.13        110.6 
      1208.0         0.17        104.6 
      1209.0         0.20        103.8 
      1210.0         0.23         98.2 
      1211.0         0.27         98.0 
      1212.0         0.27         95.4 
      1213.0         0.23         93.8 
      1214.0         0.20         93.2 
      1215.0         0.23         88.0 
      1216.0         0.32         87.3 
      1217.0         0.13         85.8 
      1218.0         0.23         85.5 
      1219.0         0.20         85.5 
      1220.0         0.17         83.6 
      1221.0         0.20         68.9 
      1222.0         0.20         68.9 
      1223.0         0.20         66.7 
      1224.0         0.27         58.9 
      1225.0         0.33         66.0 
      1226.0         1.48        283.1 
      1227.0         0.70        279.0 
      1228.0         0.30        215.3 
      1229.0         0.13        189.0 
      1230.0         0.27        165.2 
      1231.0         0.23        145.0 
      1232.0         0.20        127.9 
      1233.0         0.20        114.9 
      1234.0         0.17        110.2 
      1235.0         0.20        103.0 
      1236.0         0.20         99.3 
      1237.0         0.17         93.1 
      1238.0         0.20         92.4 
      1239.0         0.22         86.4 
      1240.0         0.33         83.9 
      1241.0         0.37         82.6 
      1242.0         0.30         81.1 
      1243.0         0.20         81.2 
      1244.0         0.17         80.9 
      1245.0         0.20         80.5 
      1246.0         0.17         76.8 
      1247.0         0.20         76.8 
      1248.0         0.20         78.4 
      1249.0         0.17         74.3 
      1250.0         0.17         67.6 
      1251.0         0.17         67.6 
      1252.0         0.17         66.0 
      1253.0         0.20         57.4 
      1254.0         0.28         50.7 
      1255.0         0.27         49.0 
      1256.0         7.17        151.2 
      1257.0         0.30         90.9 
      1258.0         0.23        119.2 
      1259.0         0.23        142.2 
      1260.0         0.33        154.1 
      1261.0         0.27        147.0 
      1262.0         0.27        135.3 
      1263.0         0.23        120.3 
      1264.0         0.20        108.5 
      1265.0         0.23        107.4 
      1266.0         0.20         97.2 
      1267.0         0.18         96.5 
      1268.0         0.20         89.7 
      1269.0         0.20         87.0 
      1270.0         0.17         86.5 
      1271.0         0.20         83.4 
      1272.0         0.23         81.7 
      1273.0         0.20         80.4 
      1274.0         0.23         79.0 
      1275.0         0.17         76.5 
      1276.0         0.17         75.5 
      1277.0         0.17         74.9 
      1278.0         0.17         74.9 
      1279.0         0.23         73.9 
      1280.0         0.17         74.2 
      1281.0         0.17         74.2 
      1282.0         0.17         69.4 
      1283.0         0.17         66.2 
      1284.0         0.20         61.6 
      1285.0         0.52         49.6 
      1286.0         2.27        194.8 
      1287.0         0.40        164.4 
      1288.0         0.35        154.7 
      1289.0         0.30        146.8 
      1290.0         0.23        131.2 
      1291.0         0.27        126.8 
      1292.0         0.27        114.7 
      1293.0         0.27         98.8 
      1294.0         0.23         94.6 
      1295.0         0.20         88.1 
      1296.0         0.20         85.1 
      1297.0         0.30         76.6 
      1298.0         0.47         73.3 
      1299.0         0.33         68.4 
      1300.0         0.25         61.3 
      1301.0         0.23         60.6 
      1302.0         0.20         57.8 
      1303.0         0.17         57.4 
      1304.0         0.17         56.9 
      1305.0         0.27         59.6 
      1306.0         0.23         60.6 
      1307.0         0.20         64.2 
      1308.0         0.33         74.1 
      1309.0         0.20         77.7 
      1310.0         0.23         75.4 
      1311.0         0.33         68.9 
      1312.0         0.65         49.8 
      1313.0         0.60         52.7 
      1314.0         0.37         69.0 
      1315.0         0.40        104.7 
      1316.0         0.40        120.4 
      1317.0         0.37        125.7 
      1318.0         0.37        118.3 
      1319.0         0.33        107.1 
      1320.0         0.30         92.2 
      1321.0         0.35         83.7 
      1322.0         0.33         81.4 
      1323.0         0.23         78.4 
      1324.0         0.37         77.4 
      1325.0         0.23         79.7 
      1326.0         0.27         77.0 
      1327.0         0.27         74.2 
      1328.0         0.37         69.3 
      1329.0         0.30         61.4 
      1330.0         0.63         41.5 
      1331.0        19.80         81.4 
      1332.0         0.82         -2.5 
      1333.0         0.53         -2.6 
      1334.0         0.53         -2.5 
      1335.0         0.27         -2.8 
      1336.0         0.53         -2.8 
      1337.0         0.27         -2.9 
      1338.0         0.27         -2.7 
      1339.0         0.55         -2.4 
      1340.0         0.27         -2.6 
      1341.0         0.53         -2.8 
      1342.0         0.53         -2.3 
      1343.0         0.27         -2.8 
      1344.0         0.53         -2.5 
      1345.0         0.53      -9999.0 
