~Version Information
VERS.                      2.0: CWLS Log ASCII Standard - VERSION 2.0
WRAP.                       NO: One line per depth step
~Well Information Block
STRT.FT               538.0000: 
STOP.FT              1769.0000: 
STEP.FT                 0.1000: 
NULL.                -999.2500: 
COMP.          Pioneer Natural Resources: COMPANY
WELL.            Dude 43-34 Tr: WELL
FLD.           Purgatoire River: FIELD
LOC.           2083' FSL & 1042' FEL: LOCATION
PROV.                 Colorado: PROVINCE
CNTY.               Las Animas: COUNTRY
SRVC.                Patterson: SERVICE COMPANY
DATE.          Thu Jan 26 07:02:09 2006: LOG DATE
UWI.           05 071 08676 00: UNIQUE WELL ID
~Curve Information Block
DEPT.FT            0 000 00 00: Depth
DCAL.in                       : CDL Caliper
RHOB.g/cc                     : CDL Bulk Density
RHOC.g/cc                     : CDL Density Correction
DPOR.pu                       : CDL Density Porosity
GR.GAPI                       : Gamma Ray
~Parameter Information Block
~A  Depth       DCAL        RHOB        RHOC        DPOR         GR     
# ...
   952.4000      7.9460      2.5322      0.0747      7.1393     67.6199
   952.5000      7.9401      2.5213      0.0965      7.8026     75.5228
   952.6000      7.9401      2.5198      0.1445      7.8909     87.2419
   952.7000      7.9401      2.5230      0.1099      7.6983     96.3434
   952.8000      7.9471      2.5268      0.1255      7.4675     98.8966
   952.9000      7.9471      2.5245      0.1314      7.6072     99.5050
   953.0000      7.9601      2.5149      0.1095      8.1882    103.7823
   953.1000      7.9601      2.5099      0.1066      8.4918    111.0878
   953.2000      7.9601      2.5236      0.0648      7.6597    118.1534
   953.3000      7.9781      2.5591      0.1135      5.5113    122.8236
   953.4000      7.9781      2.5969      0.1125      3.2205    124.9005
   953.5000      8.0008      2.6108      0.1535      2.3769    124.9351
   953.6000      8.0008      2.5988      0.1252      3.1057    124.3841
   953.7000      8.0008      2.5865      0.0960      3.8491    123.6268
   953.8000      8.0024      2.5979      0.1052      3.1602    121.5210
   953.9000      8.0024      2.6219      0.1697      1.7030    120.1463
   954.0000      8.0124      2.6293      0.1362      1.2540    120.6990
   954.1000      8.0124      2.6166      0.1176      2.0272    122.2682
   954.2000      8.0124      2.6009      0.0655      2.9762    123.5421
   954.3000      8.0179      2.5930      0.1071      3.4566    123.3780
   954.4000      8.0179      2.5891      0.0827      3.6899    123.7069
   954.5000      8.0142      2.5808      0.1029      4.1962    125.4944
   954.6000      8.0142      2.5680      0.0688      4.9726    126.2930
   954.7000      8.0142      2.5624      0.0910      5.3113    124.9896
   954.8000      8.0198      2.5685      0.1145      4.9364    122.3879
   954.9000      8.0198      2.5838      0.0440      4.0093    121.6297
   955.0000      8.0159      2.6016      0.0941      2.9350    127.8127
   955.1000      8.0159      2.6028      0.1085      2.8588    140.2949
   955.2000      8.0159      2.5831      0.0849      4.0526    150.2531
   955.3000      8.0219      2.5590      0.0467      5.5181    147.8280
   955.4000      8.0219      2.5389      0.0487      6.7362    134.5941
   955.5000      8.0236      2.5221      0.0836      7.7517    122.5440
   955.6000      8.0236      2.5070      0.1175      8.6642    117.0898
   955.7000      8.0236      2.4880      0.0750      9.8188    114.3816
   955.8000      8.0392      2.4756      0.0181     10.5715    114.4864
   955.9000      8.0392      2.4915      0.0846      9.6048    118.2290
   956.0000      7.9945      2.5384      0.1123      6.7662    119.6817
   956.1000      7.9945      2.6077      0.1358      2.5660    116.0508
   956.2000      7.9945      2.6749      0.2622     -1.5061    113.1386
   956.3000      7.9521      2.7048      0.2794     -3.3234    114.4434
   956.4000      7.9521      2.6939      0.2467     -2.6620    119.0375
   956.5000      7.9324      2.6605      0.2587     -0.6384    123.0328
   956.6000      7.9324      2.6238      0.1770      1.5864    119.1589
   956.7000      7.9324      2.6019      0.1777      2.9135    108.4557
   956.8000      7.9345      2.5957      0.0948      3.2898     99.5886
   956.9000      7.9345      2.5999      0.0520      3.0361     96.7226
   957.0000      7.9387      2.6217      0.0723      1.7162     98.1011
   957.1000      7.9387      2.6607      0.1528     -0.6490     98.7718
   957.2000      7.9387      2.6954      0.2150     -2.7500     97.1811
   957.3000      7.9477      2.7084      0.1780     -3.5399     95.8396
   957.4000      7.9477      2.7051      0.2023     -3.3367     97.5211
   957.5000      7.8901      2.7082      0.0772     -3.5282    100.5406
   957.6000      7.8901      2.7268      0.1699     -4.6550     98.7696
   957.7000      7.8901      2.7232      0.1856     -4.4379     91.1555
   957.8000      7.9032      2.6641      0.0702     -0.8569     83.8099
   957.9000      7.9032      2.5622      0.0143      5.3208     78.9698
   958.0000      7.9643      2.4410     -0.0332     12.6679     75.7953
   958.1000      7.9643      2.3220     -0.0807     19.8775     76.4221
   958.2000      7.9643      2.2334     -0.0772     25.2473     80.5008
   958.3000      8.0294      2.1874     -0.0991     28.0334     84.6060
   958.4000      8.0294      2.1694     -0.0133     29.1266     85.4992
   958.5000      8.0196      2.1603      0.0225     29.6772     83.8868
   958.6000      8.0196      2.1724      0.0202     28.9445     84.2377
   958.7000      8.0196      2.2308      0.1336     25.4059     86.7296
   958.8000      8.0200      2.3140      0.3634     20.3610     89.2523
   958.9000      8.0200      2.3806      0.2535     16.3244     93.5128
   959.0000      8.0337      2.4266      0.2976     13.5390    103.1611
   959.1000      8.0337      2.4605      0.1640     11.4828    117.2972
   959.2000      8.0337      2.4847      0.1624     10.0153    129.6643
   959.3000      8.0473      2.4977      0.1403      9.2294    137.2876
   959.4000      8.0473      2.5032      0.1447      8.8984    140.4096
   959.5000      7.9800      2.5134      0.1648      8.2791    137.5699
   959.6000      7.9800      2.5281      0.1797      7.3885    131.6050
   959.7000      7.9800      2.5318      0.1699      7.1640    131.7953
   959.8000      8.0002      2.5212      0.1225      7.8040    137.3924
   959.9000      8.0002      2.5181      0.1266      7.9926    141.3763
   960.0000      8.0350      2.5391      0.1304      6.7214    143.5085
   960.1000      8.0350      2.5646      0.1986      5.1752    145.5896
   960.2000      8.0350      2.5687      0.1482      4.9281    147.4635
   960.3000      8.0684      2.5620      0.1083      5.3349    148.2547
   960.4000      8.0684      2.5668      0.1178      5.0413    148.7443
   960.5000      8.0381      2.5775      0.1320      4.3966    149.4501
   960.6000      8.0381      2.5739      0.1645      4.6095    145.1826
   960.7000      8.0381      2.5583      0.1267      5.5567    131.5468
   960.8000      8.0504      2.5500      0.1047      6.0579    114.6404
   960.9000      8.0504      2.5616      0.0877      5.3556    106.2005
   961.0000      7.9918      2.5930      0.1298      3.4576    108.3345
   961.1000      7.9918      2.6362      0.0995      0.8386    109.3439
   961.2000      7.9918      2.6786      0.1624     -1.7347    103.7153
   961.3000      7.9960      2.6922      0.1994     -2.5591     99.9929
   961.4000      7.9960      2.6582      0.1635     -0.4940    103.6792
   961.5000      8.0043      2.6011      0.0807      2.9627    110.3359
   961.6000      8.0043      2.5588      0.0167      5.5269    114.7508
   961.7000      8.0043      2.5388     -0.0157      6.7401    113.5875
   961.8000      7.9791      2.5240      0.0244      7.6375    106.4518
   961.9000      7.9791      2.5051      0.0100      8.7791    102.0271
   962.0000      7.9704      2.4893      0.0559      9.7382    105.0363
   962.1000      7.9704      2.4901      0.0305      9.6899    108.4846
   962.2000      7.9704      2.5154      0.0839      8.1576    109.5712
   962.3000      7.9819      2.5478      0.1226      6.1920    111.2608
   962.4000      7.9819      2.5548      0.1421      5.7670    115.4193
   962.5000      7.9990      2.5253      0.1202      7.5573    121.1537
   962.6000      7.9990      2.4810      0.0123     10.2429    126.0352
   962.7000      7.9990      2.4521     -0.0140     11.9925    129.5069
   962.8000      8.0158      2.4483      0.0239     12.2258    131.0185
   962.9000      8.0158      2.4607      0.0641     11.4747    131.7635
   963.0000      8.0033      2.4813      0.0859     10.2259    135.9893
   963.1000      8.0033      2.4996      0.0962      9.1139    143.7844
   963.2000      8.0033      2.5048      0.1280      8.8014    148.0222
   963.3000      8.0174      2.5066      0.1203      8.6892    147.6999
   963.4000      8.0174      2.5182      0.2101      7.9861    145.9440
   963.5000      8.0576      2.5285      0.2626      7.3662    143.1254
