~Version Information
VERS.                      2.0: CWLS Log ASCII Standard - VERSION 2.0
WRAP.                       NO: One line per depth step
~Well Information Block
STRT.FT                -2.0000: 
STOP.FT              2017.5000: 
STEP.FT                 0.2500: 
NULL.                -999.2500: 
COMP.          Pioneer Natural Resources: COMPANY
WELL.            Zink 44-10 Tr: WELL
FLD.           Purgatoire River: FIELD
LOC.           486' FSL & 554' FEL--: LOCATION
PROV.                 Colorado: PROVINCE
CNTY.               Las Animas: COUNTRY
SRVC.                Patterson: SERVICE COMPANY
DATE.          Mon Aug 01 14:01:23 2005: LOG DATE
UWI.           05 071 08446 00: UNIQUE WELL ID
~Curve Information Block
DEPT.FT            0 000 00 00: Depth
CCL.                          : Casing Collar Locator
TT3.usec                      : CBL 3' Travel Time
AMP3.mV                       : CBL 3' Amplitude
GR.GAPI                       : Gamma Ray
~Parameter Information Block
~A  Depth       CCL         TT3         AMP3         GR     
    -2.0000   -999.2500   -999.2500   -999.2500     64.4007
    -1.7500   -999.2500   -999.2500   -999.2500     62.5514
    -1.5000   -999.2500   -999.2500   -999.2500     61.4536
    -1.2500   -999.2500   -999.2500   -999.2500     61.0509
    -1.0000   -999.2500   -999.2500   -999.2500     61.5515
    -0.7500   -999.2500   -999.2500   -999.2500     62.7818
    -0.5000   -999.2500   -999.2500   -999.2500     63.5679
    -0.2500   -999.2500   -999.2500   -999.2500     57.2576
     0.0000   -999.2500   -999.2500   -999.2500     49.4556
     0.2500   -999.2500   -999.2500   -999.2500     40.8665
     0.5000   -999.2500   -999.2500   -999.2500     33.9524
     0.7500   -999.2500   -999.2500   -999.2500     29.9030
     1.0000   -999.2500   -999.2500   -999.2500     28.2042
     1.2500   -999.2500   -999.2500   -999.2500     27.5259
     1.5000   -999.2500   -999.2500   -999.2500     26.8672
     1.7500   -999.2500   -999.2500   -999.2500     26.0512
     2.0000   -999.2500   -999.2500   -999.2500     25.5663
     2.2500   -999.2500   -999.2500   -999.2500     26.1703
     2.5000   -999.2500   1413.0000      1.5349     28.4427
     2.7500   -999.2500   1413.0000      1.5365     32.3915
     3.0000   -999.2500   1413.0000      1.5341     37.3827
     3.2500   -999.2500   1413.0000      1.5281     42.4694
     3.5000   -999.2500   1413.0000      1.5232     46.7548
     3.7500   -999.2500   1413.0000      1.5265     49.5208
     4.0000   -999.2500   1413.0000      1.5416     50.4153
     4.2500   -999.2500   1413.0000      1.5658     49.7782
     4.5000   -999.2500   1413.0000      1.5924     48.6864
     4.7500   -999.2500   1413.0000      1.6136     48.5740
     5.0000   -999.2500   1413.0000      1.6221     50.5720
     5.2500   -999.2500   1413.0000      1.6140     54.6701
     5.5000   -999.2500   1413.0000      1.5922     59.3289
     5.7500   -999.2500   1413.0000      1.5657     62.3676
     6.0000   -999.2500   1413.0000      1.5450     62.6518
     6.2500   -999.2500   1413.0000      1.5351     60.9148
     6.5000   -999.2500   1413.0000      1.5335     58.9399
     6.7500   -999.2500   1413.0000      1.5352     58.1130
     7.0000   -999.2500   1413.0000      1.5388     58.8190
     7.2500   -999.2500   1413.0000      1.5473     60.9520
     7.5000   -999.2500   1413.0000      1.5614     64.5047
     7.7500   -999.2500   1413.0000      1.5778     69.3052
     8.0000   -999.2500   1413.0000      1.5909     74.4004
     8.2500      0.0000   1413.0000      1.5971     78.2644
     8.5000      0.0000   1413.0000      1.5955     79.9254
     8.7500      0.0000   1413.0000      1.5870     79.6901
     9.0000      0.0000   1413.0000      1.5739     78.5181
     9.2500      0.0000   1413.0000      1.5591     76.7761
     9.5000      0.0000   1413.0000      1.5450     73.8202
     9.7500      0.0000   1413.0000      1.5294     68.8382
    10.0000      0.0000   1413.0000      1.5061     62.0010
    10.2500      0.0000   1413.0000      1.4724     54.7990
    10.5000      2.0000   1413.0000      1.4355     49.3831
    10.7500      0.0000   1413.0000      1.4100     47.3844
    11.0000      0.0000   1413.0000      1.4051     48.9208
    11.2500      0.0000   1413.0000      1.4173     52.5285
    11.5000      0.0000   1413.0000      1.4353     56.1489
    11.7500      0.0000   1413.0000      1.4524     58.2620
    12.0000      0.0000   1413.0000      1.4708     58.4153
    12.2500      0.0000   1413.0000      1.4942     57.2456
    12.5000      0.0000   1412.9604      1.5223     56.0599
    12.7500      0.0000   1412.6683      1.5556     55.8048
    13.0000      0.0000   1411.1354      1.6190     56.1972
    13.2500      0.0000   1404.8214      1.8281     56.0523
    13.5000      0.0000   1384.3792      2.5021     54.4524
    13.7500      0.0000   1332.2793      4.2443     51.5668
    14.0000      0.0000   1227.5980      7.7680     48.5523
    14.2500      0.0000   1061.5601     13.3501     46.7476
    14.5000      0.0000    853.4344     20.3133     46.8251
    14.7500      0.0000    647.1118     27.2389     48.6630
    15.0000      0.0000    485.2965     32.8844     51.9217
    15.2500      0.0000    384.9018     36.8399     56.4140
    15.5000      0.0000    335.6571     39.3461     61.6851
    15.7500     -2.0000    316.6235     40.8000     66.5150
    16.0000     -2.0000    310.9706     41.5797     69.3229
    16.2500      2.0000    309.9519     42.1345     69.1301
    16.5000      0.0000    310.1570     43.0566     66.1563
    16.7500      0.0000    310.0664     45.0004     61.8254
    17.0000      0.0000    308.3297     48.3972     58.2044
    17.2500      0.0000    303.8611     53.0695     56.8408
    17.5000      0.0000    296.6901     58.1579     57.7582
    17.7500      0.0000    288.1634     62.6281     59.6029
    18.0000      0.0000    280.1301     65.9133     60.7303
    18.2500      0.0000    273.9406     68.0560     60.1881
    18.5000      0.0000    270.0074     69.3883     58.0616
    18.7500      0.0000    267.9573     70.2337     55.2626
    19.0000      0.0000    267.0859     70.8176     52.8309
    19.2500      0.0000    266.7774     71.2700     51.1130
    19.5000      0.0000    266.6730     71.6469     49.6012
    19.7500      0.0000    266.6236     71.9577     47.6927
    20.0000      0.0000    266.5794     72.1924     45.4901
    20.2500      0.0000    266.5280     72.3454     43.7124
    20.5000      0.0000    266.4670     72.4418     42.9330
    20.7500      0.0000    266.4023     72.5374     43.0341
    21.0000      0.0000    266.3432     72.6822     43.3964
    21.2500      0.0000    266.2982     72.8872     43.6286
    21.5000      0.0000    266.2767     73.1271     44.1295
    21.7500      0.0000    266.2934     73.3616     45.8892
    22.0000      0.0000    266.3963     73.5376     49.6248
    22.2500      0.0000    266.7490     73.5644     55.0663
    22.5000      0.0000    267.7708     73.2924     61.1678
    22.7500      0.0000    270.1875     72.5186     67.0019
    23.0000      0.0000    274.7946     71.0259     72.2539
    23.2500      0.0000    281.9872     68.6583     76.8795
    23.5000      0.0000    292.1387     65.4010     80.6516
    23.7500      0.0000    307.8660     61.3907     83.2363
    24.0000      0.0000    337.5269     56.8382     84.6215
    24.2500      0.0000    395.8898     51.9468     85.3085
    24.5000      0.0000    496.8925     46.8937     85.9278
    24.7500      0.0000    640.1301     41.8392     86.7055
    25.0000      0.0000    804.5499     36.9192     87.5792
    25.2500      0.0000    960.8328     32.2408     88.6467
    25.5000      0.0000   1091.5156     27.9017     90.0439
    25.7500      0.0000   1196.0764     24.0093     91.4355
    26.0000      0.0000   1279.0665     20.6676     92.0915
    26.2500      0.0000   1340.8104     17.9437     91.6555
    26.5000      0.0000   1380.3386     15.8441     90.5631
    26.7500      0.0000   1400.9208     14.3173     89.4945
    27.0000      0.0000   1409.4110     13.2677     88.5667
    27.2500      0.0000   1412.1138     12.5780     87.3172
    27.5000      0.0000   1412.5675     12.1352     85.3915
    27.7500      0.0000   1411.5284     11.8482     82.9648
    28.0000      0.0000   1406.9945     11.6462     80.5565
    28.2500      0.0000   1393.4421     11.4653     78.7170
    28.5000      0.0000   1362.8190     11.2368     77.9232
    28.7500      0.0000   1311.4187     10.8994     78.4853
    29.0000      0.0000   1250.5703     10.4425     80.3115
    29.2500      0.0000   1207.6570      9.9267     82.8233
    29.5000      0.0000   1207.6652      9.4278     85.3112
    29.7500      0.0000   1250.5895      8.9628     87.3968
    30.0000      0.0000   1311.4382      8.5131     88.9449
    30.2500      0.0000   1362.7810      8.1051     89.4119
    30.5000      0.0000   1393.1160      7.8100     87.6947
    30.7500     -2.0000   1405.3080      7.6660     83.2006
    31.0000      2.0000   1404.8702      7.6490     77.0887
    31.2500      2.0000   1392.1130      7.7223     72.0638
