~Version Information
VERS.                      2.0: CWLS Log ASCII Standard - VERSION 2.0
WRAP.                       NO: One line per depth step
~Well Information Block
STRT.FT               330.0000: 
STOP.FT              2874.7000: 
STEP.FT                 0.1000: 
NULL.                -999.2500: 
COMP.          Pioneer Natural Resources: COMPANY
WELL.                AMX 13-13: WELL
FLD.           Purgatoire River: FIELD
LOC.           2316' FSL & 865' FWL--: LOCATION
PROV.                 Colorado: PROVINCE
CNTY.               Las Animas: COUNTRY
SRVC.                Patterson: SERVICE COMPANY
DATE.          Tue Dec 20 09:57:28 2005: LOG DATE
UWI.           05 071 08630 00: UNIQUE WELL ID
~Curve Information Block
DEPT.FT            0 000 00 00: Depth
DCAL.in                       : CDL Caliper
RHOB.g/cc                     : CDL Bulk Density
RHOC.g/cc                     : CDL Density Correction
DPOR.pu                       : CDL Density Porosity
NPOR.pu                       : Neutron Porosity
GR.GAPI                       : Gamma Ray
~Parameter Information Block
~A  Depth       DCAL        RHOB        RHOC        DPOR        NPOR         GR     
# ...
  1165.2000      8.1299      2.5773      0.1373      4.4050     23.7534    118.1009
  1165.3000      8.1343      2.6064      0.2343      2.6418     23.4499    128.5334
  1165.4000      8.1343      2.6413      0.2673      0.5286     23.1595    141.3324
  1165.5000      8.1444      2.6560      0.2334     -0.3648     22.8180    142.8460
  1165.6000      8.1444      2.6454      0.1310      0.2770     22.5849    132.4682
  1165.7000      8.1444      2.6258      0.1033      1.4648     22.3730    121.5474
  1165.8000      8.1582      2.6069      0.1704      2.6112     22.0132    117.0354
  1165.9000      8.1582      2.5851      0.1461      3.9316     21.9895    117.5527
  1166.0000      8.1750      2.5619      0.1427      5.3392     22.4551    120.1832
  1166.1000      8.1750      2.5402      0.1018      6.6530     22.8100    123.1023
  1166.2000      8.1750      2.5196      0.0613      7.9043     22.8994    126.7047
  1166.3000      8.2117      2.5068      0.0449      8.6806     22.9711    132.9552
  1166.4000      8.2117      2.5115      0.0399      8.3947     23.0660    140.5430
  1166.5000      8.2768      2.5216      0.1061      7.7834     23.2758    143.6328
  1166.6000      8.2768      2.5140      0.1060      8.2413     23.6760    139.9155
  1166.7000      8.2768      2.4980      0.0730      9.2107     24.1173    132.8630
  1166.8000      8.2806      2.5092      0.0987      8.5364     24.7385    128.7258
  1166.9000      8.2806      2.5534      0.1988      5.8544     25.7509    130.5195
  1167.0000      8.1529      2.5842      0.2596      3.9906     26.6504    138.3675
  1167.1000      8.1529      2.5655      0.1875      5.1188     26.7891    146.9006
  1167.2000      8.1529      2.5358      0.0429      6.9225     26.3280    146.0045
  1167.3000      8.0291      2.5516      0.0979      5.9631     25.8352    137.6304
  1167.4000      8.0291      2.6109      0.1522      2.3716     25.4296    134.0293
  1167.5000      7.9936      2.6702      0.1650     -1.2239     25.1390    137.1809
  1167.6000      7.9936      2.6941      0.1686     -2.6740     25.1908    138.4898
  1167.7000      7.9936      2.6790      0.1557     -1.7597     25.5271    136.5737
  1167.8000      8.0123      2.6459      0.1130      0.2471     25.7938    135.1853
  1167.9000      8.0123      2.6173      0.0930      1.9826     25.6855    133.7273
  1168.0000      8.0471      2.6015      0.1072      2.9409     25.1698    132.7386
  1168.1000      8.0471      2.5918      0.0496      3.5273     24.4334    132.3833
  1168.2000      8.0471      2.5785      0.0372      4.3337     23.7555    130.4440
  1168.3000      8.0810      2.5664      0.0032      5.0642     23.3251    128.4799
  1168.4000      8.0810      2.5716     -0.0139      4.7508     23.0803    128.6034
  1168.5000      8.1090      2.5966      0.0143      3.2371     22.7072    128.7790
  1168.6000      8.1090      2.6235      0.0691      1.6039     22.0686    127.6651
  1168.7000      8.1090      2.6316      0.0908      1.1134     21.4445    125.2102
  1168.8000      8.1263      2.6192      0.0607      1.8672     21.1304    122.1187
  1168.9000      8.1263      2.5990      0.0213      3.0895     21.2775    120.5795
  1169.0000      8.1288      2.5806     -0.0051      4.2057     21.8681    120.0184
  1169.1000      8.1288      2.5705     -0.0586      4.8199     22.4163    118.2924
  1169.2000      8.1288      2.5686      0.0193      4.9331     22.4908    116.2673
  1169.3000      8.1192      2.5707      0.0072      4.8071     22.4267    113.9417
  1169.4000      8.1192      2.5802     -0.0037      4.2296     22.5866    109.5076
  1169.5000      8.0984      2.5927      0.0050      3.4749     22.7740    104.3147
  1169.6000      8.0984      2.5977     -0.0117      3.1724     22.8003    100.4065
  1169.7000      8.0984      2.5936     -0.0003      3.4198     22.8541     95.3607
  1169.8000      8.0727      2.5796      0.0034      4.2675     22.9809     88.7053
  1169.9000      8.0727      2.5607      0.0006      5.4123     23.2333     84.4609
  1170.0000      8.0522      2.5566     -0.0548      5.6590     23.7279     84.7301
  1170.1000      8.0522      2.5779      0.0006      4.3674     24.2344     88.8757
  1170.2000      8.0522      2.6038      0.0267      2.8009     24.4705     93.1347
  1170.3000      8.0370      2.6031      0.0234      2.8415     24.5887     93.0436
  1170.4000      8.0370      2.5711      0.0205      4.7810     24.6826     89.8912
  1170.5000      8.0259      2.5340     -0.0148      7.0275     24.4063     88.0977
  1170.6000      8.0259      2.5228     -0.0348      7.7097     23.8811     88.9604
  1170.7000      8.0259      2.5437     -0.0015      6.4454     23.3482     91.2656
  1170.8000      8.0077      2.5763      0.0306      4.4663     22.7102     94.1527
  1170.9000      8.0077      2.5951      0.0851      3.3293     22.1808     97.6499
  1171.0000      7.9809      2.5898      0.0738      3.6467     22.0031    101.2769
  1171.1000      7.9809      2.5732      0.0213      4.6533     22.1681    100.9170
  1171.2000      7.9809      2.5619      0.0523      5.3406     22.4990     96.1662
  1171.3000      7.9615      2.5583      0.0677      5.5561     22.7819     95.1588
  1171.4000      7.9615      2.5627      0.0500      5.2885     23.0721     99.3369
  1171.5000      7.9524      2.5762      0.0644      4.4698     23.4358     99.3918
  1171.6000      7.9524      2.5810      0.0697      4.1815     23.5077     92.7674
  1171.7000      7.9524      2.5491      0.0926      6.1169     23.0846     85.7106
  1171.8000      7.9506      2.4757      0.0250     10.5643     22.6471     81.9453
  1171.9000      7.9506      2.3847     -0.0301     16.0811     22.5940     79.3778
  1172.0000      7.9494      2.3114     -0.0941     20.5205     22.8708     77.1625
  1172.1000      7.9494      2.2787     -0.0750     22.5025     23.0880     79.4478
  1172.2000      7.9494      2.2700     -0.0169     23.0306     22.9004     85.8652
  1172.3000      7.9413      2.2527     -0.0201     24.0803     22.4828     90.6461
  1172.4000      7.9413      2.2270     -0.0306     25.6391     22.0222     92.6629
  1172.5000      7.9287      2.2155     -0.0005     26.3333     21.5039     94.5334
  1172.6000      7.9287      2.2329      0.0671     25.2795     21.0270     96.4422
  1172.7000      7.9287      2.2931      0.0949     21.6317     20.5972     97.2324
  1172.8000      7.9104      2.4071      0.1814     14.7204     20.0633     96.8723
  1172.9000      7.9104      2.5478      0.3655      6.1960     19.4275     97.9025
  1173.0000      7.8982      2.6600      0.3900     -0.6048     18.8336    102.5756
  1173.1000      7.8982      2.7185      0.3841     -4.1511     18.3899    110.2577
  1173.2000      7.8982      2.7375      0.3449     -5.3060     18.1772    120.1738
  1173.3000      7.9519      2.7388      0.3145     -5.3811     18.3132    130.6027
  1173.4000      7.9519      2.7303      0.2513     -4.8637     18.8064    136.7224
  1173.5000      8.0802      2.7094      0.1968     -3.5976     19.6652    137.7195
  1173.6000      8.0802      2.6804      0.0918     -1.8401     20.8116    139.2301
  1173.7000      8.0802      2.6567      0.0825     -0.4058     21.7059    141.8508
  1173.8000      8.1823      2.6387      0.0342      0.6855     21.9116    139.4955
  1173.9000      8.1823      2.6161      0.0222      2.0522     21.7736    132.4886
  1174.0000      8.1971      2.5920     -0.0014      3.5131     21.9555    127.2936
  1174.1000      8.1971      2.5898     -0.0273      3.6465     22.5939    125.1006
  1174.2000      8.1971      2.6257      0.0136      1.4730     23.2796    121.5976
  1174.3000      8.1645      2.6700      0.0965     -1.2125     23.6563    116.1862
  1174.4000      8.1645      2.6799      0.0321     -1.8141     23.8490    112.6002
  1174.5000      8.1462      2.6558      0.0340     -0.3530     24.0804    113.2171
  1174.6000      8.1462      2.6205      0.0167      1.7880     24.2669    118.0881
  1174.7000      8.1462      2.5906     -0.0135      3.6001     24.2099    123.4472
