~Version Information
VERS.                      2.0: CWLS Log ASCII Standard - VERSION 2.0
WRAP.                       NO: One line per depth step
~Well Information Block
STRT.FT                -7.7500: 
STOP.FT              1420.5000: 
STEP.FT                 0.2500: 
NULL.                -999.2500: 
COMP.          Pioneer Natural Resources: COMPANY
WELL.          Parklane 43-34 Tr: WELL
FLD.           Purgatorie River: FIELD
LOC.           1643' FSL & 966' FEL--: LOCATION
PROV.                       CO: PROVINCE
CNTY.               Las Animas: COUNTRY
SRVC.          Patterson Wireline: SERVICE COMPANY
DATE.          Tue Aug 02 11:35:27 2005: LOG DATE
UWI.           05 071 08452 00: UNIQUE WELL ID
~Curve Information Block
DEPT.FT            0 000 00 00: Depth
CCL.                          : Casing Collar Locator
TT3.usec                      : CBL 3' Travel Time
AMP3.mV                       : CBL 3' Amplitude
GR.GAPI                       : Gamma Ray
~Parameter Information Block
~A  Depth       CCL         TT3         AMP3         GR     
# ...
   360.7500      0.0000    932.6777     10.9910     79.2058
   361.0000      0.0000    904.9098     10.8986     79.4955
   361.2500      0.0000    894.3469     10.7289     80.4996
   361.5000      0.0000    891.7336     10.4688     82.7020
   361.7500      0.0000    890.8518     10.1103     85.5314
   362.0000      0.0000    896.2728      9.6618     87.2779
   362.2500      0.0000    918.1968      9.1827     86.2141
   362.5000      0.0000    958.5620      8.7941     82.1843
   362.7500      0.0000   1004.5856      8.6058     76.7196
   363.0000      0.0000   1037.0879      8.6238     71.5092
   363.2500     -2.0000   1044.0435      8.7549     67.1537
   363.5000      0.0000   1027.4257      8.8999     63.3391
   363.7500      0.0000    999.5042      9.0364     59.7363
   364.0000      0.0000    971.3737      9.2584     56.6149
   364.2500      0.0000    942.3043      9.7574     54.7070
   364.5000      0.0000    901.1945     10.6937     54.4415
   364.7500      0.0000    841.9722     11.9995     55.3662
   365.0000      0.0000    777.6252     13.3430     56.5342
   365.2500      0.0000    735.4569     14.3649     57.2723
   365.5000      0.0000    735.3029     14.9360     57.2468
   365.7500      0.0000    772.5500     15.1650     56.1211
   366.0000      0.0000    823.4769     15.2250     53.8524
   366.2500      0.0000    865.3967     15.2312     51.2641
   366.5000      0.0000    889.9298     15.2307     49.6179
   366.7500      0.0000    900.6271     15.2349     49.3189
   367.0000      0.0000    904.1426     15.2424     49.4049
   367.2500      0.0000    904.9777     15.2500     48.6100
   367.5000      0.0000    905.0719     15.2555     46.7139
   367.7500      0.0000    905.0106     15.2600     44.5317
   368.0000      0.0000    904.9261     15.2668     42.7551
   368.2500      0.0000    904.8502     15.2780     41.2604
   368.5000      0.0000    904.7916     15.2893     39.7100
   368.7500      0.0000    904.7678     15.2911     38.4412
   369.0000      0.0000    904.7915     15.2749     38.2861
   369.2500      0.0000    904.8531     15.2413     39.5667
   369.5000      0.0000    904.9209     15.1989     41.7754
   369.7500      0.0000    904.9592     15.1564     44.2868
   370.0000      0.0000    904.9457     15.1165     46.7574
   370.2500      0.0000    904.8788     15.0776     48.7492
   370.5000      0.0000    904.7750     15.0385     49.8191
   370.7500      0.0000    904.6562     15.0015     50.3206
   371.0000      0.0000    904.5390     14.9705     51.4306
   371.2500      0.0000    904.4305     14.9459     53.9458
   371.5000      0.0000    904.3287     14.9233     57.2263
   371.7500      0.0000    904.2243     14.8977     59.5414
   372.0000      0.0000    904.1034     14.8680     59.5476
   372.2500      0.0000    903.9522     14.8350     57.4384
   372.5000      0.0000    903.7591     14.7976     54.5015
   372.7500      0.0000    903.5117     14.7545     51.6648
   373.0000      0.0000    903.1385     14.7092     48.9303
   373.2500      0.0000    902.3882     14.6701     46.1663
   373.5000      0.0000    900.6607     14.6457     43.7914
   373.7500      0.0000    897.0186     14.6401     42.4579
   374.0000      0.0000    890.6392     14.6522     42.4789
   374.2500      0.0000    881.4656     14.6778     43.7249
   374.5000      0.0000    870.3220     14.7115     45.7614
   374.7500      0.0000    858.4125     14.7488     47.9681
   375.0000      0.0000    847.0116     14.7859     49.7511
   375.2500      0.0000    837.4628     14.8193     50.8212
   375.5000      0.0000    830.7724     14.8443     51.2305
   375.7500      0.0000    827.0106     14.8584     51.1938
   376.0000      0.0000    825.4052     14.8658     50.9991
   376.2500      0.0000    825.0842     14.8750     51.0152
   376.5000      0.0000    825.7430     14.8904     51.5416
   376.7500      0.0000    827.9662     14.9096     52.7073
   377.0000      0.0000    833.1486     14.9284     54.6941
   377.2500      0.0000    842.6155     14.9439     57.8287
   377.5000      0.0000    855.9030     14.9525     62.0016
   377.7500      0.0000    869.6098     14.9472     65.9921
   378.0000      0.0000    878.5436     14.9172     67.8847
   378.2500      0.0000    878.9106     14.8548     66.6588
   378.5000      0.0000    871.1127     14.7659     63.3338
   378.7500      0.0000    859.9627     14.6733     60.1148
   379.0000      0.0000    852.0244     14.6034     58.3162
   379.2500      0.0000    851.6382     14.5680     57.4558
   379.5000      0.0000    858.0444     14.5544     56.3144
   379.7500      0.0000    865.5514     14.5374     54.4202
   380.0000      0.0000    867.1449     14.5008     52.4560
   380.2500      0.0000    859.4323     14.4515     51.5516
   380.5000      0.0000    844.8674     14.4105     52.2230
   380.7500      0.0000    829.0330     14.3944     53.7620
   381.0000      0.0000    815.8298     14.4026     54.5816
   381.2500      0.0000    805.6243     14.4175     53.2832
   381.5000      0.0000    797.3002     14.4171     49.6097
   381.7500      0.0000    790.5584     14.3920     44.6129
   382.0000      0.0000    785.9557     14.3541     39.9880
   382.2500      0.0000    783.8941     14.3284     37.1722
   382.5000      0.0000    784.2081     14.3326     36.7026
   382.7500      0.0000    786.1951     14.3626     38.0001
   383.0000      0.0000    788.5707     14.3975     39.7645
   383.2500      0.0000    789.9073     14.4155     40.9707
   383.5000      0.0000    789.8156     14.4059     41.7427
   383.7500      0.0000    789.7196     14.3685     43.2444
   384.0000      0.0000    791.8758     14.3081     46.6278
   384.2500      0.0000    797.0266     14.2340     52.0156
   384.5000      0.0000    802.8423     14.1605     58.5422
   384.7500      0.0000    805.2891     14.1016     65.2764
   385.0000      0.0000    802.2614     14.0636     71.8307
   385.2500      0.0000    795.6737     14.0459     78.1092
   385.5000      0.0000    789.7026     14.0466     83.8739
   385.7500      0.0000    787.7474     14.0614     88.5852
   386.0000      0.0000    791.1764     14.0759     91.3233
   386.2500      0.0000    799.1811     14.0693     91.0643
   386.5000      0.0000    808.3705     14.0270     87.5564
   386.7500      0.0000    813.6664     13.9494     81.8605
   387.0000      0.0000    811.7266     13.8478     75.7107
   387.2500      0.0000    803.7967     13.7370     70.5192
   387.5000      0.0000    794.3273     13.6284     67.2651
   387.7500      0.0000    787.0392     13.5238     67.0307
   388.0000      0.0000    782.8731     13.4159     70.8865
   388.2500      0.0000    780.9474     13.2989     78.6733
   388.5000      0.0000    780.2124     13.1784     88.1539
   388.7500      0.0000    780.0982     13.0710     96.1744
   389.0000      0.0000    780.3576     12.9939    100.9547
   389.2500      0.0000    780.8200     12.9586    102.7361
   389.5000      0.0000    781.3050     12.9685    102.1947
   389.7500      0.0000    781.6686     13.0170     99.1092
   390.0000      0.0000    781.8590     13.0876     93.2235
   390.2500      0.0000    781.9156     13.1587     86.0522
   390.5000      0.0000    781.9114     13.2120     80.8058
   390.7500      0.0000    781.8941     13.2375     79.7840
   391.0000      0.0000    781.8690     13.2347     81.9962
   391.2500      0.0000    781.8188     13.2125     83.9021
   391.5000      0.0000    781.7449     13.1884     82.5944
   391.7500      0.0000    781.6890     13.1828     78.0732
   392.0000      0.0000    781.6933     13.2070     72.7645
   392.2500      0.0000    781.7328     13.2557     69.4750
   392.5000      0.0000    781.7212     13.3077     69.7123
   392.7500      0.0000    781.6042     13.3334     73.1013
   393.0000      0.0000    781.4258     13.3062     77.9223
   393.2500      0.0000    781.2943     13.2173     82.2891
   393.5000      0.0000    781.2947     13.0830     85.1149
   393.7500      0.0000    781.4299     12.9377     86.2951
   394.0000      0.0000    781.6254     12.8162     86.2583
