~Version Information
VERS.                      2.0: CWLS Log ASCII Standard - VERSION 2.0
WRAP.                       NO: One line per depth step
~Well Information Block
STRT.FT               555.0000: 
STOP.FT              2286.5000: 
STEP.FT                 0.1000: 
NULL.                -999.2500: 
COMP.          Pioneer Natural Resources: COMPANY
WELL.          Roadster 41-33 Kv: WELL
FLD.           Purgatoire River: FIELD
LOC.           903' FNL & 248' FEL: LOCATION
PROV.                 Colorado: PROVINCE
CNTY.               Las Animas: COUNTRY
SRVC.                Patterson: SERVICE COMPANY
DATE.          Thu Dec 15 10:28:25 2005: LOG DATE
UWI.           05 071 08615 00: UNIQUE WELL ID
~Curve Information Block
DEPT.FT            0 000 00 00: Depth
DCAL.in                       : CDL Caliper
RHOB.g/cc                     : CDL Bulk Density
RHOC.g/cc                     : CDL Density Correction
DPOR.pu                       : CDL Density Porosity
GR.GAPI                       : Gamma Ray
NPOR.pu                       : Neutron Porosity
~Parameter Information Block
~A  Depth       DCAL        RHOB        RHOC        DPOR         GR         NPOR    
# ...
  1361.4000      7.9398      2.5981     -0.0058      3.1433     81.8229     18.9474
  1361.5000      7.9330      2.6089     -0.0021      2.4880     88.3731     18.7101
  1361.6000      7.9330      2.6213      0.0589      1.7411     96.9625     18.8220
  1361.7000      7.9330      2.6257      0.0655      1.4750    102.3490     19.6532
  1361.8000      7.9274      2.6345      0.0877      0.9366    102.4147     20.4896
  1361.9000      7.9274      2.6519      0.0827     -0.1121    100.9939     20.7676
  1362.0000      7.9207      2.6605      0.1154     -0.6387    102.8465     20.5494
  1362.1000      7.9207      2.6518      0.0906     -0.1076    109.1337     20.0244
  1362.2000      7.9207      2.6275      0.0732      1.3632    116.2138     19.4855
  1362.3000      7.9468      2.5888      0.0599      3.7084    118.2035     19.4422
  1362.4000      7.9468      2.5480      0.0053      6.1789    114.8163     20.0216
  1362.5000      7.9735      2.5201      0.0172      7.8711    116.0345     20.8217
  1362.6000      7.9735      2.5030     -0.0132      8.9100    122.9501     21.6257
  1362.7000      7.9735      2.5027     -0.0656      8.9260    124.0996     22.5057
  1362.8000      7.9801      2.5303     -0.0438      7.2537    122.2755     23.5919
  1362.9000      7.9801      2.5656      0.0060      5.1155    127.6374     24.4246
  1363.0000      7.9598      2.5810      0.0225      4.1789    133.9341     24.5662
  1363.1000      7.9598      2.5791      0.0363      4.2995    129.4248     24.3848
  1363.2000      7.9598      2.5789      0.0305      4.3069    116.2226     23.7750
  1363.3000      7.9531      2.5897      0.0214      3.6524    105.7638     22.7946
  1363.4000      7.9531      2.6004      0.0530      3.0052    103.4349     22.3866
  1363.5000      7.9581      2.6010      0.0358      2.9680    104.9850     22.2863
  1363.6000      7.9581      2.5981      0.0297      3.1458    105.1490     21.2538
  1363.7000      7.9581      2.5947      0.0669      3.3525    104.1102     19.4548
  1363.8000      7.9470      2.5879      0.0218      3.7665    104.4812     18.4902
  1363.9000      7.9470      2.5813      0.0167      4.1610    106.8546     19.3903
  1364.0000      7.9403      2.5798      0.0352      4.2547    110.1405     21.1074
  1364.1000      7.9403      2.5808      0.0653      4.1933    113.7206     21.9145
  1364.2000      7.9403      2.5762      0.0557      4.4744    120.6361     21.6278
  1364.3000      7.9440      2.5625      0.0605      5.3039    133.0180     20.8350
  1364.4000      7.9440      2.5465      0.0363      6.2720    141.6721     20.1602
  1364.5000      7.9461      2.5395      0.0105      6.6987    136.0206     19.8995
  1364.6000      7.9461      2.5475      0.0198      6.2118    122.0481     19.5070
  1364.7000      7.9461      2.5686      0.0424      4.9345    112.6305     19.0421
  1364.8000      7.9512      2.5951      0.0461      3.3256    112.2587     19.3150
  1364.9000      7.9512      2.6173      0.0541      1.9807    115.1144     20.1491
  1365.0000      7.9504      2.6265      0.0483      1.4254    111.2005     20.7147
  1365.1000      7.9504      2.6196      0.0913      1.8408    101.2495     20.9196
  1365.2000      7.9504      2.6025      0.0790      2.8762     95.7843     21.3277
  1365.3000      7.9520      2.5849      0.0663      3.9465     97.5835     21.7635
  1365.4000      7.9520      2.5696      0.0878      4.8734    100.3426     21.6629
  1365.5000      7.9544      2.5615     -0.0006      5.3636    101.3886     21.2598
  1365.6000      7.9544      2.5742      0.0166      4.5962    105.4805     20.8198
  1365.7000      7.9544      2.6080      0.0603      2.5459    112.9049     20.1017
  1365.8000      7.9471      2.6451      0.0830      0.2940    115.9325     18.9568
  1365.9000      7.9471      2.6669      0.1111     -1.0268    111.4308     17.5371
  1366.0000      7.9606      2.6734      0.0772     -1.4171    104.1794     16.2118
  1366.1000      7.9606      2.6809      0.0947     -1.8757     97.1296     15.2993
  1366.2000      7.9606      2.6921      0.1169     -2.5494     89.9293     15.0618
  1366.3000      7.9561      2.6921      0.1086     -2.5497     83.2745     15.5226
  1366.4000      7.9561      2.6795      0.0793     -1.7856     78.9125     16.3084
  1366.5000      7.9512      2.6699      0.0517     -1.2082     76.6340     16.8921
  1366.6000      7.9512      2.6694      0.0796     -1.1737     73.9271     16.8445
  1366.7000      7.9512      2.6681      0.0604     -1.0947     70.9294     16.5770
  1366.8000      7.9624      2.6598      0.0352     -0.5925     69.2091     16.7376
  1366.9000      7.9624      2.6450      0.0162      0.3054     68.5193     17.3864
  1367.0000      7.9520      2.6233      0.0560      1.6167     67.6934     18.2337
  1367.1000      7.9520      2.6004      0.0136      3.0045     67.3745     18.6314
  1367.2000      7.9520      2.5854      0.0174      3.9158     69.5408     18.3479
  1367.3000      7.9634      2.5773      0.0184      4.4038     72.1286     17.8962
  1367.4000      7.9634      2.5769     -0.0274      4.4323     74.0519     17.1844
  1367.5000      7.9904      2.5899      0.0129      3.6439     78.8568     16.3003
  1367.6000      7.9904      2.6068      0.0303      2.6186     87.2544     16.8812
  1367.7000      7.9904      2.6082      0.0211      2.5320     94.4063     19.2895
  1367.8000      8.0190      2.5938      0.0238      3.4055     94.6560     21.5328
  1367.9000      8.0190      2.5814      0.0295      4.1574     88.8770     22.9870
  1368.0000      8.0381      2.5759      0.0304      4.4914     85.7931     24.1721
  1368.1000      8.0381      2.5682      0.0125      4.9584     94.0184     24.6381
  1368.2000      8.0381      2.5553      0.0086      5.7382    109.3670     24.2379
  1368.3000      8.0096      2.5393     -0.0069      6.7086    119.7104     22.9830
  1368.4000      8.0096      2.5241     -0.0017      7.6296    122.4522     21.2150
  1368.5000      7.9696      2.5156      0.0146      8.1442    121.3365     19.8838
  1368.6000      7.9696      2.5225     -0.0211      7.7256    118.7587     19.4621
  1368.7000      7.9696      2.5439      0.0177      6.4287    115.4890     19.6107
  1368.8000      7.9610      2.5640      0.0139      5.2120    114.0425     19.9551
  1368.9000      7.9610      2.5706      0.0353      4.8098    117.8706     20.9412
  1369.0000      7.9540      2.5615      0.0643      5.3632    123.5526     22.4833
  1369.1000      7.9540      2.5430      0.0060      6.4878    126.1560     23.1567
  1369.2000      7.9540      2.5327     -0.0164      7.1096    128.1339     23.0154
  1369.3000      7.9594      2.5437      0.0235      6.4446    132.7278     23.5252
  1369.4000      7.9594      2.5661      0.0606      5.0867    137.3159     24.4005
  1369.5000      7.9630      2.5814      0.0714      4.1564    139.4039     24.4001
  1369.6000      7.9630      2.5811      0.0609      4.1777    146.3716     24.2460
  1369.7000      7.9630      2.5650      0.0671      5.1521    158.9510     24.9391
  1369.8000      7.9679      2.5466      0.0093      6.2681    161.8717     25.4215
  1369.9000      7.9679      2.5415      0.0420      6.5734    150.2494     24.7094
  1370.0000      7.9771      2.5438      0.0641      6.4381    137.3315     24.1624
  1370.1000      7.9771      2.5474      0.0555      6.2174    131.6725     24.9341
  1370.2000      7.9771      2.5624      0.0410      5.3062    130.7573     25.8402
  1370.3000      8.0159      2.5840      0.1066      4.0003    128.7042     25.8801
  1370.4000      8.0159      2.5880      0.0933      3.7605    123.3453     25.7276
  1370.5000      8.0185      2.5678      0.0750      4.9826    118.2885     25.9091
  1370.6000      8.0185      2.5423      0.0399      6.5278    118.8549     26.2652
  1370.7000      8.0185      2.5217      0.0566      7.7747    125.5506     26.4267
  1370.8000      8.0249      2.4981      0.0011      9.2050    133.7408     26.1704
  1370.9000      8.0249      2.4741      0.0088     10.6596    137.4532     25.5567
