~Version Information
 VERS.                                  2.0 : CWLS LAS VERSION
 WRAP.                                   NO : WRAPING MODE
 SWARE .                 MController 2.5.0N : SOFTWARE VERSION
~Well Information
 WELL.                        Cleaver 24-12 : WELL
 COMP.    Pioneer Natural Resources USA Inc : COMPANY
 FLD.                      Purgatoire River : FIELD
 LOC.                SE/SW Sec 12 T32S R67W : LOCATION
 DATE.                         1/05-06/2006 : DATE(S) LOGGED
 SRVC.       BLANCO Geological Services LLC : SERVICE COMPANY
 STAT.                                   CO : STATE
 CNTY.                           Las Animas : COUNTY
 CTRY.                                  USA : COUNTRY
 API.                       05-071-08634-00 : API NUMBER
 STRT.FT                             461.00 : START DEPTH
 STOP.FT                            3055.00 : STOP DEPTH
 STEP.FT                               1.00 : DEPTH INCREMENT
 NULL.                                -9999 : NULL VALUE
~Curve information
 DEPTH.FT                                   :
 ROP.MIN/FT                                 :
 GAS.UNITS                                  :
~ASCII Log data
# ...
      1261.0         0.37         39.7 
      1262.0         0.20         42.2 
      1263.0         0.18         43.8 
      1264.0         0.20         44.8 
      1265.0         0.57         45.1 
      1266.0         0.40         44.4 
      1267.0         0.50         42.5 
      1268.0         0.57         38.3 
      1269.0         0.60         34.8 
      1270.0         0.68         35.5 
      1271.0         0.33         35.8 
      1272.0         0.33         35.2 
      1273.0         0.43         33.2 
      1274.0         0.50         30.0 
      1275.0         0.30         30.3 
      1276.0         0.33         32.7 
      1277.0         0.33         36.3 
      1278.0         0.37         40.2 
      1279.0         0.38         45.4 
      1280.0         0.33         49.5 
      1281.0         0.30         53.0 
      1282.0         0.30         56.6 
      1283.0         0.33         60.8 
      1284.0         0.37         71.1 
      1285.0         0.40         86.7 
      1286.0         5.57         86.3 
      1287.0         0.23         28.3 
      1288.0         0.20         29.1 
      1289.0         0.23         30.1 
      1290.0         0.27         31.7 
      1291.0         0.47         33.3 
      1292.0         0.43         33.3 
      1293.0         0.48         31.9 
      1294.0         0.27         28.8 
      1295.0         0.23         28.2 
      1296.0         0.27         28.2 
      1297.0         0.37         29.2 
      1298.0         0.40         30.5 
      1299.0         0.53         32.1 
      1300.0         0.23         32.2 
      1301.0         0.27         32.5 
      1302.0         0.33         32.5 
      1303.0         0.42         32.6 
      1304.0         0.37         32.3 
      1305.0         0.47         32.1 
      1306.0         0.57         31.2 
      1307.0         0.50         31.3 
      1308.0         0.50         36.5 
      1309.0         0.47         43.8 
      1310.0         0.65         54.5 
      1311.0         0.47         60.2 
      1312.0         0.53         66.2 
      1313.0         0.43         91.1 
      1314.0         0.23        104.1 
      1315.0         0.30        104.7 
      1316.0         5.53         98.3 
      1317.0         0.27         36.0 
      1318.0         0.47         31.5 
      1319.0         0.47         27.9 
      1320.0         0.60         30.2 
      1321.0         0.30         31.3 
      1322.0         0.42         31.4 
      1323.0         0.53         32.1 
      1324.0         0.43         33.8 
      1325.0         0.37         34.4 
      1326.0         0.33         34.0 
      1327.0         0.37         34.6 
      1328.0         0.27         35.9 
      1329.0         0.37         40.1 
      1330.0         0.48         42.8 
      1331.0         0.60         41.7 
      1332.0         0.40         31.2 
      1333.0         0.23         23.8 
      1334.0         0.13         19.9 
      1335.0         0.17         18.7 
      1336.0         0.27         17.5 
      1337.0         0.23         15.8 
      1338.0         0.43         20.0 
      1339.0         0.23         26.1 
      1340.0         0.20         29.9 
      1341.0         0.17         34.7 
      1342.0         0.17         38.3 
      1343.0         0.45         49.9 
      1344.0         0.50         60.3 
      1345.0         0.53         83.7 
      1346.0         5.97         93.3 
      1347.0         0.17         46.4 
      1348.0         0.27         46.1 
      1349.0         0.53         44.8 
      1350.0         0.50         37.1 
      1351.0         0.50         24.5 
      1352.0         0.27         12.1 
      1353.0         0.42         18.3 
      1354.0         0.20         23.3 
      1355.0         0.23         29.5 
      1356.0         0.23         33.9 
      1357.0         0.20         37.3 
      1358.0         0.23         39.5 
      1359.0         0.27         41.1 
      1360.0         0.50         44.7 
      1361.0         0.47         50.5 
      1362.0         0.50         50.5 
      1363.0         0.48         41.1 
      1364.0         0.50         28.9 
      1365.0         0.40         19.2 
      1366.0         0.20         16.2 
      1367.0         0.23         19.2 
      1368.0         0.30         25.8 
      1369.0         0.30         35.2 
      1370.0         0.27         43.5 
      1371.0         0.20         51.0 
      1372.0         0.13         55.4 
      1373.0         0.20         61.6 
      1374.0         0.53         79.0 
      1375.0         0.72        100.9 
      1376.0         7.67        162.2 
      1377.0         0.17         40.6 
      1378.0         0.43         39.2 
      1379.0         0.33         29.5 
      1380.0         0.23         18.6 
      1381.0         0.33         13.4 
      1382.0         0.38         18.0 
      1383.0         0.37         24.9 
      1384.0         0.27         29.0 
      1385.0         0.23         33.6 
      1386.0         0.30         36.5 
      1387.0         0.27         38.3 
      1388.0         0.33         39.1 
      1389.0         0.33         38.9 
      1390.0         0.30         36.9 
      1391.0         0.37         34.1 
      1392.0         0.62         30.4 
      1393.0         0.50         26.5 
      1394.0         0.53         26.1 
      1395.0         0.47         26.3 
      1396.0         0.33         26.3 
      1397.0         0.30         25.6 
      1398.0         0.33         25.3 
      1399.0         0.27         25.3 
      1400.0         0.33         25.8 
      1401.0         0.38         26.8 
      1402.0         0.60         29.3 
      1403.0         0.60         34.0 
      1404.0         0.67         44.7 
      1405.0         0.63         45.8 
      1406.0         5.10         35.8 
      1407.0         0.17         37.1 
      1408.0         0.37         38.7 
      1409.0         0.47         38.8 
      1410.0         0.37         33.4 
      1411.0         0.57         25.7 
      1412.0         0.35         15.6 
      1413.0         0.37         20.7 
      1414.0         0.37         25.9 
      1415.0         0.40         29.8 
      1416.0         0.40         31.9 
      1417.0         0.60         34.1 
      1418.0         0.37         33.3 
      1419.0         0.27         30.5 
      1420.0         0.42         28.7 
      1421.0         0.60         24.8 
      1422.0         0.63         26.5 
      1423.0         0.47         30.6 
      1424.0         0.53         34.2 
      1425.0         0.47         35.6 
      1426.0         0.50         34.9 
      1427.0         0.48         32.3 
      1428.0         0.53         26.1 
      1429.0         0.57         31.6 
      1430.0         0.50         42.0 
      1431.0         0.40         52.4 
      1432.0         0.40         62.7 
      1433.0         0.58         75.7 
      1434.0         0.60         85.6 
      1435.0         0.53         93.0 
      1436.0         7.47        127.1 
      1437.0         0.27         43.8 
      1438.0         0.87         38.3 
      1439.0         0.75         17.6 
      1440.0         0.53         22.6 
      1441.0         0.53         29.8 
      1442.0         0.37         31.2 
      1443.0         0.37         30.9 
      1444.0         0.27         29.2 
      1445.0         0.30         25.3 
      1446.0         0.23         19.1 
      1447.0         0.20         16.7 
      1448.0         0.45         15.6 
      1449.0         0.47         20.1 
      1450.0         0.33         23.1 
      1451.0         0.37         25.3 
      1452.0         0.33         28.5 
      1453.0         0.30         29.7 
      1454.0         0.43         30.0 
      1455.0         0.40         29.6 
      1456.0         0.45         28.2 
      1457.0         0.53         24.4 
      1458.0         0.60         22.1 
      1459.0         0.67         29.0 
      1460.0         0.50         36.6 
