~Version Information
VERS.                      2.0: CWLS Log ASCII Standard - VERSION 2.0
WRAP.                       NO: One line per depth step
~Well Information Block
STRT.FT                -8.0000: 
STOP.FT               918.7500: 
STEP.FT                 0.2500: 
NULL.                -999.2500: 
COMP.          Pioneer Natural Resources: COMPANY
WELL.          Sculpin 32-30 Tr: WELL
FLD.           Purgatorie River: FIELD
LOC.           1600' FNL & 1857' FEL--: LOCATION
CNTY.               Las Animas: COUNTY
SRVC.          Patterson Wireline: SERVICE COMPANY
DATE.          Thu Aug 03 08:40:45 2006: LOG DATE
UWI.           05 071 08706 00: UNIQUE WELL ID
STAT.                       CO: STATE
~Curve Information Block
DEPT.FT            0 000 00 00: Depth
CCL.                          : Casing Collar Locator
TT3.usec                      : CBL 3' Travel Time
AMP3.mV                       : CBL 3' Amplitude
GR.GAPI                       : Gamma Ray
~Parameter Information Block
~A  Depth       CCL         TT3         AMP3         GR     
# ...
   896.5000      0.0000    484.5664      3.4306    130.5956
   896.7500      0.0000    483.0955      3.4309    128.3967
   897.0000      0.0000    481.5326      3.4201    123.3613
   897.2500      0.0000    484.0934      3.4069    115.4638
   897.5000      0.0000    492.1418      3.3967    107.2538
   897.7500      0.0000    501.6690      3.3912    102.5262
   898.0000      0.0000    505.5501      3.3893    103.8267
   898.2500      0.0000    500.0415      3.3875    110.8089
   898.5000      0.0000    488.6661      3.3812    120.3417
   898.7500      0.0000    478.4461      3.3664    128.3472
   899.0000      0.0000    473.4956      3.3428    132.3960
   899.2500      0.0000    473.3553      3.3166    133.1700
   899.5000      0.0000    475.7819      3.2990    133.6529
   899.7500      0.0000    479.5963      3.2969    136.8115
   900.0000      0.0000    485.7876      3.3055    143.5125
   900.2500      0.0000    497.4279      3.3130    151.9872
   900.5000      0.0000    518.3715      3.3159    159.0566
   900.7500      0.0000    550.4514      3.3277    161.9722
   901.0000      0.0000    590.7516      3.3712    159.4737
   901.2500      0.0000    631.8255      3.4595    151.8470
   901.5000      0.0000    665.8249      3.5813    140.7051
   901.7500      0.0000    689.1089      3.7023    128.6505
   902.0000      0.0000    703.0991      3.7881    118.4277
   902.2500      0.0000    711.4865      3.8280    112.0484
   902.5000      0.0000    717.1758      3.8345    110.5209
   902.7500      0.0000    720.5843      3.8195    113.7977
   903.0000      0.0000    718.5295      3.7782    120.7001
   903.2500      0.0000    704.4407      3.7023    129.4420
   903.5000      0.0000    672.1280      3.6010    138.5170
   903.7500      0.0000    621.9984      3.5018    146.6499
   904.0000      0.0000    563.8079      3.4310    151.8842
   904.2500      0.0000    511.7979      3.3990    151.2635
   904.5000      0.0000    476.0409      3.4006    141.7005
   904.7500      0.0000    458.0273      3.4239    121.6264
   905.0000      0.0000    453.1475      3.4568     92.8818
   905.2500      0.0000    455.6813      3.4880     61.2694
   905.5000      0.0000    461.6059      3.5049     34.0087
   905.7500      0.0000    468.5414      3.4966     15.5553
   906.0000      0.0000    474.8656      3.4623      5.7710
   906.2500      0.0000    479.5533      3.4158      1.7167
   906.5000      0.0000    482.4618      3.3765      0.4054
   906.7500      0.0000    484.1806      3.3543      0.0749
   907.0000      0.0000    485.4399      3.3468      0.0099
   907.2500      0.0000    486.7062      3.3488      0.0000
   907.5000      0.0000    488.0936      3.3610   -999.2500
   907.7500      0.0000    489.3222      3.3840   -999.2500
   908.0000      0.0000    489.6567      3.4087   -999.2500
   908.2500      0.0000    488.1950      3.4165   -999.2500
   908.5000      0.0000    484.6488      3.3931   -999.2500
   908.7500      0.0000    480.1552      3.3411   -999.2500
   909.0000      0.0000    476.8106      3.2767   -999.2500
   909.2500      0.0000    475.4168      3.2097   -999.2500
   909.5000      0.0000    472.0740      3.1208   -999.2500
   909.7500      0.0000    455.8786      2.9547   -999.2500
   910.0000      0.0000    412.1920      2.6503   -999.2500
   910.2500      0.0000    334.0391      2.2003   -999.2500
   910.5000      0.0000    233.1593      1.6851   -999.2500
   910.7500      0.0000    135.8901      1.2288   -999.2500
   911.0000      0.0000     64.6891      0.9153   -999.2500
   911.2500      0.0000     24.7790      0.7479   -999.2500
   911.5000      0.0000      7.5598      0.6783   -999.2500
   911.7500      0.0000      1.8229      0.6558   -999.2500
   912.0000      0.0000      0.3435      0.6501   -999.2500
   912.2500      0.0000      0.0477      0.6490   -999.2500
   912.5000      0.0000   -999.2500   -999.2500   -999.2500
   912.7500      0.0000   -999.2500   -999.2500   -999.2500
   913.0000      0.0000   -999.2500   -999.2500   -999.2500
   913.2500      0.0000   -999.2500   -999.2500   -999.2500
   913.5000      0.0000   -999.2500   -999.2500   -999.2500
   913.7500      0.0000   -999.2500   -999.2500   -999.2500
   914.0000      0.0000   -999.2500   -999.2500   -999.2500
   914.2500      0.0000   -999.2500   -999.2500   -999.2500
   914.5000      0.0000   -999.2500   -999.2500   -999.2500
   914.7500      0.0000   -999.2500   -999.2500   -999.2500
   915.0000      0.0000   -999.2500   -999.2500   -999.2500
   915.2500      0.0000   -999.2500   -999.2500   -999.2500
   915.5000      0.0000   -999.2500   -999.2500   -999.2500
   915.7500      0.0000   -999.2500   -999.2500   -999.2500
   916.0000      0.0000   -999.2500   -999.2500   -999.2500
   916.2500      0.0000   -999.2500   -999.2500   -999.2500
   916.5000      0.0000   -999.2500   -999.2500   -999.2500
   916.7500      0.0000   -999.2500   -999.2500   -999.2500
   917.0000      0.0000   -999.2500   -999.2500   -999.2500
   917.2500      0.0000   -999.2500   -999.2500   -999.2500
   917.5000      0.0000   -999.2500   -999.2500   -999.2500
   917.7500      0.0000   -999.2500   -999.2500   -999.2500
   918.0000      0.0000   -999.2500   -999.2500   -999.2500
   918.2500   -999.2500   -999.2500   -999.2500   -999.2500
   918.5000   -999.2500   -999.2500   -999.2500   -999.2500
   918.7500   -999.2500   -999.2500   -999.2500   -999.2500
