~Version Information
VERS.                      2.0: CWLS Log ASCII Standard - VERSION 2.0
WRAP.                       NO: One line per depth step
~Well Information Block
STRT.FT                -6.5000: 
STOP.FT              1467.0000: 
STEP.FT                 0.2500: 
NULL.                -999.2500: 
COMP.          Pioneer Natural Resources: COMPANY
WELL.          Surtees 23-34 Tr: WELL
FLD.           Purgatorie River: FIELD
LOC.           1559' FSL & 1997' FWL--: LOCATION
PROV.                       CO: PROVINCE
CNTY.               Las Animas: COUNTRY
SRVC.          Patterson Wireline: SERVICE COMPANY
DATE.          Tue Aug 02 13:04:45 2005: LOG DATE
UWI.           05 071 08449 00: UNIQUE WELL ID
~Curve Information Block
DEPT.FT            0 000 00 00: Depth
CCL.                          : Casing Collar Locator
TT3.usec                      : CBL 3' Travel Time
AMP3.mV                       : CBL 3' Amplitude
GR.GAPI                       : Gamma Ray
~Parameter Information Block
~A  Depth       CCL         TT3         AMP3         GR     
# ...
   362.0000      0.0000    866.0325     10.0536     96.8731
   362.2500      0.0000    873.2795      9.9273     96.0265
   362.5000      0.0000    883.3074      9.6979     96.3974
   362.7500      0.0000    895.8215      9.3473     96.8790
   363.0000      0.0000    913.2725      8.8905     96.3652
   363.2500      0.0000    942.1891      8.3661     94.5780
   363.5000      0.0000    986.4863      7.8262     92.4130
   363.7500      0.0000   1039.4133      7.3492     90.9281
   364.0000      0.0000   1086.3539      7.0280     90.0563
   364.2500      0.0000   1116.3076      6.9018     88.7339
   364.5000     -2.0000   1128.5657      6.9135     86.3733
   364.7500      0.0000   1129.6002      6.9689     83.8868
   365.0000      0.0000   1126.1241      7.0300     82.9900
   365.2500      0.0000   1120.6913      7.1462     84.5241
   365.5000      0.0000   1112.2273      7.4099     87.5924
   365.7500      0.0000   1099.2827      7.8749     90.3002
   366.0000      0.0000   1080.9644      8.4930     91.2683
   366.2500      0.0000   1054.8361      9.1347     90.5517
   366.5000      0.0000   1018.0582      9.6932     89.2101
   366.7500      0.0000    973.0024     10.1489     88.0307
   367.0000      0.0000    928.8842     10.5218     86.8496
   367.2500      0.0000    895.3082     10.8077     85.2403
   367.5000      0.0000    875.4802     10.9902     83.5657
   367.7500      0.0000    866.3104     11.0797     82.8107
   368.0000      0.0000    862.9116     11.1127     83.3426
   368.2500      0.0000    861.8384     11.1228     84.4061
   368.5000      0.0000    861.4890     11.1264     85.1153
   368.7500      0.0000    861.2748     11.1284     85.5577
   369.0000      0.0000    860.8536     11.1314     86.5723
   369.2500      0.0000    859.7211     11.1396     88.6288
   369.5000      0.0000    857.1129     11.1591     91.2228
   369.7500      0.0000    852.3161     11.1964     93.3683
   370.0000      0.0000    845.3706     11.2544     94.6019
   370.2500      0.0000    837.4925     11.3265     95.5203
   370.5000      0.0000    830.5103     11.3981     97.1638
   370.7500      0.0000    825.6908     11.4558     99.8327
   371.0000      0.0000    823.1304     11.4941    102.8357
   371.2500      0.0000    822.1577     11.5146    105.5603
   371.5000      0.0000    822.0626     11.5223    108.2784
   371.7500      0.0000    822.4624     11.5253    111.3829
   372.0000      0.0000    823.3073     11.5349    114.1073
   372.2500      0.0000    824.8635     11.5615    114.7905
   372.5000      0.0000    827.7230     11.6095    112.6664
   372.7500      0.0000    832.5209     11.6723    108.8495
   373.0000      0.0000    839.2602     11.7324    105.0622
   373.2500      0.0000    846.8561     11.7688    101.7836
   373.5000      0.0000    853.6082     11.7690     98.3298
   373.7500      0.0000    858.2513     11.7345     94.5305
   374.0000      0.0000    860.4676     11.6783     91.3967
   374.2500      0.0000    860.5607     11.6175     89.9056
   374.5000      0.0000    859.0836     11.5671     89.7455
   374.7500      0.0000    856.8293     11.5364     89.6793
   375.0000      0.0000    854.7043     11.5271     89.0215
   375.2500      0.0000    853.3107     11.5336     88.5104
   375.5000      0.0000    852.8278     11.5450     89.5718
   375.7500      0.0000    853.2168     11.5505     92.7207
   376.0000      0.0000    853.9628     11.5453     96.8010
   376.2500      0.0000    853.5805     11.5340     99.8804
   376.5000      0.0000    850.0605     11.5266    100.8294
   376.7500      0.0000    842.3471     11.5311    100.1348
   377.0000      0.0000    831.5495     11.5491     99.4420
   377.2500      0.0000    820.8323     11.5770    100.2516
   377.5000      0.0000    813.7951     11.6112    102.6561
   377.7500      0.0000    812.1375     11.6512    105.1649
   378.0000      0.0000    814.3502     11.6990    105.8470
   378.2500      0.0000    816.9152     11.7558    103.7364
   378.5000      0.0000    817.1758     11.8194     99.3720
   378.7500      0.0000    815.2975     11.8825     94.3335
   379.0000      0.0000    813.7866     11.9331     90.3076
   379.2500      0.0000    814.9285     11.9599     88.1706
   379.5000      0.0000    818.0403     11.9625     87.5187
   379.7500      0.0000    819.3842     11.9521     87.0313
   380.0000      0.0000    815.5354     11.9388     85.5598
   380.2500      0.0000    806.7759     11.9244     83.0107
   380.5000      0.0000    796.6880     11.9089     80.2873
   380.7500      0.0000    788.8680     11.8996     78.5493
   381.0000      0.0000    784.7025     11.9103     78.4504
   381.2500      0.0000    783.8770     11.9520     79.7792
   381.5000      0.0000    785.7392     12.0231     81.6151
   381.7500      0.0000    789.5434     12.1061     82.8533
   382.0000      0.0000    793.8442     12.1756     82.7395
   382.2500      0.0000    796.8515     12.2153     81.1371
   382.5000      0.0000    797.9700     12.2274     78.4834
   382.7500      0.0000    798.1944     12.2245     75.3635
   383.0000      0.0000    798.2736     12.2146     71.8589
   383.2500      0.0000    797.3424     12.1989     67.5200
   383.5000      0.0000    794.2735     12.1797     62.4454
   383.7500      0.0000    789.5828     12.1646     58.0618
   384.0000      0.0000    785.0457     12.1624     56.0918
   384.2500      0.0000    781.9351     12.1758     56.7144
   384.5000      0.0000    780.3055     12.1995     58.3174
   384.7500      0.0000    779.5947     12.2228     59.1395
   385.0000      0.0000    779.3050     12.2357     58.7706
   385.2500      0.0000    779.1906     12.2325     58.0298
   385.5000      0.0000    779.1600     12.2131     57.7747
   385.7500      0.0000    779.1846     12.1819     57.9701
   386.0000      0.0000    779.2513     12.1452     57.8090
   386.2500      0.0000    779.3463     12.1083     56.6375
   386.5000      0.0000    779.4451     12.0748     54.5971
   386.7500      0.0000    779.5241     12.0464     52.3439
   387.0000      0.0000    779.5750     12.0239     50.4392
   387.2500      0.0000    779.6047     12.0049     49.1985
   387.5000      0.0000    779.6248     11.9827     48.8400
   387.7500      0.0000    779.6451     11.9488     49.3272
   388.0000      0.0000    779.6755     11.8998     50.0501
   388.2500      0.0000    779.7254     11.8436     50.0421
   388.5000      0.0000    779.7996     11.7965     48.7573
   388.7500      0.0000    779.8993     11.7697     46.5354
   389.0000      0.0000    780.0264     11.7584     44.2610
   389.2500      0.0000    780.1818     11.7469     42.8141
   389.5000      0.0000    780.3602     11.7260     42.9125
   389.7500      0.0000    780.5505     11.7031     45.0509
   390.0000      0.0000    780.7460     11.6938     49.0372
   390.2500      0.0000    780.9490     11.7036     53.5079
   390.5000      0.0000    781.1617     11.7206     56.4528
   390.7500      0.0000    781.3746     11.7264     56.8002
   391.0000      0.0000    781.5681     11.7134     55.4490
   391.2500      0.0000    781.7293     11.6903     54.3538
   391.5000      0.0000    781.8627     11.6713     54.5800
   391.7500      0.0000    781.9822     11.6584     55.5649
   392.0000      0.0000    782.1010     11.6364     56.1843
   392.2500      0.0000    782.2422     11.5888     56.0996
   392.5000      0.0000    782.4552     11.5175     55.9195
   392.7500      0.0000    782.7975     11.4450     56.3696
   393.0000      0.0000    783.2833     11.3942     57.5832
   393.2500      0.0000    783.8545     11.3708     59.0907
   393.5000      0.0000    784.4163     11.3633     60.1009
   393.7500      0.0000    784.9639     11.3570     59.7639
   394.0000      0.0000    785.7974     11.3453     57.6589
   394.2500      0.0000    787.7877     11.3295     54.3182
   394.5000      0.0000    792.4072     11.3129     51.0236
   394.7500      0.0000    801.0374     11.2950     48.8431
   395.0000      0.0000    813.6146     11.2718     47.8888
   395.2500      0.0000    827.8814     11.2408     47.5033
