~Version Information
VERS.                      2.0: CWLS Log ASCII Standard - VERSION 2.0
WRAP.                       NO: One line per depth step
~Well Information Block
STRT.FT                -6.2500: 
STOP.FT              2245.0000: 
STEP.FT                 0.0500: 
NULL.                -999.2500: 
COMP.          Pioneer Natural Resources: COMPANY
WELL.          Roadster 41-33 Kv: WELL
FLD.           Purgatoire River: FIELD
LOC.           903' FNL & 248' FEL--: LOCATION
PROV.                 Colorado: PROVINCE
CNTY.               Las Animas: COUNTRY
SRVC.                Patterson: SERVICE COMPANY
DATE.          Tue Jan 17 11:20:00 2006: LOG DATE
UWI.           05 071 08615 00: UNIQUE WELL ID
~Curve Information Block
DEPT.FT            0 000 00 00: Depth
CCL.                          : Casing Collar Locator
TT3.usec                      : CBL 3' Travel Time
AMP3.mV                       : CBL 3' Amplitude
GR.GAPI                       : Gamma Ray
~Parameter Information Block
~A  Depth       CCL         TT3         AMP3         GR     
# ...
  1487.8500      0.0000    672.6766      4.6232    124.5469
  1487.9000      0.0000    672.6766      4.6232    124.5469
  1487.9500      0.0000    672.6766      4.6232    124.5469
  1488.0000      0.0000    661.1127      4.7463    124.2282
  1488.0500      0.0000    661.1127      4.7463    124.2282
  1488.1000      0.0000    661.1127      4.7463    124.2282
  1488.1500      0.0000    661.1127      4.7463    124.2282
  1488.2000      0.0000    661.1127      4.7463    124.2282
  1488.2500      0.0000    656.2419      4.9110    128.6270
  1488.3000      0.0000    656.2419      4.9110    128.6270
  1488.3500      0.0000    656.2419      4.9110    128.6270
  1488.4000      0.0000    656.2419      4.9110    128.6270
  1488.4500      0.0000    656.2419      4.9110    128.6270
  1488.5000      0.0000    659.1940      5.0832    134.8683
  1488.5500      0.0000    659.1940      5.0832    134.8683
  1488.6000      0.0000    659.1940      5.0832    134.8683
  1488.6500      0.0000    659.1940      5.0832    134.8683
  1488.7000      0.0000    659.1940      5.0832    134.8683
  1488.7500      0.0000    664.3245      5.2108    138.1454
  1488.8000      0.0000    664.3245      5.2108    138.1454
  1488.8500      0.0000    664.3245      5.2108    138.1454
  1488.9000      0.0000    664.3245      5.2108    138.1454
  1488.9500      0.0000    664.3245      5.2108    138.1454
  1489.0000      0.0000    665.0286      5.2712    135.9654
  1489.0500      0.0000    665.0286      5.2712    135.9654
  1489.1000      0.0000    665.0286      5.2712    135.9654
  1489.1500      0.0000    665.0286      5.2712    135.9654
  1489.2000      0.0000    665.0286      5.2712    135.9654
  1489.2500      0.0000    660.9390      5.2839    130.1707
  1489.3000      0.0000    660.9390      5.2839    130.1707
  1489.3500      0.0000    660.9390      5.2839    130.1707
  1489.4000      0.0000    660.9390      5.2839    130.1707
  1489.4500      0.0000    660.9390      5.2839    130.1707
  1489.5000      0.0000    657.9740      5.2826    124.9504
  1489.5500      0.0000    657.9740      5.2826    124.9504
  1489.6000      0.0000    657.9740      5.2826    124.9504
  1489.6500      0.0000    657.9740      5.2826    124.9504
  1489.7000      0.0000    657.9740      5.2826    124.9504
  1489.7500      0.0000    661.5986      5.2866    123.3521
  1489.8000      0.0000    661.5986      5.2866    123.3521
  1489.8500      0.0000    661.5986      5.2866    123.3521
  1489.9000      0.0000    661.5986      5.2866    123.3521
  1489.9500      0.0000    661.5986      5.2866    123.3521
  1490.0000      0.0000    671.5941      5.2967    125.4872
  1490.0500      0.0000    671.5941      5.2967    125.4872
  1490.1000      0.0000    671.5941      5.2967    125.4872
  1490.1500      0.0000    671.5941      5.2967    125.4872
  1490.2000      0.0000    671.5941      5.2967    125.4872
  1490.2500      0.0000    683.4653      5.3052    129.4600
  1490.3000      0.0000    683.4653      5.3052    129.4600
  1490.3500      0.0000    683.4653      5.3052    129.4600
  1490.4000      0.0000    683.4653      5.3052    129.4600
  1490.4500      0.0000    683.4653      5.3052    129.4600
  1490.5000      0.0000    693.0668      5.3047    133.7286
  1490.5500      0.0000    693.0668      5.3047    133.7286
  1490.6000      0.0000    693.0668      5.3047    133.7286
  1490.6500      0.0000    693.0668      5.3047    133.7286
  1490.7000      0.0000    693.0668      5.3047    133.7286
  1490.7500      0.0000    699.0131      5.2985    138.6381
  1490.8000      0.0000    699.0131      5.2985    138.6381
  1490.8500      0.0000    699.0131      5.2985    138.6381
  1490.9000      0.0000    699.0131      5.2985    138.6381
  1490.9500      0.0000    699.0131      5.2985    138.6381
  1491.0000      0.0000    702.0324      5.3040    145.7607
  1491.0500      0.0000    702.0324      5.3040    145.7607
  1491.1000      0.0000    702.0324      5.3040    145.7607
  1491.1500      0.0000    702.0324      5.3040    145.7607
  1491.2000      0.0000    702.0324      5.3040    145.7607
  1491.2500      0.0000    703.4044      5.3342    155.6694
  1491.3000      0.0000    703.4044      5.3342    155.6694
  1491.3500      0.0000    703.4044      5.3342    155.6694
  1491.4000      0.0000    703.4044      5.3342    155.6694
  1491.4500      0.0000    703.4044      5.3342    155.6694
  1491.5000      0.0000    704.0363      5.3771    166.5246
  1491.5500      0.0000    704.0363      5.3771    166.5246
  1491.6000      0.0000    704.0363      5.3771    166.5246
  1491.6500      0.0000    704.0363      5.3771    166.5246
  1491.7000      0.0000    704.0363      5.3771    166.5246
  1491.7500      0.0000    704.3224      5.4015    175.2356
  1491.8000      0.0000    704.3224      5.4015    175.2356
  1491.8500      0.0000    704.3224      5.4015    175.2356
  1491.9000      0.0000    704.3224      5.4015    175.2356
  1491.9500      0.0000    704.3224      5.4015    175.2356
  1492.0000      0.0000    704.4391      5.3793    180.2272
  1492.0500      0.0000    704.4391      5.3793    180.2272
  1492.1000      0.0000    704.4391      5.3793    180.2272
  1492.1500      0.0000    704.4391      5.3793    180.2272
  1492.2000      0.0000    704.4391      5.3793    180.2272
  1492.2500      0.0000    704.7148      5.2947    182.7287
  1492.3000      0.0000    704.7148      5.2947    182.7287
  1492.3500      0.0000    704.7148      5.2947    182.7287
  1492.4000      0.0000    704.7148      5.2947    182.7287
  1492.4500      0.0000    704.7148      5.2947    182.7287
  1492.5000      0.0000    705.6187      5.1436    185.1492
  1492.5500      0.0000    705.6187      5.1436    185.1492
  1492.6000      0.0000    705.6187      5.1436    185.1492
  1492.6500      0.0000    705.6187      5.1436    185.1492
  1492.7000      0.0000    705.6187      5.1436    185.1492
  1492.7500      0.0000    707.2809      4.9389    188.5565
  1492.8000      0.0000    707.2809      4.9389    188.5565
  1492.8500      0.0000    707.2809      4.9389    188.5565
  1492.9000      0.0000    707.2809      4.9389    188.5565
  1492.9500      0.0000    707.2809      4.9389    188.5565
  1493.0000      0.0000    709.0123      4.7156    192.1526
  1493.0500      0.0000    709.0123      4.7156    192.1526
  1493.1000      0.0000    709.0123      4.7156    192.1526
  1493.1500      0.0000    709.0123      4.7156    192.1526
  1493.2000      0.0000    709.0123      4.7156    192.1526
  1493.2500      0.0000    709.6442      4.5224    194.6101
  1493.3000      0.0000    709.6442      4.5224    194.6101
  1493.3500      0.0000    709.6442      4.5224    194.6101
  1493.4000      0.0000    709.6442      4.5224    194.6101
  1493.4500      0.0000    709.6442      4.5224    194.6101
  1493.5000      0.0000    708.6042      4.3957    195.1894
  1493.5500      0.0000    708.6042      4.3957    195.1894
  1493.6000      0.0000    708.6042      4.3957    195.1894
  1493.6500      0.0000    708.6042      4.3957    195.1894
  1493.7000      0.0000    708.6042      4.3957    195.1894
  1493.7500      0.0000    706.4983      4.3379    194.0476
  1493.8000      0.0000    706.4983      4.3379    194.0476
  1493.8500      0.0000    706.4983      4.3379    194.0476
  1493.9000      0.0000    706.4983      4.3379    194.0476
  1493.9500      0.0000    706.4983      4.3379    194.0476
  1494.0000      0.0000    704.4682      4.3213    192.1551
  1494.0500      0.0000    704.4682      4.3213    192.1551
  1494.1000      0.0000    704.4682      4.3213    192.1551
  1494.1500      0.0000    704.4682      4.3213    192.1551
  1494.2000      0.0000    704.4682      4.3213    192.1551
  1494.2500      0.0000    703.1982      4.3130    190.2798
  1494.3000      0.0000    703.1982      4.3130    190.2798
  1494.3500      0.0000    703.1982      4.3130    190.2798
  1494.4000      0.0000    703.1982      4.3130    190.2798
  1494.4500      0.0000    703.1982      4.3130    190.2798
  1494.5000      0.0000    702.6988      4.2959    187.3306
