~Version Information
VERS.                      2.0: CWLS Log ASCII Standard - VERSION 2.0
WRAP.                       NO: One line per depth step
~Well Information Block
STRT.FT                 0.0000: 
STOP.FT              1906.7500: 
STEP.FT                 0.2500: 
NULL.                -999.2500: 
COMP.          Petrogulf Corporation: COMPANY
WELL.             Kraft 17-23R: WELL
FLD.           Purgatorie River: FIELD
LOC.           1509' FSL & 1673' FWL: LOCATION
STAT.                 Colorado: State
CNTY.               Las Animas: COUNTY
CTRY. USA : Country
SECT. 17 : Section
TOWN. 33S : Township
RANG. 67W : Range
SRVC.                Patterson: SERVICE COMPANY
DATE.          Fri Jan 06 08:59:54 2006: LOG DATE
API. 05-071-08560                         : UNIQUE WELL ID
~Curve Information Block
DEPT.FT            0 000 00 00: Depth
CCL.                          : Casing Collar Locator
TT3.usec                      : CBL 3' Travel Time
AMP3.mV                       : CBL 3' Amplitude
AMP3.mV                       : CBL 3' Amplitude
GR.GAPI                       : Gamma Ray
AMP3.mV                       : CBL 3' Amplitude
~Parameter Information Block
~A  Depth       CCL         TT3         AMP3        AMP3         GR        .AMP3    
# ...
   240.0000      0.0000    347.9107     10.7833     10.7833     83.5807     10.7833
   240.2500      0.0000    358.4225     10.6150     10.6150     85.4678     10.6150
   240.5000      0.0000    367.0919     10.5059     10.5059     88.3536     10.5059
   240.7500      0.0000    371.5299     10.4187     10.4187     92.0575     10.4187
   241.0000      0.0000    372.8277     10.3044     10.3044     96.0501     10.3044
   241.2500      0.0000    372.8458     10.1376     10.1376     99.3831     10.1376
   241.5000      0.0000    372.5919      9.9270      9.9270    101.0336      9.9270
   241.7500      0.0000    372.3680      9.6767      9.6767    100.3194      9.6767
   242.0000      0.0000    372.2586      9.3733      9.3733     97.1750      9.3733
   242.2500      0.0000    372.3159      9.0068      9.0068     92.3565      9.0068
   242.5000      0.0000    372.5081      8.6101      8.6101     87.4835      8.6101
   242.7500      0.0000    372.6909      8.2859      8.2859     84.5736      8.2859
   243.0000      0.0000    372.7281      8.1454      8.1454     84.8444      8.1454
   243.2500      0.0000    372.6905      8.2050      8.2050     87.4454      8.2050
   243.5000      0.0000    372.8096      8.3835      8.3835     89.6721      8.3835
   243.7500      0.0000    373.1673      8.5950      8.5950     89.1678      8.5950
   244.0000      0.0000    373.5850      8.8105      8.8105     86.0220      8.8105
   244.2500      0.0000    373.8554      9.0389      9.0389     82.4260      9.0389
   244.5000      0.0000    373.9435      9.2682      9.2682     80.4857      9.2682
   244.7500      0.0000    373.9221      9.4518      9.4518     80.7708      9.4518
   245.0000      0.0000    373.8401      9.5765      9.5765     82.7218      9.5765
   245.2500      0.0000    373.6763      9.7185      9.7185     85.6778      9.7185
   245.5000      0.0000    373.1943      9.9757      9.9757     89.0401      9.9757
   245.7500      0.0000    371.5248     10.3294     10.3294     91.8100     10.3294
   246.0000      0.0000    366.9783     10.6659     10.6659     92.8378     10.6659
   246.2500      0.0000    358.5588     10.9317     10.9317     91.9385     10.9317
   246.5000      0.0000    348.6656     11.1365     11.1365     90.3393     11.1365
   246.7500      0.0000    343.1483     11.2191     11.2191     89.5088     11.2191
   247.0000      0.0000    349.1757     11.0057     11.0057     89.7939     11.0057
   247.2500      0.0000    372.7657     10.3833     10.3833     90.6676     10.3833
   247.5000      0.0000    410.0392      9.6394      9.6394     91.8213      9.6394
   247.7500      0.0000    440.5401      9.3197      9.3197     93.2361      9.3197
   248.0000      0.0000    445.4697      9.4391      9.4391     94.4217      9.4391
   248.2500      0.0000    431.7339      9.5161      9.5161     94.3295      9.5161
   248.5000      0.0000    421.8807      9.4157      9.4157     92.1466      9.4157
   248.7500      0.0000    427.1342      9.2872      9.2872     88.0262      9.2872
   249.0000      0.0000    438.1900      9.1499      9.1499     83.1332      9.1499
   249.2500      2.0000    437.2303      9.0284      9.0284     78.9920      9.0284
   249.5000     -2.0000    419.8889      9.0266      9.0266     76.4174      9.0266
   249.7500      0.0000    399.2049      9.1777      9.1777     74.8906      9.1777
   250.0000      0.0000    385.6914      9.4594      9.4594     73.1902      9.4594
   250.2500      0.0000    377.5856      9.9961      9.9961     70.6982      9.9961
   250.5000      0.0000    372.4003     10.9369     10.9369     67.8946     10.9369
   250.7500      0.0000    376.6057     11.9866     11.9866     65.5986     11.9866
   251.0000      0.0000    396.3699     12.6918     12.6918     64.0249     12.6918
   251.2500      0.0000    424.4169     13.1073     13.1073     62.7499     13.1073
   251.5000      0.0000    447.7942     13.4580     13.4580     61.5137     13.4580
   251.7500      0.0000    461.9797     13.7158     13.7158     60.8214     13.7158
   252.0000      0.0000    469.1098     13.8307     13.8307     61.5982     13.8307
   252.2500      0.0000    471.3488     13.8609     13.8609     64.3067     13.8609
   252.5000      0.0000    468.7538     13.8658     13.8658     68.5393     13.8658
   252.7500      0.0000    458.6265     13.8642     13.8642     73.4325     13.8642
   253.0000      0.0000    439.3094     13.8650     13.8650     78.1609     13.8650
   253.2500      0.0000    417.5737     13.8449     13.8449     82.0157     13.8449
   253.5000      0.0000    406.5367     13.7374     13.7374     84.5845     13.7374
   253.7500      0.0000    410.8224     13.5325     13.5325     86.3318     13.5325
   254.0000      0.0000    417.7010     13.3381     13.3381     88.6039     13.3381
   254.2500      0.0000    410.2952     13.2677     13.2677     92.3873     13.2677
   254.5000      0.0000    388.1436     13.3129     13.3129     97.0268     13.3129
   254.7500      0.0000    364.3717     13.4018     13.4018    100.6013     13.4018
   255.0000      0.0000    347.5939     13.5139     13.5139    101.6677     13.5139
   255.2500      0.0000    338.1671     13.6525     13.6525    100.3790     13.6525
   255.5000      0.0000    334.0107     13.7683     13.7683     97.8403     13.7683
   255.7500      0.0000    333.0085     13.8062     13.8062     94.8173     13.8062
   256.0000      0.0000    334.2172     13.7519     13.7519     91.4536     13.7519
   256.2500      0.0000    338.4814     13.5619     13.5619     87.9350     13.5619
   256.5000      0.0000    345.9269     13.2247     13.2247     84.8766     13.2247
   256.7500      0.0000    352.4523     12.9269     12.9269     82.9899     12.9269
   257.0000      0.0000    352.3489     12.9427     12.9427     82.5462     12.9427
   257.2500      0.0000    345.7312     13.3254     13.3254     83.1671     13.3254
   257.5000      0.0000    338.3827     13.8388     13.8388     84.1817     13.8388
   257.7500      0.0000    334.1771     14.2501     14.2501     85.3245     14.2501
   258.0000      0.0000    332.5733     14.5335     14.5335     86.9547     14.5335
   258.2500      0.0000    331.9890     14.7201     14.7201     89.4111     14.7201
   258.5000      0.0000    331.8051     14.8009     14.8009     92.2297     14.8009
   258.7500      0.0000    331.9390     14.8238     14.8238     94.2437     14.8238
   259.0000      0.0000    332.4471     14.8684     14.8684     94.6197     14.8684
   259.2500      0.0000    333.8445     14.9633     14.9633     93.6525     14.9633
   259.5000      0.0000    337.0163     15.1167     15.1167     92.2813     15.1167
   259.7500      0.0000    341.3625     15.3299     15.3299     90.9527     15.3299
   260.0000      0.0000    343.5782     15.5801     15.5801     89.3637     15.5801
   260.2500      0.0000    341.3938     15.8102     15.8102     87.4130     15.8102
   260.5000      0.0000    337.0970     15.9219     15.9219     85.9771     15.9219
   260.7500      0.0000    334.0772     15.8449     15.8449     86.2377     15.8449
   261.0000      0.0000    333.0547     15.6062     15.6062     88.2744     15.6062
   261.2500      0.0000    333.2906     15.2939     15.2939     90.8250     15.2939
   261.5000      0.0000    334.6879     14.9851     14.9851     92.6021     14.9851
   261.7500      0.0000    337.9350     14.7004     14.7004     93.4003     14.7004
   262.0000      0.0000    342.6201     14.4189     14.4189     93.7001     14.4189
   262.2500      0.0000    346.1736     14.1497     14.1497     93.8279     14.1497
   262.5000      0.0000    347.3287     13.9381     13.9381     93.9807     13.9381
   262.7500      0.0000    347.9211     13.8198     13.8198     94.3984     13.8198
   263.0000      0.0000    348.8693     13.8154     13.8154     94.8131     13.8154
   263.2500      0.0000    350.9117     13.8940     13.8940     94.2499     13.8940
   263.5000      0.0000    358.7017     13.9487     13.9487     92.0404     13.9487
   263.7500      0.0000    376.9211     13.9056     13.9056     88.6365     13.9056
