~Version Information
VERS.                      2.0: CWLS Log ASCII Standard - VERSION 2.0
WRAP.                       NO: One line per depth step
~Well Information Block
STRT.FT               670.0000: 
STOP.FT              2108.5000: 
STEP.FT                 0.1000: 
NULL.                -999.2500: 
COMP.          Petrogulf Corporation: COMPANY
WELL.           Montoya 12-44R: WELL
FLD.           Purgatorie River: FIELD
LOC.           713' FSL & 798' FEL: LOCATION
PROV.                 Colorado: PROVINCE
CNTY.               Las Animas: COUNTRY
SRVC.                Patterson: SERVICE COMPANY
DATE.          Mon Oct 03 07:50:59 2005: LOG DATE
UWI.           05-071-08538               : UNIQUE WELL ID
~Curve Information Block
DEPT.FT            0 000 00 00: Depth
DCAL.in                       : CDL Caliper
RHOB.g/cc                     : CDL Bulk Density
RHOC.g/cc                     : CDL Density Correction
DPOR.pu                       : CDL Density Porosity
GR.GAPI                       : Gamma Ray
NPOR.pu                       : Neutron Porosity
~Parameter Information Block
~A  Depth       DCAL        RHOB        RHOC        DPOR         GR         NPOR    
# ...
  1524.4000      8.1261      2.5661      0.0298      5.0838    137.0183     21.1027
  1524.5000      8.1265      2.5311     -0.0381      7.2041    137.0710     20.4899
  1524.6000      8.1265      2.5243     -0.0532      7.6191    135.9821     19.6800
  1524.7000      8.1265      2.5499      0.0204      6.0685    133.6856     19.0351
  1524.8000      8.1226      2.5880     -0.0012      3.7549    133.5292     18.8614
  1524.9000      8.1226      2.6241      0.0398      1.5673    137.1503     19.2862
  1525.0000      8.1147      2.6479      0.0599      0.1246    140.6908     19.7294
  1525.1000      8.1147      2.6491      0.0778      0.0516    140.6621     19.6408
  1525.2000      8.1147      2.6296      0.0421      1.2370    138.7778     19.1977
  1525.3000      8.1209      2.6077      0.0111      2.5660    136.8544     18.7796
  1525.4000      8.1209      2.5974      0.0095      3.1891    134.9260     18.7745
  1525.5000      8.1293      2.5959      0.0071      3.2800    134.8057     19.0727
  1525.6000      8.1293      2.5973      0.0030      3.1950    136.7035     19.2403
  1525.7000      8.1293      2.6001     -0.0181      3.0268    137.6324     19.2768
  1525.8000      8.1275      2.6047     -0.0015      2.7472    135.1324     19.2242
  1525.9000      8.1275      2.6093      0.0272      2.4659    130.4338     19.1678
  1526.0000      8.1400      2.6064      0.0172      2.6408    128.0073     19.3304
  1526.1000      8.1400      2.5929      0.0193      3.4614    128.9489     19.5833
  1526.2000      8.1400      2.5758      0.0099      4.4947    130.0734     19.6181
  1526.3000      8.1169      2.5628      0.0180      5.2836    130.4042     19.4996
  1526.4000      8.1169      2.5575     -0.0474      5.6084    130.6420     19.5273
  1526.5000      8.1103      2.5616     -0.0064      5.3553    130.9850     19.7058
  1526.6000      8.1103      2.5724     -0.0055      4.7019    134.9847     19.7071
  1526.7000      8.1103      2.5827      0.0272      4.0767    140.7406     19.4597
  1526.8000      8.1158      2.5851      0.0457      3.9330    139.2703     19.2581
  1526.9000      8.1158      2.5827      0.0275      4.0792    131.7994     19.3067
  1527.0000      8.1074      2.5927     -0.0072      3.4706    127.5607     19.5719
  1527.1000      8.1074      2.6177      0.0581      1.9592    128.1216     19.7933
  1527.2000      8.1074      2.6327      0.0518      1.0506    129.8881     19.5924
  1527.3000      8.1072      2.6268      0.0186      1.4091    131.6214     19.0527
  1527.4000      8.1072      2.6142      0.0375      2.1667    133.1003     18.7002
  1527.5000      8.1135      2.6050      0.0190      2.7244    134.9224     18.6680
  1527.6000      8.1135      2.6020     -0.0251      2.9115    137.7424     18.7437
  1527.7000      8.1135      2.6022      0.0322      2.8962    140.9263     18.9392
  1527.8000      8.1086      2.5905      0.0520      3.6073    144.7888     19.3998
  1527.9000      8.1086      2.5652     -0.0029      5.1422    149.2183     20.1121
  1528.0000      8.1101      2.5458      0.0088      6.3126    153.0137     20.8508
  1528.1000      8.1101      2.5419      0.0254      6.5518    154.9473     21.3469
  1528.2000      8.1101      2.5500      0.0244      6.0578    154.2400     21.5574
  1528.3000      8.1119      2.5658      0.0265      5.1012    151.4429     21.5382
  1528.4000      8.1119      2.5796      0.0431      4.2671    150.0460     21.3510
  1528.5000      8.1085      2.5846      0.0366      3.9644    151.0854     21.2276
  1528.6000      8.1085      2.5842      0.0437      3.9872    151.8633     21.1250
  1528.7000      8.1085      2.5793      0.0342      4.2827    151.0390     20.7199
  1528.8000      8.1110      2.5689      0.0156      4.9169    149.6364     20.2288
  1528.9000      8.1110      2.5583      0.0315      5.5606    150.4636     20.1618
  1529.0000      8.1071      2.5536     -0.0158      5.8411    153.1159     20.5027
  1529.1000      8.1071      2.5573      0.0125      5.6196    152.3177     20.7027
  1529.2000      8.1071      2.5701     -0.0115      4.8455    148.6502     20.5973
  1529.3000      8.0753      2.5863      0.0453      3.8577    147.6778     20.5833
  1529.4000      8.0753      2.5941      0.0374      3.3881    149.2057     20.8587
  1529.5000      8.0732      2.5976     -0.0077      3.1787    148.7595     21.2573
  1529.6000      8.0732      2.6057      0.0439      2.6833    144.7109     21.5328
  1529.7000      8.0732      2.6085      0.0552      2.5134    139.6213     21.6082
  1529.8000      8.0742      2.5991      0.0499      3.0819    136.6885     21.6969
  1529.9000      8.0742      2.5922      0.0148      3.5053    136.6023     22.0135
  1530.0000      8.0713      2.5987      0.0805      3.1071    138.8564     22.3176
  1530.1000      8.0713      2.6119      0.0329      2.3069    143.5201     22.2964
  1530.2000      8.0713      2.6224      0.0822      1.6734    149.1870     22.1025
  1530.3000      8.0630      2.6263      0.0619      1.4385    152.8327     21.9596
  1530.4000      8.0630      2.6361      0.0444      0.8448    153.9869     21.7821
  1530.5000      8.0551      2.6516      0.1432     -0.0997    152.6094     21.6582
  1530.6000      8.0551      2.6462      0.0985      0.2303    149.8396     21.7804
  1530.7000      8.0551      2.6256      0.0334      1.4760    149.1137     21.8718
  1530.8000      8.0411      2.6209      0.0731      1.7626    150.4691     21.7193
  1530.9000      8.0411      2.6282      0.0786      1.3219    151.0620     21.4791
  1531.0000      8.0403      2.6260      0.0823      1.4517    151.1761     21.2359
  1531.1000      8.0403      2.6210      0.0268      1.7594    151.9574     20.7422
  1531.2000      8.0403      2.6264      0.0662      1.4275    150.9591     19.8238
  1531.3000      8.0408      2.6280      0.1137      1.3327    146.1680     18.8246
  1531.4000      8.0408      2.6137      0.0199      2.1998    139.9032     18.3345
  1531.5000      8.0438      2.6010      0.0163      2.9726    135.9962     18.8021
  1531.6000      8.0438      2.6055      0.0051      2.6975    136.3934     19.9925
  1531.7000      8.0438      2.6171      0.0775      1.9961    139.0794     20.9770
  1531.8000      8.0445      2.6179      0.0259      1.9464    139.2626     21.1160
  1531.9000      8.0445      2.6112      0.0619      2.3516    134.7471     20.5086
  1532.0000      8.0606      2.6080      0.0459      2.5448    128.9784     19.8590
  1532.1000      8.0606      2.6127      0.0436      2.2597    125.6210     19.6115
  1532.2000      8.0606      2.6223      0.0235      1.6782    124.2898     19.3179
  1532.3000      8.1171      2.6226      0.0587      1.6626    123.2728     18.6493
  1532.4000      8.1171      2.6033      0.0204      2.8311    123.3051     18.0048
  1532.5000      8.1489      2.5753      0.0043      4.5255    124.4202     17.7308
  1532.6000      8.1489      2.5565     -0.0314      5.6692    123.8386     17.9107
  1532.7000      8.1489      2.5492     -0.0108      6.1114    123.0577     18.3946
  1532.8000      8.1431      2.5444      0.0053      6.3997    127.8134     18.8428
  1532.9000      8.1431      2.5453     -0.0008      6.3455    136.2004     19.0506
  1533.0000      8.1345      2.5588      0.0434      5.5288    141.7914     18.9275
  1533.1000      8.1345      2.5715      0.0485      4.7604    144.3105     18.7757
  1533.2000      8.1345      2.5663      0.0399      5.0740    145.8794     19.2899
  1533.3000      8.1271      2.5453     -0.0002      6.3436    146.4728     20.3623
  1533.4000      8.1271      2.5294      0.0169      7.3084    146.2590     21.1917
  1533.5000      8.0921      2.5371      0.0031      6.8424    145.2934     21.4490
  1533.6000      8.0921      2.5630      0.0803      5.2728    143.8880     21.2779
  1533.7000      8.0921      2.5852      0.0681      3.9243    145.0397     21.0499
  1533.8000      8.0688      2.5928      0.0899      3.4640    147.7036     21.0791
  1533.9000      8.0688      2.5973      0.0147      3.1958    145.9082     21.1994
