~Version Information
 VERS.                                  2.0 : CWLS LAS VERSION
 WRAP.                                   NO : WRAPING MODE
 SWARE .                 MController 2.5.0N : SOFTWARE VERSION
~Well Information
 WELL.                        Cleaver 24-12 : WELL
 COMP.    Pioneer Natural Resources USA Inc : COMPANY
 FLD.                      Purgatoire River : FIELD
 LOC.                SE/SW Sec 12 T32S R67W : LOCATION
 DATE.                         1/05-06/2006 : DATE(S) LOGGED
 SRVC.       BLANCO Geological Services LLC : SERVICE COMPANY
 STAT.                                   CO : STATE
 CNTY.                           Las Animas : COUNTY
 CTRY.                                  USA : COUNTRY
 API.                       05-071-08634-00 : API NUMBER
 STRT.FT                             461.00 : START DEPTH
 STOP.FT                            3055.00 : STOP DEPTH
 STEP.FT                               1.00 : DEPTH INCREMENT
 NULL.                                -9999 : NULL VALUE
~Curve information
 DEPTH.FT                                   :
 ROP.MIN/FT                                 :
 GAS.UNITS                                  :
~ASCII Log data
# ...
       661.0         0.37          1.3 
       662.0         0.30          1.3 
       663.0         0.37          1.2 
       664.0         0.37          1.2 
       665.0         0.45          1.3 
       666.0         0.40          1.3 
       667.0         0.37          1.3 
       668.0         0.27          1.3 
       669.0         0.33          1.3 
       670.0         0.33          1.2 
       671.0         0.37          1.3 
       672.0         0.43          1.3 
       673.0         0.43          1.5 
       674.0         0.42          1.6 
       675.0         0.43          1.6 
       676.0         0.23          1.6 
       677.0         0.23          1.6 
       678.0         0.30          1.5 
       679.0         0.23          1.5 
       680.0         0.27          1.6 
       681.0         0.27          1.3 
       682.0         0.30          1.3 
       683.0         0.23          1.3 
       684.0         0.30          1.2 
       685.0         0.38          1.3 
       686.0         4.75          1.5 
       687.0         0.23          1.3 
       688.0         0.37          1.2 
       689.0         0.43          1.2 
       690.0         0.50          1.2 
       691.0         0.32          1.3 
       692.0         0.47          1.3 
       693.0         0.30          1.2 
       694.0         0.40          1.2 
       695.0         0.37          1.2 
       696.0         0.53          1.3 
       697.0         0.40          1.3 
       698.0         0.37          1.5 
       699.0         0.30          1.5 
       700.0         0.35          1.5 
       701.0         0.30          1.5 
       702.0         0.30          1.4 
       703.0         0.37          1.5 
       704.0         0.37          1.4 
       705.0         0.37          1.3 
       706.0         0.47          1.3 
       707.0         0.50          1.3 
       708.0         0.58          1.2 
       709.0         0.50          1.2 
       710.0         0.53          1.1 
       711.0         0.53          1.0 
       712.0         0.57          1.2 
       713.0         0.50          1.5 
       714.0         0.37          1.6 
       715.0         0.35          1.6 
       716.0         4.32          1.7 
       717.0         0.40          1.4 
       718.0         0.47          1.6 
       719.0         0.37          1.6 
       720.0         0.23          1.6 
       721.0         0.23          1.6 
       722.0         0.30          1.5 
       723.0         0.32          1.7 
       724.0         0.30          1.9 
       725.0         0.23          1.9 
       726.0         0.23          2.0 
       727.0         0.30          2.3 
       728.0         0.30          2.5 
       729.0         0.30          2.2 
       730.0         0.30          2.1 
       731.0         0.30          1.6 
       732.0         0.50          2.6 
       733.0         0.33          3.1 
       734.0         0.32          3.3 
       735.0         0.33          2.8 
       736.0         0.30          2.4 
       737.0         0.30          2.1 
       738.0         0.33          2.0 
       739.0         0.33          1.9 
       740.0         0.30          1.7 
       741.0         0.33          1.6 
       742.0         0.30          1.5 
       743.0         0.30          1.3 
       744.0         0.38          1.7 
       745.0         0.40          2.4 
       746.0         4.95          2.8 
       747.0         0.43          1.6 
       748.0         0.40          1.6 
       749.0         0.52          1.6 
       750.0         0.37          1.6 
       751.0         0.33          1.7 
       752.0         0.33          1.7 
       753.0         0.33          1.6 
       754.0         0.23          1.5 
       755.0         0.27          1.6 
       756.0         0.30          1.6 
       757.0         0.27          1.7 
       758.0         0.27          1.7 
       759.0         0.37          1.8 
       760.0         0.35          1.7 
       761.0         0.33          2.0 
       762.0         0.30          1.8 
       763.0         0.27          2.0 
       764.0         0.23          1.9 
       765.0         0.27          1.8 
       766.0         0.27          1.8 
       767.0         0.23          1.6 
       768.0         0.23          1.7 
       769.0         0.20          1.7 
       770.0         0.27          1.8 
       771.0         0.27          1.8 
       772.0         0.27          1.9 
       773.0         0.32          2.0 
       774.0         0.13          2.1 
       775.0         0.30          2.2 
       776.0         4.52          2.3 
       777.0         0.33          2.1 
       778.0         0.33          2.0 
       779.0         0.23          1.9 
       780.0         0.30          1.8 
       781.0         0.27          1.7 
       782.0         0.28          1.8 
       783.0         0.27          1.8 
       784.0         0.27          1.7 
       785.0         0.27          1.8 
       786.0         0.27          1.9 
       787.0         0.27          2.1 
       788.0         0.30          2.5 
       789.0         0.30          3.1 
       790.0         0.30          3.8 
       791.0         0.27          4.1 
       792.0         0.30          3.9 
       793.0         0.35          3.6 
       794.0         0.30          3.1 
       795.0         0.30          2.7 
       796.0         0.30          2.5 
       797.0         0.30          2.5 
       798.0         0.27          2.3 
       799.0         0.27          2.2 
       800.0         0.27          2.2 
       801.0         0.27          2.1 
       802.0         0.27          1.9 
       803.0         0.23          2.2 
       804.0         0.27          2.1 
       805.0         0.38          3.1 
       806.0         5.42          4.1 
       807.0         0.17          2.0 
       808.0         0.27          2.0 
       809.0         0.20          2.1 
       810.0         0.30          2.0 
       811.0         0.32          2.1 
       812.0         0.33          2.2 
       813.0         0.30          2.1 
       814.0         0.30          2.0 
       815.0         0.27          1.9 
       816.0         0.27          1.9 
       817.0         0.27          2.0 
       818.0         0.23          2.0 
       819.0         0.27          2.7 
       820.0         0.23          3.1 
       821.0         0.27          3.9 
       822.0         0.27          3.8 
       823.0         0.32          3.9 
       824.0         0.27          3.6 
       825.0         0.47          3.5 
       826.0         0.43          2.9 
       827.0         0.33          2.7 
       828.0         0.30          2.5 
       829.0         0.30          2.4 
       830.0         0.27          2.6 
       831.0         0.30          2.3 
       832.0         0.27          2.1 
       833.0         0.27          2.0 
       834.0         0.48          2.3 
       835.0         0.47          2.6 
       836.0         4.78          2.5 
       837.0         0.17          1.9 
       838.0         0.43          1.9 
       839.0         0.30          1.8 
       840.0         0.32          1.9 
       841.0         0.40          1.9 
       842.0         0.43          1.9 
       843.0         0.47          2.1 
       844.0         0.23          2.0 
       845.0         0.23          2.0 
       846.0         0.30          1.9 
       847.0         0.33          2.0 
       848.0         0.33          2.0 
       849.0         0.27          2.0 
       850.0         0.25          2.1 
       851.0         0.27          1.9 
       852.0         0.30          1.9 
       853.0         0.33          2.0 
       854.0         0.33          2.0 
       855.0         0.40          2.1 
       856.0         0.33          2.1 
       857.0         0.37          2.3 
       858.0         0.40          2.0 
       859.0         0.30          2.1 
       860.0         0.32          2.0 
