~Version Information
VERS.                      2.0: CWLS Log ASCII Standard - VERSION 2.0
WRAP.                       NO: One line per depth step
~Well Information Block
STRT.FT                 0.0000: 
STOP.FT              1528.0000: 
STEP.FT                 0.1000: 
NULL.                -999.2500: 
COMP.          Pioneer Natural Resources: COMPANY
WELL.             Andrew 23-15: WELL
FLD.           Purgatorie River: FIELD
LOC.           2137' FSL & 2292' FWL: LOCATION
PROV.                 Colorado: PROVINCE
CNTY.               Las Animas: COUNTRY
SRVC.                Patterson: SERVICE COMPANY
DATE.          Sat Aug 13 12:06:57 2005: LOG DATE
UWI.                          : UNIQUE WELL ID
~Curve Information Block
DEPT.FT            0 000 00 00: Depth
DCAL.in                       : CDL Caliper
RHOB.g/cc                     : CDL Bulk Density
RHOC.g/cc                     : CDL Density Correction
DPOR.pu                       : CDL Density Porosity
GR.GAPI                       : Gamma Ray
NPOR.pu                       : Neutron Porosity
~Parameter Information Block
~A  Depth       DCAL        RHOB        RHOC        DPOR         GR         NPOR    
# ...
   710.4000      8.0872      2.6492      0.3072      0.0499    147.1796     27.3223
   710.5000      8.0057      2.6382      0.2810      0.7152    142.1223     27.7431
   710.6000      8.0057      2.6140      0.2090      2.1815    135.0049     28.2723
   710.7000      8.0057      2.5839      0.1605      4.0068    131.3549     28.7529
   710.8000      8.0322      2.5592      0.1298      5.5027    131.6559     29.1831
   710.9000      8.0322      2.5418      0.0881      6.5582    133.0479     29.5485
   711.0000      8.0321      2.5247      0.0637      7.5925    134.1518     29.5945
   711.1000      8.0321      2.5138      0.0554      8.2573    135.3902     29.1890
   711.2000      8.0321      2.5270      0.0801      7.4564    136.3962     28.8075
   711.3000      8.0391      2.5679      0.1476      4.9743    138.4548     28.8384
   711.4000      8.0391      2.6202      0.1881      1.8045    140.9337     29.0476
   711.5000      7.9606      2.6705      0.1593     -1.2437    141.6367     29.1297
   711.6000      7.9606      2.7129      0.2015     -3.8111    141.6168     29.0619
   711.7000      7.9606      2.7389      0.2036     -5.3888    141.8918     28.9360
   711.8000      7.9249      2.7483      0.1747     -5.9574    141.4546     28.8274
   711.9000      7.9249      2.7436      0.2049     -5.6742    140.2762     28.7916
   712.0000      7.9936      2.7234      0.1365     -4.4481    141.5837     28.6303
   712.1000      7.9936      2.6957      0.1041     -2.7711    145.6144     28.0167
   712.2000      7.9936      2.6635      0.0703     -0.8184    146.7182     27.2268
   712.3000      7.9315      2.6204      0.0187      1.7964    143.9035     26.7693
   712.4000      7.9315      2.5764     -0.0168      4.4580    142.0759     26.5355
   712.5000      7.9539      2.5517      0.0033      5.9571    143.8286     26.4289
   712.6000      7.9539      2.5435      0.0998      6.4569    147.3019     26.5947
   712.7000      7.9539      2.5297      0.0719      7.2927    148.9241     26.7573
   712.8000      8.0494      2.5062      0.0539      8.7127    147.2569     26.6749
   712.9000      8.0494      2.4895      0.0281      9.7291    144.2365     26.6261
   713.0000      8.0375      2.4847      0.0694     10.0168    142.2655     26.7571
   713.1000      8.0375      2.4841      0.0294     10.0572    142.9338     26.8184
   713.2000      8.0375      2.4916      0.0544      9.6010    146.1752     26.7587
   713.3000      8.0019      2.5149      0.0686      8.1882    150.5464     26.8310
   713.4000      8.0019      2.5429      0.1187      6.4881    154.9490     27.1390
   713.5000      7.9693      2.5535      0.1426      5.8462    157.0272     27.4071
   713.6000      7.9693      2.5428      0.1340      6.4988    154.4774     27.4373
   713.7000      7.9693      2.5322      0.0894      7.1373    148.4853     27.5533
   713.8000      7.9632      2.5427      0.0977      6.5015    142.4362     28.0617
   713.9000      7.9632      2.5773      0.0947      4.4072    138.0965     28.7029
   714.0000      7.9391      2.6240      0.1548      1.5769    133.7688     29.2407
   714.1000      7.9391      2.6738      0.1257     -1.4395    128.9833     29.6884
   714.2000      7.9391      2.7251      0.1812     -4.5517    127.5587     29.9512
   714.3000      7.9524      2.7639      0.1883     -6.9042    130.6842     29.9199
   714.4000      7.9524      2.7736      0.1568     -7.4896    133.3255     29.6838
   714.5000      7.9695      2.7570      0.1417     -6.4842    132.3016     29.4364
   714.6000      7.9695      2.7319      0.0962     -4.9634    130.7658     29.2979
   714.7000      7.9695      2.7106      0.1162     -3.6729    132.8038     29.1103
   714.8000      7.9449      2.6903      0.0990     -2.4401    137.3547     28.6223
   714.9000      7.9449      2.6680      0.0612     -1.0921    140.9328     28.0898
   715.0000      7.9260      2.6431      0.0529      0.4164    141.9680     27.7841
   715.1000      7.9260      2.6092      0.0784      2.4745    142.6450     27.4698
   715.2000      7.9260      2.5687      0.0517      4.9255    145.8111     27.3282
   715.3000      8.0019      2.5403      0.0179      6.6466    148.4349     27.5873
   715.4000      8.0019      2.5365      0.0802      6.8763    149.0002     27.7849
   715.5000      8.0293      2.5577      0.0674      5.5945    150.6607     27.5811
   715.6000      8.0293      2.5886      0.1719      3.7233    151.6358     27.2298
   715.7000      8.0293      2.5974      0.1677      3.1909    149.4270     27.2089
   715.8000      8.0405      2.5755      0.1380      4.5170    146.8861     27.5430
   715.9000      8.0405      2.5468      0.1044      6.2538    146.3262     27.8256
   716.0000      8.0387      2.5322      0.1069      7.1373    147.3681     27.9285
   716.1000      8.0387      2.5397      0.0588      6.6842    148.3690     28.0832
   716.2000      8.0387      2.5690      0.0937      4.9095    148.8281     28.4230
   716.3000      8.0257      2.5996      0.1488      3.0544    149.9189     28.7756
   716.4000      8.0257      2.6105      0.1454      2.3950    150.3235     28.8573
   716.5000      8.0271      2.6038      0.1228      2.8023    149.8279     28.5816
   716.6000      8.0271      2.5855      0.1464      3.9091    150.2958     28.2488
   716.7000      8.0271      2.5556      0.1114      5.7198    148.8753     28.1013
   716.8000      8.0310      2.5237      0.0529      7.6524    143.1519     27.8699
   716.9000      8.0310      2.4996      0.0806      9.1124    138.7966     27.5092
   717.0000      8.0302      2.4716      0.0802     10.8124    138.5432     27.1328
   717.1000      8.0302      2.4209      0.1104     13.8874    138.0556     26.6351
   717.2000      8.0302      2.3576      0.0188     17.7232    137.4360     26.1236
   717.3000      8.0436      2.3127      0.0827     20.4440    139.1862     25.7476
   717.4000      8.0436      2.2940      0.0834     21.5737    142.6915     25.4371
   717.5000      8.0770      2.2909      0.1221     21.7611    145.9913     25.0087
   717.6000      8.0770      2.2948      0.2179     21.5289    148.6370     24.4921
   717.7000      8.0770      2.3043      0.2229     20.9498    150.9937     24.2188
   717.8000      8.0654      2.3311      0.2116     19.3285    151.4012     24.3217
   717.9000      8.0654      2.3783      0.2856     16.4665    149.4324     24.7878
   718.0000      8.0563      2.4279      0.2964     13.4619    146.3457     25.6490
   718.1000      8.0563      2.4660      0.2349     11.1512    143.1048     26.7773
   718.2000      8.0563      2.4953      0.2007      9.3749    142.5247     27.9016
   718.3000      8.1164      2.5228      0.2177      7.7071    144.9967     28.6857
   718.4000      8.1164      2.5429      0.2494      6.4933    145.6687     28.9329
   718.5000      8.2368      2.5443      0.1735      6.4084    143.1979     29.0822
   718.6000      8.2368      2.5372      0.1541      6.8363    142.3317     29.5900
   718.7000      8.2368      2.5379      0.0943      6.7931    144.1148     30.0153
   718.8000      8.0857      2.5449      0.1104      6.3724    144.1113     29.8147
   718.9000      8.0857      2.5471      0.1527      6.2388    143.6364     29.3359
   719.0000      8.0701      2.5454      0.1033      6.3402    148.0406     29.0258
   719.1000      8.0701      2.5499      0.1341      6.0649    155.2361     28.8656
   719.2000      8.0701      2.5619      0.1394      5.3365    157.8282     28.6905
   719.3000      8.0879      2.5766      0.1501      4.4506    154.4038     28.3863
   719.4000      8.0879      2.5855      0.1987      3.9106    151.6837     28.0829
   719.5000      8.1028      2.5814      0.1831      4.1583    154.3513     28.0152
   719.6000      8.1028      2.5703      0.1621      4.8324    157.9827     28.2688
   719.7000      8.1028      2.5632      0.1254      5.2579    158.4234     28.5666
   719.8000      8.1218      2.5607      0.1544      5.4151    159.2021     28.6141
   719.9000      8.1218      2.5580      0.1339      5.5780    161.2738     28.4819
