~Version Information
VERS.                      2.0: CWLS Log ASCII Standard - VERSION 2.0
WRAP.                       NO: One line per depth step
~Well Information Block
STRT.FT              1585.0000: 
STOP.FT              2353.0000: 
STEP.FT                 0.2500: 
NULL.                -999.2500: 
COMP.          XTO Energy Inc.: COMPANY
WELL.          Hill Ranch 15-11: WELL
FLD.           Purgatrorie River: FIELD
LOC.           1862' FSL & 1801' FWL: LOCATION
STAT.                       CO: State
CNTY.               Las Animas: COUNTY
CTRY. USA : Country
SECT. 15 : Section
TOWN. 35S : Township
RANG. 67W : Range
SRVC.          Patterson Wireline: SERVICE COMPANY
DATE.          Thu Dec 08 10:20:02 2005: LOG DATE
API.              05 071 08472: UNIQUE WELL ID
~Curve Information Block
DEPT.FT            0 000 00 00: Depth
CCL.                          : Casing Collar Locator
TT3.usec                      : CBL 3' Travel Time
AMP3.mV                       : CBL 3' Amplitude
BONDIX.                       : CBL Bond Index
GR.GAPI                       : Gamma Ray
~Parameter Information Block
~A  Depth       CCL         TT3         AMP3       BONDIX        GR     
# ...
  1837.0000      0.0000    707.1390      2.3537      0.8120    106.5965
  1837.2500      0.0000    708.7832      2.3519      0.8121    105.9450
  1837.5000      0.0000    711.9221      2.3570      0.8116    102.5407
  1837.7500      0.0000    715.1902      2.3719      0.8103     98.6138
  1838.0000      0.0000    718.2525      2.3996      0.8077     96.4781
  1838.2500      0.0000    721.3400      2.4399      0.8040     96.4926
  1838.5000      0.0000    723.8110      2.4884      0.7997     97.0286
  1838.7500      0.0000    724.0292      2.5364      0.7955     96.1304
  1839.0000      0.0000    720.8063      2.5738      0.7923     93.1433
  1839.2500      0.0000    714.8464      2.5941      0.7906     88.9266
  1839.5000      0.0000    708.8503      2.5975      0.7903     84.6802
  1839.7500      0.0000    705.9001      2.5898      0.7909     80.8973
  1840.0000      0.0000    707.0389      2.5787      0.7919     77.6648
  1840.2500      0.0000    710.2876      2.5687      0.7927     75.5161
  1840.5000      0.0000    712.4009      2.5607      0.7934     75.2339
  1840.7500      0.0000    711.7579      2.5530      0.7941     76.6597
  1841.0000      0.0000    709.4590      2.5441      0.7949     78.1508
  1841.2500      0.0000    707.7753      2.5325      0.7959     77.7467
  1841.5000      0.0000    707.9506      2.5151      0.7974     75.0662
  1841.7500      0.0000    709.6188      2.4875      0.7998     71.8120
  1842.0000      0.0000    711.9758      2.4470      0.8034     70.1675
  1842.2500      0.0000    714.9046      2.3952      0.8081     70.9471
  1842.5000      0.0000    718.6108      2.3406      0.8132     73.3359
  1842.7500      0.0000    722.5543      2.2955      0.8175     75.8864
  1843.0000      0.0000    725.4830      2.2699      0.8199     77.4901
  1843.2500      0.0000    726.7504      2.2675      0.8201     77.7852
  1843.5000      0.0000    727.2473      2.2855      0.8184     77.0483
  1843.7500      0.0000    728.6085      2.3183      0.8153     75.8034
  1844.0000      0.0000    731.3010      2.3582      0.8115     74.5100
  1844.2500      0.0000    733.8984      2.3933      0.8083     73.5565
  1844.5000      0.0000    734.7225      2.4103      0.8067     73.2659
  1844.7500      0.0000    733.7723      2.4017      0.8075     73.5495
  1845.0000      0.0000    732.0851      2.3705      0.8104     73.5955
  1845.2500      0.0000    729.3143      2.3277      0.8144     72.4568
  1845.5000      0.0000    723.3993      2.2841      0.8185     70.3538
  1845.7500      0.0000    713.2515      2.2467      0.8222     69.0281
  1846.0000      0.0000    700.6119      2.2187      0.8249     70.2565
  1846.2500      0.0000    688.6638      2.2014      0.8266     73.9925
  1846.5000      0.0000    679.8107      2.1952      0.8273     78.2860
  1846.7500      0.0000    674.9650      2.1992      0.8269     81.0299
  1847.0000      0.0000    673.6879      2.2132      0.8255     81.5221
  1847.2500      0.0000    674.4507      2.2377      0.8231     80.4944
  1847.5000      0.0000    675.4649      2.2721      0.8197     79.2089
  1847.7500      0.0000    675.7265      2.3140      0.8157     78.6471
  1848.0000      0.0000    675.2166      2.3586      0.8115     79.0518
  1848.2500      0.0000    674.2973      2.3986      0.8078     79.9270
  1848.5000      0.0000    673.2014      2.4275      0.8052     80.5906
  1848.7500      0.0000    671.9868      2.4436      0.8037     80.8950
  1849.0000      0.0000    670.6952      2.4518      0.8030     81.5041
  1849.2500      0.0000    669.4891      2.4588      0.8024     83.3451
  1849.5000      0.0000    668.7986      2.4671      0.8016     86.5234
  1849.7500      0.0000    669.4467      2.4753      0.8009     89.8489
  1850.0000      0.0000    672.4362      2.4823      0.8003     91.9461
  1850.2500      0.0000    678.1061      2.4897      0.7996     92.9692
  1850.5000      0.0000    685.1618      2.4982      0.7989     94.6486
  1850.7500      0.0000    690.9069      2.5060      0.7982     98.2533
  1851.0000      0.0000    693.1083      2.5113      0.7977    103.0130
  1851.2500      0.0000    691.7752      2.5162      0.7973    107.0297
  1851.5000      0.0000    689.0789      2.5274      0.7963    109.3762
  1851.7500      0.0000    688.0262      2.5544      0.7940    110.8081
  1852.0000      0.0000    691.4225      2.6058      0.7896    112.6400
  1852.2500      0.0000    700.9365      2.6863      0.7829    115.4277
  1852.5000      0.0000    715.4207      2.7987      0.7739    118.7367
  1852.7500      0.0000    729.8520      2.9467      0.7626    121.7482
  1853.0000      0.0000    737.5726      3.1309      0.7493    123.8196
  1853.2500      0.0000    735.2740      3.3336      0.7355    124.6656
  1853.5000      0.0000    725.9825      3.5120      0.7240    124.5768
  1853.7500      0.0000    716.7927      3.6171      0.7176    124.7069
  1854.0000      0.0000    713.7184      3.6264      0.7170    126.7763
  1854.2500      0.0000    718.4916      3.5553      0.7213    132.0037
  1854.5000      0.0000    728.9019      3.4404      0.7286    140.0005
  1854.7500      0.0000    740.5753      3.3135      0.7368    148.4659
  1855.0000      0.0000    748.6463      3.1907      0.7451    154.0124
  1855.2500      0.0000    749.9373      3.0762      0.7531    153.7063
  1855.5000      0.0000    745.0677      2.9727      0.7607    146.4567
  1855.7500      0.0000    737.8063      2.8865      0.7671    133.5929
  1856.0000      0.0000    731.3843      2.8230      0.7720    118.2742
  1856.2500      0.0000    725.6485      2.7805      0.7753    103.8865
  1856.5000      0.0000    718.2582      2.7496      0.7778     92.4914
  1856.7500      0.0000    708.4471      2.7200      0.7802     84.5416
  1857.0000      0.0000    698.9036      2.6892      0.7827     79.7807
  1857.2500      0.0000    693.4673      2.6631      0.7848     78.0672
  1857.5000      0.0000    693.5073      2.6494      0.7859     79.2818
  1857.7500      0.0000    697.5170      2.6497      0.7859     82.8119
  1858.0000      0.0000    703.7778      2.6557      0.7854     87.4725
  1858.2500      0.0000    711.4742      2.6531      0.7856     91.9159
  1858.5000      0.0000    718.8252      2.6319      0.7874     95.0391
  1858.7500      0.0000    722.3652      2.5946      0.7905     96.3375
  1859.0000      0.0000    719.6556      2.5537      0.7940     96.1700
  1859.2500      0.0000    712.0485      2.5211      0.7969     95.5238
  1859.5000      0.0000    704.0724      2.5004      0.7987     95.3718
  1859.7500      0.0000    700.1765      2.4873      0.7998     96.4761
  1860.0000      0.0000    701.8814      2.4780      0.8006     99.6415
  1860.2500      0.0000    707.6746      2.4783      0.8006    105.3953
  1860.5000      0.0000    715.5890      2.5042      0.7983    113.1879
  1860.7500      0.0000    725.4022      2.5697      0.7927    121.4218
  1861.0000      0.0000    737.7781      2.6765      0.7837    128.5938
  1861.2500      0.0000    751.8334      2.8186      0.7723    134.1359
  1861.5000      0.0000    764.5285      2.9946      0.7590    138.0136
  1861.7500      0.0000    772.4706      3.2091      0.7438    139.8999
  1862.0000      0.0000    774.3683      3.4601      0.7273    139.2874
  1862.2500      0.0000    772.3774      3.7337      0.7106    136.7533
  1862.5000      0.0000    770.8710      4.0123      0.6948    134.5500
  1862.7500      0.0000    773.2144      4.2871      0.6802    134.8974
  1863.0000      0.0000    779.8850      4.5514      0.6671    137.6557
  1863.2500      0.0000    789.1951      4.7848      0.6561    140.4733
  1863.5000      0.0000    797.7502      4.9612      0.6481    141.0963
  1863.7500      0.0000    800.6173      5.0926      0.6424    138.9202
  1864.0000      0.0000    794.9905      5.2453      0.6359    134.6596
  1864.2500      0.0000    785.1499      5.4698      0.6267    129.2447
  1864.5000      0.0000    781.2004      5.7260      0.6166    123.0885
  1864.7500      0.0000    791.0099      5.9237      0.6092    116.1839
