~Version Information
VERS.                      2.0: CWLS Log ASCII Standard - VERSION 2.0
WRAP.                       NO: One line per depth step
~Well Information Block
STRT.FT               795.0000: 
STOP.FT              2279.7500: 
STEP.FT                 0.2500: 
NULL.                -999.2500: 
COMP.          Pioneer Natural Resources: COMPANY
WELL.            Wildcard 31-5: WELL
FLD.           Purgatoire River: FIELD
LOC.           624' FNL & 1852' FEL--: LOCATION
CNTY.               Las Animas: COUNTY
SRVC.                Patterson: SERVICE COMPANY
DATE.          Tue Mar 07 07:02:36 2006: LOG DATE
UWI.           05 071 08707 00: UNIQUE WELL ID
STAT.                 Colorado: STATE
~Curve Information Block
DEPT.FT            0 000 00 00: Depth
DIR.Ohm-m                     : IEL Induction Resistivity
SN.Ohm-m                      : IEL Short Normal
SP.mV                         : IEL Spontaneous Potential
GR.GAPI                       : Gamma Ray
~Parameter Information Block
~A  Depth       DIR          SN          SP          GR     
# ...
  1465.0000     13.9353     13.4097   -149.7332    127.5185
  1465.2500     14.9881     14.0796   -149.8493    120.7210
  1465.5000     15.9852     14.7120   -149.9865    109.6998
  1465.7500     16.8057     15.2591   -150.1142    103.2532
  1466.0000     17.3394     15.6815   -150.1890     97.5085
  1466.2500     17.5359     15.9579   -150.1656     96.9306
  1466.5000     17.4272     16.0898   -150.0105    101.0831
  1466.7500     17.1056     16.0956   -149.7125    107.0958
  1467.0000     16.6818     16.0023   -149.2875    119.5900
  1467.2500     16.2548     15.8453   -148.7744    128.0511
  1467.5000     15.9005     15.6730   -148.2251    136.0366
  1467.7500     15.6711     15.5392   -147.6909    136.7835
  1468.0000     15.5966     15.4835   -147.2106    133.4852
  1468.2500     15.6863     15.5163   -146.8032    131.2534
  1468.5000     15.9291     15.6224   -146.4663    130.4306
  1468.7500     16.2894     15.7690   -146.1802    130.7573
  1469.0000     16.7003     15.9103   -145.9149    129.9927
  1469.2500     17.0597     15.9898   -145.6382    128.0841
  1469.5000     17.2443     15.9524   -145.3229    123.9073
  1469.7500     17.1505     15.7667   -144.9517    120.9887
  1470.0000     16.7438     15.4435   -144.5196    117.6804
  1470.2500     16.0791     15.0333   -144.0349    116.9989
  1470.5000     15.2710     14.6040   -143.5175    119.3817
  1470.7500     14.4419     14.2126   -142.9958    123.3348
  1471.0000     13.6846     13.8891   -142.5026    132.1257
  1471.2500     13.0513     13.6339   -142.0704    139.3220
  1471.5000     12.5604     13.4314   -141.7269    151.0269
  1471.7500     12.2092     13.2684   -141.4907    158.5660
  1472.0000     11.9859     13.1458   -141.3695    167.4944
  1472.2500     11.8814     13.0780   -141.3594    170.6132
  1472.5000     11.8962     13.0891   -141.4457    169.5291
  1472.7500     12.0431     13.2118   -141.6055    164.8642
  1473.0000     12.3426     13.4803   -141.8105    153.1505
  1473.2500     12.8150     13.9158   -142.0300    143.4997
  1473.5000     13.4704     14.5064   -142.2341    129.2596
  1473.7500     14.2962     15.1947   -142.3962    121.7310
  1474.0000     15.2435     15.8849   -142.4949    115.1141
  1474.2500     16.2165     16.4714   -142.5161    113.5317
  1474.5000     17.0787     16.8756   -142.4538    113.2942
  1474.7500     17.6864     17.0695   -142.3105    113.3689
  1475.0000     17.9438     17.0732   -142.0964    113.6048
  1475.2500     17.8462     16.9330   -141.8285    114.7598
  1475.5000     17.4761     16.7001   -141.5281    119.0102
  1475.7500     16.9592     16.4184   -141.2190    122.6971
  1476.0000     16.4150     16.1208   -140.9246    126.7060
  1476.2500     15.9284     15.8302   -140.6660    127.5292
  1476.5000     15.5451     15.5640   -140.4599    127.0527
  1476.7500     15.2799     15.3382   -140.3177    126.7591
  1477.0000     15.1283     15.1686   -140.2446    127.3521
  1477.2500     15.0767     15.0679   -140.2401    128.2862
  1477.5000     15.1112     15.0444   -140.2987    129.7722
  1477.7500     15.2238     15.1060   -140.4112    130.3458
  1478.0000     15.4153     15.2640   -140.5664    129.5200
  1478.2500     15.6922     15.5310   -140.7527    127.1270
  1478.5000     16.0603     15.9154   -140.9599    120.2323
  1478.7500     16.5176     16.4112   -141.1799    114.0227
  1479.0000     17.0474     16.9883   -141.4071    104.5103
  1479.2500     17.6141     17.5880   -141.6376     99.1170
  1479.5000     18.1634     18.1327   -141.8682     92.6056
  1479.7500     18.6304     18.5518   -142.0954     88.7278
  1480.0000     18.9535     18.8071   -142.3135     83.0872
  1480.2500     19.0895     18.9009   -142.5145     79.7564
  1480.5000     19.0242     18.8627   -142.6875     76.1051
  1480.7500     18.7741     18.7238   -142.8198     74.6618
  1481.0000     18.3799     18.4982   -142.8989     73.9830
  1481.2500     17.8912     18.1828   -142.9140     74.6408
  1481.5000     17.3502     17.7751   -142.8586     77.1148
  1481.7500     16.7832     17.2910   -142.7318     79.1466
  1482.0000     16.2009     16.7617   -142.5388     81.6782
  1482.2500     15.6041     16.2129   -142.2901     83.1087
  1482.5000     14.9889     15.6484   -142.0002     86.6775
  1482.7500     14.3523     15.0540   -141.6851     91.4338
  1483.0000     13.6988     14.4153   -141.3602    102.9162
  1483.2500     13.0455     13.7352   -141.0390    112.0069
  1483.5000     12.4227     13.0460   -140.7326    123.2146
  1483.7500     11.8696     12.4101   -140.4497    127.1800
  1484.0000     11.4250     11.9051   -140.1976    128.4329
  1484.2500     11.1172     11.5937   -139.9828    128.2709
  1484.5000     10.9565     11.4904   -139.8115    130.5560
  1484.7500     10.9333     11.5501   -139.6891    134.7962
  1485.0000     11.0222     11.6919   -139.6192    143.1737
  1485.2500     11.1932     11.8487   -139.6033    147.2825
  1485.5000     11.4232     12.0090   -139.6396    147.4141
  1485.7500     11.7044     12.2231   -139.7231    143.6397
  1486.0000     12.0424     12.5684   -139.8465    135.8711
  1486.2500     12.4484     13.0952   -140.0011    131.3466
  1486.5000     12.9307     13.7838   -140.1785    126.4012
  1486.7500     13.4869     14.5454   -140.3717    123.7968
  1487.0000     14.1003     15.2717   -140.5765    120.4334
  1487.2500     14.7389     15.8931   -140.7919    118.8828
  1487.5000     15.3613     16.3962   -141.0194    118.2592
  1487.7500     15.9269     16.7950   -141.2626    118.7372
  1488.0000     16.4077     17.0972   -141.5251    118.9583
  1488.2500     16.7932     17.3009   -141.8092    117.4670
  1488.5000     17.0867     17.4110   -142.1138    111.9701
  1488.7500     17.2961     17.4470   -142.4332    106.9438
  1489.0000     17.4249     17.4312   -142.7567     99.9686
  1489.2500     17.4707     17.3747   -143.0689     96.9933
  1489.5000     17.4310     17.2771   -143.3519     96.0287
  1489.7500     17.3134     17.1404   -143.5876     97.6312
  1490.0000     17.1395     16.9812   -143.7605    102.0207
  1490.2500     16.9420     16.8275   -143.8610    104.7364
  1490.5000     16.7572     16.7077   -143.8864    106.2375
  1490.7500     16.6170     16.6400   -143.8411    105.6432
  1491.0000     16.5436     16.6280   -143.7358    104.5680
  1491.2500     16.5453     16.6602   -143.5844    104.5573
  1491.5000     16.6153     16.7184   -143.4017    104.8160
  1491.7500     16.7351     16.7876   -143.2011    104.3342
  1492.0000     16.8814     16.8624   -142.9935    102.3670
  1492.2500     17.0341     16.9522   -142.7876    100.5759
  1492.5000     17.1828     17.0834   -142.5908     97.2151
  1492.7500     17.3307     17.2895   -142.4106     94.0150
  1493.0000     17.4929     17.5835   -142.2554     86.9066
  1493.2500     17.6896     17.9374   -142.1342     80.7280
  1493.5000     17.9353     18.2939   -142.0558     70.6809
  1493.7500     18.2307     18.5996   -142.0278     64.6546
  1494.0000     18.5585     18.8319   -142.0549     58.6297
  1494.2500     18.8883     18.9997   -142.1385     57.3072
  1494.5000     19.1857     19.1262   -142.2764     58.8674
  1494.7500     19.4241     19.2331   -142.4638     61.1067
  1495.0000     19.5920     19.3344   -142.6937     64.1233
  1495.2500     19.6943     19.4373   -142.9586     65.1569
  1495.5000     19.7493     19.5446   -143.2514     64.7726
  1495.7500     19.7837     19.6558   -143.5666     63.3123
  1496.0000     19.8253     19.7700   -143.9004     60.2094
  1496.2500     19.8935     19.8850   -144.2513     58.3925
  1496.5000     19.9913     19.9971   -144.6193     57.2346
  1496.7500     20.1056     20.1001   -145.0056     57.6027
  1497.0000     20.2150     20.1860   -145.4115     59.0815
  1497.2500     20.3023     20.2445   -145.8377     60.1646
  1497.5000     20.3630     20.2647   -146.2831     61.8081
  1497.7500     20.4069     20.2386   -146.7441     63.2932
  1498.0000     20.4487     20.1612   -147.2147     66.6768
  1498.2500     20.4944     20.0297   -147.6856     69.4784
