~Version Information
VERS.                      2.0: CWLS Log ASCII Standard - VERSION 2.0
WRAP.                       NO: One line per depth step
~Well Information Block
STRT.FT                 0.0000: 
STOP.FT              2072.7500: 
STEP.FT                 0.2500: 
NULL.                -999.2500: 
COMP.          Pioneer Natural Resources: COMPANY
WELL.          Greenwood 43-29 Tr: WELL
FLD.           Purgatorie River: FIELD
LOC.           1478' FSL & 744' FEL: LOCATION
STAT.                 Colorado: State
CNTY.               Las Animas: COUNTY
CTRY. USA : Country
SECT. 29 : Section
TOWN. 32S : Township
RANG. 67W : Range
SRVC.                Patterson: SERVICE COMPANY
DATE.          Tue Sep 06 12:54:40 2005: LOG DATE
API. 05-071-08478                          : UNIQUE WELL ID
~Curve Information Block
DEPT.FT            0 000 00 00: Depth
GR.GAPI                       : Gamma Ray
CCL.                          : Casing Collar Locator
TT3.usec                      : CBL 3' Travel Time
AMP3.mV                       : CBL 3' Amplitude
~Parameter Information Block
~A  Depth        GR         CCL         TT3         AMP3    
# ...
   134.0000     57.4844      0.0000    355.9930     17.8296
   134.2500     53.1189      0.0000    348.8552     17.8650
   134.5000     48.7034      0.0000    334.7797     17.9010
   134.7500     45.3856      0.0000    324.7923     17.9037
   135.0000     43.7900      0.0000    320.9341     17.8805
   135.2500     44.0335      0.0000    320.0232     17.8693
   135.5000     45.5934      0.0000    319.7874     17.8871
   135.7500     47.3765      0.0000    319.5684     17.9239
   136.0000     48.3277      0.0000    319.3222     17.9819
   136.2500     48.1369      0.0000    319.1141     18.0810
   136.5000     47.2583      0.0000    318.9628     18.2376
   136.7500     46.3185      0.0000    318.8001     18.4485
   137.0000     45.6805      0.0000    318.5753     18.6779
   137.2500     45.3874      0.0000    318.3495     18.8748
   137.5000     45.2218      0.0000    318.2212     19.0057
   137.7500     44.8932      0.0000    318.2202     19.0585
   138.0000     44.3101      0.0000    318.3252     19.0357
   138.2500     43.6989      0.0000    318.4980     18.9482
   138.5000     43.5354      0.0000    318.6708     18.8128
   138.7500     44.3602      0.0000    318.7843     18.6590
   139.0000     46.3457      0.0000    318.8434     18.5263
   139.2500     48.8887      0.0000    318.8527     18.4534
   139.5000     50.9161      0.0000    318.7862     18.4399
   139.7500     51.7865      0.0000    318.7145     18.4139
   140.0000     51.7725      0.0000    318.7969     18.2972
   140.2500     51.6487      0.0000    319.0692     18.0917
   140.5000     51.9785      0.0000    319.3984     17.8504
   140.7500     52.7989      0.0000    319.6600     17.6079
   141.0000     53.7317      0.0000    319.8237     17.3786
   141.2500     54.2141      0.0000    319.9031     17.1854
   141.5000     53.7555      0.0000    319.9329     17.0579
   141.7500     52.2046      0.0000    319.9604     17.0109
   142.0000     49.8745      0.0000    319.9997     17.0366
   142.2500     47.5256      0.0000    320.0257     17.1030
   142.5000     46.1812      0.0000    320.0407     17.1524
   142.7500     46.6883      0.0000    320.1049     17.1304
   143.0000     49.1071      0.0000    320.2444     17.0308
   143.2500     52.4175      0.0000    320.3712     16.9027
   143.5000     54.9373      0.0000    320.3682     16.8082
   143.7500     55.3007      0.0000    320.2132     16.7749
   144.0000     53.3199      0.0000    319.9759     16.7947
   144.2500     50.1217      0.0000    319.7581     16.8476
   144.5000     47.4435      0.0000    319.7036     16.9153
   144.7500     46.5172      0.0000    320.2943     16.9833
   145.0000     47.3329      0.0000    324.3678     17.0386
   145.2500     48.8207      0.0000    341.6670     17.0702
   145.5000     49.7899      0.0000    386.2242     17.0740
   145.7500     49.8401      0.0000    449.8104     17.0541
   146.0000     49.4509      0.0000    485.8463     17.0168
   146.2500     49.2597      0.0000    464.2672     16.9659
   146.5000     49.4304      0.0000    417.2220     16.9078
   146.7500     49.8235      0.0000    385.2731     16.8617
   147.0000     50.4483      0.0000    375.7234     16.8425
   147.2500     51.3715      0.0000    386.7639     16.8371
   147.5000     52.2661      0.0000    415.2673     16.8120
   147.7500     52.4051      0.0000    453.5972     16.7411
   148.0000     51.1904      0.0000    501.9097     16.6332
   148.2500     48.6378      0.0000    555.0502     16.5283
   148.5000     45.4821      0.0000    580.6826     16.4589
   148.7500     42.9015      0.0000    555.7524     16.4316
   149.0000     41.9152      0.0000    506.1291     16.4341
   149.2500     42.7470      0.0000    466.8399     16.4359
   149.5000     44.7793      0.0000    438.7520     16.4075
   149.7500     47.2066      0.0000    406.9368     16.3466
   150.0000     49.6998      0.0000    370.5757     16.2709
   150.2500     52.3622      0.0000    341.7184     16.1966
   150.5000     55.0179      0.0000    326.8687     16.1326
   150.7500     56.7593      0.0000    321.9214     16.0871
   151.0000     56.5985      0.0000    320.8181     16.0681
   151.2500     54.6286      0.0000    320.6132     16.0713
   151.5000     52.1046      0.0000    320.5524     16.0806
   151.7500     50.1779      0.0000    320.5338     16.0812
   152.0000     48.9418      0.0000    320.5355     16.0555
   152.2500     47.8547      0.0000    320.5124     15.9894
   152.5000     46.6582      0.0000    320.4379     15.8938
   152.7500     45.6428      0.0000    320.3408     15.8070
   153.0000     45.3479      0.0000    320.2570     15.7640
   153.2500     46.2158      0.0000    320.1909     15.7656
   153.5000     48.3203      0.0000    320.1487     15.7753
   153.7500     51.2432      0.0000    320.1567     15.7521
   154.0000     54.3396      0.0000    320.2081     15.6880
   154.2500     57.1870      0.0000    320.2442     15.5984
   154.5000     59.7251      0.0000    320.2389     15.4888
   154.7500     62.0914      0.0000    320.2279     15.3549
   155.0000     64.4422      0.0000    320.2318     15.2062
   155.2500     66.7537      0.0000    320.2318     15.0768
   155.5000     68.6592      0.0000    320.2041     15.0061
   155.7500     69.6169      0.0000    320.1277     15.0007
   156.0000     69.3625      0.0000    320.0022     15.0220
   156.2500     68.0590      0.0000    319.8820     15.0210
   156.5000     65.9224      0.0000    319.8333     14.9786
   156.7500     62.9019      0.0000    319.8638     14.9115
   157.0000     58.9332      0.0000    319.9377     14.8492
   157.2500     54.3603      0.0000    320.0325     14.8135
   157.5000     49.8727      0.0000    320.1456     14.8124
   157.7500     46.0778      0.0000    320.2646     14.8366
   158.0000     43.2681      0.0000    320.3731     14.8636
   158.2500     41.3927      0.0000    320.4728     14.8789
   158.5000     40.1012      0.0000    320.5626     14.8911
   158.7500     39.1681      0.0000    320.6611     14.9159
   159.0000     39.0166      0.0000    321.2208     14.9553
   159.2500     40.4087      0.0000    325.4460     14.9782
   159.5000     43.5009      0.0000    346.1968     14.8622
   159.7500     47.4853      0.0000    410.7542     14.3388
   160.0000     51.0571      0.0000    535.5311     13.2132
   160.2500     53.0313      0.0000    675.5345     11.8887
   160.5000     52.9632      0.0000    749.3898     11.1497
   160.7500     51.6061      0.0000    757.7225     10.9893
   161.0000     50.4562      0.0000    788.5143     10.7165
   161.2500     50.5196      0.0000    871.4506     10.2402
   161.5000     51.6597      0.0000    945.8625      9.9259
   161.7500     53.1449      0.0000    963.4767      9.8307
   162.0000     54.5336     -1.0000    930.2548      9.8195
   162.2500     56.0802     -1.0000    892.2445      9.8384
   162.5000     58.6281      0.0000    890.7285      9.9361
   162.7500     63.0764      0.0000    893.6980     10.3172
   163.0000     69.5354      0.0000    824.5258     11.3827
   163.2500     76.7673      0.0000    673.0453     13.2300
   163.5000     82.6394      0.0000    517.0983     15.0101
   163.7500     85.5084      0.0000    422.4810     15.8153
   164.0000     85.2833      0.0000    380.7599     15.9543
   164.2500     83.0874      0.0000    356.3659     16.1649
   164.5000     80.0686      0.0000    337.8789     16.5368
   164.7500     76.8415      0.0000    331.4094     16.8416
   165.0000     73.8683      0.0000    342.2618     17.0006
   165.2500     71.8049      0.0000    370.3946     17.0610
   165.5000     71.2881      0.0000    406.4476     17.0879
   165.7500     72.6396      0.0000    435.3591     17.1327
   166.0000     75.7633      0.0000    450.1437     17.2336
   166.2500     79.9749      0.0000    454.7693     17.4033
   166.5000     83.9182      0.0000    454.7144     17.6076
   166.7500     86.1414      0.0000    450.8609     17.7816
   167.0000     86.0541      0.0000    440.9065     17.8831
   167.2500     84.2612      0.0000    426.8696     17.9075
