~Version Information
VERS.                      2.0: CWLS Log ASCII Standard - VERSION 2.0
WRAP.                       NO: One line per depth step
~Well Information Block
STRT.FT                10.0000: 
STOP.FT              1458.0000: 
STEP.FT                 0.1000: 
NULL.                -999.2500: 
COMP.          Pioneer Natural Resources: COMPANY
WELL.            Bordeaux 42-2: WELL
FLD.           Purgatorie River: FIELD
LOC.           1963' FNL & 1148' FEL: LOCATION
PROV.                 Colorado: PROVINCE
CNTY.               Las Animas: COUNTRY
SRVC.                Patterson: SERVICE COMPANY
DATE.          Tue Nov 29 07:11:03 2005: LOG DATE
UWI.                          : UNIQUE WELL ID
~Curve Information Block
DEPT.FT            0 000 00 00: Depth
DCAL.in                       : CDL Caliper
RHOB.g/cc                     : CDL Bulk Density
RHOC.g/cc                     : CDL Density Correction
DPOR.pu                       : CDL Density Porosity
GR.GAPI                       : Gamma Ray
NPOR.pu                       : Neutron Porosity
~Parameter Information Block
~A  Depth       DCAL        RHOB        RHOC        DPOR         GR         NPOR    
    10.0000      2.7444      0.9576      2.0124     -0.0339    125.6435     29.9129
    10.1000      2.7444      0.9396      1.9721     -0.0342    125.0828     29.9277
    10.2000      2.7444      0.9208      1.9942     -0.0346    123.4332     30.0105
    10.3000      2.7444      0.8983      1.9910     -0.0351    121.5505     30.0156
    10.4000      2.7444      0.8734      1.9542     -0.0356    117.8595     29.4789
    10.5000      2.7444      0.8543      1.9723     -0.0359    114.7945     28.4230
    10.6000      2.7444      0.8412      1.9558     -0.0362    116.0401     27.6891
    10.7000      2.7444      0.8285      1.9684     -0.0365    118.2396     27.6368
    10.8000      2.7444      0.8124      1.9561     -0.0368    117.3942     27.8178
    10.9000      2.7444      0.7955      1.9123     -0.0371    115.8742     27.8233
    11.0000      2.7444      0.7793      1.9388     -0.0374    117.1807     27.5939
    11.1000      2.7444      0.7585      1.9093     -0.0378    119.7778     27.3676
    11.2000      2.7444      0.7324      1.8913     -0.0384    119.4640     27.2331
    11.3000      2.7444      0.7069      1.8823     -0.0389    115.9052     26.8441
    11.4000      2.7444      0.6844      1.8486     -0.0393    113.4979     26.1982
    11.5000      2.7444      0.6608      1.8774     -0.0398    115.1212     25.5923
    11.6000      2.7444      0.6341      1.8001     -0.0403    119.7414     25.0640
    11.7000      2.7444      0.6107      1.8244     -0.0408    124.4717     24.4263
    11.8000      2.7444      0.5946      1.7770     -0.0411    127.4222     23.7281
    11.9000      2.7444      0.5856      1.7964     -0.0413    128.7949     23.6743
    12.0000      2.7444      0.5772      1.8183     -0.0415    128.5759     24.5094
    12.1000      2.7444      0.5642      1.7626     -0.0417    126.8886     25.4582
    12.2000      2.7444      0.5481      1.7889     -0.0421    124.3882     25.9112
    12.3000      2.7444      0.5286      1.7495     -0.0424    124.0934     25.8614
    12.4000      2.7444      0.5041      1.7400     -0.0429    127.9179     25.4485
    12.5000      2.7444      0.4779      1.6962     -0.0435    131.2080     24.7137
    12.6000      2.7444      0.4597      1.6889     -0.0438    130.3102     24.0827
    12.7000      2.7444      0.4547      1.6895     -0.0439    128.3473     24.0835
    12.8000      2.7444      0.4567      1.7044     -0.0439    131.5807     24.6236
    12.9000      2.7444      0.4573      1.6849     -0.0439    141.8947     25.3681
    13.0000      2.7444      0.4497      1.7173     -0.0440    151.8605     26.3015
    13.1000      2.7444      0.4312      1.6461     -0.0444    155.4155     27.4560
    13.2000      2.7444      0.4105      1.6633     -0.0448    154.7161     28.4350
    13.3000      2.7444      0.3966      1.6423     -0.0451    153.1096     28.7860
    13.4000      2.7444      0.3912      1.6387     -0.0452    150.9479     28.7252
    13.5000      2.7444      0.3895      1.6502     -0.0452    147.5615     28.6104
    13.6000      2.7444      0.3840      1.6397     -0.0453    145.6281     28.5030
    13.7000      2.7444      0.3740      1.6266     -0.0455    148.7553     28.6053
    13.8000      2.7444      0.3635      1.6111     -0.0458    153.3902     29.1205
    13.9000      2.7444      0.3522      1.6285     -0.0460    153.6903     29.8707
    14.0000      2.7444      0.3360      1.6037     -0.0463    150.8377     30.3173
    14.1000      2.7444      0.3163      1.5860     -0.0467    149.9856     30.2263
    14.2000      2.7444      0.2995      1.5654     -0.0470    151.7003     30.0332
    14.3000      2.7444      0.2896      1.5699     -0.0472    151.3452     30.0480
    14.4000      2.7444      0.2834      1.5729     -0.0474    148.3927     30.2740
    14.5000      2.7444      0.2739      1.5834     -0.0475    146.6498     30.5764
    14.6000      2.7444      0.2583      1.5491     -0.0479    146.4777     30.8106
    14.7000      2.7444      0.2401      1.5472     -0.0482    146.2737     31.0029
    14.8000      2.7444      0.2256      1.5057     -0.0485    145.5117     31.2554
    14.9000      2.7444      0.2152      1.5267     -0.0487    144.1446     31.4802
    15.0000      2.7444      0.1986      1.5308     -0.0491    142.3176     31.5015
    15.1000      2.7444      0.1737      1.4622     -0.0496    141.2562     31.5590
    15.2000      2.7444      0.1580      1.4295     -0.0499    143.5608     32.0624
    15.3000      2.7444      0.1620      1.4709     -0.0498    148.2134     32.7189
    15.4000      2.7444      0.1722      1.4893     -0.0496    150.9464     32.9060
    15.5000      2.7444      0.1718      1.4921     -0.0496    150.2722     32.6662
    15.6000      2.7444      0.1636      1.4428     -0.0498    146.6566     32.1973
    15.7000      2.7444      0.1635      1.4440     -0.0498    140.9736     31.4575
    15.8000      2.7444      0.1719      1.5031     -0.0496    135.9614     30.4811
    15.9000      2.7444      0.1773      1.4713     -0.0495    133.6589     29.7010
    16.0000      2.7444      0.1784      1.4778     -0.0495    133.2860     29.4634
    16.1000      2.7444      0.1757      1.5044     -0.0495    134.7067     29.4185
    16.2000      2.7444      0.1679      1.4486     -0.0497    136.9515     29.0152
    16.3000      2.7444      0.1616      1.4550     -0.0498    138.9516     28.1173
    16.4000      2.7444      0.1620      1.4449     -0.0498    142.5236     27.3400
    16.5000      2.7444      0.1671      1.4654     -0.0497    146.5142     27.3092
    16.6000      2.7444      0.1742      1.4729     -0.0495    147.5051     27.4492
    16.7000      2.7444      0.1858      1.4542     -0.0493    145.5536     27.4529
    16.8000      2.7444      0.1994      1.5247     -0.0490    142.3385     27.9620
    16.9000      2.7444      0.2061      1.5059     -0.0489    139.9068     28.7887
    17.0000      2.7444      0.2052      1.5052     -0.0489    138.6978     29.1526
    17.1000      2.7444      0.2000      1.5044     -0.0490    139.5809     28.9856
    17.2000      2.7444      0.1905      1.5093     -0.0492    143.9670     28.7362
    17.3000      2.7444      0.1773      1.4874     -0.0495    148.5973     28.6615
    17.4000      2.7444      0.1620      1.4746     -0.0498    149.3132     28.6967
    17.5000      2.7444      0.1429      1.4697     -0.0502    148.6989     28.9218
    17.6000      2.7444      0.1227      1.4165     -0.0506    149.4773     29.7000
    17.7000      2.7444      0.1092      1.4198     -0.0508    149.4199     30.8672
    17.8000      2.7444      0.1006      1.4373     -0.0510    150.1026     31.5209
    17.9000      2.7444      0.0918      1.4064     -0.0512    155.0625     31.3388
    18.0000      2.7444      0.0905      1.3645     -0.0512    159.6716     30.9948
    18.1000      2.7444      0.1009      1.4335     -0.0510    157.9090     31.0536
    18.2000      2.7444      0.1106      1.4352     -0.0508    155.3464     31.2109
    18.3000      2.7444      0.1096      1.4407     -0.0508    158.4184     31.0916
    18.4000      2.7444      0.1027      1.4225     -0.0510    162.1842     30.9693
    18.5000      2.7444      0.1056      1.3678     -0.0509    162.3873     31.1144
    18.6000      2.7444      0.1254      1.4407     -0.0505    161.2573     31.3749
    18.7000      2.7444      0.1502      1.4592     -0.0500    159.9001     31.5227
    18.8000      2.7444      0.1662      1.4842     -0.0497    158.3922     31.5993
    18.9000      2.7444      0.1703      1.4695     -0.0496    159.9161     31.6684
    19.0000      2.7444      0.1683      1.4726     -0.0497    166.1929     31.4000
    19.1000      2.7444      0.1703      1.4470     -0.0496    171.9213     30.6393
    19.2000      2.7444      0.1818      1.4958     -0.0494    171.4255     30.1788
    19.3000      2.7444      0.1951      1.5134     -0.0491    165.2476     30.5028
    19.4000      2.7444      0.1994      1.5221     -0.0490    158.6104     30.8785
    19.5000      2.7444      0.1904      1.5040     -0.0492    155.1102     30.6642
