~Version Information
VERS.                      2.0: CWLS Log ASCII Standard - VERSION 2.0
WRAP.                       NO: One line per depth step
~Well Information Block
STRT.FT               335.0000: 
STOP.FT              1154.7000: 
STEP.FT                 0.1000: 
NULL.                -999.2500: 
COMP.          Pioneer Natural Resources: COMPANY
WELL.             Croc 42-9 Tr: WELL
FLD.           Purgatoire River: FIELD
LOC.           2429' FNL & 315' FEL--: LOCATION
STAT.                 Colorado: State
CNTY.               Las Animas: COUNTY
CTRY. USA : Country
SECT. 9 : Section
TOWN. 32S : Township
RANG. 66W : Range
SRVC.                Patterson: SERVICE COMPANY
DATE.          Fri Oct 14 07:56:23 2005: LOG DATE
API.           05 071 08550 00: UNIQUE WELL ID
~Curve Information Block
DEPT.FT            0 000 00 00: Depth
DCAL.in                       : CDL Caliper
RHOB.g/cc                     : CDL Bulk Density
RHOC.g/cc                     : CDL Density Correction
DPOR.pu                       : CDL Density Porosity
NPOR.pu                       : Neutron Porosity
GR.GAPI                       : Gamma Ray
~Parameter Information Block
~A  Depth       DCAL        RHOB        RHOC        DPOR        NPOR         GR     
# ...
   863.0000      7.9568      2.5372      0.0676      6.8353     30.2463    138.7782
   863.1000      7.9568      2.5356      0.0769      6.9308     30.3341    143.2138
   863.2000      7.9568      2.5301      0.0618      7.2649     30.5529    142.3560
   863.3000      7.9594      2.5176      0.0566      8.0260     30.7937    136.0795
   863.4000      7.9594      2.5073      0.0203      8.6513     30.8873    133.4317
   863.5000      7.9620      2.5063      0.0749      8.7092     30.6637    136.3911
   863.6000      7.9620      2.5047      0.0107      8.8081     30.3356    138.4167
   863.7000      7.9620      2.4990      0.0333      9.1514     30.1219    136.9942
   863.8000      7.9627      2.4974      0.0464      9.2461     29.9295    133.6591
   863.9000      7.9627      2.5054      0.0114      8.7656     29.7532    131.3086
   864.0000      7.9595      2.5222      0.0322      7.7428     29.7350    132.5458
   864.1000      7.9595      2.5417      0.0535      6.5653     29.8992    134.6994
   864.2000      7.9595      2.5580      0.0369      5.5786     30.0621    133.3459
   864.3000      7.9544      2.5698      0.0367      4.8611     29.9909    132.9644
   864.4000      7.9544      2.5780      0.0514      4.3608     29.4631    138.5317
   864.5000      7.9538      2.5791      0.0833      4.2950     28.7466    144.0027
   864.6000      7.9538      2.5675      0.0618      4.9982     28.4462    141.9785
   864.7000      7.9538      2.5495      0.0676      6.0915     28.7804    135.9061
   864.8000      7.9590      2.5378      0.0580      6.7992     29.5004    133.7862
   864.9000      7.9590      2.5367      0.0492      6.8678     30.3131    136.4023
   865.0000      7.9624      2.5409      0.0566      6.6114     31.2994    139.0200
   865.1000      7.9624      2.5450      0.0249      6.3619     32.3057    137.4831
   865.2000      7.9624      2.5437      0.0630      6.4445     32.6248    131.6418
   865.3000      7.9622      2.5330      0.0331      7.0900     31.8785    125.4778
   865.4000      7.9622      2.5200     -0.0088      7.8817     30.6747    124.7738
   865.5000      7.9617      2.5103      0.0233      8.4643     30.0536    130.4790
   865.6000      7.9617      2.5046      0.0020      8.8094     30.0830    135.9525
   865.7000      7.9617      2.5123      0.0084      8.3438     30.1453    137.0452
   865.8000      7.9629      2.5357      0.0585      6.9284     30.1924    137.5388
   865.9000      7.9629      2.5565      0.0493      5.6643     30.3390    137.5128
   866.0000      7.9633      2.5616      0.0269      5.3573     30.3462    133.1202
   866.1000      7.9633      2.5558      0.0584      5.7087     30.0407    127.2718
   866.2000      7.9633      2.5498      0.0212      6.0708     29.8906    127.3037
   866.3000      7.9620      2.5492      0.0491      6.1065     30.2637    133.2363
   866.4000      7.9620      2.5515      0.0630      5.9725     30.4931    135.8208
   866.5000      7.9610      2.5613      0.0061      5.3742     29.8542    130.4227
   866.6000      7.9610      2.5886      0.0502      3.7220     28.6510    120.9613
   866.7000      7.9610      2.6271      0.0812      1.3888     27.7983    110.2018
   866.8000      7.9615      2.6664      0.0662     -0.9951     27.6989     98.4802
   866.9000      7.9615      2.7052      0.1041     -3.3428     28.0300     90.3331
   867.0000      7.9615      2.7415      0.0855     -5.5459     28.1871     90.5539
   867.1000      7.9615      2.7712      0.1167     -7.3430     27.9639     96.0982
   867.2000      7.9615      2.7908      0.0766     -8.5346     27.9617     98.8745
   867.3000      7.9617      2.7985      0.0918     -9.0002     28.4249     95.4307
   867.4000      7.9617      2.7892      0.0773     -8.4359     28.8103     89.0406
   867.5000      7.9623      2.7653      0.0181     -6.9884     29.0030     84.8156
   867.6000      7.9623      2.7399     -0.0268     -5.4510     29.0895     85.9546
   867.7000      7.9623      2.7218     -0.0248     -4.3500     29.0437     92.2029
   867.8000      7.9620      2.7075     -0.0341     -3.4823     29.2876     98.6328
   867.9000      7.9620      2.6854     -0.0049     -2.1481     29.7510     99.9020
   868.0000      7.9623      2.6478     -0.0406      0.1325     29.8537     99.3846
   868.1000      7.9623      2.6034     -0.0529      2.8264     29.9659    103.3924
   868.2000      7.9623      2.5698     -0.0840      4.8622     30.7132    109.8549
   868.3000      7.9624      2.5480     -0.0030      6.1793     31.6167    112.8880
   868.4000      7.9624      2.5255     -0.0020      7.5438     32.0713    111.8263
   868.5000      7.9615      2.5103     -0.0056      8.4661     32.1263    113.3363
   868.6000      7.9615      2.5173      0.0324      8.0418     31.9549    119.4286
   868.7000      7.9615      2.5391      0.0802      6.7194     31.7370    123.9975
   868.8000      7.9607      2.5571      0.0863      5.6324     31.5012    125.8274
   868.9000      7.9607      2.5590      0.1017      5.5161     31.1091    129.6279
   869.0000      7.9602      2.5470      0.0584      6.2433     30.9185    137.0935
   869.1000      7.9602      2.5353      0.0597      6.9535     31.2458    143.9176
   869.2000      7.9602      2.5331      0.0527      7.0835     31.4421    146.4577
   869.3000      7.9617      2.5421      0.0302      6.5410     31.1433    146.5280
   869.4000      7.9617      2.5637      0.0550      5.2282     30.8420    142.9223
   869.5000      7.9621      2.5898      0.1138      3.6478     30.5339    135.2130
   869.6000      7.9621      2.6089      0.0937      2.4932     29.9027    131.3992
   869.7000      7.9621      2.6290      0.0931      1.2704     29.3972    134.8937
   869.8000      7.9623      2.6617      0.1023     -0.7066     29.3594    137.4047
   869.9000      7.9623      2.6998      0.1119     -3.0162     29.5373    132.2682
   870.0000      7.9668      2.7334      0.0959     -5.0529     29.5286    123.9851
   870.1000      7.9668      2.7552      0.1058     -6.3732     28.8794    117.3597
   870.2000      7.9668      2.7506      0.0836     -6.0957     27.9495    114.1237
   870.3000      7.9731      2.7164      0.0498     -4.0243     27.6436    113.1397
   870.4000      7.9731      2.6756     -0.0304     -1.5532     27.9563    110.9883
   870.5000      7.9774      2.6550     -0.0366     -0.3005     28.1673    107.6140
   870.6000      7.9774      2.6574     -0.0183     -0.4458     28.0419    105.7122
   870.7000      7.9774      2.6677     -0.0302     -1.0701     28.0328    107.3420
   870.8000      7.9818      2.6688     -0.0292     -1.1409     28.5612    113.2819
   870.9000      7.9818      2.6504     -0.0266     -0.0230     29.4452    118.1607
   871.0000      7.9868      2.6172     -0.0304      1.9908     30.0194    116.1693
   871.1000      7.9868      2.5893      0.0093      3.6804     30.1938    114.9016
   871.2000      7.9868      2.5858      0.0104      3.8921     30.4395    123.0145
   871.3000      7.9886      2.6010      0.0588      2.9711     30.5578    133.4964
   871.4000      7.9886      2.6118      0.0487      2.3178     30.1633    136.1597
   871.5000      7.9900      2.6111      0.0361      2.3590     29.5758    129.8443
   871.6000      7.9900      2.6068      0.0250      2.6181     29.4312    120.4912
   871.7000      7.9900      2.6001      0.0448      3.0246     29.8095    115.2019
   871.8000      7.9917      2.5871      0.0315      3.8141     30.1399    116.0194
   871.9000      7.9917      2.5721      0.0143      4.7235     30.0721    119.6851
   872.0000      7.9944      2.5685      0.0222      4.9418     29.8474    122.3021
   872.1000      7.9944      2.5854      0.0714      3.9155     29.7153    121.3863
   872.2000      7.9944      2.6108      0.0781      2.3783     29.3929    115.4945
   872.3000      7.9979      2.6200      0.0945      1.8166     28.6691    109.3254
   872.4000      7.9979      2.6018      0.0704      2.9204     28.0301    111.1116
   872.5000      7.9977      2.5709      0.0615      4.7939     27.7025    116.3001
