~Version Information
VERS.                      2.0: CWLS Log ASCII Standard - VERSION 2.0
WRAP.                       NO: One line per depth step
~Well Information Block
STRT.FT                -8.2500: 
STOP.FT              1439.2500: 
STEP.FT                 0.2500: 
NULL.                -999.2500: 
COMP.          Pioneer Natural Resources: COMPANY
WELL.          Old Faithful 21-2: WELL
FLD.           Purgatorie River: FIELD
LOC.           806' FNL & 2509' FWL--: LOCATION
PROV.                       CO: PROVINCE
CNTY.               Las Animas: COUNTRY
SRVC.          Patterson Wireline: SERVICE COMPANY
DATE.          Mon Dec 12 11:21:25 2005: LOG DATE
UWI.           08 071 08617 00: UNIQUE WELL ID
~Curve Information Block
DEPT.FT            0 000 00 00: Depth
CCL.                          : Casing Collar Locator
TT3.usec                      : CBL 3' Travel Time
AMP3.mV                       : CBL 3' Amplitude
GR.GAPI                       : Gamma Ray
~Parameter Information Block
~A  Depth       CCL         TT3         AMP3         GR     
# ...
   661.7500      0.0000    664.7869      9.8279     73.7651
   662.0000      0.0000    664.0935      9.9285     70.7907
   662.2500      0.0000    677.6664      9.8231     72.3042
   662.5000      0.0000    697.4841      9.4629     77.4880
   662.7500      0.0000    714.9841      8.9391     84.0128
   663.0000      0.0000    726.6511      8.4513     89.3636
   663.2500      0.0000    733.6245      8.1577     92.3179
   663.5000      0.0000    737.1656      8.0850     93.5584
   663.7500     -2.0000    734.9717      8.1882     95.1001
   664.0000      0.0000    721.2110      8.4457     98.8327
   664.2500      0.0000    689.9743      8.8651    105.0019
   664.5000      0.0000    641.8300      9.4205    111.8970
   664.7500      0.0000    590.1471     10.0031    117.2487
   665.0000      0.0000    557.9960     10.4359    120.0875
   665.2500      0.0000    562.2087     10.5745    121.2656
   665.5000      0.0000    598.9081     10.4404    122.3782
   665.7500      0.0000    647.2935     10.2282    124.4526
   666.0000      0.0000    687.2985     10.1371    127.6429
   666.2500      0.0000    711.6774     10.2186    131.7388
   666.5000      0.0000    723.7307     10.3979    136.4229
   666.7500      0.0000    728.8976     10.5878    141.0166
   667.0000      0.0000    730.1658     10.7481    144.4637
   667.2500      0.0000    728.6466     10.8667    145.8038
   667.5000      0.0000    725.5362     10.9251    144.5853
   667.7500      0.0000    722.7152     10.8970    141.0184
   668.0000      0.0000    722.1123     10.7802    135.9612
   668.2500      0.0000    724.6805     10.6133    130.5473
   668.5000      0.0000    729.7307     10.4492    125.6848
   668.7500      0.0000    735.2904     10.3198    121.9663
   669.0000      0.0000    739.3557     10.2266    119.7948
   669.2500      0.0000    740.7787     10.1579    119.2896
   669.5000      0.0000    739.1633     10.1090    120.2423
   669.7500      0.0000    734.6472     10.0873    122.3656
   670.0000      0.0000    728.2929     10.0939    125.5030
   670.2500      0.0000    722.3071     10.1068    129.5862
   670.5000      0.0000    718.8561     10.0903    134.4525
   670.7500      0.0000    717.8018     10.0278    139.4966
   671.0000      0.0000    715.3849      9.9402    143.5051
   671.2500      0.0000    704.9984      9.8772    145.2862
   671.5000      0.0000    679.3978      9.9001    144.6273
   671.7500      0.0000    634.0014     10.0624    142.3504
   672.0000      0.0000    571.2244     10.3833    139.4789
   672.2500      0.0000    502.4262     10.8227    136.6125
   672.5000      0.0000    442.8445     11.2811    133.8678
   672.7500      0.0000    402.3337     11.6289    130.7454
   673.0000      0.0000    380.9486     11.7490    125.9252
   673.2500      0.0000    372.8138     11.5887    117.8913
   673.5000      0.0000    372.6150     11.1995    106.5262
   673.7500      0.0000    378.9002     10.7285     94.2066
   674.0000      0.0000    392.7107     10.3513     84.8033
   674.2500      0.0000    412.6298     10.1950     80.9983
   674.5000      0.0000    430.4155     10.3024     82.4479
   674.7500      0.0000    434.0063     10.6335     86.6036
   675.0000      0.0000    418.0277     11.0804     91.1210
   675.2500      0.0000    390.1689     11.4977     95.3374
   675.5000      0.0000    365.1460     11.7525     99.7582
   675.7500      0.0000    354.1051     11.7723    104.5466
   676.0000      0.0000    361.3310     11.5697    108.8676
   676.2500      0.0000    387.5552     11.2336    111.8491
   676.5000      0.0000    430.8129     10.8893    113.8352
   676.7500      0.0000    481.9875     10.6417    116.0331
   677.0000      0.0000    523.0692     10.5321    118.9112
   677.2500      0.0000    536.0815     10.5387    121.6214
   677.5000      0.0000    516.4194     10.6096    123.1308
   677.7500      0.0000    476.0125     10.6988    123.3092
   678.0000      0.0000    433.1138     10.7804    122.6621
   678.2500      0.0000    400.3227     10.8443    121.4920
   678.5000      0.0000    380.7101     10.8886    119.7833
   678.7500      0.0000    371.1965     10.9127    117.7671
   679.0000      0.0000    367.3702     10.9128    115.9669
   679.2500      0.0000    366.1050     10.8884    114.4768
   679.5000      0.0000    365.8554     10.8570    112.8241
   679.7500      0.0000    365.9494     10.8562    110.9108
   680.0000      0.0000    365.9749     10.9193    109.6195
   680.2500      0.0000    365.5027     11.0480    110.2010
   680.5000      0.0000    364.1601     11.2140    113.3879
   680.7500      0.0000    362.0614     11.3843    118.9939
   681.0000      0.0000    360.4541     11.5376    125.7783
   681.2500      0.0000    361.9101     11.6556    131.6703
   681.5000      0.0000    369.7310     11.7120    134.8268
   681.7500      0.0000    386.2893     11.6838    135.0406
   682.0000      0.0000    409.9497     11.5734    133.9430
   682.2500      0.0000    432.5932     11.4135    133.4752
   682.5000      0.0000    443.2451     11.2427    134.2523
   682.7500      0.0000    438.2739     11.0819    135.7246
   683.0000      0.0000    428.0421     10.9323    137.6451
   683.2500      0.0000    431.3508     10.7928    140.4315
   683.5000      0.0000    462.4486     10.6741    143.7386
   683.7500      0.0000    521.2647     10.5936    145.5690
   684.0000      0.0000    593.0154     10.5576    143.7526
   684.2500      0.0000    657.4885     10.5500    138.1084
   684.5000      0.0000    701.3177     10.5449    130.4076
   684.7500      0.0000    723.1606     10.5318    122.2707
   685.0000      0.0000    729.4264     10.5238    113.9231
   685.2500      0.0000    727.4407     10.5392    105.1590
   685.5000      0.0000    722.0975     10.5793     96.7048
   685.7500      0.0000    715.8608     10.6264     90.1445
   686.0000      0.0000    709.9125     10.6574     86.9190
   686.2500      0.0000    704.9818     10.6623     87.6199
   686.5000      0.0000    701.2724     10.6541     91.5505
   686.7500      0.0000    697.6399     10.6613     96.5136
   687.0000      0.0000    690.6775     10.7028     99.8178
   687.2500      0.0000    674.4315     10.7684    100.3039
   687.5000      0.0000    642.2560     10.8285     99.0220
   687.7500      0.0000    591.6400     10.8616     97.5164
   688.0000      0.0000    528.7857     10.8662     96.0882
   688.2500      0.0000    467.1333     10.8508     94.2277
   688.5000      0.0000    419.3153     10.8229     91.9465
   688.7500      0.0000    389.9572     10.7889     89.8001
   689.0000      0.0000    375.6520     10.7562     88.0095
   689.2500      0.0000    370.0691     10.7318     86.3492
   689.5000      0.0000    368.2712     10.7194     84.6959
   689.7500      0.0000    367.7674     10.7154     83.0654
   690.0000      0.0000    367.6682     10.7122     81.4190
   690.2500      0.0000    367.7144     10.7108     80.0750
   690.5000      0.0000    367.7788     10.7283     80.0689
   690.7500      0.0000    367.7612     10.7827     82.3929
   691.0000      0.0000    367.6360     10.8716     86.7595
   691.2500      0.0000    367.4662     10.9720     91.3630
   691.5000      0.0000    367.3281     11.0608     94.0393
   691.7500      0.0000    367.2216     11.1329     93.9771
   692.0000      0.0000    367.0834     11.1986     92.3854
   692.2500      0.0000    366.8884     11.2665     91.1573
   692.5000      0.0000    366.7378     11.3317     90.8489
   692.7500      0.0000    366.8732     11.3779     90.4667
   693.0000      0.0000    367.9080     11.3938     89.2796
   693.2500      0.0000    371.6531     11.3842     88.2132
   693.5000      0.0000    382.2975     11.3662     89.1751
   693.7500      0.0000    405.9525     11.3531     93.3033
   694.0000      0.0000    445.4601     11.3455     99.9215
   694.2500      0.0000    492.1581     11.3413    106.7633
   694.5000      0.0000    525.0296     11.3499    111.2206
   694.7500      0.0000    524.8571     11.3918    111.9039
   695.0000      0.0000    491.6190     11.4792    109.3322
