~Version Information
VERS.                      2.0: CWLS Log ASCII Standard - VERSION 2.0
WRAP.                       NO: One line per depth step
~Well Information Block
STRT.FT               452.0000: 
STOP.FT              1726.5000: 
STEP.FT                 0.1000: 
NULL.                -999.2500: 
COMP.          Pioneer Natural Resources: COMPANY
WELL.          Parrothead 31-31 Tr: WELL
FLD.           Purgatoire River: FIELD
LOC.           496' FNL & 1546' FEL: LOCATION
PROV.                 Colorado: PROVINCE
CNTY.               Las Animas: COUNTRY
SRVC.                Patterson: SERVICE COMPANY
DATE.          Thu Nov 10 07:29:36 2005: LOG DATE
UWI.           05 071 08610 00: UNIQUE WELL ID
~Curve Information Block
DEPT.FT            0 000 00 00: Depth
DCAL.in                       : CDL Caliper
RHOB.g/cc                     : CDL Bulk Density
RHOC.g/cc                     : CDL Density Correction
DPOR.pu                       : CDL Density Porosity
GR.GAPI                       : Gamma Ray
NPOR.pu                       : Neutron Porosity
~Parameter Information Block
~A  Depth       DCAL        RHOB        RHOC        DPOR         GR         NPOR    
# ...
   951.2000      7.9626      2.6313      0.0660      1.1362    116.1342     26.8397
   951.3000      7.9664      2.6106      0.0234      2.3905    113.9254     27.0293
   951.4000      7.9664      2.5924      0.0513      3.4881    113.6904     27.2596
   951.5000      7.9637      2.5816      0.0449      4.1483    116.6145     27.6763
   951.6000      7.9637      2.5902      0.0756      3.6234    118.4293     28.2903
   951.7000      7.9637      2.6281      0.0668      1.3303    117.0008     28.8814
   951.8000      7.9371      2.6806      0.1122     -1.8574    115.1130     28.8927
   951.9000      7.9371      2.7213      0.1966     -4.3184    113.8058     28.4610
   952.0000      7.8540      2.7341      0.1668     -5.0980    112.4473     28.2011
   952.1000      7.8540      2.7247      0.1592     -4.5278    111.1227     28.1073
   952.2000      7.8540      2.7134      0.1664     -3.8433    110.3343     27.9791
   952.3000      7.8613      2.7017      0.1862     -3.1358    114.0729     27.8462
   952.4000      7.8613      2.6689      0.1360     -1.1455    120.2896     27.5630
   952.5000      7.8530      2.6254      0.0005      1.4896    119.0701     26.9224
   952.6000      7.8530      2.6048      0.0257      2.7384    111.2147     26.2234
   952.7000      7.8530      2.6033      0.0154      2.8323    105.6111     25.7180
   952.8000      7.8920      2.5908      0.0482      3.5876    105.4967     25.3349
   952.9000      7.8920      2.5671     -0.0056      5.0265    106.2228     25.0323
   953.0000      7.8782      2.5600      0.0316      5.4573    102.5918     24.7366
   953.1000      7.8782      2.5752      0.0405      4.5358     97.2873     24.5270
   953.2000      7.8782      2.5942      0.0755      3.3836     94.3095     24.5379
   953.3000      7.9118      2.6002      0.1032      3.0207     95.1529     24.6613
   953.4000      7.9118      2.5920      0.0300      3.5142     98.0782     24.6442
   953.5000      7.8983      2.5863      0.0464      3.8627     98.7719     24.2931
   953.6000      7.8983      2.5887      0.0870      3.7126     97.8109     23.8150
   953.7000      7.8983      2.5840      0.1132      3.9972     96.9116     23.3914
   953.8000      7.8909      2.5676      0.0758      4.9925     96.2869     23.0668
   953.9000      7.8909      2.5574      0.0715      5.6098     96.2698     22.9712
   954.0000      7.8669      2.5672      0.0653      5.0170     95.4858     22.9303
   954.1000      7.8669      2.5870      0.1193      3.8212     93.5558     22.6217
   954.2000      7.8669      2.5980      0.0857      3.1500     92.1791     22.3441
   954.3000      7.8549      2.6038      0.0824      2.8021     91.7613     22.4469
   954.4000      7.8549      2.6271      0.1003      1.3892     91.7553     22.8467
   954.5000      7.8606      2.6761      0.1143     -1.5792     92.1781     23.4139
   954.6000      7.8606      2.7225      0.1817     -4.3948     91.6252     23.9944
   954.7000      7.8606      2.7339      0.1535     -5.0870     88.0843     24.3888
   954.8000      7.8583      2.7192      0.1306     -4.1951     82.0499     24.3227
   954.9000      7.8583      2.7042      0.1213     -3.2831     79.0770     23.8413
   955.0000      7.8625      2.6827      0.1517     -1.9802     82.1117     23.3105
   955.1000      7.8625      2.6406      0.0622      0.5684     83.3095     22.8215
   955.2000      7.8625      2.5905      0.0395      3.6051     76.8512     22.4932
   955.3000      7.8711      2.5508     -0.0218      6.0130     69.8489     22.5509
   955.4000      7.8711      2.5413     -0.0495      6.5879     69.1765     22.7804
   955.5000      7.8881      2.5685      0.0396      4.9397     74.3549     22.9403
   955.6000      7.8881      2.6022      0.0454      2.8965     81.0882     23.0242
   955.7000      7.8881      2.6147      0.0872      2.1406     83.7667     22.8299
   955.8000      7.9046      2.6188      0.0222      1.8938     82.2491     22.3265
   955.9000      7.9046      2.6365      0.0925      0.8168     80.0922     22.0053
   956.0000      7.8825      2.6576      0.1330     -0.4579     79.0724     22.0998
   956.1000      7.8825      2.6644      0.1095     -0.8727     80.3070     22.4969
   956.2000      7.8825      2.6610      0.1155     -0.6645     84.7048     22.9032
   956.3000      7.8589      2.6480      0.1519      0.1183     88.5520     23.0710
   956.4000      7.8589      2.6240      0.0784      1.5777     87.3417     23.1560
   956.5000      7.8520      2.6046      0.0721      2.7517     82.6288     23.1875
   956.6000      7.8520      2.5996      0.0600      3.0528     77.6392     22.8981
   956.7000      7.8520      2.5992      0.0301      3.0788     74.5767     22.7918
   956.8000      7.8760      2.5945      0.0289      3.3614     74.0630     23.2699
   956.9000      7.8760      2.5825      0.0526      4.0906     75.4357     23.4196
   957.0000      7.8578      2.5663     -0.0035      5.0728     78.8374     22.7041
   957.1000      7.8578      2.5596     -0.0041      5.4758     81.8122     22.0092
   957.2000      7.8578      2.5702     -0.0125      4.8376     80.7782     22.0670
   957.3000      7.8852      2.5897      0.0221      3.6534     78.8593     22.3951
   957.4000      7.8852      2.6064      0.0133      2.6425     80.7052     22.7227
   957.5000      7.9168      2.6058      0.0813      2.6774     85.5652     23.1632
   957.6000      7.9168      2.5775      0.0322      4.3956     89.7875     23.2217
   957.7000      7.9168      2.5397     -0.0337      6.6871     90.5268     22.5857
   957.8000      7.9256      2.5101     -0.0017      8.4818     91.0208     21.7440
   957.9000      7.9256      2.4815     -0.0475     10.2114     96.4589     21.2477
   958.0000      7.9489      2.4566     -0.0671     11.7200    105.4478     20.9894
   958.1000      7.9489      2.4406     -0.0618     12.6889    113.2661     20.5769
   958.2000      7.9489      2.4147     -0.0089     14.2631    116.2494     20.1866
   958.3000      7.9532      2.3734     -0.0850     16.7626    115.2830     20.2732
   958.4000      7.9532      2.3430     -0.0784     18.6083    114.7671     20.7790
   958.5000      7.9797      2.3291     -0.0329     19.4478    116.6118     21.3650
   958.6000      7.9797      2.3151     -0.0275     20.2954    119.3094     22.0454
   958.7000      7.9797      2.3001      0.0021     21.2050    119.9772     22.7984
   958.8000      7.9924      2.2872      0.0178     21.9902    119.1504     23.3467
   958.9000      7.9924      2.2803      0.0141     22.4072    120.1261     23.5048
   959.0000      8.0079      2.2995     -0.0034     21.2411    124.2632     23.2293
   959.1000      8.0079      2.3500      0.0689     18.1822    129.6527     22.6275
   959.2000      8.0079      2.4017      0.0848     15.0508    131.4291     22.1595
   959.3000      8.0238      2.4278      0.1261     13.4649    128.1516     21.9070
   959.4000      8.0238      2.4328      0.1205     13.1654    123.8044     21.4150
   959.5000      8.0150      2.4297      0.1044     13.3523    123.8139     20.9297
   959.6000      8.0150      2.4083      0.1100     14.6490    128.8898     21.0185
   959.7000      8.0150      2.3530      0.0909     17.9976    133.9546     21.4380
   959.8000      7.9827      2.2810      0.0420     22.3631    135.1002     21.5702
   959.9000      7.9827      2.2258      0.0267     25.7108    134.7538     21.1692
   960.0000      7.9247      2.1899      0.0540     27.8859    134.4606     20.2895
   960.1000      7.9247      2.1553     -0.0082     29.9838    133.2811     19.3481
   960.2000      7.9247      2.1227      0.0185     31.9561    133.1206     18.9560
   960.3000      7.9357      2.0930      0.0761     33.7579    132.3394     19.2756
   960.4000      7.9357      2.0573      0.0349     35.9201    128.9746     19.8822
   960.5000      8.0444      2.0294      0.0138     37.6150    126.3857     20.5320
   960.6000      8.0444      2.0317      0.0038     37.4746    127.3128     21.4982
   960.7000      8.0444      2.0589      0.0621     35.8236    129.9007     22.6522
