~Version Information
VERS.                      2.0: CWLS Log ASCII Standard - VERSION 2.0
WRAP.                       NO: One line per depth step
~Well Information Block
STRT.FT               -10.2500: 
STOP.FT              2437.2500: 
STEP.FT                 0.2500: 
NULL.                -999.2500: 
COMP.          Pioneer Natural Resources: COMPANY
WELL.          Hellzonfire 32-31: WELL
FLD.           Purgatorie River: FIELD
LOC.           1993' FNL & 2265' FEL------: LOCATION
STAT.                       CO: State
CNTY.               Las Animas: COUNTY
CTRY. USA : Country
SECT. 31 : Section
TOWN. 32S : Township
RANG. 66W : Range
SRVC.          Patterson Wireline: SERVICE COMPANY
DATE.          Thu Sep 08 11:10:17 2005: LOG DATE
API.           05 071 08483 00: UNIQUE WELL ID
~Curve Information Block
DEPT.FT            0 000 00 00: Depth
CCL.                          : Casing Collar Locator
TT3.usec                      : CBL 3' Travel Time
AMP3.mV                       : CBL 3' Amplitude
GR.GAPI                       : Gamma Ray
~Parameter Information Block
~A  Depth       CCL         TT3         AMP3         GR     
# ...
  1430.2500      0.0000    823.7256     10.5617    116.4446
  1430.5000      0.0000    830.2195     10.7020    120.6262
  1430.7500      0.0000    827.3191     11.1939    120.9672
  1431.0000      0.0000    817.2598     12.0275    116.8260
  1431.2500      0.0000    805.8533     12.9984    109.8044
  1431.5000      0.0000    797.8575     13.8555    102.7151
  1431.7500      0.0000    794.1171     14.4610     98.0667
  1432.0000      0.0000    792.2389     14.8018     96.7998
  1432.2500      0.0000    789.1930     14.9171     97.7149
  1432.5000      0.0000    783.3936     14.8631     98.4008
  1432.7500      0.0000    775.3425     14.7102     97.3671
  1433.0000      0.0000    766.8410     14.5301     95.4710
  1433.2500      0.0000    759.2256     14.3689     95.3126
  1433.5000      0.0000    752.2023     14.2369     99.4084
  1433.7500      0.0000    744.5894     14.1290    108.5890
  1434.0000      0.0000    736.1145     14.0553    121.0934
  1434.2500      0.0000    728.1129     14.0473    132.8556
  1434.5000      0.0000    722.5359     14.1270    139.7195
  1434.7500      0.0000    720.7913     14.2761    140.2821
  1435.0000      0.0000    723.5156     14.4405    136.4549
  1435.2500      0.0000    730.3527     14.5688    131.2658
  1435.5000      0.0000    738.9921     14.6460    126.6084
  1435.7500      0.0000    745.1198     14.6976    122.8452
  1436.0000      0.0000    744.9576     14.7635    119.5229
  1436.2500      0.0000    738.4448     14.8653    116.0737
  1436.5000      0.0000    729.2099     14.9932    112.3707
  1436.7500      0.0000    721.3212     15.1226    108.9182
  1437.0000      0.0000    716.5827     15.2443    106.2769
  1437.2500      0.0000    714.5918     15.3738    104.2107
  1437.5000      0.0000    714.2076     15.5281    101.8358
  1437.7500      0.0000    714.5301     15.7006     98.8208
  1438.0000      0.0000    715.0542     15.8648     96.1565
  1438.2500      0.0000    715.5334     15.9960     95.6407
  1438.5000      0.0000    715.9044     16.0815     98.7197
  1438.7500      0.0000    716.2842     16.1124    105.5948
  1439.0000      0.0000    716.9628     16.0827    115.0737
  1439.2500      0.0000    718.2684     16.0023    125.2995
  1439.5000      0.0000    720.2940     15.9024    134.6093
  1439.7500      0.0000    722.7179     15.8166    141.6223
  1440.0000      0.0000    725.2208     15.7585    144.8614
  1440.2500      0.0000    728.2059     15.7181    143.1826
  1440.5000      0.0000    732.5994     15.6738    137.0603
  1440.7500      0.0000    738.4747     15.6027    128.9061
  1441.0000      0.0000    744.2447     15.4908    121.5786
  1441.2500      0.0000    747.8823     15.3444    116.9383
  1441.5000      0.0000    748.9549     15.1912    115.7981
  1441.7500      0.0000    749.2220     15.0630    117.9391
  1442.0000      0.0000    751.2510     14.9746    121.3598
  1442.2500      0.0000    756.5577     14.9167    122.5564
  1442.5000      0.0000    764.8732     14.8643    119.0225
  1442.7500      0.0000    774.5649     14.7888    111.6434
  1443.0000      0.0000    783.5063     14.6721    103.9460
  1443.2500      0.0000    790.0941     14.5150     98.9619
  1443.5000      0.0000    793.9641     14.3353     97.1877
  1443.7500      0.0000    795.8406     14.1570     97.2622
  1444.0000      0.0000    796.8691     14.0039     97.6900
  1444.2500      0.0000    798.1865     13.9008     97.6692
  1444.5000      0.0000    800.8381     13.8677     97.0202
  1444.7500      0.0000    805.4752     13.9032     96.1446
  1445.0000      0.0000    811.6066     13.9744     96.1972
  1445.2500      0.0000    817.1967     14.0291     98.6720
  1445.5000      0.0000    819.6119     14.0231    103.9971
  1445.7500      0.0000    817.5710     13.9394    110.5296
  1446.0000      0.0000    812.2155     13.7887    115.6318
  1446.2500      0.0000    806.1385     13.6001    118.0523
  1446.5000      0.0000    801.4412     13.4099    118.8835
  1446.7500      0.0000    798.7150     13.2503    120.0434
  1447.0000      0.0000    797.4387     13.1385    122.1605
  1447.2500      0.0000    796.8507     13.0737    124.0552
  1447.5000      0.0000    796.4518     13.0409    123.9962
  1447.7500      0.0000    796.0680     13.0168    121.3222
  1448.0000      0.0000    795.7236     12.9757    117.1516
  1448.2500      0.0000    795.5028     12.9013    113.8241
  1448.5000      0.0000    795.4621     12.7991    113.4017
  1448.7500      0.0000    795.6071     12.6964    116.2840
  1449.0000      0.0000    795.8868     12.6271    121.1592
  1449.2500      0.0000    796.1819     12.6133    125.9464
  1449.5000      0.0000    796.3432     12.6554    128.6613
  1449.7500      0.0000    796.3040     12.7318    128.1325
  1450.0000      0.0000    796.1601     12.8097    124.5653
  1450.2500      0.0000    796.0917     12.8675    119.3878
  1450.5000      0.0000    796.1956     12.9089    114.4491
  1450.7500      0.0000    796.4146     12.9525    111.2061
  1451.0000      0.0000    796.6188     13.0078    109.9014
  1451.2500      0.0000    796.7181     13.0668    109.2458
  1451.5000      0.0000    796.6951     13.1207    107.7090
  1451.7500      0.0000    796.5782     13.1747    105.4214
  1452.0000      0.0000    796.4130     13.2404    104.1013
  1452.2500      0.0000    796.2390     13.3231    105.0120
  1452.5000      0.0000    796.0757     13.4210    107.7551
  1452.7500      0.0000    795.9280     13.5336    111.1396
  1453.0000      0.0000    795.7942     13.6656    114.3981
  1453.2500      0.0000    795.5903     13.8194    117.0851
  1453.5000      0.0000    794.9736     13.9819    118.3553
  1453.7500      0.0000    793.1178     14.1181    117.1421
  1454.0000      0.0000    788.7148     14.1852    113.2238
  1454.2500      0.0000    780.5897     14.1611    107.9290
  1454.5000      0.0000    768.8540     14.0631    103.8833
  1454.7500      0.0000    755.5489     13.9382    103.8879
  1455.0000      0.0000    743.9357     13.8365    109.1673
  1455.2500      0.0000    736.9145     13.7899    118.2385
  1455.5000      0.0000    735.6358     13.8044    127.8092
  1455.7500      0.0000    738.7888     13.8654    135.0232
  1456.0000      0.0000    743.0694     13.9513    138.6958
  1456.2500      0.0000    745.0815     14.0465    138.8565
  1456.5000      0.0000    743.5735     14.1464    136.2151
  1456.7500      0.0000    740.0777     14.2516    132.3411
  1457.0000      0.0000    737.1221     14.3630    129.2874
  1457.2500      0.0000    735.5306     14.4840    127.9463
  1457.5000      0.0000    733.8678     14.6241    126.7953
  1457.7500      0.0000    730.8876     14.7962    123.1285
  1458.0000      0.0000    727.8931     15.0017    116.0863
  1458.2500      0.0000    728.0319     15.2144    108.1443
  1458.5000      0.0000    733.4635     15.3835    103.0806
  1458.7500      0.0000    743.3394     15.4623    102.5764
  1459.0000      0.0000    754.3815     15.4391    105.1637
  1459.2500      0.0000    763.4486     15.3416    108.1365
  1459.5000      0.0000    769.2880     15.2154    109.8148
  1459.7500      0.0000    771.5345     15.0997    110.1087
  1460.0000      0.0000    769.3335     15.0133    109.6399
  1460.2500      0.0000    762.5560     14.9518    108.5803
  1460.5000      0.0000    753.7217     14.8949    106.2069
  1460.7500      0.0000    746.8599     14.8237    101.7898
  1461.0000      0.0000    744.2258     14.7388     96.0013
  1461.2500      0.0000    744.9645     14.6630     90.9503
  1461.5000      0.0000    746.8044     14.6258     88.3363
  1461.7500      0.0000    748.1422     14.6394     87.6430
  1462.0000      0.0000    748.5359     14.6868     86.5906
  1462.2500      0.0000    748.0455     14.7325     83.6047
  1462.5000      0.0000    746.6404     14.7471     79.3639
  1462.7500      0.0000    744.2579     14.7244     75.6832
  1463.0000      0.0000    741.2321     14.6807     73.6291
  1463.2500      0.0000    738.4019     14.6403     73.3102
  1463.5000      0.0000    736.5225     14.6204     74.7073
