~Version Information
VERS.                      2.0: CWLS Log ASCII Standard - VERSION 2.0
WRAP.                       NO: One line per depth step
~Well Information Block
STRT.FT               430.0000: 
STOP.FT              2074.0000: 
STEP.FT                 0.1000: 
NULL.                -999.2500: 
COMP.          Pioneer Natural Resources: COMPANY
WELL.             Fleming 11-2: WELL
FLD.           Purgatoire River: FIELD
LOC.           534' FNL & 160' FWL: LOCATION
CNTY.               Las Animas: COUNTY
SRVC.                Patterson: SERVICE COMPANY
DATE.          Tue Jun 27 10:07:47 2006: LOG DATE
UWI.           05 071 08491 00: UNIQUE WELL ID
STAT.                 Colorado: STATE
~Curve Information Block
DEPT.FT            0 000 00 00: Depth
DCAL.in                       : CDL Caliper
RHOB.g/cc                     : CDL Bulk Density
RHOC.g/cc                     : CDL Density Correction
DPOR.pu                       : CDL Density Porosity
GR.GAPI                       : Gamma Ray
NPOR.pu                       : Neutron Porosity
~Parameter Information Block
~A  Depth       DCAL        RHOB        RHOC        DPOR         GR         NPOR    
# ...
  1514.8000      7.8532      2.6077      0.0683      2.5626    107.2247     27.7943
  1514.9000      7.8532      2.6372      0.1027      0.7763    113.7504     27.4327
  1515.0000      7.8495      2.6519      0.0763     -0.1167    119.0474     26.9024
  1515.1000      7.8495      2.6626      0.0737     -0.7642    124.0725     26.7924
  1515.2000      7.8495      2.6707      0.1116     -1.2525    128.8557     26.4341
  1515.3000      7.8517      2.6630      0.1102     -0.7868    132.9081     25.2563
  1515.4000      7.8517      2.6446      0.0491      0.3281    136.0169     24.0365
  1515.5000      7.8627      2.6348      0.0471      0.9206    136.7858     23.6332
  1515.6000      7.8627      2.6324      0.0797      1.0644    133.7383     23.6408
  1515.7000      7.8627      2.6283      0.0089      1.3154    125.2601     23.3003
  1515.8000      7.8848      2.6260      0.0225      1.4570    113.8454     22.9249
  1515.9000      7.8848      2.6265      0.0332      1.4213    104.9445     23.1365
  1516.0000      7.8949      2.6306      0.0185      1.1774     99.2572     23.8883
  1516.1000      7.8949      2.6369      0.0314      0.7921     96.4933     24.4410
  1516.2000      7.8949      2.6346      0.0302      0.9354     96.5477     24.1706
  1516.3000      7.8890      2.6114      0.0576      2.3371     95.5131     23.5572
  1516.4000      7.8890      2.5739     -0.0434      4.6128     93.1806     23.4727
  1516.5000      7.8914      2.5481     -0.0122      6.1763     94.0831     23.5175
  1516.6000      7.8914      2.5417     -0.0049      6.5628     97.8994     22.7796
  1516.7000      7.8914      2.5398     -0.0044      6.6807    102.2415     21.9827
  1516.8000      7.8941      2.5342     -0.0235      7.0177    106.8161     22.2268
  1516.9000      7.8941      2.5264      0.0233      7.4896    108.7112     23.0011
  1517.0000      7.8805      2.5185      0.0172      7.9713    105.1709     23.6787
  1517.1000      7.8805      2.5179     -0.0092      8.0083     98.8847     24.1648
  1517.2000      7.8805      2.5346      0.0015      6.9959     94.1375     24.1289
  1517.3000      7.8642      2.5624      0.0652      5.3065     90.7538     23.6263
  1517.4000      7.8642      2.5904      0.0289      3.6106     88.3147     23.3378
  1517.5000      7.8525      2.6224      0.0546      1.6715     88.7029     23.3481
  1517.6000      7.8525      2.6548      0.1205     -0.2890     91.2237     23.1581
  1517.7000      7.8525      2.6744      0.1437     -1.4760     91.6630     22.9380
  1517.8000      7.8359      2.6755      0.1795     -1.5438     88.6282     22.9890
  1517.9000      7.8359      2.6619      0.1340     -0.7237     87.8463     23.2080
  1518.0000      7.8239      2.6500      0.0913     -0.0006     90.5657     23.6508
  1518.1000      7.8239      2.6506      0.1046     -0.0346     90.3481     24.1302
  1518.2000      7.8239      2.6507      0.1458     -0.0446     86.6403     23.9142
  1518.3000      7.8285      2.6363      0.0772      0.8331     82.0159     22.9104
  1518.4000      7.8285      2.6152      0.0104      2.1083     78.4242     21.9577
  1518.5000      7.8407      2.6047     -0.0027      2.7459     78.8900     21.4624
  1518.6000      7.8407      2.6070      0.0467      2.6048     82.1671     21.2858
  1518.7000      7.8407      2.6128      0.0428      2.2546     83.6281     21.3008
  1518.8000      7.8499      2.6178      0.0397      1.9520     80.6955     21.3927
  1518.9000      7.8499      2.6246      0.0228      1.5414     75.8325     21.3408
  1519.0000      7.8605      2.6344      0.0101      0.9467     71.2834     21.1662
  1519.1000      7.8605      2.6405      0.0572      0.5748     64.7610     21.1714
  1519.2000      7.8605      2.6381      0.0282      0.7223     58.3270     20.9572
  1519.3000      7.8687      2.6330      0.0494      1.0321     56.9482     20.0470
  1519.4000      7.8687      2.6266      0.0403      1.4153     57.6197     19.0894
  1519.5000      7.8744      2.6120      0.0401      2.3031     55.0912     18.8431
  1519.6000      7.8744      2.5911     -0.0007      3.5712     51.1352     19.1141
  1519.7000      7.8744      2.5757     -0.0110      4.5052     50.4687     19.3323
  1519.8000      7.8788      2.5705      0.0092      4.8203     55.3812     19.5232
  1519.9000      7.8788      2.5758      0.0029      4.4959     63.4246     19.7990
  1520.0000      7.8817      2.5918      0.0224      3.5256     68.5073     19.9488
  1520.1000      7.8817      2.6097      0.0785      2.4399     68.7244     20.2742
  1520.2000      7.8817      2.6207      0.0348      1.7772     66.6835     20.6495
  1520.3000      7.8836      2.6245      0.0498      1.5451     64.0652     20.5008
  1520.4000      7.8836      2.6224      0.0110      1.6711     66.1066     20.4522
  1520.5000      7.8818      2.6135      0.0617      2.2116     75.6394     21.2593
  1520.6000      7.8818      2.5948      0.0177      3.3469     85.1578     21.8501
  1520.7000      7.8818      2.5701      0.0239      4.8416     88.9313     21.1256
  1520.8000      7.8762      2.5518     -0.0186      5.9500     89.3940     19.8140
  1520.9000      7.8762      2.5467      0.0195      6.2631     90.5576     19.0946
  1521.0000      7.8700      2.5508     -0.0148      6.0120     92.3345     19.1050
  1521.1000      7.8700      2.5630      0.0063      5.2698     91.3277     19.1946
  1521.2000      7.8700      2.5800      0.0447      4.2447     86.0098     19.2634
  1521.3000      7.8635      2.5893      0.0480      3.6770     78.1527     19.4079
  1521.4000      7.8635      2.5852      0.0315      3.9267     70.3637     19.3511
  1521.5000      7.8547      2.5768      0.0404      4.4362     65.0666     19.3388
  1521.6000      7.8547      2.5703      0.0400      4.8300     62.1519     19.5722
  1521.7000      7.8547      2.5598      0.0060      5.4661     60.0778     19.4404
  1521.8000      7.8436      2.5415      0.0392      6.5757     58.6991     18.6069
  1521.9000      7.8436      2.5233      0.0374      7.6804     56.8024     17.7031
  1522.0000      7.8354      2.5183      0.0438      7.9840     54.9654     17.4396
  1522.1000      7.8354      2.5284      0.0171      7.3712     55.9244     17.6376
  1522.2000      7.8354      2.5418      0.0631      6.5563     58.4400     17.5609
  1522.3000      7.8291      2.5457      0.0805      6.3214     59.8316     17.1522
  1522.4000      7.8291      2.5407      0.0654      6.6265     60.8948     16.9495
  1522.5000      7.8249      2.5387      0.0610      6.7481     63.0778     17.0010
  1522.6000      7.8249      2.5443      0.0894      6.4063     66.8550     17.1945
  1522.7000      7.8249      2.5570      0.0769      5.6393     70.2976     17.5779
  1522.8000      7.8286      2.5766      0.1143      4.4487     71.1911     18.0541
  1522.9000      7.8286      2.5898      0.1313      3.6485     71.3610     18.4105
  1523.0000      7.8397      2.5870      0.0779      3.8158     71.5011     18.5935
  1523.1000      7.8397      2.5810      0.0834      4.1822     70.2111     18.7955
  1523.2000      7.8397      2.5765      0.1298      4.4563     70.6546     19.1524
  1523.3000      7.8487      2.5668      0.0546      5.0437     75.2669     19.6630
  1523.4000      7.8487      2.5572      0.0477      5.6256     80.0916     20.0211
  1523.5000      7.8481      2.5559      0.0386      5.7038     81.2347     20.1466
  1523.6000      7.8481      2.5615      0.0593      5.3635     79.4612     20.8482
  1523.7000      7.8481      2.5728      0.0218      4.6815     78.9215     22.1527
  1523.8000      7.8414      2.5905      0.1031      3.6068     83.9205     22.9183
  1523.9000      7.8414      2.6103      0.0774      2.4052     93.6765     22.4940
  1524.0000      7.8360      2.6263      0.1245      1.4339    102.7429     21.3447
  1524.1000      7.8360      2.6327      0.1148      1.0486    108.3392     20.6164
  1524.2000      7.8360      2.6307      0.0794      1.1726    111.5249     20.6703
  1524.3000      7.8359      2.6303      0.0934      1.1961    112.7594     20.7781
