~Version Information
VERS.                      2.0: CWLS Log ASCII Standard - VERSION 2.0
WRAP.                       NO: One line per depth step
~Well Information Block
STRT.FT               460.0000: 
STOP.FT              1349.5000: 
STEP.FT                 0.2500: 
NULL.                -999.2500: 
COMP.          Pioneer Natural Resources: COMPANY
WELL.              Dicks 32-5R: WELL
FLD.           Purgatorie River: FIELD
LOC.           1485' FNL & 1684' FEL: LOCATION
PROV.                 Colorado: PROVINCE
CNTY.               Las Animas: COUNTRY
SRVC.                Patterson: SERVICE COMPANY
DATE.          Thu Dec 08 23:11:15 2005: LOG DATE
UWI.                          : UNIQUE WELL ID
~Curve Information Block
DEPT.FT            0 000 00 00: Depth
SN.Ohm-m                      : IEL Short Normal
SP.mV                         : IEL Spontaneous Potential
DIR.Ohm-m                     : IEL Induction Resistivity
GR.GAPI                       : Gamma Ray
~Parameter Information Block
~A  Depth        SN          SP         DIR          GR     
# ...
   627.5000   2000.0000   2000.0000     22.4863    125.2269
   627.7500   2000.0000   2000.0000     22.4384    122.6007
   628.0000   2000.0000   2000.0000     22.2780    118.2649
   628.2500   2000.0000   2000.0000     21.9808    116.1472
   628.5000   2000.0000   2000.0000     21.5288    115.3155
   628.7500   2000.0000   2000.0000     20.9197    116.3496
   629.0000   2000.0000   2000.0000     20.1768    119.5085
   629.2500   2000.0000   2000.0000     19.3536    122.1444
   629.5000   2000.0000   2000.0000     18.5266    126.1261
   629.7500   2000.0000   2000.0000     17.7735    128.4297
   630.0000   2000.0000   2000.0000     17.1492    131.0410
   630.2500   2000.0000   2000.0000     16.6716    132.4488
   630.5000   2000.0000   2000.0000     16.3248    135.1702
   630.7500   2000.0000   2000.0000     16.0746    137.9981
   631.0000   2000.0000   2000.0000     15.8858    143.7481
   631.2500   2000.0000   2000.0000     15.7344    147.9665
   631.5000   2000.0000   2000.0000     15.6100    153.6948
   631.7500   2000.0000   2000.0000     15.5100    156.7638
   632.0000   2000.0000   2000.0000     15.4316    160.1839
   632.2500   2000.0000   2000.0000     15.3672    161.7464
   632.5000   2000.0000   2000.0000     15.3058    163.0076
   632.7500   2000.0000   2000.0000     15.2379    162.9541
   633.0000   2000.0000   2000.0000     15.1609    161.1053
   633.2500   2000.0000   2000.0000     15.0802    158.6578
   633.5000   2000.0000   2000.0000     15.0069    153.7777
   633.7500   2000.0000   2000.0000     14.9508    150.2228
   634.0000   2000.0000   2000.0000     14.9162    144.9149
   634.2500   2000.0000   2000.0000     14.9000    141.4800
   634.5000   2000.0000   2000.0000     14.8959    136.9123
   634.7500   2000.0000   2000.0000     14.8988    134.7994
   635.0000   2000.0000   2000.0000     14.9086    133.9768
   635.2500   2000.0000   2000.0000     14.9319    135.2001
   635.5000   2000.0000   2000.0000     14.9801    139.1942
   635.7500   2000.0000   2000.0000     15.0619    142.6602
   636.0000   2000.0000   2000.0000     15.1733    148.0185
   636.2500   2000.0000   2000.0000     15.2952    151.4569
   636.5000   2000.0000   2000.0000     15.4032    156.6503
   636.7500   2000.0000   2000.0000     15.4848    160.2446
   637.0000   2000.0000   2000.0000     15.5499    165.1819
   637.2500   2000.0000   2000.0000     15.6273    167.3035
   637.5000   2000.0000   2000.0000     15.7518    167.1772
   637.7500   2000.0000   2000.0000     15.9524    164.4908
   638.0000   2000.0000   2000.0000     16.2441    157.4647
   638.2500   2000.0000   2000.0000     16.6253    152.1395
   638.5000   2000.0000   2000.0000     17.0800    145.6527
   638.7500   2000.0000   2000.0000     17.5860    143.0674
   639.0000   2000.0000   2000.0000     18.1234    141.5151
   639.2500   2000.0000   2000.0000     18.6794    141.3792
   639.5000   2000.0000   2000.0000     19.2429    141.4501
   639.7500   2000.0000   2000.0000     19.7966    141.2798
   640.0000   2000.0000   2000.0000     20.3153    140.4113
   640.2500   2000.0000   2000.0000     20.7756    139.4215
   640.5000   2000.0000   2000.0000     21.1680    137.3780
   640.7500   2000.0000   2000.0000     21.5004    135.6038
   641.0000   2000.0000   2000.0000     21.7917    132.2302
   641.2500   2000.0000   2000.0000     22.0615    129.6383
   641.5000   2000.0000   2000.0000     22.3226    125.9804
   641.7500   2000.0000   2000.0000     22.5759    124.1858
   642.0000   2000.0000   2000.0000     22.8098    122.6148
   642.2500   2000.0000   2000.0000     23.0085    121.9227
   642.5000   2000.0000   2000.0000     23.1680    120.6897
   642.7500   2000.0000   2000.0000     23.3087    119.7197
   643.0000   2000.0000   2000.0000     23.4719    118.7234
   643.2500   2000.0000   2000.0000     23.6958    118.8190
   643.5000   2000.0000   2000.0000     23.9893    120.2381
   643.7500   2000.0000   2000.0000     24.3199    121.5528
   644.0000   2000.0000   2000.0000     24.6268    122.7062
   644.2500   2000.0000   2000.0000     24.8526    122.4077
   644.5000   2000.0000   2000.0000     24.9759    120.7652
   644.7500   2000.0000   2000.0000     25.0249    119.6752
   645.0000   2000.0000   2000.0000     25.0617    119.1045
   645.2500   2000.0000   2000.0000     25.1451    119.3202
   645.5000   2000.0000   2000.0000     25.2975    119.2414
   645.7500   2000.0000   2000.0000     25.5010    118.1039
   646.0000   2000.0000   2000.0000     25.7237    114.3192
   646.2500   2000.0000   2000.0000     25.9527    110.8351
   646.5000   2000.0000   2000.0000     26.1984    105.5400
   646.7500   2000.0000   2000.0000     26.4620    102.8088
   647.0000   2000.0000   2000.0000     26.6988    101.2052
   647.2500   2000.0000   2000.0000     26.8200    102.3911
   647.5000   2000.0000   2000.0000     26.7480    107.7649
   647.7500   2000.0000   2000.0000     26.4868    113.0744
   648.0000   2000.0000   2000.0000     26.1371    121.2738
   648.2500   2000.0000   2000.0000     25.8351    125.3844
   648.5000   2000.0000   2000.0000     25.6704    127.8432
   648.7500   2000.0000   2000.0000     25.6446    126.8603
   649.0000   2000.0000   2000.0000     25.6912    122.4957
   649.2500   2000.0000   2000.0000     25.7289    118.7842
   649.5000   2000.0000   2000.0000     25.7105    114.2196
   649.7500   2000.0000   2000.0000     25.6301    112.8557
   650.0000   2000.0000   2000.0000     25.4954    113.8088
   650.2500   2000.0000   2000.0000     25.3018    115.9202
   650.5000   2000.0000   2000.0000     25.0380    119.8735
   650.7500   2000.0000   2000.0000     24.7148    122.5004
   651.0000   2000.0000   2000.0000     24.3812    126.3660
   651.2500   2000.0000   2000.0000     24.1064    129.0572
   651.5000   2000.0000   2000.0000     23.9430    133.2246
   651.7500   2000.0000   2000.0000     23.9019    135.7877
   652.0000   2000.0000   2000.0000     23.9529    138.6794
   652.2500   2000.0000   2000.0000     24.0463    139.7959
   652.5000   2000.0000   2000.0000     24.1393    140.3438
   652.7500   2000.0000   2000.0000     24.2159    140.0374
   653.0000   2000.0000   2000.0000     24.2898    138.4717
   653.2500   2000.0000   2000.0000     24.3934    136.5710
   653.5000   2000.0000   2000.0000     24.5604    132.4553
   653.7500   2000.0000   2000.0000     24.8109    129.1055
   654.0000   2000.0000   2000.0000     25.1425    123.8227
   654.2500   2000.0000   2000.0000     25.5272    120.4746
   654.5000   2000.0000   2000.0000     25.9167    116.0199
   654.7500   2000.0000   2000.0000     26.2543    113.4450
   655.0000   2000.0000   2000.0000     26.4890    110.0920
   655.2500   2000.0000   2000.0000     26.5835    108.1464
   655.5000   2000.0000   2000.0000     26.5135    105.5015
   655.7500   2000.0000   2000.0000     26.2709    103.7196
   656.0000   2000.0000   2000.0000     25.8750    100.7296
   656.2500   2000.0000   2000.0000     25.3864     98.6491
   656.5000   2000.0000   2000.0000     24.9109     96.0993
   656.7500   2000.0000   2000.0000     24.5755     95.1181
   657.0000   2000.0000   2000.0000     24.4848     94.6493
   657.2500   2000.0000   2000.0000     24.6731     94.6814
   657.5000   2000.0000   2000.0000     25.0704     94.8384
   657.7500   2000.0000   2000.0000     25.5029     95.0578
   658.0000   2000.0000   2000.0000     25.7573     95.8204
   658.2500   2000.0000   2000.0000     25.7027     96.5376
   658.5000   2000.0000   2000.0000     25.3850     97.2060
   658.7500   2000.0000   2000.0000     24.9979     96.9720
   659.0000   2000.0000   2000.0000     24.7608     95.7217
   659.2500   2000.0000   2000.0000     24.8121     94.8219
   659.5000   2000.0000   2000.0000     25.1669     94.1837
   659.7500   2000.0000   2000.0000     25.7229     94.2670
   660.0000   2000.0000   2000.0000     26.3014     94.6965
   660.2500   2000.0000   2000.0000     26.7274     94.9450
   660.5000   2000.0000   2000.0000     26.9257     95.0265
   660.7500   2000.0000   2000.0000     26.9590     94.6961
