~Version Information
VERS.                      2.0: CWLS Log ASCII Standard - VERSION 2.0
WRAP.                       NO: One line per depth step
~Well Information Block
STRT.FT               840.0000: 
STOP.FT              1912.0000: 
STEP.FT                 0.1000: 
NULL.                -999.2500: 
COMP.          Petrogulf Corporation: COMPANY
WELL.             Kraft 17-23R: WELL
FLD.           Purgatorie River: FIELD
LOC.           1509' FSL & 1673' FWL: LOCATION
PROV.                 Colorado: PROVINCE
CNTY.               Las Animas: COUNTRY
SRVC.                Patterson: SERVICE COMPANY
DATE.          Wed Oct 12 07:01:14 2005: LOG DATE
UWI.                          : UNIQUE WELL ID
~Curve Information Block
DEPT.FT            0 000 00 00: Depth
DCAL.in                       : CDL Caliper
RHOB.g/cc                     : CDL Bulk Density
RHOC.g/cc                     : CDL Density Correction
DPOR.pu                       : CDL Density Porosity
GR.GAPI                       : Gamma Ray
NPOR.pu                       : Neutron Porosity
~Parameter Information Block
~A  Depth       DCAL        RHOB        RHOC        DPOR         GR         NPOR    
   840.0000      8.1544      2.2895     -0.4796     21.8462     87.6415     42.1034
   840.1000      8.1544      2.3295     -0.2216     19.4251     89.9158     42.0262
   840.2000      8.1544      2.3177     -0.3727     20.1367     94.1560     42.0475
   840.3000      8.1559      2.2591     -0.4339     23.6938     96.3814     42.2349
   840.4000      8.1559      2.2041     -0.5136     27.0226     95.3720     42.5231
   840.5000      8.1556      2.1813     -0.4753     28.4053     94.5161     42.8223
   840.6000      8.1556      2.1745     -0.4367     28.8154     95.9653     43.1421
   840.7000      8.1556      2.1616     -0.4762     29.5974     98.9762     43.3856
   840.8000      8.1521      2.1455     -0.4757     30.5734    102.9084     43.4313
   840.9000      8.1521      2.1377     -0.4499     31.0504    105.9092     43.4118
   841.0000      8.1561      2.1402     -0.4770     30.8947    104.9938     43.4599
   841.1000      8.1561      2.1451     -0.4827     30.5994     99.6040     43.4665
   841.2000      8.1561      2.1361     -0.4174     31.1430     93.2069     43.3647
   841.3000      8.1521      2.1128     -0.4970     32.5588     90.4964     43.2358
   841.4000      8.1521      2.0999     -0.5203     33.3383     91.1765     43.1109
   841.5000      8.1554      2.1166     -0.5365     32.3247     91.6163     43.1425
   841.6000      8.1554      2.1614     -0.5026     29.6096     89.6103     43.3881
   841.7000      8.1554      2.2228     -0.5017     25.8904     85.9035     43.5414
   841.8000      8.1548      2.2839     -0.4208     22.1863     84.0937     43.4667
   841.9000      8.1548      2.3255     -0.4317     19.6639     86.2681     43.3435
   842.0000      8.1535      2.3418     -0.4206     18.6772     90.4938     43.2269
   842.1000      8.1535      2.3359     -0.4038     19.0353     95.0836     43.1144
   842.2000      8.1535      2.3068     -0.4127     20.8014     98.8435     43.0995
   842.3000      8.1526      2.2630     -0.4553     23.4548     99.4369     43.2147
   842.4000      8.1526      2.2337     -0.5298     25.2314     97.0291     43.1078
   842.5000      8.1541      2.2329     -0.4795     25.2784     94.4986     42.5633
   842.6000      8.1541      2.2391     -0.5169     24.9034     94.3123     42.1558
   842.7000      8.1541      2.2427     -0.5188     24.6852     96.7191     42.2863
   842.8000      8.1519      2.2551     -0.4796     23.9317     99.6960     42.5840
   842.9000      8.1519      2.2744     -0.5143     22.7611    100.1826     42.6623
   843.0000      8.1561      2.2882     -0.5052     21.9278     97.4467     42.5357
   843.1000      8.1561      2.2929     -0.4470     21.6445     93.3749     42.4332
   843.2000      8.1561      2.2980     -0.4866     21.3348     88.7674     42.4553
   843.3000      8.1604      2.3108     -0.4698     20.5567     85.4735     42.4837
   843.4000      8.1604      2.3270     -0.4414     19.5778     87.1467     42.4650
   843.5000      8.1583      2.3408     -0.5094     18.7415     92.6080     42.4581
   843.6000      8.1583      2.3434     -0.4756     18.5815     97.0681     42.4595
   843.7000      8.1583      2.3270     -0.4466     19.5770     97.9696     42.4078
   843.8000      8.1607      2.3041     -0.4992     20.9660     94.9293     42.3434
   843.9000      8.1607      2.2902     -0.4380     21.8067     88.4499     42.3279
   844.0000      8.1590      2.2850     -0.5056     22.1231     81.5817     42.3007
   844.1000      8.1590      2.2879     -0.4936     21.9481     78.3073     42.2484
   844.2000      8.1590      2.2973     -0.4819     21.3780     78.7745     42.1618
   844.3000      8.1584      2.3052     -0.4726     20.8987     81.0441     41.9022
   844.4000      8.1584      2.3035     -0.4698     20.9980     83.8382     41.5506
   844.5000      8.1555      2.2988     -0.5325     21.2878     85.9877     41.3783
   844.6000      8.1555      2.3040     -0.4636     20.9712     88.5827     41.3952
   844.7000      8.1555      2.3201     -0.5515     19.9960     92.6003     41.4357
   844.8000      8.1573      2.3334     -0.4428     19.1901     96.1085     41.4225
   844.9000      8.1573      2.3317     -0.4782     19.2916     97.9586     41.3738
   845.0000      8.1588      2.3268     -0.4723     19.5862     98.7965     41.3605
   845.1000      8.1588      2.3287     -0.4266     19.4703     98.1104     41.5240
   845.2000      8.1588      2.3246     -0.3957     19.7193     95.1638     41.8916
   845.3000      8.1597      2.3051     -0.4410     20.9001     91.2665     42.1855
   845.4000      8.1597      2.2883     -0.5071     21.9223     87.1705     42.1677
   845.5000      8.1570      2.2932     -0.4704     21.6218     83.4462     41.9246
   845.6000      8.1570      2.3008     -0.4337     21.1619     82.5714     41.6342
   845.7000      8.1570      2.2834     -0.4572     22.2208     85.7857     41.3918
   845.8000      8.1517      2.2569     -0.5180     23.8215     90.5150     41.2868
   845.9000      8.1517      2.2548     -0.4668     23.9544     93.7178     41.3509
   846.0000      8.1518      2.2723     -0.4457     22.8885     93.5943     41.4772
   846.1000      8.1518      2.2797     -0.3949     22.4427     89.4348     41.5189
   846.2000      8.1518      2.2645     -0.4986     23.3610     83.1683     41.4288
   846.3000      8.1500      2.2411     -0.5032     24.7801     78.2061     41.2816
   846.4000      8.1500      2.2242     -0.5369     25.8038     76.2172     41.1958
   846.5000      8.1506      2.2211     -0.5461     25.9952     75.8542     41.1670
   846.6000      8.1506      2.2353     -0.5367     25.1318     74.9424     41.0563
   846.7000      8.1506      2.2565     -0.4683     23.8513     73.5521     40.8620
   846.8000      8.1510      2.2648     -0.4400     23.3431     73.4234     40.7347
   846.9000      8.1510      2.2674     -0.5014     23.1876     75.3157     40.6314
   847.0000      8.1599      2.2823     -0.4723     22.2855     78.3036     40.4900
   847.1000      8.1599      2.2927     -0.4390     21.6553     81.0490     40.4356
   847.2000      8.1599      2.2814     -0.5020     22.3392     83.2416     40.5267
   847.3000      8.1582      2.2646     -0.4567     23.3548     85.1104     40.7166
   847.4000      8.1582      2.2608     -0.4383     23.5853     86.8702     40.9237
   847.5000      8.1527      2.2716     -0.4313     22.9329     88.5946     40.9930
   847.6000      8.1527      2.2762     -0.3932     22.6547     89.9102     40.7787
   847.7000      8.1527      2.2606     -0.4731     23.5991     90.2102     40.4813
   847.8000      8.1590      2.2487     -0.5036     24.3234     89.1133     40.5009
   847.9000      8.1590      2.2560     -0.4717     23.8771     86.7685     40.8902
   848.0000      8.1586      2.2702     -0.4683     23.0175     83.3920     41.3899
   848.1000      8.1586      2.2814     -0.4884     22.3397     81.1893     41.7127
   848.2000      8.1586      2.2795     -0.4253     22.4528     83.2350     41.7989
   848.3000      8.1571      2.2622     -0.5224     23.5025     88.8212     41.8778
   848.4000      8.1571      2.2437     -0.5063     24.6220     93.9390     42.0600
   848.5000      8.1619      2.2282     -0.4412     25.5649     95.6796     42.1246
   848.6000      8.1619      2.2198     -0.5213     26.0756     94.2193     41.9477
   848.7000      8.1619      2.2286     -0.4410     25.5390     91.6202     41.6414
   848.8000      8.1622      2.2410     -0.4467     24.7872     89.6691     41.3978
   848.9000      8.1622      2.2372     -0.4615     25.0154     88.2430     41.4253
   849.0000      8.1666      2.2198     -0.4763     26.0735     87.8699     41.6868
   849.1000      8.1666      2.2013     -0.4705     27.1940     88.8705     41.9410
   849.2000      8.1666      2.1809     -0.4700     28.4282     89.8900     42.0742
   849.3000      8.1618      2.1528     -0.4675     30.1353     90.2077     42.1605
   849.4000      8.1618      2.1209     -0.5266     32.0696     89.3108     42.2997
   849.5000      8.1602      2.0856     -0.5600     34.2052     87.3534     42.4748
