~Version Information
VERS.                      2.0: CWLS Log ASCII Standard - VERSION 2.0
WRAP.                       NO: One line per depth step
~Well Information Block
STRT.FT               860.0000: 
STOP.FT              2362.5000: 
STEP.FT                 0.2500: 
NULL.                -999.2500: 
COMP.          Pioneer Natural Resources: COMPANY
WELL.            Cayenne 23-23: WELL
FLD.           Purgatoire River: FIELD
LOC.           2555' FSL & 2386' FWL: LOCATION
PROV.                 Colorado: PROVINCE
CNTY.               Las Animas: COUNTRY
SRVC.                Patterson: SERVICE COMPANY
DATE.          Wed Aug 17 06:47:40 2005: LOG DATE
UWI.           05 071 08476 00: UNIQUE WELL ID
~Curve Information Block
DEPT.FT            0 000 00 00: Depth
SN.Ohm-m                      : IEL Short Normal
SP.mV                         : IEL Spontaneous Potential
DIR.Ohm-m                     : IEL Induction Resistivity
GR.GAPI                       : Gamma Ray
~Parameter Information Block
~A  Depth        SN          SP         DIR          GR     
# ...
  1362.5000     12.7470    -54.4152 100000.0000    163.7801
  1362.7500     12.9654    -63.5110 100000.0000    162.4833
  1363.0000     13.4936    -74.2871 100000.0000    157.9865
  1363.2500     14.3050    -86.9400 100000.0000    154.3702
  1363.5000     15.1785   -101.6743 100000.0000    149.3056
  1363.7500     15.8477   -118.7206 100000.0000    146.4052
  1364.0000     16.2467   -138.3600 100000.0000    142.5208
  1364.2500     16.4748   -160.8983 100000.0000    139.8323
  1364.5000     16.5732   -186.5412 100000.0000    135.0898
  1364.7500     16.5195   -215.1835 100000.0000    131.6484
  1365.0000     16.3524   -246.2333 100000.0000    127.3209
  1365.2500     16.1499   -278.5595     12.5725    125.8052
  1365.5000     15.9152   -310.4940      2.0967    126.1623
  1365.7500     15.5146   -339.8256      0.9282    127.7520
  1366.0000     14.6928   -364.0914      0.5426    130.5157
  1366.2500     13.1823   -381.5079      0.3815    131.5960
  1366.5000     10.8626   -391.9884      0.3215    130.8783
  1366.7500      7.9458   -397.1402      0.3229    128.2215
  1367.0000      5.0543   -399.1727      0.3702    119.5677
  1367.2500      2.8624   -399.8090      0.4531    110.2276
  1367.5000      1.5994   -399.9657      0.5586     92.3403
  1367.7500      1.0564   -399.9958      0.6778     79.9194
  1368.0000      0.9112   -400.0003      0.8268     63.9629
  1368.2500      0.8855   -400.0003      1.0694     56.0767
  1368.5000      0.7882   -400.0003      1.5738     48.4355
  1368.7500      0.6060   -400.0003      2.9577     45.7718
  1369.0000      0.4900   -400.0003     11.3622     44.7594
  1369.2500      0.5443   -400.0003 100000.0000     45.8047
  1369.5000      0.7015   -400.0003 100000.0000     49.5456
  1369.7500      0.8405   -400.0003 100000.0000     53.0788
  1370.0000      0.9119   -400.0003 100000.0000     58.8082
  1370.2500      0.9182   -400.0003 100000.0000     62.1002
  1370.5000      0.8497   -399.9983 100000.0000     64.8414
  1370.7500      0.6923   -399.9820 100000.0000     64.5888
  1371.0000      0.4971   -399.8945 100000.0000     60.9432
  1371.2500      0.3657   -399.5223 100000.0000     56.9686
  1371.5000      0.3374   -398.2737 100000.0000     50.7616
  1371.7500      0.3731   -394.9590 100000.0000     47.8330
  1372.0000      0.4499   -387.9601 100000.0000     47.1067
  1372.2500      0.5894   -376.0992 100000.0000     49.5490
  1372.5000      0.7932   -359.6551 100000.0000     57.1593
  1372.7500      1.0834   -340.2734 100000.0000     63.9547
  1373.0000      1.7316   -319.5162 100000.0000     74.6462
  1373.2500      3.3427   -297.5816 100000.0000     80.9922
  1373.5000      6.3893   -273.5331 100000.0000     88.3232
  1373.7500     10.4250   -246.4734      5.3080     91.8402
  1374.0000     14.0105   -216.3952      1.6811     95.8905
  1374.2500     15.7359   -184.3533      1.0152     98.2405
  1374.5000     15.2036   -152.2225      0.8328    101.8762
  1374.7500     13.0998   -122.1605      0.8804    104.7966
  1375.0000     10.5984    -95.8930      1.1999    110.4474
  1375.2500      8.6177    -74.1923      2.2674    114.8214
  1375.5000      7.4401    -56.8608     10.5279    120.7412
  1375.7500      6.9385    -43.1148 100000.0000    123.2300
  1376.0000      7.1032    -32.0415 100000.0000    124.1388
  1376.2500      8.2919    -22.9003 100000.0000    123.3610
  1376.5000     10.8139    -15.2156 100000.0000    121.5516
  1376.7500     14.3686     -8.7112 100000.0000    120.4301
  1377.0000     18.1917     -3.1931 100000.0000    118.8703
  1377.2500     21.6654      1.5142 100000.0000    117.7912
  1377.5000     24.6127      5.5636 100000.0000    116.3738
  1377.7500     27.1307      9.0748 100000.0000    115.7409
  1378.0000     29.3253     12.1448 100000.0000    114.7590
  1378.2500     31.2391     14.8619 100000.0000    113.4647
  1378.5000     32.8982     17.3071 100000.0000    110.1757
  1378.7500     34.3449     19.5437 100000.0000    107.5828
  1379.0000     35.6221     21.6091 100000.0000    104.5098
  1379.2500     36.7123     23.5139 100000.0000    103.5343
  1379.5000     37.5599     25.2504 100000.0000    103.5557
  1379.7500     38.1370     26.8046 100000.0000    104.1033
  1380.0000     38.4283     28.1720 100000.0000    104.9468
  1380.2500     38.4588     29.3740 100000.0000    105.2000
  1380.5000     38.3452     30.4615 100000.0000    104.7932
  1380.7500     38.1882     31.4983 100000.0000    103.9451
  1381.0000     37.9590     32.5329 100000.0000    101.6399
  1381.2500     37.5879     33.5797 100000.0000     99.1065
  1381.5000     37.0909     34.6219 100000.0000     93.5287
  1381.7500     36.5623     35.6301    146.8362     89.1836
  1382.0000     36.0547     36.5841     39.8081     83.9096
  1382.2500     35.4241     37.4843     24.5187     82.5179
  1382.5000     34.3455     38.3431     19.1386     84.6275
  1382.7500     32.5695     39.1632     16.7788     88.5280
  1383.0000     30.1348     39.9245     15.6825     96.4822
  1383.2500     27.3712     40.5949     15.2103    101.9788
  1383.5000     24.7325     41.1568     15.1020    108.5831
  1383.7500     22.4961     41.6205     15.2496    111.0392
  1384.0000     20.6697     42.0121     15.5887    111.2105
  1384.2500     19.2167     42.3541     16.0381    109.3442
  1384.5000     18.1490     42.6573     16.4806    105.2438
  1384.7500     17.4074     42.9247     16.7918    102.8726
  1385.0000     16.8231     43.1581     16.8983    101.6709
  1385.2500     16.2480     43.3671     16.8111    102.9884
  1385.5000     15.6969     43.5760     16.5987    107.6510
  1385.7500     15.2629     43.8162     16.3327    111.4605
  1386.0000     14.9461     44.1033     16.0553    116.2950
  1386.2500     14.6615     44.4175     15.7814    118.6577
  1386.5000     14.3462     44.7124     15.5129    121.9323
  1386.7500     14.0074     44.9478     15.2480    124.5322
  1387.0000     13.6897     45.1178     14.9817    129.0546
  1387.2500     13.3933     45.2543     14.7060    132.1833
  1387.5000     13.0586     45.4056     14.4148    136.7761
  1387.7500     12.6951     45.6105     14.1111    139.6695
  1388.0000     12.4148     45.8809     13.8057    143.1623
  1388.2500     12.2652     46.1982     13.5097    144.4186
  1388.5000     12.1621     46.5185     13.2268    144.3373
  1388.7500     11.9878     46.7865     12.9540    143.2986
  1389.0000     11.6829     46.9593     12.6887    141.2440
  1389.2500     11.2958     47.0285     12.4352    139.9338
  1389.5000     10.9618     47.0215     12.2034    138.3226
  1389.7500     10.7849     46.9788     12.0038    137.6591
  1390.0000     10.7492     46.9293     11.8430    137.9738
  1390.2500     10.7585     46.8837     11.7245    139.5676
  1390.5000     10.7368     46.8395     11.6507    144.1901
  1390.7500     10.7031     46.7876     11.6260    147.9366
  1391.0000     10.7445     46.7180     11.6572    152.1164
  1391.2500     10.9120     46.6273     11.7517    153.0400
  1391.5000     11.1794     46.5218     11.9154    152.3212
  1391.7500     11.5005     46.4095     12.1513    151.5928
  1392.0000     11.8591     46.2900     12.4588    151.3024
  1392.2500     12.2495     46.1539     12.8343    151.2939
  1392.5000     12.6758     45.9901     13.2713    149.7695
  1392.7500     13.1736     45.7859     13.7620    146.8071
  1393.0000     13.7704     45.5248     14.2999    139.5033
  1393.2500     14.4614     45.1888     14.8829    133.9117
  1393.5000     15.2284     44.7679     15.5134    126.8389
  1393.7500     16.0655     44.2641     16.1961    123.4139
  1394.0000     17.0449     43.6897     16.9354    118.9711
  1394.2500     18.2533     43.0630     17.7325    115.6327
  1394.5000     19.6211     42.4081     18.5830    109.8629
  1394.7500     20.9771     41.7536     19.4793    105.9032
  1395.0000     22.2048     41.1266     20.4170    100.4760
  1395.2500     23.2276     40.5399     21.3995     97.5198
  1395.5000     24.0282     39.9819     22.4334     94.5276
  1395.7500     24.7009     39.4169     23.5139     93.5400
