~Version Information
VERS.                      2.0: CWLS Log ASCII Standard - VERSION 2.0
WRAP.                       NO: One line per depth step
~Well Information Block
STRT.FT               -10.0000: 
STOP.FT              1703.5000: 
STEP.FT                 0.2500: 
NULL.                -999.2500: 
COMP.          Pioneer Natural Resources: COMPANY
WELL.          Parrothead 31-31 Tr: WELL
FLD.           Purgatoire River: FIELD
LOC.           496' FNL & 1546' FEL--: LOCATION
PROV.                       CO: PROVINCE
CNTY.               Las Animas: COUNTRY
SRVC.          Patterson Wireline: SERVICE COMPANY
DATE.          Mon Nov 14 09:44:02 2005: LOG DATE
UWI.           05 071 08610 00: UNIQUE WELL ID
~Curve Information Block
DEPT.FT            0 000 00 00: Depth
CCL.                          : Casing Collar Locator
TT3.usec                      : CBL 3' Travel Time
AMP3.mV                       : CBL 3' Amplitude
GR.GAPI                       : Gamma Ray
~Parameter Information Block
~A  Depth       CCL         TT3         AMP3         GR     
# ...
   894.5000      0.0000    755.6984      9.8863    117.7901
   894.7500      0.0000    740.5703     10.0261    122.0911
   895.0000      0.0000    724.8663     10.1668    127.0307
   895.2500      0.0000    716.2482     10.2879    131.9575
   895.5000      0.0000    718.3154     10.3777    135.5236
   895.7500      0.0000    727.4597     10.4332    136.7430
   896.0000      0.0000    736.9723     10.4618    135.8149
   896.2500      0.0000    742.9315     10.4778    134.0798
   896.5000      0.0000    745.4498     10.4879    133.3598
   896.7500      0.0000    746.2014     10.4800    134.8982
   897.0000      0.0000    746.3653     10.4316    138.3242
   897.2500      0.0000    746.3471     10.3318    141.6921
   897.5000      0.0000    746.2167     10.1893    142.9438
   897.7500      0.0000    745.9449     10.0171    141.3596
   898.0000      0.0000    745.2538      9.8179    137.5289
   898.2500      0.0000    743.0369      9.5909    132.3404
   898.5000      0.0000    736.5236      9.3482    126.4823
   898.7500      0.0000    721.2419      9.1193    120.8241
   899.0000      0.0000    693.5706      8.9348    116.8045
   899.2500      0.0000    655.7964      8.8082    116.0279
   899.5000      0.0000    618.6619      8.7337    119.3178
   899.7500      0.0000    596.1569      8.6960    126.1529
   900.0000      0.0000    596.0030      8.6800    134.9987
   900.2500      0.0000    615.7449      8.6681    143.9671
   900.5000      0.0000    647.1958      8.6367    151.1846
   900.7500      0.0000    681.9233      8.5636    155.1856
   901.0000      0.0000    712.9488      8.4454    155.6092
   901.2500      0.0000    735.2885      8.3030    153.4376
   901.5000      0.0000    747.2885      8.1639    150.1242
   901.7500      0.0000    750.9190      8.0414    146.3093
   902.0000      0.0000    750.0384      7.9392    141.5839
   902.2500      0.0000    748.1317      7.8724    135.5939
   902.5000      0.0000    747.1277      7.8703    129.0242
   902.7500      0.0000    747.6606      7.9527    123.1329
   903.0000      0.0000    749.7931      8.1071    118.4397
   903.2500      0.0000    753.3063      8.2922    114.1526
   903.5000      0.0000    757.4221      8.4669    108.9296
   903.7500      0.0000    760.7442      8.6152    102.4111
   904.0000      0.0000    761.8501      8.7405     96.3080
   904.2500      0.0000    759.9720      8.8374     93.8602
   904.5000      0.0000    755.0024      8.8847     97.7489
   904.7500      0.0000    746.7288      8.8754    108.0591
   905.0000      0.0000    734.6023      8.8424    121.9788
   905.2500      0.0000    719.5682      8.8282    135.4489
   905.5000      0.0000    706.2334      8.8281    145.3699
   905.7500      0.0000    700.6709      8.7862    150.8167
   906.0000      0.0000    703.5278      8.6553    152.8934
   906.2500      0.0000    706.9773      8.4474    153.6537
   906.5000      0.0000    701.5746      8.2156    154.7817
   906.7500      0.0000    686.1166      8.0014    156.8480
   907.0000      0.0000    669.2770      7.8240    159.4145
   907.2500      0.0000    662.1479      7.7100    161.6093
   907.5000      0.0000    669.9431      7.6964    162.6739
   907.7500      0.0000    689.3292      7.7869    162.3188
   908.0000      0.0000    711.7921      7.9292    160.5408
   908.2500      0.0000    729.6570      8.0592    156.9834
   908.5000      0.0000    740.1039      8.1599    150.6797
   908.7500      0.0000    744.6330      8.2603    140.7237
   909.0000      0.0000    746.0572      8.3776    127.3009
   909.2500      0.0000    746.3914      8.4759    112.2268
   909.5000      0.0000    746.5724      8.4971     98.5276
   909.7500      0.0000    747.0519      8.4300     89.0868
   910.0000      0.0000    747.9989      8.3395     85.1021
   910.2500      0.0000    748.8176      8.3210     85.6858
   910.5000      0.0000    747.4603      8.4243     89.0542
   910.7500      0.0000    741.2606      8.6220     93.8132
   911.0000      0.0000    730.0303      8.8514     98.8600
   911.2500      0.0000    718.5856      9.0786    102.6832
   911.5000      0.0000    714.1851      9.3109    103.7327
   911.7500      0.0000    719.8472      9.5497    101.7014
   912.0000      0.0000    731.2587      9.7538     98.0112
   912.2500      0.0000    741.3318      9.8602     94.9201
   912.5000      0.0000    746.4334      9.8351     93.9719
   912.7500      0.0000    747.3817      9.6986     94.7242
   913.0000      0.0000    746.1617      9.5054     94.8261
   913.2500      0.0000    742.9531      9.3062     91.8824
   913.5000      0.0000    734.9780      9.1234     85.7337
   913.7500      0.0000    717.1016      8.9583     79.0312
   914.0000      0.0000    685.3532      8.8186     75.3925
   914.2500      0.0000    643.2853      8.7268     76.6227
   914.5000      0.0000    605.2855      8.6972     81.4469
   914.7500      0.0000    589.7893      8.7115     86.8059
   915.0000      0.0000    605.3973      8.7266     90.3355
   915.2500      0.0000    643.5150      8.7115     91.7332
   915.5000      0.0000    685.6793      8.6727     92.2033
   915.7500      0.0000    717.4506      8.6466     93.1324
   916.0000      0.0000    735.2151      8.6674     95.1737
   916.2500      0.0000    742.8469      8.7429     97.9327
   916.5000      0.0000    745.4327      8.8553    100.2746
   916.7500      0.0000    746.1210      8.9779    101.2880
   917.0000      0.0000    746.1703      9.0884    101.2144
   917.2500      0.0000    745.9556      9.1721    101.3142
   917.5000      0.0000    745.6212      9.2224    102.6056
   917.7500      0.0000    745.3051      9.2411    104.8596
   918.0000      0.0000    745.1096      9.2310    107.0515
   918.2500      0.0000    745.0592      9.1887    108.5119
   918.5000      0.0000    745.1121      9.1098    109.3230
   918.7500      0.0000    745.2150      9.0018    109.8207
   919.0000      0.0000    745.3377      8.8863    109.9727
   919.2500      0.0000    745.4642      8.7862    109.1300
   919.5000      0.0000    745.5738      8.7137    106.5618
   919.7500      0.0000    745.6345      8.6680    102.6382
   920.0000      0.0000    745.6242      8.6397     99.1931
   920.2500      0.0000    745.5661      8.6140     98.1452
   920.5000      0.0000    745.5323      8.5761     99.7629
   920.7500      0.0000    745.5906      8.5167    102.5436
   921.0000      0.0000    745.7452      8.4367    104.7535
   921.2500      0.0000    745.9436      8.3517    106.0359
   921.5000      0.0000    746.1447      8.2932    107.4742
   921.7500      0.0000    746.3630      8.2942    110.2058
   922.0000      0.0000    746.6311      8.3612    114.3224
   922.2500      0.0000    746.9200      8.4632    119.1788
   922.5000      0.0000    747.1272      8.5536    124.1965
   922.7500      0.0000    747.1579      8.6042    128.9063
   923.0000      0.0000    747.0015      8.6133    132.6909
   923.2500      0.0000    746.7197      8.5899    135.1783
   923.5000      0.0000    746.3972      8.5441    136.8404
   923.7500      0.0000    746.1188      8.4934    138.7991
   924.0000      0.0000    745.9495      8.4636    141.7122
   924.2500      0.0000    745.8966      8.4761    144.7083
   924.5000      0.0000    745.9059      8.5363    145.8739
   924.7500      0.0000    745.9190      8.6264    144.3795
   925.0000      0.0000    745.9249      8.6998    141.6628
   925.2500      0.0000    745.9445      8.6959    139.9420
   925.5000      0.0000    745.9828      8.5794    140.1185
   925.7500      0.0000    746.0248      8.3762    141.6299
   926.0000      0.0000    746.0674      8.1697    143.5148
   926.2500      0.0000    746.1320      8.0541    144.7932
   926.5000      0.0000    746.2386      8.0839    144.2823
   926.7500      0.0000    746.3838      8.2501    141.0768
   927.0000      0.0000    746.5334      8.4925    135.4979
   927.2500      0.0000    746.6328      8.7308    129.1647
   927.5000      0.0000    746.5993      8.8850    123.8703
   927.7500      0.0000    746.2531      8.8706    120.4359
