~Version Information
VERS.                      2.0: CWLS Log ASCII Standard - VERSION 2.0
WRAP.                       NO: One line per depth step
~Well Information Block
STRT.FT               262.2500: 
STOP.FT              1942.0000: 
STEP.FT                 0.2500: 
NULL.                -999.2500: 
COMP.          XTO Energy Inc.: COMPANY
WELL.          Golden Eagle 19-11: WELL
FLD.           Purgatoire River: FIELD
LOC.           2351' FSL & 1926' FWL--: LOCATION
CNTY.               Las Animas: COUNTY
SRVC.                Patterson: SERVICE COMPANY
DATE.          Wed Mar 08 23:33:01 2006: LOG DATE
UWI.           05 071 08696 00: UNIQUE WELL ID
STAT.                 Colorado: STATE
~Curve Information Block
DEPT.FT            0 000 00 00: Depth
SP.mV                         : DIL Spontaneous Potential
RILD.Ohm-m                    : DIL Deep Resistivity
RILM.Ohm-m                    : DIL Medium Resistivity
RLL3.Ohm-m                    : DIL Shallow Resistivity
GR.GAPI                       : Gamma Ray
~Parameter Information Block
~A  Depth        SP         RILD        RILM        RLL3         GR     
# ...
  1382.2500   2008.0000     11.1433     10.1330   2000.0000     81.1870
  1382.5000   2008.0000     11.2958     10.3234   2000.0000     79.8716
  1382.7500   2008.0000     11.4281     10.6949   2000.0000     77.4154
  1383.0000   2008.0000     11.5515     11.2374   2000.0000     71.6129
  1383.2500   2008.0000     11.6854     11.9374   2000.0000     67.0878
  1383.5000   2008.0000     11.8506     12.7810   2000.0000     60.8801
  1383.7500   2008.0000     12.0620     13.7529   2000.0000     57.6297
  1384.0000   2008.0000     12.3248     14.8304   2000.0000     54.0334
  1384.2500   2008.0000     12.6327     15.9723   2000.0000     52.2582
  1384.5000   2008.0000     12.9653     17.1051   2000.0000     50.3184
  1384.7500   2008.0000     13.2857     18.1144   2000.0000     49.5690
  1385.0000   2008.0000     13.5407     18.8524   2000.0000     49.8070
  1385.2500   2008.0000     13.6682     19.1726   2000.0000     51.5204
  1385.5000   2008.0000     13.6136     18.9873   2000.0000     57.7358
  1385.7500   2008.0000     13.3481     18.3115   2000.0000     64.6422
  1386.0000   2008.0000     12.8789     17.2574   2000.0000     77.9879
  1386.2500   2008.0000     12.2462     15.9778   2000.0000     87.2679
  1386.5000   2008.0000     11.5103     14.6101   2000.0000     98.8660
  1386.7500   2008.0000     10.7358     13.2510   2000.0000    104.1064
  1387.0000   2008.0000      9.9782     11.9619   2000.0000    108.3200
  1387.2500   2008.0000      9.2764     10.7820   2000.0000    109.4589
  1387.5000   2008.0000      8.6525      9.7368   2000.0000    110.2635
  1387.7500   2008.0000      8.1155      8.8408   2000.0000    110.7411
  1388.0000   2008.0000      7.6652      8.0981   2000.0000    111.1245
  1388.2500   2008.0000      7.2945      7.5032   2000.0000    110.6974
  1388.5000   2008.0000      6.9914      7.0436   2000.0000    108.9656
  1388.7500   2008.0000      6.7417      6.7021   2000.0000    107.6486
  1389.0000   2008.0000      6.5316      6.4592   2000.0000    106.3719
  1389.2500   2008.0000      6.3513      6.2952   2000.0000    105.8913
  1389.5000   2008.0000      6.1960      6.1917   2000.0000    104.5607
  1389.7500   2008.0000      6.0655      6.1324   2000.0000    102.6341
  1390.0000   2008.0000      5.9616      6.1034   2000.0000     98.1758
  1390.2500   2008.0000      5.8870      6.0938   2000.0000     94.7971
  1390.5000   2008.0000      5.8435      6.0949   2000.0000     90.4983
  1390.7500   2008.0000      5.8311      6.1002   2000.0000     88.5869
  1391.0000   2008.0000      5.8481      6.1056   2000.0000     86.9606
  1391.2500   2008.0000      5.8926      6.1096   2000.0000     86.3295
  1391.5000   2008.0000      5.9629      6.1147   2000.0000     85.6496
  1391.7500   2008.0000      6.0583      6.1266   2000.0000     85.3771
  1392.0000   2008.0000      6.1785      6.1535   2000.0000     85.6347
  1392.2500   2008.0000      6.3218      6.2045   2000.0000     86.6618
  1392.5000   2008.0000      6.4835      6.2888   2000.0000     89.9049
  1392.7500   2008.0000      6.6560      6.4153   2000.0000     92.8129
  1393.0000   2008.0000      6.8308      6.5926   2000.0000     96.6762
  1393.2500   2008.0000      7.0026      6.8269   2000.0000     98.1820
  1393.5000   2008.0000      7.1715      7.1188   2000.0000     99.1108
  1393.7500   2008.0000      7.3435      7.4599   2000.0000     99.7326
  1394.0000   2008.0000      7.5277      7.8323   2000.0000    101.9791
  1394.2500   2008.0000      7.7333      8.2121   2000.0000    104.3161
  1394.5000   2008.0000      7.9665      8.5770   2000.0000    107.7145
  1394.7500   2008.0000      8.2296      8.9151   2000.0000    109.0418
  1395.0000   2008.0000      8.5200      9.2285   2000.0000    109.2501
  1395.2500   2008.0000      8.8311      9.5298   2000.0000    108.6407
  1395.5000   2008.0000      9.1534      9.8333   2000.0000    107.4995
  1395.7500   2008.0000      9.4757     10.1458   2000.0000    106.7917
  1396.0000   2008.0000      9.7856     10.4608   2000.0000    105.8127
  1396.2500   2008.0000     10.0723     10.7590   2000.0000    105.2854
  1396.5000   2008.0000     10.3300     11.0159   2000.0000    104.9352
  1396.7500   2008.0000     10.5604     11.2151   2000.0000    105.0400
  1397.0000   2008.0000     10.7717     11.3579   2000.0000    105.6403
  1397.2500   2008.0000     10.9748     11.4640   2000.0000    106.4020
  1397.5000   2008.0000     11.1792     11.5618   2000.0000    108.2439
  1397.7500   2008.0000     11.3920     11.6774   2000.0000    109.7106
  1398.0000   2008.0000     11.6166     11.8289   2000.0000    111.2037
  1398.2500   2008.0000     11.8534     12.0261   2000.0000    111.0805
  1398.5000   2008.0000     12.1000     12.2730   2000.0000    108.6592
  1398.7500   2008.0000     12.3541     12.5697   2000.0000    105.5404
  1399.0000   2008.0000     12.6163     12.9133   2000.0000     99.0991
  1399.2500   2008.0000     12.8928     13.2969   2000.0000     94.3376
  1399.5000   2008.0000     13.1946     13.7109   2000.0000     88.2767
  1399.7500   2008.0000     13.5329     14.1468   2000.0000     85.9121
  1400.0000   2008.0000     13.9141     14.6008   2000.0000     85.5955
  1400.2500   2008.0000     14.3379     15.0767   2000.0000     87.2649
  1400.5000   2008.0000     14.7986     15.5835   2000.0000    106.0900
  1400.7500   2008.0000     15.2887     16.1320   2000.0000    108.1892
  1401.0000   2008.0000     15.8019     16.7293   2000.0000    107.8219
  1401.2500   2008.0000     16.3324     17.3742   2000.0000    104.9356
  1401.5000   2008.0000     16.8727     18.0530   2000.0000    112.3857
  1401.7500   2008.0000     17.4132     18.7365   2000.0000    107.5536
  1402.0000   2008.0000     17.9454     19.3840   2000.0000    103.5018
  1402.2500   2008.0000     18.4659     19.9537   2000.0000    103.7457
  1402.5000   2008.0000     18.9789     20.4194   2000.0000    108.0856
  1402.7500   2008.0000     19.4927     20.7846   2000.0000    112.4859
  1403.0000   2008.0000     20.0120     21.0855   2000.0000    118.8039
  1403.2500   2008.0000     20.5321     21.3782   2000.0000    121.7482
  1403.5000   2008.0000     21.0418     21.7170   2000.0000    123.9379
  1403.7500   2008.0000     21.5336     22.1371   2000.0000    124.2535
  1404.0000   2008.0000     22.0123     22.6487   2000.0000    123.3376
  1404.2500   2008.0000     22.4941     23.2451   2000.0000    121.8366
  1404.5000   2008.0000     22.9945     23.9141   2000.0000    118.8175
  1404.7500   2008.0000     23.5169     24.6444   2000.0000    116.8956
  1405.0000   2008.0000     24.0495     25.4233   2000.0000    114.9295
  1405.2500   2008.0000     24.5731     26.2277   2000.0000    114.3572
  1405.5000   2008.0000     25.0721     27.0232   2000.0000    114.2152
  1405.7500   2008.0000     25.5414     27.7752   2000.0000    114.0196
  1406.0000   2008.0000     25.9818     28.4658   2000.0000    112.5404
  1406.2500   2008.0000     26.3925     29.0995   2000.0000    110.5318
  1406.5000   2008.0000     26.7682     29.6898   2000.0000    106.0868
  1406.7500   2008.0000     27.1035     30.2351   2000.0000    102.1283
  1407.0000   2008.0000     27.3955     30.7023   2000.0000     94.5398
  1407.2500   2008.0000     27.6411     31.0314   2000.0000     88.7361
  1407.5000   2008.0000     27.8353     31.1632   2000.0000     80.7639
  1407.7500   2008.0000     27.9792     31.0761   2000.0000     77.3328
  1408.0000   2008.0000     28.0945     30.8060   2000.0000     76.6124
  1408.2500   2008.0000     28.2276     30.4377   2000.0000     79.0585
  1408.5000   2008.0000     28.4348     30.0761   2000.0000     85.4604
  1408.7500   2008.0000     28.7555     29.8172   2000.0000     90.0846
  1409.0000   2008.0000     29.1933     29.7331   2000.0000     95.2898
  1409.2500   2008.0000     29.7146     29.8675   2000.0000     96.8399
  1409.5000   2008.0000     30.2672     30.2370   2000.0000     95.8584
  1409.7500   2008.0000     30.8021     30.8318   2000.0000     93.0174
  1410.0000   2008.0000     31.2838     31.6153   2000.0000     85.9689
