~Version Information
 VERS.                                  2.0 : CWLS LAS VERSION
 WRAP.                                   NO : WRAPING MODE
 SWARE .                 MController 2.5.0J : SOFTWARE VERSION
~Well Information
 WELL.                        Montoya 7-14R : WELL
 COMP.                Petrogulf Corporation : COMPANY
 FLD.                      Purgatoire River : FIELD
 LOC.                 SW/SW Sec 7 T33S R67W : LOCATION
 DATE.                            10/7-8/05 : DATE(S) LOGGED
 SRVC.       BLANCO Geological Services LLC : SERVICE COMPANY
 STAT.                                   CO : STATE
 CNTY.                           Las Animas : COUNTY
 CTRY.                                  USA : COUNTRY
 API.                       05-071-08554-00 : API NUMBER
 STRT.FT                             769.00 : START DEPTH
 STOP.FT                            1960.00 : STOP DEPTH
 STEP.FT                               1.00 : DEPTH INCREMENT
 NULL.                                -9999 : NULL VALUE
~Curve information
 DEPTH.FT                                   :
 ROP.MIN/FT                                 :
 GAS.UNITS                                  :
~ASCII Log data
       769.0     -9999.00          8.9 
       770.0         0.23          9.0 
       771.0         0.23          9.2 
       772.0         0.22          9.4 
       773.0         0.07          9.4 
       774.0         0.17          9.1 
       775.0         0.17          9.4 
       776.0         0.13          9.3 
       777.0         0.13          9.1 
       778.0         0.13          9.1 
       779.0         0.25          9.1 
       780.0         1.27          9.3 
       781.0         0.30          9.2 
       782.0         0.30          9.4 
       783.0         0.27          9.3 
       784.0         0.28          9.4 
       785.0         0.27          9.1 
       786.0         0.23          9.1 
       787.0         0.23          9.0 
       788.0         0.23          9.0 
       789.0         0.23          8.8 
       790.0         0.23          8.9 
       791.0         0.20          9.1 
       792.0         0.23          8.6 
       793.0         0.27          7.0 
       794.0         0.20          4.4 
       795.0         0.32          4.7 
       796.0         0.23          4.5 
       797.0         0.23          4.2 
       798.0         0.23          3.8 
       799.0         0.23          3.8 
       800.0         0.17          3.5 
       801.0         0.20          3.7 
       802.0         0.27          3.7 
       803.0         0.23          3.6 
       804.0         0.20          3.7 
       805.0         0.20          3.5 
       806.0         0.23          3.5 
       807.0         0.20          3.3 
       808.0         0.13          3.4 
       809.0         0.20          4.9 
       810.0         0.85        113.4 
       811.0         0.43        129.9 
       812.0         0.37         97.1 
       813.0         0.27         44.0 
       814.0         0.27         19.9 
       815.0         0.23          8.1 
       816.0         0.20          3.4 
       817.0         0.23          1.2 
       818.0         0.22          0.1 
       819.0         0.20          0.7 
       820.0         0.20          0.8 
       821.0         0.20          0.6 
       822.0         0.17          0.8 
       823.0         0.20          0.7 
       824.0         0.17          0.6 
       825.0         0.17          0.4 
       826.0         0.13          0.1 
       827.0         0.20          0.3 
       828.0         0.13          0.0 
       829.0         0.17          0.3 
       830.0         0.20          0.4 
       831.0         0.13          1.0 
       832.0         0.10          1.5 
       833.0         0.13          1.9 
       834.0         0.10          2.3 
       835.0         0.17          2.4 
       836.0         0.13          2.4 
       837.0         0.10          2.1 
       838.0         0.15          2.1 
       839.0         0.17          3.2 
       840.0         0.90         95.8 
       841.0         0.10         89.7 
       842.0         0.13         78.1 
       843.0         0.17         65.1 
       844.0         0.13         44.8 
       845.0         0.23         31.8 
       846.0         0.17         18.0 
       847.0         0.20         10.7 
       848.0         0.20          6.0 
       849.0         0.20          3.5 
       850.0         0.22          2.3 
       851.0         0.20          1.7 
       852.0         0.20          1.2 
       853.0         0.23          1.0 
       854.0         0.17          1.1 
       855.0         0.20          1.2 
       856.0         0.23          1.1 
       857.0         0.17          1.0 
       858.0         0.17          1.1 
       859.0         0.20          0.9 
       860.0         0.20          1.0 
       861.0         0.20          1.0 
       862.0         0.17          1.3 
       863.0         0.20          1.4 
       864.0         0.13          1.1 
       865.0         0.18          1.4 
       866.0         0.20          1.1 
       867.0         0.17          1.6 
       868.0         0.17          1.0 
       869.0         0.20          1.6 
       870.0         1.00        100.9 
       871.0         0.20        119.7 
       872.0         0.17        120.0 
       873.0         0.30        110.3 
       874.0         0.23         68.0 
       875.0         0.27         37.2 
       876.0         0.27         18.0 
       877.0         0.28          8.3 
       878.0         0.23          3.1 
       879.0         0.20          1.8 
       880.0         0.20          1.0 
       881.0         0.20          1.0 
       882.0         0.17          0.8 
       883.0         0.20          0.6 
       884.0         0.20          0.8 
       885.0         0.23          0.8 
       886.0         0.30          0.8 
       887.0         0.30          0.9 
       888.0         0.30          1.2 
       889.0         0.22          1.1 
       890.0         0.20          1.5 
       891.0         0.27          1.5 
       892.0         0.13          1.3 
       893.0         0.17          1.3 
       894.0         0.17          1.4 
       895.0         0.20          1.5 
       896.0         0.20          1.3 
       897.0         0.20          1.3 
       898.0         0.20          1.4 
       899.0         0.17          1.4 
       900.0         1.68        143.6 
       901.0         0.37        127.1 
       902.0         0.27         62.3 
       903.0         0.23         29.7 
       904.0         0.17         15.3 
       905.0         0.13         10.4 
       906.0         0.17          6.7 
       907.0         0.17          4.5 
       908.0         0.10          2.4 
       909.0         0.23          1.9 
       910.0         0.20          3.8 
       911.0         0.20          7.4 
       912.0         0.22          8.0 
       913.0         0.20          6.9 
       914.0         0.17          4.6 
       915.0         0.17          3.5 
       916.0         0.17          3.4 
       917.0         0.17          4.2 
       918.0         0.13          6.4 
       919.0         0.13         10.4 
       920.0         0.13         13.5 
       921.0         0.17         14.4 
       922.0         0.13         13.4 
       923.0         0.20         11.1 
       924.0         0.17          8.3 
       925.0         0.20         14.2 
       926.0         0.23         24.5 
       927.0         0.23         25.3 
       928.0         0.20         22.7 
       929.0         0.22         45.9 
       930.0         1.73        270.0 
       931.0         0.33         82.6 
       932.0         0.37         35.9 
       933.0         0.27         12.9 
       934.0         0.25          5.7 
       935.0         0.23          2.3 
       936.0         0.20          2.3 
       937.0         0.20          4.9 
       938.0         0.20          7.9 
       939.0         0.17          9.1 
       940.0         0.20          9.1 
       941.0         0.23          7.7 
       942.0         0.17          6.5 
       943.0         0.20          6.4 
       944.0         0.20          6.5 
       945.0         0.23          6.4 
       946.0         0.20          4.1 
       947.0         0.20          2.3 
       948.0         0.18          1.6 
       949.0         0.20          0.8 
       950.0         0.17          0.7 
       951.0         0.20          0.5 
       952.0         0.17          0.6 
       953.0         0.20          0.9 
       954.0         0.17          1.0 
       955.0         0.20          0.7 
       956.0         0.17          0.8 
       957.0         0.20          0.6 
       958.0         0.17          1.1 
       959.0         0.27          0.9 
       960.0         3.08        106.9 
       961.0         0.27         12.6 
       962.0         0.20          5.3 
       963.0         0.27          3.3 
       964.0         0.27          1.7 
       965.0         0.22          1.2 
       966.0         0.17          1.1 
       967.0         0.20          1.1 
       968.0         0.27          1.0 
