~Version Information
VERS.                      2.0: CWLS Log ASCII Standard - VERSION 2.0
WRAP.                       NO: One line per depth step
~Well Information Block
STRT.FT               830.0000: 
STOP.FT              1792.5000: 
STEP.FT                 0.1000: 
NULL.                -999.2500: 
COMP.          Pioneer Natural Resources: COMPANY
WELL.           Rolls 14-14 Tr: WELL
FLD.           Purgatoire River: FIELD
LOC.           473' FSL & 817' FWL: LOCATION
PROV.                 Colorado: PROVINCE
CNTY.               Las Animas: COUNTRY
SRVC.                Patterson: SERVICE COMPANY
DATE.          Wed Aug 03 07:11:37 2005: LOG DATE
UWI.           05 071 08454 00: UNIQUE WELL ID
~Curve Information Block
DEPT.FT            0 000 00 00: Depth
DCAL.in                       : CDL Caliper
RHOB.g/cc                     : CDL Bulk Density
RHOC.g/cc                     : CDL Density Correction
DPOR.pu                       : CDL Density Porosity
GR.GAPI                       : Gamma Ray
NPOR.pu                       : Neutron Porosity
~Parameter Information Block
~A  Depth       DCAL        RHOB        RHOC        DPOR         GR         NPOR    
# ...
  1780.4000      7.9849      2.6286      0.0136      1.2959   -999.2500   -999.2500
  1780.5000      7.9553      2.6542      0.0488     -0.2560   -999.2500   -999.2500
  1780.6000      7.9553      2.6564      0.0655     -0.3876   -999.2500   -999.2500
  1780.7000      7.9553      2.6264      0.0511      1.4323   -999.2500   -999.2500
  1780.8000      7.9472      2.5915     -0.0105      3.5452   -999.2500   -999.2500
  1780.9000      7.9472      2.5732     -0.0105      4.6540   -999.2500   -999.2500
  1781.0000      7.9783      2.5632      0.0481      5.2580   -999.2500   -999.2500
  1781.1000      7.9783      2.5521     -0.0056      5.9341   -999.2500   -999.2500
  1781.2000      7.9783      2.5574      0.0000      5.6109   -999.2500   -999.2500
  1781.3000      7.9713      2.5874      0.0738      3.7944   -999.2500   -999.2500
  1781.4000      7.9713      2.6143      0.1186      2.1610   -999.2500   -999.2500
  1781.5000      7.9819      2.6110      0.1471      2.3636   -999.2500   -999.2500
  1781.6000      7.9819      2.5848      0.1121      3.9496   -999.2500   -999.2500
  1781.7000      7.9819      2.5593      0.1014      5.4995   -999.2500   -999.2500
  1781.8000      7.9352      2.5400      0.0711      6.6663   -999.2500   -999.2500
  1781.9000      7.9352      2.5223      0.0649      7.7371   -999.2500   -999.2500
  1782.0000      7.8923      2.5128      0.0109      8.3148   -999.2500   -999.2500
  1782.1000      7.8923      2.5177      0.0691      8.0171   -999.2500   -999.2500
  1782.2000      7.8923      2.5265      0.0513      7.4839   -999.2500   -999.2500
  1782.3000      7.9694      2.5334      0.0260      7.0656   -999.2500   -999.2500
  1782.4000      7.9694      2.5404      0.0999      6.6437   -999.2500   -999.2500
  1782.5000      7.9881      2.5338      0.0884      7.0421   -999.2500   -999.2500
  1782.6000      7.9881      2.5052      0.0826      8.7764   -999.2500   -999.2500
  1782.7000      7.9881      2.4758      0.0561     10.5570   -999.2500   -999.2500
  1782.8000      7.9859      2.4639      0.1105     11.2804   -999.2500   -999.2500
  1782.9000      7.9859      2.4565      0.0976     11.7256   -999.2500   -999.2500
  1783.0000      7.9973      2.4451      0.0771     12.4155   -999.2500   -999.2500
  1783.1000      7.9973      2.4480      0.0512     12.2395   -999.2500   -999.2500
  1783.2000      7.9973      2.4842      0.0960     10.0504   -999.2500   -999.2500
  1783.3000      8.1089      2.5470      0.2022      6.2418   -999.2500   -999.2500
  1783.4000      8.1089      2.6079      0.2339      2.5511   -999.2500   -999.2500
  1783.5000      8.0822      2.6462      0.2428      0.2297   -999.2500   -999.2500
  1783.6000      8.0822      2.6617      0.2315     -0.7108   -999.2500   -999.2500
  1783.7000      8.0822      2.6563      0.2443     -0.3794   -999.2500   -999.2500
  1783.8000      8.1252      2.6336      0.1267      0.9941   -999.2500   -999.2500
  1783.9000      8.1252      2.6115      0.1143      2.3361   -999.2500   -999.2500
  1784.0000      8.1638      2.6023      0.0919      2.8895   -999.2500   -999.2500
  1784.1000      8.1638      2.6042      0.0473      2.7763   -999.2500   -999.2500
  1784.2000      8.1638      2.6052      0.1155      2.7123   -999.2500   -999.2500
  1784.3000      8.1468      2.5891      0.0509      3.6885   -999.2500   -999.2500
  1784.4000      8.1468      2.5588      0.0485      5.5256   -999.2500   -999.2500
  1784.5000      7.9935      2.5392     -0.0137      6.7154   -999.2500   -999.2500
  1784.6000      7.9935      2.5445      0.0610      6.3952   -999.2500   -999.2500
  1784.7000      7.9935      2.5580      0.0364      5.5747   -999.2500   -999.2500
  1784.8000      7.9403      2.5578      0.0683      5.5850   -999.2500   -999.2500
  1784.9000      7.9403      2.5460      0.0455      6.3009   -999.2500   -999.2500
  1785.0000      7.9275      2.5480      0.0449      6.1818   -999.2500   -999.2500
  1785.1000      7.9275      2.5690      0.1195      4.9075   -999.2500   -999.2500
  1785.2000      7.9275      2.5794      0.1143      4.2772   -999.2500   -999.2500
  1785.3000      7.9288      2.5663      0.0475      5.0722   -999.2500   -999.2500
  1785.4000      7.9288      2.5513      0.0336      5.9839   -999.2500   -999.2500
  1785.5000      7.9514      2.5524      0.0865      5.9154   -999.2500   -999.2500
  1785.6000      7.9514      2.5665      0.0415      5.0631   -999.2500   -999.2500
  1785.7000      7.9514      2.5789      0.1053      4.3080   -999.2500   -999.2500
  1785.8000      7.9609      2.5714      0.1333      4.7663   -999.2500   -999.2500
  1785.9000      7.9609      2.5480      0.0487      6.1803   -999.2500   -999.2500
  1786.0000      7.9465      2.5333      0.0865      7.0705   -999.2500   -999.2500
  1786.1000      7.9465      2.5352      0.0872      6.9568   -999.2500   -999.2500
  1786.2000      7.9465      2.5464      0.1090      6.2759   -999.2500   -999.2500
  1786.3000      7.9071      2.5536      0.0979      5.8413   -999.2500   -999.2500
  1786.4000      7.9071      2.5491      0.0455      6.1129   -999.2500   -999.2500
  1786.5000      7.8992      2.5383      0.0625      6.7694   -999.2500   -999.2500
  1786.6000      7.8992      2.5263      0.0548      7.4942   -999.2500   -999.2500
  1786.7000      7.8992      2.5118      0.0680      8.3728   -999.2500   -999.2500
  1786.8000      7.8723      2.4968      0.0565      9.2823   -999.2500   -999.2500
  1786.9000      7.8723      2.4903      0.0690      9.6778   -999.2500   -999.2500
  1787.0000      7.8462      2.4860      0.1176      9.9393   -999.2500   -999.2500
  1787.1000      7.8462      2.4776      0.0618     10.4501   -999.2500   -999.2500
  1787.2000      7.8462      2.4887      0.0280      9.7779   -999.2500   -999.2500
  1787.3000      7.8466      2.5345      0.1239      7.0008   -999.2500   -999.2500
  1787.4000      7.8466      2.5935      0.1639      3.4235   -999.2500   -999.2500
  1787.5000      7.8815      2.6384      0.1873      0.7046   -999.2500   -999.2500
  1787.6000      7.8815      2.6551      0.2537     -0.3119   -999.2500   -999.2500
  1787.7000      7.8815      2.6512      0.1759     -0.0705   -999.2500   -999.2500
  1787.8000      7.8291      2.6455      0.1598      0.2709   -999.2500   -999.2500
  1787.9000      7.8291      2.6373      0.1147      0.7719   -999.2500   -999.2500
  1788.0000      7.8046      2.6150      0.0728      2.1232   -999.2500   -999.2500
  1788.1000      7.8046      2.5807      0.0811      4.1983   -999.2500   -999.2500
  1788.2000      7.8046      2.5502      0.0910      6.0479   -999.2500   -999.2500
  1788.3000      7.8558      2.5477      0.0065      6.1983   -999.2500   -999.2500
  1788.4000      7.8558      2.5752      0.1114      4.5363   -999.2500   -999.2500
  1788.5000      7.8709      2.5991      0.1021      3.0867   -999.2500   -999.2500
  1788.6000      7.8709      2.5974      0.0883      3.1854   -999.2500   -999.2500
  1788.7000      7.8709      2.5826      0.0644      4.0838   -999.2500   -999.2500
  1788.8000      7.8956      2.5946      0.0983      3.3561   -999.2500   -999.2500
  1788.9000      7.8956      2.6828      0.0527     -1.9850   -999.2500   -999.2500
  1789.0000      7.8889      2.7283      0.0517     -4.7440   -999.2500   -999.2500
  1789.1000      7.8889      2.2939      0.5473     21.5815   -999.2500   -999.2500
  1789.2000      7.8889      1.3062      0.0200     81.4410   -999.2500   -999.2500
  1789.3000      7.9236      0.4435      0.0200    133.7257   -999.2500   -999.2500
  1789.4000      7.9236      0.0843   -999.2500    155.4985   -999.2500   -999.2500
  1789.5000      7.6004      0.0087   -999.2500    160.0794   -999.2500   -999.2500
  1789.6000      7.6004      0.0005   -999.2500    160.5775   -999.2500   -999.2500
  1789.7000      7.6004      0.0000   -999.2500    160.6061   -999.2500   -999.2500
  1789.8000      5.3920      0.0000   -999.2500    160.6061   -999.2500   -999.2500
  1789.9000      5.3920   -999.2500   -999.2500   -999.2500   -999.2500   -999.2500
