~Version Information
VERS.                      2.0: CWLS Log ASCII Standard - VERSION 2.0
WRAP.                       NO: One line per depth step
~Well Information Block
STRT.FT                 0.0000: 
STOP.FT               712.5000: 
STEP.FT                 0.2500: 
NULL.                -999.2500: 
COMP.          Pioneer Natural Resources: COMPANY
WELL.                Mia 21-18: WELL
FLD.           Purgatorie River: FIELD
LOC.           1067' FNL & 1824' FWL: LOCATION
PROV.                 Colorado: PROVINCE
CNTY.               Las Animas: COUNTRY
SRVC.                Patterson: SERVICE COMPANY
DATE.          Mon Nov 28 13:12:22 2005: LOG DATE
UWI.           05-071-08559               : UNIQUE WELL ID
~Curve Information Block
DEPT.FT            0 000 00 00: Depth
CCL.                          : Casing Collar Locator
TT3.usec                      : CBL 3' Travel Time
AMP3.mV                       : CBL 3' Amplitude
GR.GAPI                       : Gamma Ray
~Parameter Information Block
~A  Depth       CCL         TT3         AMP3         GR     
# ...
   402.0000      0.0000    676.3221      7.9986     29.6725
   402.2500      0.0000    675.8678      7.7875     30.3118
   402.5000      0.0000    675.4043      7.5451     30.6401
   402.7500      0.0000    674.7950      7.2189     30.7600
   403.0000      0.0000    674.1565      6.8467     30.6751
   403.2500      0.0000    673.5589      6.4921     30.2375
   403.5000      0.0000    672.9612      6.1476     29.3733
   403.7500      0.0000    672.3818      5.7728     28.3846
   404.0000      0.0000    671.8994      5.3943     27.8721
   404.2500      0.0000    671.5818      5.1060     28.2132
   404.5000      0.0000    671.4350      4.9668     29.1212
   404.7500      0.0000    671.3771      4.9256     29.7545
   405.0000      0.0000    671.3185      4.8902     29.3146
   405.2500      0.0000    671.2419      4.8551     27.6962
   405.5000      0.0000    671.1859      4.8863     25.6490
   405.7500      0.0000    671.2390      5.0105     24.2106
   406.0000      0.0000    671.5297      5.2180     23.9189
   406.2500      0.0000    672.1412      5.5404     24.5552
   406.5000      0.0000    673.2540      6.0099     25.5432
   406.7500      0.0000    675.7429      6.5770     26.5402
   407.0000      0.0000    681.4824      7.1766     27.8182
   407.2500      0.0000    691.6603      7.8157     30.1590
   407.5000      0.0000    703.9948      8.5068     34.2268
   407.7500      0.0000    713.9180      9.1961     39.9484
   408.0000      0.0000    719.2820      9.8231     46.3595
   408.2500      0.0000    721.3678     10.3903     51.7851
   408.5000      0.0000    722.1053     10.9406     54.2792
   408.7500      0.0000    722.5317     11.4886     52.6735
   409.0000      0.0000    722.9396     11.9922     47.7865
   409.2500      0.0000    723.2367     12.3672     42.3738
   409.5000      0.0000    723.2926     12.5146     39.4275
   409.7500      0.0000    723.1729     12.3994     40.3398
   410.0000      0.0000    723.0264     12.1275     44.5157
   410.2500      0.0000    722.8601     11.8735     50.4313
   410.5000      0.0000    722.4045     11.7206     56.8818
   410.7500      0.0000    720.7230     11.6312     63.2525
   411.0000      0.0000    715.9198     11.5578     68.9328
   411.2500      0.0000    706.7644     11.5091     73.0409
   411.5000      0.0000    695.6443     11.4941     74.9551
   411.7500      0.0000    687.9894     11.4745     74.7663
   412.0000      0.0000    687.9770     11.4057     72.8509
   412.2500      0.0000    695.7307     11.2910     69.2191
   412.5000      0.0000    707.0594     11.1780     63.6776
   412.7500      0.0000    716.2219     11.0998     56.5884
   413.0000      0.0000    720.7186     11.0345     49.0651
   413.2500      0.0000    722.0060     10.9508     42.2548
   413.5000      0.0000    722.1534     10.8578     36.6412
   413.7500      0.0000    721.8004     10.7739     32.1931
   414.0000      0.0000    720.1619     10.6882     28.9038
   414.2500      0.0000    715.5773     10.5658     26.8011
   414.5000      0.0000    707.5845     10.3708     25.5459
   414.7500      0.0000    699.4760     10.1014     24.4818
   415.0000      0.0000    695.3430      9.8141     23.2880
   415.2500      0.0000    694.6309      9.5941     22.3784
   415.5000      0.0000    695.4345      9.4908     22.4656
   415.7500      0.0000    699.2969      9.4795     23.7163
   416.0000      0.0000    705.7541      9.4850     25.3931
   416.2500      0.0000    708.7819      9.4669     26.4471
   416.5000      0.0000    704.1052      9.4619     26.5090
   416.7500      0.0000    695.5076      9.5278     26.1905
   417.0000      0.0000    691.3203      9.6968     26.4118
   417.2500      0.0000    695.7930      9.9617     27.6162
   417.5000      0.0000    704.8462     10.2824     29.6146
   417.7500      0.0000    710.7542     10.6336     31.8263
   418.0000      0.0000    710.9068     11.0317     33.5183
   418.2500      0.0000    710.0087     11.5000     34.1437
   418.5000      0.0000    712.5800     12.0286     33.7761
   418.7500      0.0000    717.2122     12.5621     33.1273
   419.0000      0.0000    720.5675     13.0344     32.9255
   419.2500      0.0000    722.0026     13.4456     33.2006
   419.5000      0.0000    722.2307     13.8780     33.2361
   419.7500      0.0000    719.8295     14.3880     32.3092
   420.0000      0.0000    706.9657     14.9382     30.5942
   420.2500      0.0000    666.8546     15.4999     29.3630
   420.5000      0.0000    586.5881     16.1351     30.1851
   420.7500      0.0000    482.3323     16.8660     33.7171
   421.0000      0.0000    393.9625     17.5563     39.1861
   421.2500      0.0000    344.7374     18.0374     45.0476
   421.5000      0.0000    327.5774     18.2596     50.0856
   421.7500      0.0000    325.8700     18.2686     53.8115
   422.0000      0.0000    325.9730     18.1742     56.0650
   422.2500      0.0000    320.7983     18.1508     56.7160
   422.5000      0.0000    312.7390     18.3217     55.9075
   422.7500      0.0000    307.0266     18.6504     54.3049
   423.0000      0.0000    304.6541     19.0046     52.9187
   423.2500      0.0000    303.9952     19.2796     52.5409
   423.5000      0.0000    303.8491     19.4423     53.0438
   423.7500      0.0000    303.7833     19.5157     53.2340
   424.0000      0.0000    303.7155     19.5527     51.8477
   424.2500      0.0000    303.6575     19.6019     48.8568
   424.5000      0.0000    303.6053     19.6687     45.6409
   424.7500      0.0000    303.5642     19.7179     43.9353
   425.0000      0.0000    303.5606     19.7197     44.7847
   425.2500      0.0000    303.5869     19.6770     48.2840
   425.5000      0.0000    303.6313     19.5965     53.8527
   425.7500      0.0000    303.7437     19.4693     60.5003
   426.0000      0.0000    303.9181     19.3249     67.1328
   426.2500      0.0000    303.9949     19.2528     73.0103
   426.5000      0.0000    303.8728     19.3046     77.8914
   426.7500      0.0000    303.6830     19.4176     81.5912
   427.0000      0.0000    303.5902     19.5023     83.7430
   427.2500      0.0000    303.5836     19.5592     84.3606
   427.5000      0.0000    303.6025     19.6283     84.2577
   427.7500      0.0000    303.7227     19.6938     84.2087
   428.0000      0.0000    304.0449     19.7112     83.7262
   428.2500      0.0000    304.5000     19.6613     81.3274
   428.5000      0.0000    304.9665     19.5589     76.3074
   428.7500      0.0000    305.7178     19.4452     69.9214
   429.0000      0.0000    309.0942     19.3557     64.5824
   429.2500      0.0000    324.2140     19.2937     61.9423
   429.5000      0.0000    369.8524     19.2235     61.7270
   429.7500      0.0000    458.4476     19.0806     62.2495
   430.0000      0.0000    566.9931     18.8027     61.9803
   430.2500      0.0000    643.6582     18.3543     60.6206
   430.5000      0.0000    651.5854     17.7385     58.8161
   430.7500      0.0000    592.4888     17.0051     57.2009
   431.0000      0.0000    502.0666     16.2296     55.9609
   431.2500      0.0000    428.0219     15.4801     55.0375
   431.5000      0.0000    398.7381     14.8040     54.3631
   431.7500      0.0000    415.9551     14.2071     53.8836
   432.0000      0.0000    464.3675     13.6237     53.4940
   432.2500      0.0000    519.5143     12.8921     52.9908
   432.5000      0.0000    566.9035     11.7977     52.2201
   432.7500      0.0000    607.6786     10.3387     51.4624
   433.0000      0.0000    641.8115      9.0076     51.5634
   433.2500      0.0000    666.9619      8.3722     53.2256
   433.5000      0.0000    678.1851      8.2297     55.9274
   433.7500      0.0000    672.2273      7.9361     57.8805
   434.0000      0.0000    667.4379      7.4688     57.5234
   434.2500      0.0000    684.6213      7.2194     55.0504
   434.5000     -2.0000    714.4018      7.2469     52.1791
   434.7500      2.0000    735.6216      7.3491     50.5226
   435.0000      0.0000    741.4050      7.3879     50.5183
   435.2500      0.0000    732.0866      7.3566     51.7055
