~Version Information
VERS.                      2.0: CWLS Log ASCII Standard - VERSION 2.0
WRAP.                       NO: One line per depth step
~Well Information Block
STRT.FT                -8.5000: 
STOP.FT              2030.0000: 
STEP.FT                 0.2500: 
NULL.                -999.2500: 
COMP.          Pioneer Natural Resources: COMPANY
WELL.           Alabaster 11-8: WELL
FLD.           Purgatorie River: FIELD
LOC.           1249' FNL & 215' FWL--: LOCATION
PROV.                       CO: PROVINCE
CNTY.               Las Animas: COUNTRY
SRVC.          Patterson Wireline: SERVICE COMPANY
DATE.          Mon Jan 30 11:59:01 2006: LOG DATE
UWI.           05 071 08642 00: UNIQUE WELL ID
~Curve Information Block
DEPT.FT            0 000 00 00: Depth
CCL.                          : Casing Collar Locator
TT3.usec                      : CBL 3' Travel Time
AMP3.mV                       : CBL 3' Amplitude
GR.GAPI                       : Gamma Ray
~Parameter Information Block
~A  Depth       CCL         TT3         AMP3         GR     
# ...
  1599.5000      0.0000    373.8124      3.6252     56.6079
  1599.7500      0.0000    372.2978      3.6346     55.6371
  1600.0000      0.0000    372.2620      3.6187     54.2543
  1600.2500      0.0000    372.6723      3.5946     52.1211
  1600.5000      0.0000    372.1853      3.5770     49.9418
  1600.7500      0.0000    370.5699      3.5692     49.2129
  1601.0000      0.0000    369.0536      3.5632     51.0800
  1601.2500      0.0000    369.5125      3.5479     55.4764
  1601.5000      0.0000    373.6662      3.5166     61.4204
  1601.7500      0.0000    383.2332      3.4676     67.8401
  1602.0000      0.0000    400.2922      3.4010     73.9468
  1602.2500      0.0000    426.1947      3.3155     79.2040
  1602.5000      0.0000    459.0784      3.2116     83.3416
  1602.7500      0.0000    492.4203      3.0976     86.3486
  1603.0000      0.0000    516.4354      2.9919     88.3598
  1603.2500      0.0000    521.7798      2.9126     89.5962
  1603.5000      0.0000    504.8954      2.8671     90.2646
  1603.7500      0.0000    472.2758      2.8513     90.3485
  1604.0000      0.0000    437.8255      2.8595     89.7334
  1604.2500      0.0000    413.5002      2.8897     88.8090
  1604.5000      0.0000    402.4176      2.9387     88.5674
  1604.7500      0.0000    400.3009      2.9926     89.7104
  1605.0000      0.0000    401.1919      3.0315     91.9880
  1605.2500      0.0000    401.4431      3.0443     94.7892
  1605.5000      0.0000    400.7972      3.0364     97.9550
  1605.7500      0.0000    402.1620      3.0214    101.5210
  1606.0000      0.0000    410.7579      3.0087    105.0779
  1606.2500      0.0000    432.2961      3.0007    107.9751
  1606.5000      0.0000    469.7400      2.9953    109.8591
  1606.7500      0.0000    519.6790      2.9894    110.6247
  1607.0000      0.0000    571.9070      2.9790    110.2882
  1607.2500      0.0000    614.6948      2.9621    109.2106
  1607.5000      0.0000    641.9603      2.9390    108.0575
  1607.7500      0.0000    655.3942      2.9092    107.2719
  1608.0000      0.0000    660.5410      2.8675    106.7105
  1608.2500      0.0000    662.1661      2.8063    105.9417
  1608.5000      0.0000    662.7484      2.7217    104.8121
  1608.7500      0.0000    663.2309      2.6119    103.5829
  1609.0000      0.0000    663.8296      2.4719    102.4211
  1609.2500      0.0000    664.1513      2.2988    101.0664
  1609.5000      0.0000    663.3660      2.1103     99.2980
  1609.7500      0.0000    661.6148      1.9469     97.5928
  1610.0000      0.0000    662.1628      1.8462     96.8658
  1610.2500      0.0000    671.5409      1.8169     97.2967
  1610.5000      0.0000    695.0762      1.8456     97.6217
  1610.7500      0.0000    729.7932      1.9185     96.1301
  1611.0000      0.0000    761.9562      2.0263     92.4562
  1611.2500      0.0000    775.5421      2.1513     87.8049
  1611.5000      0.0000    766.1195      2.2605     83.2863
  1611.7500      2.0000    744.2131      2.3097     78.6153
  1612.0000      0.0000    723.1815      2.2627     72.6450
  1612.2500      0.0000    707.5892      2.1202     64.8002
  1612.5000      0.0000    695.4583      1.9318     55.8444
  1612.7500      0.0000    686.2120      1.7626     47.5919
  1613.0000      0.0000    681.3089      1.6484     42.0075
  1613.2500      0.0000    679.7679      1.5914     40.1669
  1613.5000      0.0000    677.5950      1.5866     41.5837
  1613.7500      0.0000    671.6923      1.6296     44.6135
  1614.0000      0.0000    662.7011      1.7034     47.7527
  1614.2500      0.0000    654.3601      1.7761     50.5588
  1614.5000      0.0000    650.5269      1.8200     53.2974
  1614.7500      0.0000    652.4257      1.8256     56.1635
  1615.0000      0.0000    657.9159      1.7941     59.4207
  1615.2500      0.0000    662.6890      1.7284     64.0537
  1615.5000      0.0000    662.4690      1.6435     71.3476
  1615.7500      0.0000    655.7203      1.5802     81.3628
  1616.0000      0.0000    645.2814      1.5916     92.0713
  1616.2500      0.0000    636.8610      1.7040    100.2551
  1616.5000      0.0000    635.1081      1.8901    103.4223
  1616.7500      0.0000    640.2844      2.0859    101.2886
  1617.0000      0.0000    647.8428      2.2341     95.8883
  1617.2500      0.0000    651.0010      2.3126     90.3528
  1617.5000      0.0000    644.8301      2.3291     87.2862
  1617.7500      0.0000    628.9199      2.2981     87.7397
  1618.0000      0.0000    606.2816      2.2258     91.0332
  1618.2500      0.0000    579.6939      2.1149     95.4085
  1618.5000      0.0000    549.6964      1.9807     99.3042
  1618.7500      0.0000    516.7090      1.8568    102.2729
  1619.0000      0.0000    484.4897      1.7768    104.5436
  1619.2500      0.0000    460.6574      1.7496    105.7146
  1619.5000      0.0000    453.8652      1.7548    104.3350
  1619.7500      0.0000    469.6235      1.7629     99.3113
  1620.0000      0.0000    506.2802      1.7586     91.7723
  1620.2500      0.0000    553.7980      1.7458     85.0197
  1620.5000      0.0000    598.4891      1.7374     82.0498
  1620.7500      0.0000    631.2994      1.7452     82.8830
  1621.0000      0.0000    651.9122      1.7751     84.3827
  1621.2500      0.0000    665.1617      1.8267     82.8418
  1621.5000      0.0000    675.0981      1.8936     76.8843
  1621.7500      0.0000    682.8000      1.9649     68.2300
  1622.0000      0.0000    687.9664      2.0259     60.4244
  1622.2500      0.0000    690.6531      2.0590     57.1069
  1622.5000      0.0000    691.3937      2.0481     60.5084
  1622.7500      0.0000    690.6425      1.9856     70.2820
  1623.0000      0.0000    688.6274      1.8804     83.5877
  1623.2500      0.0000    685.6177      1.7575     96.8743
  1623.5000      0.0000    681.9913      1.6472    107.7438
  1623.7500      0.0000    678.0076      1.5712    115.2285
  1624.0000      0.0000    673.8627      1.5376    119.2255
  1624.2500      0.0000    669.9578      1.5445    120.5121
  1624.5000      0.0000    666.5280      1.5838    120.7919
  1624.7500      0.0000    662.9374      1.6443    121.6325
  1625.0000      0.0000    658.4289      1.7177    123.1510
  1625.2500      0.0000    654.2469      1.8011    124.0018
  1625.5000      0.0000    653.8920      1.8972    122.5448
  1625.7500      0.0000    659.6954      2.0147    117.8732
  1626.0000      0.0000    669.0559      2.1660    110.1412
  1626.2500      0.0000    675.6599      2.3543    100.5495
  1626.5000      0.0000    675.8486      2.5636     91.1540
  1626.7500     -2.0000    672.8563      2.7632     84.2520
  1627.0000      0.0000    672.8330      2.9230     81.5484
  1627.2500      0.0000    677.4359      3.0314     83.4666
  1627.5000      0.0000    682.5964      3.1026     88.7139
  1627.7500      0.0000    684.1665      3.1508     94.6152
  1628.0000      0.0000    682.2090      3.1527     98.6783
  1628.2500      0.0000    679.3091      3.0585    100.3329
  1628.5000      0.0000    676.6926      2.8636    100.9233
  1628.7500      0.0000    673.1440      2.6469    101.8477
  1629.0000      0.0000    667.0761      2.5126    102.9450
  1629.2500      0.0000    658.9398      2.5043    102.8874
  1629.5000      0.0000    651.4927      2.5842    100.9669
  1629.7500      0.0000    647.9305      2.6790     98.1206
  1630.0000      0.0000    649.8707      2.7334     96.0795
  1630.2500      0.0000    656.6616      2.7326     95.8756
  1630.5000      0.0000    665.9148      2.6906     97.3881
  1630.7500      0.0000    674.6418      2.6270     99.6664
  1631.0000      0.0000    680.5069      2.5510    101.1721
  1631.2500      0.0000    682.6543      2.4629    100.4225
  1631.5000      0.0000    681.7309      2.3651     97.2997
  1631.7500      0.0000    679.2717      2.2736     93.6050
  1632.0000      0.0000    676.9393      2.2166     91.6593
  1632.2500      0.0000    675.9508      2.2169     92.1736
  1632.5000      0.0000    676.5292      2.2713     93.7844
  1632.7500      0.0000    677.5182      2.3519     94.7048
