~Version Information
VERS.                      2.0: CWLS Log ASCII Standard - VERSION 2.0
WRAP.                       NO: One line per depth step
~Well Information Block
STRT.FT               240.0000: 
STOP.FT              1338.7000: 
STEP.FT                 0.1000: 
NULL.                -999.2500: 
COMP.          Pioneer Natural Resources: COMPANY
WELL.            Hamburg 43-35: WELL
FLD.           Purgatoire River: FIELD
LOC.           2444' FSL & 950' FEL--: LOCATION
PROV.                 Colorado: PROVINCE
CNTY.               Las Animas: COUNTRY
SRVC.                Patterson: SERVICE COMPANY
DATE.          Sun Dec 04 11:50:58 2005: LOG DATE
UWI.           05 071 08607 00: UNIQUE WELL ID
~Curve Information Block
DEPT.FT            0 000 00 00: Depth
DCAL.in                       : CDL Caliper
RHOB.g/cc                     : CDL Bulk Density
RHOC.g/cc                     : CDL Density Correction
DPOR.pu                       : CDL Density Porosity
NPOR.pu                       : Neutron Porosity
GR.GAPI                       : Gamma Ray
~Parameter Information Block
~A  Depth       DCAL        RHOB        RHOC        DPOR        NPOR         GR     
# ...
   739.2000      8.0064      2.5474      0.1071      6.2206     26.8354    164.0120
   739.3000      7.9931      2.5352      0.0681      6.9597     26.3639    164.2330
   739.4000      7.9931      2.5252      0.0380      7.5610     25.5973    161.8402
   739.5000      7.9831      2.5327      0.0473      7.1093     25.1020    152.3753
   739.6000      7.9831      2.5543      0.0462      5.8009     25.1480    142.9930
   739.7000      7.9831      2.5798      0.0943      4.2545     25.3017    142.1865
   739.8000      7.9760      2.6030      0.0957      2.8483     25.2312    144.9007
   739.9000      7.9760      2.6189      0.0868      1.8823     25.0783    143.1994
   740.0000      7.9745      2.6214      0.1001      1.7345     24.9690    139.2769
   740.1000      7.9745      2.6108      0.0834      2.3738     25.1688    137.5754
   740.2000      7.9745      2.6012      0.0590      2.9606     25.6667    137.0793
   740.3000      7.9779      2.6017      0.0516      2.9251     25.8890    134.8949
   740.4000      7.9779      2.6002      0.0557      3.0177     25.6243    131.5719
   740.5000      7.9811      2.5833      0.0337      4.0428     25.4723    129.4392
   740.6000      7.9811      2.5548      0.0310      5.7679     25.7577    129.0291
   740.7000      7.9811      2.5281     -0.0012      7.3859     26.0512    131.0463
   740.8000      7.9821      2.5155      0.0189      8.1538     25.8988    136.1623
   740.9000      7.9821      2.5159      0.0233      8.1293     25.3648    141.8393
   741.0000      7.9855      2.5202     -0.0073      7.8661     24.8542    145.8215
   741.1000      7.9855      2.5276      0.0119      7.4190     24.4244    147.8555
   741.2000      7.9855      2.5410      0.0549      6.6059     24.0077    146.6350
   741.3000      7.9977      2.5550      0.0701      5.7595     23.7695    142.5201
   741.4000      7.9977      2.5586      0.0896      5.5379     23.8691    138.7328
   741.5000      8.0135      2.5485      0.0646      6.1533     24.3194    137.9067
   741.6000      8.0135      2.5304      0.0684      7.2465     24.6831    140.4394
   741.7000      8.0135      2.5105      0.0295      8.4552     24.4417    144.9271
   741.8000      8.0210      2.4911      0.0352      9.6310     23.5625    146.3078
   741.9000      8.0210      2.4714      0.0524     10.8260     22.2575    142.8023
   742.0000      8.0162      2.4578     -0.0231     11.6503     20.9473    141.5705
   742.1000      8.0162      2.4655     -0.0029     11.1811     20.1091    145.6101
   742.2000      8.0162      2.4942      0.0320      9.4430     19.6493    146.2414
   742.3000      8.0107      2.5219      0.0543      7.7616     19.2736    137.3522
   742.4000      8.0107      2.5274      0.0669      7.4302     19.2834    125.7956
   742.5000      8.0047      2.5169      0.0281      8.0667     19.8422    122.6293
   742.6000      8.0047      2.5188      0.0237      7.9500     20.3424    126.2134
   742.7000      8.0047      2.5365      0.0805      6.8803     20.4677    126.7834
   742.8000      7.9952      2.5475      0.0828      6.2150     20.5079    122.5258
   742.9000      7.9952      2.5460      0.0671      6.3001     20.4374    118.8021
   743.0000      7.9878      2.5460      0.0799      6.3005     20.1693    119.0893
   743.1000      7.9878      2.5519      0.0848      5.9457     20.1222    122.6716
   743.2000      7.9878      2.5515      0.1028      5.9681     20.4930    126.8027
   743.3000      7.9820      2.5406      0.0510      6.6283     20.9759    128.2756
   743.4000      7.9820      2.5335      0.0577      7.0622     21.1643    127.9935
   743.5000      7.9787      2.5387      0.0686      6.7450     21.1013    129.5760
   743.6000      7.9787      2.5501      0.0912      6.0530     21.4508    133.1682
   743.7000      7.9787      2.5611      0.0608      5.3859     22.4598    136.8569
   743.8000      7.9785      2.5695      0.1112      4.8786     23.5789    141.1315
   743.9000      7.9785      2.5715      0.0857      4.7578     24.1758    145.5961
   744.0000      7.9748      2.5675      0.0799      5.0008     24.1344    148.1466
   744.1000      7.9748      2.5598      0.0803      5.4664     23.9498    147.6129
   744.2000      7.9748      2.5506      0.0560      6.0220     24.1056    143.6091
   744.3000      7.9664      2.5516      0.0419      5.9652     24.2384    138.9146
   744.4000      7.9664      2.5694      0.0644      4.8879     23.7679    137.1166
   744.5000      7.9551      2.5959      0.0759      3.2812     23.0625    137.0084
   744.6000      7.9551      2.6256      0.0769      1.4764     22.8588    135.6020
   744.7000      7.9551      2.6585      0.1005     -0.5156     23.1429    131.8114
   744.8000      7.9446      2.6938      0.0810     -2.6539     23.2883    125.5611
   744.9000      7.9446      2.7268      0.1546     -4.6548     23.3371    119.7052
   745.0000      7.9402      2.7470      0.1466     -5.8807     23.8907    116.4231
   745.1000      7.9402      2.7503      0.1383     -6.0808     24.9023    112.9862
   745.2000      7.9402      2.7401      0.1091     -5.4618     25.9184    109.4064
   745.3000      7.9415      2.7217      0.0527     -4.3464     26.9564    107.9973
   745.4000      7.9415      2.6971      0.0220     -2.8548     28.0883    106.7951
   745.5000      7.9540      2.6679     -0.0140     -1.0863     28.9097    104.0543
   745.6000      7.9540      2.6414     -0.0293      0.5228     29.0651    102.8196
   745.7000      7.9540      2.6169     -0.0536      2.0032     28.6865    106.5142
   745.8000      7.9747      2.5888     -0.0277      3.7088     28.1330    110.9867
   745.9000      7.9747      2.5597     -0.0236      5.4756     27.4941    111.8769
   746.0000      7.9907      2.5391     -0.0347      6.7195     26.6872    111.8011
   746.1000      7.9907      2.5325     -0.0343      7.1222     26.0017    113.1266
   746.2000      7.9907      2.5330      0.0066      7.0938     25.5816    114.5899
   746.3000      7.9936      2.5375      0.0030      6.8196     25.0428    116.2698
   746.4000      7.9936      2.5512      0.0452      5.9869     24.0517    120.3029
   746.5000      7.9901      2.5674      0.0729      5.0051     22.9613    125.5412
   746.6000      7.9901      2.5763      0.0347      4.4679     22.2507    126.4293
   746.7000      7.9901      2.5815      0.0560      4.1513     21.7460    121.0076
   746.8000      7.9875      2.5893      0.0699      3.6781     21.2904    114.0888
   746.9000      7.9875      2.5975      0.0628      3.1827     21.2609    109.1893
   747.0000      7.9867      2.5939      0.0865      3.3994     21.7799    106.0699
   747.1000      7.9867      2.5755      0.0229      4.5170     22.4933    105.6679
   747.2000      7.9867      2.5630      0.0110      5.2711     23.0449    107.6860
   747.3000      7.9853      2.5733      0.0463      4.6501     23.4605    108.8909
   747.4000      7.9853      2.6002      0.0791      3.0191     23.8600    108.2710
   747.5000      7.9808      2.6308      0.0794      1.1625     24.4427    105.4421
   747.6000      7.9808      2.6643      0.0375     -0.8636     25.4235    101.1068
   747.7000      7.9808      2.7032      0.0903     -3.2273     26.5793     99.3791
   747.8000      7.9783      2.7352      0.1182     -5.1625     27.4751    101.0484
   747.9000      7.9783      2.7449      0.1157     -5.7498     28.1315    103.6497
   748.0000      7.9768      2.7340      0.0885     -5.0888     28.8891    107.0573
   748.1000      7.9768      2.7148      0.0696     -3.9288     29.5536    109.3774
   748.2000      7.9768      2.6931      0.0390     -2.6136     29.8340    105.0168
   748.3000      7.9709      2.6651      0.0334     -0.9171     29.9079     98.1184
   748.4000      7.9709      2.6258      0.0190      1.4652     29.7432    100.3007
   748.5000      7.9680      2.5775     -0.0551      4.3963     28.9523    108.8837
   748.6000      7.9680      2.5360     -0.0752      6.9119     27.4845    115.8794
   748.7000      7.9680      2.5176     -0.0616      8.0272     25.7060    122.9297
