~Version Information
VERS.                      2.0: CWLS Log ASCII Standard - VERSION 2.0
WRAP.                       NO: One line per depth step
~Well Information Block
STRT.FT                -8.5000: 
STOP.FT              2823.2500: 
STEP.FT                 0.2500: 
NULL.                -999.2500: 
COMP.          Pioneer Natural Resources: COMPANY
WELL.                AMX 13-13: WELL
FLD.           Purgatorie River: FIELD
LOC.           2316' FSL & 865' FWL--: LOCATION
PROV.                       CO: PROVINCE
CNTY.               Las Animas: COUNTRY
SRVC.          Patterson Wireline: SERVICE COMPANY
DATE.          Tue Dec 27 10:40:58 2005: LOG DATE
UWI.           05 071 08630 00: UNIQUE WELL ID
~Curve Information Block
DEPT.FT            0 000 00 00: Depth
CCL.                          : Casing Collar Locator
TT3.usec                      : CBL 3' Travel Time
AMP3.mV                       : CBL 3' Amplitude
GR.GAPI                       : Gamma Ray
~Parameter Information Block
~A  Depth       CCL         TT3         AMP3         GR     
# ...
  2437.0000      0.0000    415.6595      7.4131     58.9302
  2437.2500      0.0000    431.1930      7.4919     58.5861
  2437.5000      0.0000    438.8714      7.5103     59.1771
  2437.7500      0.0000    435.7838      7.4837     59.9982
  2438.0000      0.0000    429.3969      7.4382     61.0349
  2438.2500      0.0000    433.6201      7.3951     63.2457
  2438.5000      0.0000    459.0944      7.3627     67.6519
  2438.7500      0.0000    505.7401      7.3378     74.2770
  2439.0000      0.0000    562.2198      7.3123     81.9793
  2439.2500      0.0000    612.6686      7.2775     89.0764
  2439.5000      0.0000    646.2250      7.2265     94.3103
  2439.7500      0.0000    661.8647      7.1580     97.7153
  2440.0000      0.0000    665.4079      7.0798    100.5816
  2440.2500      0.0000    662.3363      7.0094    104.2668
  2440.5000      0.0000    652.6492      6.9695    109.0593
  2440.7500      0.0000    632.3204      6.9758    114.2291
  2441.0000      0.0000    600.6783      7.0271    118.6990
  2441.2500      0.0000    566.2374      7.1068    121.4819
  2441.5000      0.0000    543.8066      7.1944    122.1428
  2441.7500      0.0000    544.4618      7.2753    121.1794
  2442.0000      0.0000    566.7790      7.3404    119.3857
  2442.2500      0.0000    596.3009      7.3821    116.8415
  2442.5000      0.0000    614.6044      7.3982    113.1321
  2442.7500      0.0000    612.4626      7.3991    108.4213
  2443.0000      0.0000    596.7719      7.4126    103.7150
  2443.2500      0.0000    584.4586      7.4794    100.0144
  2443.5000      0.0000    588.1225      7.6412     97.4856
  2443.7500      0.0000    606.3132      7.9278     95.7359
  2444.0000      0.0000    625.9466      8.3519     94.9617
  2444.2500      0.0000    631.8608      8.9132     96.3438
  2444.5000      0.0000    614.7881      9.6014    100.6956
  2444.7500      0.0000    575.0488     10.3935    106.8017
  2445.0000      0.0000    522.4087     11.2505    111.8244
  2445.2500      0.0000    471.0870     12.1226    113.6804
  2445.5000      0.0000    431.6070     12.9583    112.5574
  2445.7500      0.0000    406.1688     13.7066    109.8786
  2446.0000      0.0000    391.5406     14.3079    106.5255
  2446.2500      0.0000    385.6973     14.6876    102.7370
  2446.5000      0.0000    391.7917     14.7668     99.1156
  2446.7500      0.0000    416.2845     14.4957     96.6306
  2447.0000      0.0000    462.5479     13.8961     95.6061
  2447.2500      0.0000    524.9408     13.0750     95.6133
  2447.5000      0.0000    589.1201     12.1849     96.5257
  2447.7500      0.0000    639.6664     11.3557     98.8112
  2448.0000      0.0000    668.6397     10.6513    102.5098
  2448.2500      0.0000    677.5909     10.0766    106.5892
  2448.5000      0.0000    672.5228      9.6092    109.6498
  2448.7500      0.0000    657.5139      9.2240    111.0541
  2449.0000      0.0000    632.4445      8.9012    111.5036
  2449.2500      0.0000    596.1096      8.6277    112.5952
  2449.5000      0.0000    551.2845      8.3947    115.4220
  2449.7500      0.0000    506.0637      8.1959    119.3700
  2450.0000      0.0000    469.4388      8.0217    122.3871
  2450.2500      0.0000    445.6594      7.8558    122.4335
  2450.5000      0.0000    432.9875      7.6796    118.7674
  2450.7500      0.0000    426.9641      7.4839    112.2736
  2451.0000      0.0000    424.2575      7.2738    105.0502
  2451.2500      0.0000    424.5953      7.0610     99.6544
  2451.5000      0.0000    430.3111      6.8514     97.8921
  2451.7500      0.0000    443.5428      6.6380     99.5834
  2452.0000      0.0000    463.2329      6.4004    102.6175
  2452.2500      0.0000    486.1251      6.1156    104.6580
  2452.5000      0.0000    511.2487      5.7774    104.8879
  2452.7500      0.0000    540.7614      5.4209    104.1161
  2453.0000      0.0000    574.6610      5.1290    103.5704
  2453.2500      0.0000    607.0783      4.9958    103.7458
  2453.5000      0.0000    629.6711      5.0521    104.0857
  2453.7500      0.0000    637.9719      5.2302    103.4937
  2454.0000      0.0000    634.9956      5.4272    101.2578
  2454.2500      0.0000    630.4728      5.5944     97.6472
  2454.5000      0.0000    635.3176      5.7417     93.7316
  2454.7500      0.0000    653.5165      5.8758     90.6687
  2455.0000      0.0000    678.6956      5.9787     89.0885
  2455.2500      2.0000    699.8768      6.0475     89.1550
  2455.5000      0.0000    710.3083      6.1371     91.1175
  2455.7500      0.0000    710.6580      6.3428     95.2888
  2456.0000      0.0000    705.9159      6.7161    101.2495
  2456.2500      0.0000    700.8239      7.1830    107.7277
  2456.5000      0.0000    697.1760      7.5793    113.6483
  2456.7500      0.0000    693.8077      7.8024    118.6091
  2457.0000      0.0000    688.2329      7.9006    121.9903
  2457.2500      0.0000    677.8477      7.9880    122.6833
  2457.5000      0.0000    660.3507      8.1085    120.4623
  2457.7500      0.0000    635.1761      8.2160    116.7615
  2458.0000      0.0000    605.3058      8.2513    113.4967
  2458.2500      0.0000    576.2654      8.1978    111.8219
  2458.5000      0.0000    552.5073      8.0748    112.3560
  2458.7500      0.0000    535.3423      7.9129    115.5080
  2459.0000      0.0000    523.8636      7.7420    120.6595
  2459.2500      0.0000    516.2036      7.5861    125.5787
  2459.5000      0.0000    509.8852      7.4584    127.7850
  2459.7500      0.0000    502.6919      7.3585    126.7074
  2460.0000      0.0000    494.3167      7.2782    123.9542
  2460.2500      0.0000    487.1136      7.2092    121.2794
  2460.5000      0.0000    485.3924      7.1507    118.8780
  2460.7500      0.0000    493.9953      7.1101    116.0471
  2461.0000      0.0000    516.1044      7.0971    112.9626
  2461.2500      0.0000    550.1161      7.1122    110.9658
  2461.5000      0.0000    587.9125      7.1428    111.0128
  2461.7500      0.0000    617.4724      7.1706    112.4283
  2462.0000      0.0000    628.5786      7.1821    113.5522
  2462.2500      0.0000    617.3492      7.1736    113.3242
  2462.5000      0.0000    587.8387      7.1486    111.9219
  2462.7500      0.0000    550.8296      7.1120    110.1727
  2463.0000      0.0000    519.4048      7.0681    109.0197
  2463.2500      0.0000    502.4314      7.0240    109.5148
  2463.5000      0.0000    499.7840      6.9916    112.4908
  2463.7500      0.0000    502.6275      6.9833    117.6815
  2464.0000      0.0000    499.6230      7.0045    123.4624
  2464.2500      0.0000    485.6332      7.0508    127.9314
  2464.5000      0.0000    465.1083      7.1108    130.3334
  2464.7500      0.0000    446.4706      7.1719    131.2780
  2465.0000      0.0000    434.4173      7.2264    131.6211
  2465.2500      0.0000    428.1950      7.2740    131.4775
  2465.5000      0.0000    424.9011      7.3183    130.4684
  2465.7500      0.0000    422.3104      7.3600    128.4241
  2466.0000      0.0000    419.2232      7.3938    125.4350
  2466.2500      0.0000    414.7977      7.4142    121.5447
  2466.5000      0.0000    408.4772      7.4247    116.8688
  2466.7500      0.0000    400.7470      7.4422    111.8104
  2467.0000      0.0000    393.9406      7.4890    106.6493
  2467.2500      0.0000    392.0262      7.5812    101.1137
  2467.5000      0.0000    399.4996      7.7232     94.9768
  2467.7500      0.0000    419.9259      7.9124     88.9796
  2468.0000      0.0000    453.1811      8.1444     84.5455
  2468.2500      0.0000    491.7504      8.4118     82.5182
  2468.5000      0.0000    521.5805      8.7014     82.4329
  2468.7500      0.0000    532.1631      8.9921     82.8758
  2469.0000      0.0000    527.4581      9.2578     82.4990
  2469.2500      0.0000    523.3603      9.4750     81.1958
  2469.5000      0.0000    533.3269      9.6293     80.3992
  2469.7500      0.0000    558.9958      9.7151     81.8033
  2470.0000      0.0000    593.2881      9.7310     85.6655
  2470.2500      0.0000    627.1228      9.6820     90.4089
