~Version Information
VERS.                      2.0: CWLS Log ASCII Standard - VERSION 2.0
WRAP.                       NO: One line per depth step
~Well Information Block
STRT.FT                -6.5000: 
STOP.FT              1758.0000: 
STEP.FT                 0.2500: 
NULL.                -999.2500: 
COMP.          Pioneer Natural Resources: COMPANY
WELL.           Rolls 14-14 Tr: WELL
FLD.           Purgatorie River: FIELD
LOC.           473' FSL & 817' FWL--: LOCATION
PROV.                       CO: PROVINCE
CNTY.               Las Animas: COUNTRY
SRVC.          Patterson Wireline: SERVICE COMPANY
DATE.          Mon Aug 08 11:51:25 2005: LOG DATE
UWI.           05 071 08454 00: UNIQUE WELL ID
~Curve Information Block
DEPT.FT            0 000 00 00: Depth
CCL.                          : Casing Collar Locator
TT3.usec                      : CBL 3' Travel Time
AMP3.mV                       : CBL 3' Amplitude
GR.GAPI                       : Gamma Ray
~Parameter Information Block
~A  Depth       CCL         TT3         AMP3         GR     
# ...
   228.0000      0.0000    391.7066     10.8069     62.1432
   228.2500      0.0000    434.9272     10.8218     60.8581
   228.5000      0.0000    500.2033     10.8166     59.3875
   228.7500      0.0000    576.9545     10.7936     58.1676
   229.0000      0.0000    648.8257     10.7667     57.3329
   229.2500      0.0000    702.9926     10.7554     56.7703
   229.5000      0.0000    734.4866     10.7745     56.4976
   229.7500      0.0000    742.4215     10.8259     56.8541
   230.0000      0.0000    725.9477     10.8979     58.2752
   230.2500      0.0000    687.3107     10.9731     60.7893
   230.5000      0.0000    639.1497     11.0358     63.4751
   230.7500      0.0000    604.4644     11.0730     64.5527
   231.0000      0.0000    602.8502     11.0744     62.7067
   231.2500      0.0000    634.4321     11.0411     58.5882
   231.5000      0.0000    679.8014     10.9952     54.6484
   231.7500      0.0000    715.2697     10.9731     53.3047
   232.0000      0.0000    726.4386     11.0003     55.3114
   232.2500      0.0000    711.8649     11.0710     59.5512
   232.5000      0.0000    682.0572     11.1546     63.9453
   232.7500      0.0000    655.6633     11.2218     66.6145
   233.0000      0.0000    649.5362     11.2598     66.6899
   233.2500      0.0000    665.9155     11.2670     64.3858
   233.5000      0.0000    687.6081     11.2469     60.3596
   233.7500      0.0000    689.5359     11.2093     55.2315
   234.0000      0.0000    659.8734     11.1704     49.8942
   234.2500      0.0000    608.9144     11.1482     45.7236
   234.5000      0.0000    554.3516     11.1610     43.7717
   234.7500      0.0000    502.9731     11.2239     43.9688
   235.0000      0.0000    452.6392     11.3331     45.5749
   235.2500      0.0000    405.5382     11.4571     48.1370
   235.5000      0.0000    369.6827     11.5515     51.6366
   235.7500      0.0000    349.4703     11.5872     55.9086
   236.0000      0.0000    341.9195     11.5603     60.1236
   236.2500      0.0000    341.3218     11.4853     62.8291
   236.5000      0.0000    343.5688     11.3891     62.8419
   236.7500      0.0000    346.2829     11.3090     60.4449
   237.0000      0.0000    347.7392     11.2805     57.5300
   237.2500      0.0000    346.6383     11.3202     56.2327
   237.5000      0.0000    342.3773     11.4180     57.4553
   237.7500      0.0000    335.4398     11.5459     60.6989
   238.0000      0.0000    327.4275     11.6722     64.8716
   238.2500      0.0000    320.3500     11.7741     69.0122
   238.5000      0.0000    315.4839     11.8424     72.6891
   238.7500      0.0000    312.8694     11.8755     76.2874
   239.0000      0.0000    311.7809     11.8735     80.8048
   239.2500      0.0000    311.4416     11.8445     86.7495
   239.5000      0.0000    311.3558     11.8126     92.9072
   239.7500      0.0000    311.2911     11.8108     96.5621
   240.0000      0.0000    311.2072     11.8580     95.6799
   240.2500      0.0000    311.2478     11.9412     91.1727
   240.5000      0.0000    311.9914     12.0198     86.5350
   240.7500      0.0000    315.2155     12.0547     84.8087
   241.0000      0.0000    325.1895     12.0346     86.1918
   241.2500      0.0000    349.0955     11.9729     88.7981
   241.5000      0.0000    393.5957     11.8849     91.0595
   241.7500      0.0000    457.0529     11.7789     92.7658
   242.0000      0.0000    523.7450     11.6678     94.2122
   242.2500      0.0000    568.7815     11.5768     95.2523
   242.5000      0.0000    572.9903     11.5333     95.4676
   242.7500      0.0000    535.8231     11.5521     94.8802
   243.0000      0.0000    475.2104     11.6278     94.1182
   243.2500      0.0000    415.2104     11.7382     93.8411
   243.5000      0.0000    372.5863     11.8540     94.1798
   243.7500      0.0000    352.8383     11.9507     94.8393
   244.0000      0.0000    354.8605     12.0106     95.5252
   244.2500      0.0000    375.0086     12.0194     95.8931
   244.5000      0.0000    407.1264     11.9712     95.3096
   244.7500      0.0000    444.5055     11.8799     93.3975
   245.0000      0.0000    485.3692     11.7773     90.8861
   245.2500      0.0000    532.6345     11.6986     89.1792
   245.5000      0.0000    585.0822     11.6691     88.8817
   245.7500      0.0000    632.5693     11.6969     89.3036
   246.0000      0.0000    662.6751     11.7683     89.5545
   246.2500      0.0000    669.9319     11.8526     89.5671
   246.5000      0.0000    658.9890     11.9179     89.6671
   246.7500      0.0000    642.5351     11.9470     89.4784
   247.0000      0.0000    635.0356     11.9383     87.9603
   247.2500      0.0000    643.4771     11.8990     84.7222
   247.5000      0.0000    662.9651     11.8403     80.8306
   247.7500      0.0000    682.8763     11.7764     77.9578
   248.0000      0.0000    696.2691     11.7208     76.8016
   248.2500      0.0000    702.7215     11.6788     76.3415
   248.5000      0.0000    704.9995     11.6436     74.5412
   248.7500      0.0000    705.5774     11.5996     70.1200
   249.0000      0.0000    705.6644     11.5303     63.9857
   249.2500      0.0000    705.6517     11.4262     58.5422
   249.5000      0.0000    705.6333     11.2871     55.2558
   249.7500      0.0000    705.6685     11.1212     53.4863
   250.0000      0.0000    705.7808     10.9419     51.9369
   250.2500      0.0000    705.9553     10.7628     50.2707
   250.5000      0.0000    706.1881     10.5928     48.8111
   250.7500      0.0000    706.6090     10.4351     47.6501
   251.0000      0.0000    707.6060     10.2891     46.8032
   251.2500      0.0000    709.7899     10.1522     46.6447
   251.5000      0.0000    713.5850     10.0251     47.6550
   251.7500      0.0000    718.6553      9.9160     50.0171
   252.0000      0.0000    723.9385      9.8329     53.4992
   252.2500      0.0000    728.6064      9.7662     57.4186
   252.5000      0.0000    732.8884      9.6873     60.8073
   252.7500      0.0000    737.6972      9.5705     62.8744
   253.0000      0.0000    743.7117      9.4160     63.2151
   253.2500      0.0000    750.9788      9.2503     61.6515
   253.5000      0.0000    758.7709      9.1091     58.3604
   253.7500      0.0000    765.3821      9.0179     54.2930
   254.0000      0.0000    768.7418      8.9824     50.9391
   254.2500      0.0000    768.4449      8.9887     49.3243
   254.5000      0.0000    767.6948      9.0107     49.3462
   254.7500      0.0000    772.3549      9.0186     50.0979
   255.0000      0.0000    786.4197      8.9893     50.5705
   255.2500      0.0000    807.8804      8.9171     50.1062
   255.5000      0.0000    829.9174      8.8148     48.7388
   255.7500      0.0000    846.2884      8.7047     47.4149
   256.0000      0.0000    854.7234      8.6023     47.5743
   256.2500      0.0000    855.4576      8.5027     50.0310
   256.5000      0.0000    848.3163      8.3788     54.1276
   256.7500      0.0000    832.8350      8.1962     58.1171
   257.0000      0.0000    812.0277      7.9392     60.3314
   257.2500      0.0000    795.0504      7.6228     60.0353
   257.5000      0.0000    792.7002      7.2861     57.6041
   257.7500      0.0000    807.2073      6.9741     54.1607
   258.0000      0.0000    828.0734      6.7207     50.8256
   258.2500      0.0000    841.7664      6.5351     48.1866
   258.5000      0.0000    845.3850      6.4034     46.4260
   258.7500     -2.0000    847.7229      6.3072     45.6282
   259.0000     -2.0000    857.1606      6.2362     45.7628
   259.2500      0.0000    872.0682      6.1906     46.6132
   259.5000      0.0000    884.0038      6.1899     47.9554
   259.7500      0.0000    887.2395      6.2892     49.7733
   260.0000      0.0000    882.9080      6.5604     52.1380
   260.2500      0.0000    875.6844      7.0246     54.6713
   260.5000      0.0000    869.4026      7.6010     56.3676
   260.7500      0.0000    865.6558      8.1446     56.4686
   261.0000      0.0000    864.3083      8.5383     55.4243
   261.2500      0.0000    864.3363      8.7458     54.5427
