~Version Information
VERS.                      2.0: CWLS Log ASCII Standard - VERSION 2.0
WRAP.                       NO: One line per depth step
~Well Information Block
STRT.FT               350.0000: 
STOP.FT              2803.2000: 
STEP.FT                 0.1000: 
NULL.                -999.2500: 
COMP.          Pioneer Natural Resources: COMPANY
WELL.          Grey Goose 33-30: WELL
FLD.           Purgatoire River: FIELD
LOC.           2136' FSL & 2065' FEL--: LOCATION
STAT.                 Colorado: State
CNTY.               Las Animas: COUNTY
CTRY. USA : Country
SECT. 30 : Section
TOWN. 32S : Township
RANG. 67W : Range
SRVC.                Patterson: SERVICE COMPANY
DATE.          Fri Nov 04 09:27:53 2005: LOG DATE
API.           05 071 08546 00: UNIQUE WELL ID
~Curve Information Block
DEPT.FT            0 000 00 00: Depth
DCAL.in                       : CDL Caliper
DPOR.pu                       : CDL Density Porosity
NPOR.pu                       : Neutron Porosity
RHOB.g/cc                     : CDL Bulk Density
RHOC.g/cc                     : CDL Density Correction
GR.GAPI                       : Gamma Ray
~Parameter Information Block
~A  Depth       DCAL        DPOR        NPOR        RHOB        RHOC         GR     
# ...
  1329.2000      8.0111     53.3533     33.6035      1.7697      0.1514     48.2050
  1329.3000      8.0089     45.3823     33.9199      1.9012      0.2260     55.5745
  1329.4000      8.0089     37.9884     34.2353      2.0232      0.2936     63.2234
  1329.5000      8.0634     32.5078     34.1920      2.1136      0.3173     68.8897
  1329.6000      8.0634     29.0465     33.9308      2.1707      0.2689     72.8816
  1329.7000      8.0634     26.6260     33.8313      2.2107      0.1924     78.5715
  1329.8000      8.0973     24.7626     33.9853      2.2414      0.1604     85.3616
  1329.9000      8.0973     24.1004     34.0429      2.2523      0.1055     91.7920
  1330.0000      8.1121     25.4526     33.7700      2.2300      0.0889    100.0802
  1330.1000      8.1121     28.7729     33.3396      2.1752      0.0356    107.8716
  1330.2000      8.1121     33.5723     33.1458      2.0961      0.0279    109.1481
  1330.3000      8.1247     39.4277     33.3281      1.9994     -0.0312    104.7590
  1330.4000      8.1247     44.9795     33.5844      1.9078     -0.0384    102.7677
  1330.5000      8.1349     48.5563     33.6259      1.8488     -0.0531    104.8464
  1330.6000      8.1349     49.6759     33.2566      1.8303     -0.0585    100.8630
  1330.7000      8.1349     48.6657     32.4660      1.8470     -0.0400     88.9757
  1330.8000      8.1390     46.0238     31.8977      1.8906     -0.0037     82.0419
  1330.9000      8.1390     42.2879     31.8792      1.9523      0.0530     83.0829
  1331.0000      8.1402     37.5344     31.2798      2.0307      0.0966     84.3986
  1331.1000      8.1402     31.6636     29.4879      2.1275      0.1994     82.8323
  1331.2000      8.1402     25.0933     27.4984      2.2360      0.2325     79.4047
  1331.3000      8.1439     18.2394     26.1708      2.3491      0.2688     78.7335
  1331.4000      8.1439     11.4926     25.3585      2.4604      0.2805     87.3637
  1331.5000      8.1477      5.8377     24.7250      2.5537      0.2404    101.3662
  1331.6000      8.1477      2.5578     24.4298      2.6078      0.2182    108.0918
  1331.7000      8.1477      2.1828     24.5292      2.6140      0.0820    102.7915
  1331.8000      8.1482      3.9966     24.3901      2.5841      0.0649     91.3117
  1331.9000      8.1482      6.3355     23.6938      2.5455     -0.0125     82.9018
  1332.0000      8.1467      7.3422     23.1540      2.5289     -0.0059     83.2815
  1332.1000      8.1467      6.5372     23.2386      2.5421      0.0102     87.9799
  1332.2000      8.1467      5.0070     23.5542      2.5674      0.0315     88.8374
  1332.3000      8.1475      3.9297     23.5510      2.5852      0.0414     84.2328
  1332.4000      8.1475      3.5344     23.0050      2.5917      0.0407     79.1732
  1332.5000      8.1493      3.4781     22.5901      2.5926      0.0532     79.9272
  1332.6000      8.1493      3.4891     22.8899      2.5924      0.0505     86.4058
  1332.7000      8.1493      3.3919     23.5737      2.5940      0.0224     94.6962
  1332.8000      8.1504      3.5345     24.2037      2.5917      0.0742    102.7956
  1332.9000      8.1504      4.4578     24.7078      2.5764      0.0611    104.8258
  1333.0000      8.1500      5.3988     24.9174      2.5609      0.0180     96.6673
  1333.1000      8.1500      5.4154     25.0409      2.5606      0.0226     87.9485
  1333.2000      8.1500      5.1259     25.4666      2.5654      0.0407     90.5350
  1333.3000      8.1491      5.2545     25.9036      2.5633      0.0176    103.7814
  1333.4000      8.1491      5.6311     25.9028      2.5571      0.0427    116.6730
  1333.5000      8.1488      6.0588     25.6862      2.5500      0.0229    118.3095
  1333.6000      8.1488      5.9398     25.6611      2.5520     -0.0255    112.3138
  1333.7000      8.1488      5.1078     25.7984      2.5657      0.0555    108.6190
  1333.8000      8.1485      4.9753     26.0194      2.5679      0.0622    107.0690
  1333.9000      8.1485      5.9568     26.2093      2.5517      0.0154    104.4500
  1334.0000      8.1477      6.7102     26.1980      2.5393      0.0255    103.6903
  1334.1000      8.1477      6.8856     25.9349      2.5364      0.0345    109.4607
  1334.2000      8.1477      7.2318     25.6314      2.5307      0.0309    117.8531
  1334.3000      8.1462      7.3325     25.4723      2.5290     -0.0120    118.2603
  1334.4000      8.1462      6.2214     25.5777      2.5473      0.0326    111.8664
  1334.5000      8.1462      4.6617     25.9873      2.5731      0.0753    109.2954
  1334.6000      8.1462      4.1033     26.4641      2.5823      0.0639    110.7386
  1334.7000      8.1462      4.5046     27.0589      2.5757      0.0404    111.5567
  1334.8000      8.1470      5.4023     27.6717      2.5609      0.0663    112.2854
  1334.9000      8.1470      6.8810     27.7310      2.5365      0.0293    113.9165
  1335.0000      8.1465      8.1360     27.2810      2.5158      0.0130    114.9618
  1335.1000      8.1465      8.1191     26.9064      2.5160     -0.0032    116.7435
  1335.2000      8.1465      7.4189     26.9394      2.5276      0.0280    121.6131
  1335.3000      8.1464      7.3020     27.1620      2.5295      0.0517    124.7484
  1335.4000      8.1464      7.9639     27.0450      2.5186      0.0519    122.2382
  1335.5000      8.1475      8.3587     26.4953      2.5121      0.0064    116.5023
  1335.6000      8.1475      7.4386     25.9116      2.5273      0.0217    110.8757
  1335.7000      8.1475      5.5576     25.6095      2.5583      0.0442    107.5953
  1335.8000      8.1497      3.8216     25.5779      2.5869      0.0744    105.2338
  1335.9000      8.1497      2.3993     25.5123      2.6104      0.0558    100.3564
  1336.0000      8.1491      0.8851     25.1881      2.6354      0.0802     92.5643
  1336.1000      8.1491     -0.3937     24.5693      2.6565      0.0683     85.4688
  1336.2000      8.1491     -0.8572     23.9992      2.6641      0.0524     82.0479
  1336.3000      8.1454     -0.1147     23.5809      2.6519      0.0806     79.7770
  1336.4000      8.1454      1.4502     22.7049      2.6261      0.0472     77.5245
  1336.5000      8.1438      2.3516     21.5143      2.6112      0.0031     77.4554
  1336.6000      8.1438      2.1114     20.6134      2.6152      0.0646     78.7330
  1336.7000      8.1438      1.5891     20.2710      2.6238     -0.0143     80.3391
  1336.8000      8.1452      1.2772     20.5811      2.6289      0.0194     81.8177
  1336.9000      8.1452      1.2738     21.2251      2.6290     -0.0068     82.3492
  1337.0000      8.1469      0.9369     21.8496      2.6345     -0.0011     84.0304
  1337.1000      8.1469     -0.0312     22.4980      2.6505      0.0736     86.8214
  1337.2000      8.1469     -0.6231     23.3238      2.6603      0.0498     87.9027
  1337.3000      8.1486     -0.2275     24.2462      2.6538      0.0223     88.0561
  1337.4000      8.1486      1.3325     25.0155      2.6280      0.0607     89.5635
  1337.5000      8.1501      3.9903     25.3363      2.5842      0.0091     92.5392
  1337.6000      8.1501      5.9134     25.5494      2.5524     -0.0344     92.1996
  1337.7000      8.1501      5.1919     26.1849      2.5643      0.0127     87.4186
  1337.8000      8.1504      3.1355     26.9726      2.5983      0.0335     88.0790
  1337.9000      8.1504      2.6581     27.3339      2.6061      0.0296     97.7988
  1338.0000      8.1505      4.2788     27.3499      2.5794      0.0097    107.2537
  1338.1000      8.1505      5.9600     27.4754      2.5517     -0.0453    111.2537
  1338.2000      8.1505      6.0246     27.5443      2.5506      0.0208    113.9528
  1338.3000      8.1512      4.7010     27.1378      2.5724      0.0202    119.0439
  1338.4000      8.1512      3.4407     26.6024      2.5932      0.0447    125.0755
  1338.5000      8.1522      3.3791     26.4363      2.5942      0.0476    129.1422
  1338.6000      8.1522      4.3463     26.5854      2.5783      0.0699    135.0493
  1338.7000      8.1522      5.6900     26.8028      2.5561      0.0504    144.7661
