~Version Information
VERS.                      2.0: CWLS Log ASCII Standard - VERSION 2.0
WRAP.                       NO: One line per depth step
~Well Information Block
STRT.FT                -6.7500: 
STOP.FT              1544.5000: 
STEP.FT                 0.2500: 
NULL.                -999.2500: 
COMP.          Pioneer Natural Resources: COMPANY
WELL.          Lorencito 10-36-33-67: WELL
FLD.           Purgatorie River: FIELD
LOC.           2130' FSL & 2362' FEL--: LOCATION
STAT.                       CO: State
CNTY.               Las Animas: COUNTY
CTRY. USA : Country
SECT. 36 : Section
TOWN. 33S : Township
RANG. 67W : Range
SRVC.          Patterson Wireline: SERVICE COMPANY
DATE.          Fri Sep 02 09:21:42 2005: LOG DATE
API.           05 071 08501 00: UNIQUE WELL ID
~Curve Information Block
DEPT.FT            0 000 00 00: Depth
CCL.                          : Casing Collar Locator
TT3.usec                      : CBL 3' Travel Time
AMP3.mV                       : CBL 3' Amplitude
GR.GAPI                       : Gamma Ray
~Parameter Information Block
~A  Depth       CCL         TT3         AMP3         GR     
# ...
   395.2500      0.0000    931.2104      8.0302     95.2812
   395.5000      0.0000    955.3068      8.1336     98.1646
   395.7500      0.0000    978.6202      8.2483    100.8187
   396.0000      0.0000    990.7172      8.3396    102.9248
   396.2500      0.0000    986.9243      8.3875    103.6316
   396.5000      0.0000    974.2411      8.4011    101.8510
   396.7500      0.0000    963.1986      8.4086     96.9441
   397.0000      0.0000    956.6127      8.4301     89.5282
   397.2500      0.0000    951.5901      8.4638     81.6773
   397.5000      0.0000    948.8240      8.4965     76.0566
   397.7500      0.0000    950.9050      8.5224     74.4615
   398.0000      0.0000    952.9433      8.5461     76.8819
   398.2500      0.0000    945.2415      8.5733     81.7077
   398.5000      0.0000    926.2939      8.6028     86.7133
   398.7500      0.0000    904.3497      8.6308     90.1354
   399.0000      0.0000    884.8795      8.6582     91.3274
   399.2500      0.0000    864.7438      8.6919     90.6890
   399.5000      0.0000    840.8530      8.7384     89.1592
   399.7500      0.0000    818.2745      8.7957     87.8959
   400.0000      0.0000    807.7015      8.8532     88.0737
   400.2500      0.0000    818.6434      8.9004     90.1991
   400.5000      0.0000    854.3586      8.9357     93.3282
   400.7500      0.0000    907.5723      8.9667     95.4608
   401.0000      0.0000    959.4987      9.0045     95.3919
   401.2500      0.0000    988.2719      9.0591     94.1908
   401.5000      0.0000    982.7267      9.1361     94.2663
   401.7500      0.0000    948.8552      9.2337     96.7902
   402.0000      0.0000    904.0554      9.3406    100.4791
   402.2500      0.0000    865.6352      9.4388    102.9610
   402.5000      0.0000    841.2360      9.5099    102.8395
   402.7500      0.0000    826.1746      9.5395    100.4231
   403.0000      0.0000    809.6671      9.5178     97.1215
   403.2500      0.0000    784.6836      9.4397     94.3616
   403.5000      0.0000    753.3924      9.3072     92.6886
   403.7500      0.0000    726.5831      9.1246     91.6017
   404.0000      0.0000    719.6903      8.8725     90.1697
   404.2500      0.0000    745.7913      8.4976     87.7577
   404.5000      0.0000    807.5157      7.9742     84.4424
   404.7500      0.0000    893.1796      7.3820     81.0001
   405.0000      0.0000    980.4918      6.8741     78.3972
   405.2500      0.0000   1046.2761      6.5519     77.1704
   405.5000      0.0000   1077.0417      6.4040     77.3443
   405.7500      0.0000   1074.5490      6.3685     78.8110
   406.0000     -2.0000   1052.8298      6.4200     81.5338
   406.2500      0.0000   1027.2032      6.5995     85.3889
   406.5000      0.0000   1002.2427      6.9824     90.0267
   406.7500      0.0000    970.6984      7.5971     95.0477
   407.0000      0.0000    925.9863      8.3427    100.2350
   407.2500      0.0000    873.2102      9.0115    105.3947
   407.5000      0.0000    825.5093      9.4379    109.9481
   407.7500      0.0000    792.7067      9.6109    112.8574
   408.0000      0.0000    776.6415      9.6265    113.1249
   408.2500      0.0000    774.3193      9.5771    110.3440
   408.5000      0.0000    781.1371      9.5119    104.8596
   408.7500      0.0000    791.7517      9.4576     97.7414
   409.0000      0.0000    801.2187      9.4316     90.6307
   409.2500      0.0000    806.7215      9.4403     85.1773
   409.5000      0.0000    808.4063      9.4783     82.3364
   409.7500      0.0000    808.5433      9.5334     82.1286
   410.0000      0.0000    809.5628      9.5923     83.7976
   410.2500      0.0000    812.3494      9.6466     86.2473
   410.5000      0.0000    816.1565      9.6963     88.9496
   410.7500      0.0000    819.9748      9.7507     92.4738
   411.0000      0.0000    823.6744      9.8219     97.3369
   411.2500      0.0000    827.7658      9.9145    102.2970
   411.5000      0.0000    832.3641     10.0203    104.6244
   411.7500      0.0000    836.7659     10.1231    102.4309
   412.0000      0.0000    840.0741     10.2100     96.5214
   412.2500      0.0000    841.9670     10.2772     89.9200
   412.5000      0.0000    842.6506     10.3255     85.6265
   412.7500      0.0000    842.1975     10.3519     84.6764
   413.0000      0.0000    839.9365     10.3495     86.0972
   413.2500      0.0000    834.4659     10.3177     88.4466
   413.5000      0.0000    824.5328     10.2668     91.2413
   413.7500      0.0000    810.2234     10.2128     94.9047
   414.0000      0.0000    793.3148     10.1711     99.3842
   414.2500      0.0000    776.7038     10.1551    103.1962
   414.5000      0.0000    764.0201     10.1774    104.5066
   414.7500      0.0000    759.0477     10.2479    103.0890
   415.0000      0.0000    763.7655     10.3716    100.4064
   415.2500      0.0000    776.5438     10.5450     97.6885
   415.5000      0.0000    793.1072     10.7499     94.6058
   415.7500      0.0000    809.3061     10.9547     90.0030
   416.0000      0.0000    822.6699     11.1252     83.5814
   416.2500      0.0000    832.2018     11.2370     76.7878
   416.5000      0.0000    837.8002     11.2794     72.1402
   416.7500      0.0000    839.7325     11.2538     71.6213
   417.0000      0.0000    837.7337     11.1710     75.7014
   417.2500      0.0000    830.3678     11.0477     83.6778
   417.5000      0.0000    815.8970     10.9003     94.2714
   417.7500      0.0000    794.6513     10.7410    105.7208
   418.0000      0.0000    770.5076     10.5785    116.1061
   418.2500      0.0000    749.1494     10.4216    124.0964
   418.5000      0.0000    734.4007     10.2814    129.2358
   418.7500      0.0000    726.4005     10.1673    131.5108
   419.0000      0.0000    722.9187     10.0823    131.0151
   419.2500      0.0000    721.5488     10.0198    128.2340
   419.5000      0.0000    720.6696      9.9679    124.3721
   419.7500      0.0000    719.2510      9.9188    120.9724
   420.0000      0.0000    716.7418      9.8762    119.0927
   420.2500      0.0000    713.7889      9.8540    118.8113
   420.5000      0.0000    713.1318      9.8693    119.2756
   420.7500      0.0000    718.8882      9.9337    119.1536
   421.0000      0.0000    733.4241     10.0466    117.3948
   421.2500      0.0000    754.4045     10.1921    113.8379
   421.5000      0.0000    775.8802     10.3454    109.2344
   421.7500      0.0000    793.1486     10.4884    104.9048
   422.0000      0.0000    805.9030     10.6200    102.2424
   422.2500      0.0000    815.9169     10.7459    102.0261
   422.5000      0.0000    822.7371     10.8539    103.9789
   422.7500      0.0000    823.0859     10.9023    107.0207
   423.0000      0.0000    814.3742     10.8391    109.9497
   423.2500      0.0000    798.5767     10.6398    112.0889
   423.5000      0.0000    782.9823     10.3323    113.6327
   423.7500      0.0000    776.3032      9.9844    115.1438
   424.0000      0.0000    782.4145      9.6608    116.3589
   424.2500      0.0000    797.4476      9.3897    115.7541
   424.5000      0.0000    813.4944      9.1687    111.7912
   424.7500      0.0000    825.0576      8.9935    104.5090
   425.0000      0.0000    831.7173      8.8678     95.6156
   425.2500      0.0000    835.7238      8.7922     87.4084
   425.5000      0.0000    838.7064      8.7551     82.0239
   425.7500      0.0000    840.8553      8.7402     81.0533
   426.0000      0.0000    841.8411      8.7419     84.7842
   426.2500      0.0000    841.4445      8.7722     91.6742
   426.5000      0.0000    839.5342      8.8534     98.9602
   426.7500      0.0000    836.1595      9.0035    103.9928
   427.0000      0.0000    831.9170      9.2238    105.2735
   427.2500      0.0000    827.9078      9.4897    102.8018
   427.5000      0.0000    824.7740      9.7525     97.9739
   427.7500      0.0000    821.4979      9.9560     93.0315
   428.0000      0.0000    815.3914     10.0638     89.7772
   428.2500      0.0000    804.1852     10.0765     88.1864
   428.5000      0.0000    788.8127     10.0251     86.5810
