~Version Information
VERS.                      2.0: CWLS Log ASCII Standard - VERSION 2.0
WRAP.                       NO: One line per depth step
~Well Information Block
STRT.FT               -10.2500: 
STOP.FT              2437.2500: 
STEP.FT                 0.2500: 
NULL.                -999.2500: 
COMP.          Pioneer Natural Resources: COMPANY
WELL.          Hellzonfire 32-31: WELL
FLD.           Purgatorie River: FIELD
LOC.           1993' FNL & 2265' FEL------: LOCATION
STAT.                       CO: State
CNTY.               Las Animas: COUNTY
CTRY. USA : Country
SECT. 31 : Section
TOWN. 32S : Township
RANG. 66W : Range
SRVC.          Patterson Wireline: SERVICE COMPANY
DATE.          Thu Sep 08 11:10:17 2005: LOG DATE
API.           05 071 08483 00: UNIQUE WELL ID
~Curve Information Block
DEPT.FT            0 000 00 00: Depth
CCL.                          : Casing Collar Locator
TT3.usec                      : CBL 3' Travel Time
AMP3.mV                       : CBL 3' Amplitude
GR.GAPI                       : Gamma Ray
~Parameter Information Block
~A  Depth       CCL         TT3         AMP3         GR     
# ...
   324.7500      0.0000    951.2695     14.7264     41.1575
   325.0000      0.0000    955.7009     14.8031     39.7471
   325.2500      0.0000    958.1376     14.9193     39.7715
   325.5000      0.0000    959.0405     15.0449     40.3547
   325.7500      0.0000    959.2222     15.1590     40.7134
   326.0000      0.0000    959.4906     15.2559     40.6958
   326.2500      0.0000    961.0593     15.3358     40.7307
   326.5000      0.0000    966.2906     15.3940     41.4162
   326.7500      0.0000    978.7980     15.4205     42.9937
   327.0000      0.0000   1001.5602     15.4086     44.8938
   327.2500      0.0000   1033.2146     15.3643     45.9337
   327.5000      0.0000   1065.9703     15.3109     45.4458
   327.7500      0.0000   1089.2112     15.2834     44.1543
   328.0000      0.0000   1097.2825     15.3139     43.4577
   328.2500      0.0000   1094.0760     15.4159     43.8370
   328.5000      0.0000   1089.2679     15.5819     44.4317
   328.7500      0.0000   1089.8755     15.7951     44.2911
   329.0000      0.0000   1095.7883     16.0388     43.5940
   329.2500      0.0000   1102.5229     16.2957     43.3491
   329.5000      0.0000   1106.0917     16.5437     44.1887
   329.7500      0.0000   1104.3958     16.7577     45.8730
   330.0000      0.0000   1095.9628     16.9179     47.8960
   330.2500      0.0000   1079.8240     17.0171     50.0528
   330.5000      0.0000   1057.1473     17.0618     52.3338
   330.7500      0.0000   1032.0701     17.0669     54.7182
   331.0000      0.0000   1010.2202     17.0487     57.0316
   331.2500      0.0000    996.3778     17.0176     58.6094
   331.5000      0.0000    992.5157     16.9739     58.2982
   331.7500      0.0000    997.1368     16.9062     55.3667
   332.0000      0.0000   1007.2347     16.7974     50.5272
   332.2500      0.0000   1021.4827     16.6353     45.7547
   332.5000      0.0000   1040.5498     16.4228     42.8837
   332.7500      0.0000   1064.0990     16.1825     42.3632
   333.0000      0.0000   1088.6993     15.9489     43.3445
   333.2500      0.0000   1109.1731     15.7528     44.7547
   333.5000      0.0000   1120.7703     15.6072     45.9515
   333.7500      0.0000   1119.9651     15.5097     46.5072
   334.0000      0.0000   1105.1095     15.4532     46.0711
   334.2500      0.0000   1077.8593     15.4325     44.7329
   334.5000      0.0000   1043.0034     15.4436     43.2105
   334.7500      0.0000   1005.2195     15.4803     42.5321
   335.0000      0.0000    965.7795     15.5330     43.5779
   335.2500      0.0000    923.6520     15.5884     46.6956
   335.5000      0.0000    880.1327     15.6330     51.4598
   335.7500      0.0000    841.0684     15.6619     56.8012
   336.0000      0.0000    813.3293     15.6761     61.5138
   336.2500      0.0000    799.8923     15.6637     64.8291
   336.5000      0.0000    798.5686     15.5744     66.7365
   336.7500      0.0000    803.1123     15.3318     67.9097
   337.0000      0.0000    805.5695     14.9068     69.3109
   337.2500      0.0000    803.1036     14.3773     71.6825
   337.5000      0.0000    805.9386     13.8513     75.0332
   337.7500      0.0000    832.8450     13.3201     78.4881
   338.0000      0.0000    891.7779     12.6876     80.9470
   338.2500      0.0000    967.8919     11.9661     81.8950
   338.5000      0.0000   1035.5801     11.3305     81.2720
   338.7500      0.0000   1079.4907     10.9467     78.9182
   339.0000     -2.0000   1100.7806     10.8307     74.9427
   339.2500      0.0000   1107.7410     10.8906     70.5122
   339.5000      0.0000   1104.9838     11.0457     67.4948
   339.7500      0.0000   1089.5570     11.2968     67.0359
   340.0000      0.0000   1054.1818     11.7108     68.7173
   340.2500      0.0000    994.4521     12.3512     71.1462
   340.5000      0.0000    914.6707     13.2198     73.1973
   340.7500      0.0000    828.4187     14.2519     74.5567
   341.0000      0.0000    754.8452     15.3209     75.2165
   341.2500      0.0000    711.3522     16.2462     74.8668
   341.5000      0.0000    703.5541     16.8629     73.0040
   341.7500      0.0000    720.9404     17.1218     69.4957
   342.0000      0.0000    745.3793     17.1031     64.9728
   342.2500      0.0000    764.4637     16.9370     60.7007
   342.5000      0.0000    776.6230     16.7302     57.9033
   342.7500      0.0000    787.2620     16.5470     57.0321
   343.0000      0.0000    802.5840     16.4183     57.7116
   343.2500      0.0000    824.3483     16.3519     59.3389
   343.5000      0.0000    847.1051     16.3416     61.5695
   343.7500      0.0000    861.9303     16.3746     64.1671
   344.0000      0.0000    864.9702     16.4428     66.6300
   344.2500      0.0000    859.3351     16.5471     68.1885
   344.5000      0.0000    847.3979     16.6895     68.2447
   344.7500      0.0000    828.1698     16.8616     66.8509
   345.0000      0.0000    806.9015     17.0437     64.7117
   345.2500      0.0000    799.3480     17.2145     62.5067
   345.5000      0.0000    818.6102     17.3602     60.2537
   345.7500      0.0000    862.0955     17.4722     57.5407
   346.0000      0.0000    915.5911     17.5362     54.2772
   346.2500      0.0000    965.0331     17.5302     50.9655
   346.5000      0.0000   1002.5496     17.4395     48.2722
   346.7500      0.0000   1028.3647     17.2735     46.5431
   347.0000      0.0000   1049.6608     17.0582     45.8243
   347.2500      0.0000   1072.9475     16.8112     46.2730
   347.5000      0.0000   1095.9913     16.5339     48.3242
   347.7500      0.0000   1109.7737     16.2252     52.2700
   348.0000      0.0000   1107.9044     15.8935     57.7857
   348.2500      0.0000   1093.0005     15.5565     64.1108
   348.5000      0.0000   1075.7052     15.2379     70.6277
   348.7500      0.0000   1067.9614     14.9599     76.9671
   349.0000      0.0000   1074.7286     14.7329     82.6835
   349.2500      0.0000   1090.0878     14.5522     87.3083
   349.5000      0.0000   1101.2330     14.4100     90.8493
   349.7500      0.0000   1097.1475     14.3039     93.9013
   350.0000      0.0000   1075.2861     14.2296     96.9876
   350.2500      0.0000   1042.4777     14.1735     99.8529
   350.5000      0.0000   1010.4440     14.1191    101.6326
   350.7500      0.0000    989.6304     14.0586    101.7507
   351.0000      0.0000    985.4094     13.9932    100.3789
   351.2500      0.0000    997.1980     13.9260     98.0294
   351.5000      0.0000   1018.6503     13.8581     95.1113
   351.7500      0.0000   1040.1318     13.7911     91.9634
   352.0000      0.0000   1055.2390     13.7318     89.0946
   352.2500      0.0000   1066.0566     13.6932     87.2795
   352.5000      0.0000   1079.5326     13.6910     87.2796
   352.7500      0.0000   1098.5073     13.7338     89.1997
   353.0000      0.0000   1118.7687     13.8174     92.1519
   353.2500      0.0000   1134.4514     13.9289     94.7079
   353.5000      0.0000   1143.4335     14.0550     95.6457
   353.7500      0.0000   1147.3160     14.1852     94.4027
   354.0000      0.0000   1148.5880     14.3090     91.3880
   354.2500      0.0000   1148.8484     14.4149     88.0187
   354.5000      0.0000   1148.5735     14.4973     85.9277
   354.7500      0.0000   1147.2155     14.5614     85.8219
   355.0000      0.0000   1142.9346     14.6179     87.1522
   355.2500      0.0000   1132.4829     14.6696     88.8878
   355.5000      0.0000   1112.7019     14.7029     90.5228
   355.7500      0.0000   1084.1089     14.6935     92.2956
   356.0000      0.0000   1053.8802     14.6203     94.5355
   356.2500      0.0000   1033.9307     14.4788     97.0244
   356.5000      0.0000   1033.7002     14.2850     99.1140
   356.7500      0.0000   1053.3083     14.0677    100.2517
   357.0000      0.0000   1083.4050     13.8597    100.1715
   357.2500      0.0000   1111.7301     13.6892     98.6493
   357.5000      0.0000   1130.1023     13.5721     95.3216
   357.7500      0.0000   1136.1477     13.5092     89.9713
   358.0000      0.0000   1130.7545     13.4905     83.2811
