~Version Information
VERS.                      2.0: CWLS Log ASCII Standard - VERSION 2.0
WRAP.                       NO: One line per depth step
~Well Information Block
STRT.FT               840.0000: 
STOP.FT              1912.0000: 
STEP.FT                 0.1000: 
NULL.                -999.2500: 
COMP.          Petrogulf Corporation: COMPANY
WELL.             Kraft 17-23R: WELL
FLD.           Purgatorie River: FIELD
LOC.           1509' FSL & 1673' FWL: LOCATION
PROV.                 Colorado: PROVINCE
CNTY.               Las Animas: COUNTRY
SRVC.                Patterson: SERVICE COMPANY
DATE.          Wed Oct 12 07:01:14 2005: LOG DATE
UWI.                          : UNIQUE WELL ID
~Curve Information Block
DEPT.FT            0 000 00 00: Depth
DCAL.in                       : CDL Caliper
RHOB.g/cc                     : CDL Bulk Density
RHOC.g/cc                     : CDL Density Correction
DPOR.pu                       : CDL Density Porosity
GR.GAPI                       : Gamma Ray
NPOR.pu                       : Neutron Porosity
~Parameter Information Block
~A  Depth       DCAL        RHOB        RHOC        DPOR         GR         NPOR    
# ...
  1406.4000      7.8244      2.5848      0.0596      3.9486    108.2257     21.6946
  1406.5000      7.7902      2.5987      0.1275      3.1119    110.5876     21.1236
  1406.6000      7.7902      2.6102      0.0762      2.4120    111.2820     20.8964
  1406.7000      7.7902      2.6164      0.0725      2.0367    108.3839     20.9979
  1406.8000      7.7780      2.6172      0.0743      1.9872    103.5615     20.8745
  1406.9000      7.7780      2.6138      0.0850      2.1923     99.1521     20.2329
  1407.0000      7.7817      2.6054      0.0703      2.7030     96.9376     19.3447
  1407.1000      7.7817      2.5939      0.0355      3.4021     96.8476     18.5232
  1407.2000      7.7817      2.5870      0.0493      3.8202     96.5122     17.9229
  1407.3000      7.7732      2.5871      0.0539      3.8116     95.6027     17.6357
  1407.4000      7.7732      2.5927      0.0534      3.4706     96.0019     17.8313
  1407.5000      7.7807      2.6070      0.0077      2.6039     97.3908     18.4500
  1407.6000      7.7807      2.6226      0.0490      1.6599     98.9720     18.9863
  1407.7000      7.7807      2.6216      0.0587      1.7218    102.0605     19.2232
  1407.8000      7.7916      2.6102      0.0489      2.4150    107.9104     19.4635
  1407.9000      7.7916      2.6031      0.0886      2.8402    116.3038     19.7531
  1408.0000      7.7776      2.5908      0.0986      3.5869    126.4219     20.0127
  1408.1000      7.7776      2.5703      0.0308      4.8319    136.2243     20.4988
  1408.2000      7.7776      2.5634      0.0113      5.2488    142.1356     21.4240
  1408.3000      7.8096      2.5715      0.0760      4.7602    144.9061     22.6876
  1408.4000      7.8096      2.5673      0.0409      5.0143    149.6119     23.9177
  1408.5000      7.9080      2.5433      0.0511      6.4640    155.9549     24.7953
  1408.6000      7.9080      2.5224      0.0135      7.7317    159.0096     25.2213
  1408.7000      7.9080      2.5249      0.0232      7.5818    160.2647     25.4368
  1408.8000      7.9292      2.5405      0.0852      6.6379    163.9178     25.6788
  1408.9000      7.9292      2.5474      0.0795      6.2210    169.6715     25.6758
  1409.0000      7.9109      2.5522      0.0381      5.9277    174.4248     25.3222
  1409.1000      7.9109      2.5651      0.1156      5.1438    176.2088     25.1532
  1409.2000      7.9109      2.5689      0.1278      4.9168    176.2002     25.6134
  1409.3000      7.8724      2.5540      0.0840      5.8173    175.6065     26.3084
  1409.4000      7.8724      2.5360      0.0756      6.9084    172.9420     26.5459
  1409.5000      7.8814      2.5232      0.0485      7.6823    168.0899     26.6281
  1409.6000      7.8814      2.5087      0.0690      8.5637    165.4932     26.9577
  1409.7000      7.8814      2.4947     -0.0213      9.4149    169.6120     27.1229
  1409.8000      7.8999      2.4944      0.0055      9.4282    177.1028     26.8456
  1409.9000      7.8999      2.5032      0.0139      8.8961    181.4174     26.5038
  1410.0000      7.9228      2.5068     -0.0027      8.6764    181.1337     26.5603
  1410.1000      7.9228      2.5057      0.0519      8.7427    177.3306     26.9338
  1410.2000      7.9228      2.5034      0.1060      8.8867    173.3398     27.2633
  1410.3000      7.8876      2.5011      0.0553      9.0272    171.1222     27.6422
  1410.4000      7.8876      2.4982      0.1129      9.1981    170.0374     28.2965
  1410.5000      7.8085      2.4934      0.0559      9.4911    168.7081     28.8229
  1410.6000      7.8085      2.4939      0.0462      9.4631    165.2103     28.8596
  1410.7000      7.8085      2.5046      0.0399      8.8132    158.7019     28.4800
  1410.8000      7.8233      2.5256      0.0563      7.5392    149.5977     27.7924
  1410.9000      7.8233      2.5555      0.0596      5.7281    141.7885     26.9394
  1411.0000      7.8397      2.5802      0.1410      4.2327    138.3055     26.0332
  1411.1000      7.8397      2.5909      0.0595      3.5796    136.3170     25.1505
  1411.2000      7.8397      2.6000      0.0773      3.0299    133.1637     24.4402
  1411.3000      7.9032      2.6089      0.0773      2.4893    129.7413     23.9818
  1411.4000      7.9032      2.6092      0.0454      2.4709    127.1249     23.6690
  1411.5000      7.8761      2.5977      0.0515      3.1727    124.8604     23.3858
  1411.6000      7.8761      2.5765      0.0423      4.4563    122.7207     23.0759
  1411.7000      7.8761      2.5603      0.0502      5.4382    122.9476     22.5840
  1411.8000      7.7835      2.5630      0.0106      5.2708    126.4339     21.7047
  1411.9000      7.7835      2.5816      0.0389      4.1477    129.1014     20.6956
  1412.0000      7.7824      2.6046      0.0490      2.7512    128.7124     20.1730
  1412.1000      7.7824      2.6288      0.0677      1.2843    128.2503     20.3228
  1412.2000      7.7824      2.6533      0.1069     -0.1991    128.0509     20.8353
  1412.3000      7.7760      2.6664      0.1259     -0.9932    127.1814     21.3965
  1412.4000      7.7760      2.6551      0.1032     -0.3089    126.9898     21.7408
  1412.5000      7.7860      2.6349      0.0317      0.9176    127.4300     21.8566
  1412.6000      7.7860      2.6379      0.0323      0.7345    127.0813     21.8420
  1412.7000      7.7860      2.6580      0.0930     -0.4823    124.3048     21.5523
  1412.8000      7.8062      2.6613      0.0999     -0.6873    120.4308     20.8995
  1412.9000      7.8062      2.6449      0.0595      0.3096    118.4423     20.1162
  1413.0000      7.8359      2.6255      0.0484      1.4873    118.7712     19.6713
  1413.1000      7.8359      2.6094      0.0226      2.4630    119.0209     19.6289
  1413.2000      7.8359      2.6083     -0.0046      2.5256    116.6747     19.8431
  1413.3000      7.7976      2.6276      0.0633      1.3573    113.0010     20.2895
  1413.4000      7.7976      2.6452      0.1098      0.2898    111.3622     20.8605
  1413.5000      7.7671      2.6470      0.0791      0.1843    111.9218     21.4883
  1413.6000      7.7671      2.6425      0.0774      0.4530    114.5222     21.9626
  1413.7000      7.7671      2.6349      0.0721      0.9171    119.1236     22.0628
  1413.8000      7.7708      2.6097      0.1034      2.4421    123.0477     21.7889
  1413.9000      7.7708      2.5650      0.0314      5.1513    125.2691     21.1161
  1414.0000      7.7904      2.5264     -0.0108      7.4879    128.3567     20.2152
  1414.1000      7.7904      2.5130     -0.0088      8.3034    134.2543     19.6639
  1414.2000      7.7904      2.5155      0.0391      8.1494    139.5153     19.9133
  1414.3000      7.8241      2.5202      0.0065      7.8684    140.5670     20.8319
  1414.4000      7.8241      2.5284      0.0692      7.3704    140.3640     21.8964
  1414.5000      7.8168      2.5403      0.1073      6.6482    140.4816     22.8043
  1414.6000      7.8168      2.5525      0.0769      5.9119    139.3754     23.6236
  1414.7000      7.8168      2.5694      0.1448      4.8838    138.3980     24.3640
  1414.8000      7.8021      2.5918      0.1288      3.5247    139.0883     24.7464
  1414.9000      7.8021      2.6145      0.1523      2.1535    140.5064     24.8211
  1415.0000      7.7787      2.6319      0.1650      1.0954    139.6672     25.0518
  1415.1000      7.7787      2.6408      0.1293      0.5585    134.4474     25.3654
  1415.2000      7.7787      2.6356      0.1611      0.8716    128.1727     25.3090
  1415.3000      7.7741      2.6101      0.1626      2.4157    125.1182     25.0342
  1415.4000      7.7741      2.5780      0.0786      4.3634    126.4382     25.0302
  1415.5000      7.7760      2.5683      0.0655      4.9501    128.9348     25.2633
  1415.6000      7.7760      2.5879      0.0759      3.7665    128.2309     25.3165
  1415.7000      7.7760      2.6144      0.1089      2.1602    125.4583     24.8841
  1415.8000      7.7701      2.6341      0.0621      0.9633    121.9051     23.9135
  1415.9000      7.7701      2.6577      0.1095     -0.4672    116.5732     22.8053
