~Version Information
VERS.                      2.0: CWLS Log ASCII Standard - VERSION 2.0
WRAP.                       NO: One line per depth step
~Well Information Block
STRT.FT               310.0000: 
STOP.FT              2298.0000: 
STEP.FT                 0.2500: 
NULL.                -999.2500: 
COMP.          Pioneer Natural Resources: COMPANY
WELL.               Relay 12-7: WELL
FLD.           Purgatoire River: FIELD
LOC.           1999' FNL & 848' FWL: LOCATION
PROV.                 Colorado: PROVINCE
CNTY.               Las Animas: COUNTRY
SRVC.                Patterson: SERVICE COMPANY
DATE.          Fri Dec 16 17:39:57 2005: LOG DATE
UWI.           05 071 08453 00: UNIQUE WELL ID
~Curve Information Block
DEPT.FT            0 000 00 00: Depth
SN.Ohm-m                      : IEL Short Normal
SP.mV                         : IEL Spontaneous Potential
DIR.Ohm-m                     : IEL Induction Resistivity
GR.GAPI                       : Gamma Ray
~Parameter Information Block
~A  Depth        SN          SP         DIR          GR     
# ...
  1080.5000     16.5347      4.6110     12.8412    165.9804
  1080.7500     16.5512      4.7271     12.5914    169.6074
  1081.0000     16.6394      4.6902     12.3879    172.6741
  1081.2500     16.5328      4.4646     12.2131    173.7003
  1081.5000     16.1759      4.0917     12.0582    174.5505
  1081.7500     15.7647      3.6706     11.9178    174.7531
  1082.0000     15.5741      3.2973     11.7850    174.0492
  1082.2500     15.9086      3.0155     11.6527    172.4285
  1082.5000     16.8856      2.8154     11.5192    167.8055
  1082.7500     18.1322      2.6738     11.3912    163.7328
  1083.0000     19.1719      2.5933     11.2811    158.3931
  1083.2500     20.0963      2.6105     11.1994    156.7910
  1083.5000     21.3606      2.7771     11.1491    158.1313
  1083.7500     22.9636      3.1377     11.1273    160.6183
  1084.0000     24.3140      3.7104     11.1307    164.1834
  1084.2500     24.8930      4.4762     11.1587    165.6105
  1084.5000     24.5712      5.3833     11.2124    166.7231
  1084.7500     23.4459      6.3635     11.2909    167.2716
  1085.0000     21.8614      7.3465     11.3901    167.8370
  1085.2500     20.2834      8.2623     11.5060    167.9671
  1085.5000     18.9372      9.0410     11.6394    168.3145
  1085.7500     17.8541      9.6208     11.7992    168.8792
  1086.0000     17.1229      9.9694     12.0006    169.6447
  1086.2500     16.8033     10.1008     12.2614    169.6567
  1086.5000     16.7576     10.0698     12.5971    169.0541
  1086.7500     16.8375      9.9411     13.0196    168.5177
  1087.0000     17.1448      9.7581     13.5360    167.1756
  1087.2500     17.8166      9.5339     14.1480    165.2176
  1087.5000     18.7077      9.2666     14.8510    159.4522
  1087.7500     19.5496      8.9599     15.6340    153.4430
  1088.0000     20.3154      8.6319     16.4830    141.9834
  1088.2500     21.2452      8.3105     17.3866    133.8796
  1088.5000     22.4887      8.0278     18.3423    123.2557
  1088.7500     23.8197      7.8248     19.3630    118.0642
  1089.0000     24.8413      7.7571     20.4788    113.6418
  1089.2500     25.5230      7.8808     21.7306    112.8345
  1089.5000     26.2941      8.2150     23.1534    114.0266
  1089.7500     27.5665      8.7086     24.7540    115.5801
  1090.0000     29.4082      9.2483     26.4965    117.3896
  1090.2500     31.4679      9.7081     28.3057    117.5599
  1090.5000     33.1084     10.0039     30.0952    115.9127
  1090.7500     33.9270     10.1179     31.8065    113.7217
  1091.0000     34.1415     10.0861     33.4371    109.4901
  1091.2500     34.3829      9.9709     35.0409    106.6086
  1091.5000     35.2018      9.8380     36.6973    103.1613
  1091.7500     36.7696      9.7385     38.4686    101.6372
  1092.0000     38.9853      9.6924     40.3711     99.5698
  1092.2500     41.7061      9.6817     42.3838     97.2091
  1092.5000     44.8270      9.6603     44.4793     90.7226
  1092.7500     48.3213      9.5790     46.6383     84.5512
  1093.0000     52.2074      9.4045     48.8273     74.0937
  1093.2500     56.3602      9.1207     50.9679     67.3368
  1093.5000     60.4236      8.7180     52.9474     58.7439
  1093.7500     63.9269      8.1848     54.6766     54.5035
  1094.0000     66.4639      7.5120     56.1495     50.7087
  1094.2500     67.9987      6.7082     57.4439     49.6762
  1094.5000     69.0752      5.8088     58.6503     49.4307
  1094.7500     70.4721      4.8647     59.7779     49.5630
  1095.0000     72.5366      3.9154     60.6876     49.6150
  1095.2500     74.7725      2.9748     61.0952     49.4834
  1095.5000     76.0762      2.0476     60.6577     49.3524
  1095.7500     75.7424      1.1602     59.1233     49.7019
  1096.0000     74.0742      0.3676     56.4709     51.6353
  1096.2500     71.5317     -0.2742     52.9691     54.2274
  1096.5000     67.9756     -0.7412     49.0920     60.5448
  1096.7500     63.3911     -1.0412     45.3326     66.5972
  1097.0000     58.7453     -1.1800     42.0287     78.5295
  1097.2500     55.2954     -1.1300     39.2925     87.9379
  1097.5000     52.9323     -0.8404     37.0369    102.1184
  1097.7500     50.2307     -0.2791     35.0574    109.9915
  1098.0000     46.5714      0.5355     33.1400    117.8032
  1098.2500     42.6758      1.5531     31.1646    120.6722
  1098.5000     39.1382      2.7440     29.1453    123.4054
  1098.7500     36.1063      4.1392     27.1797    125.2195
  1099.0000     33.4313      5.8372     25.3640    128.5926
  1099.2500     30.5382      7.9658     23.7495    131.0280
  1099.5000     27.3147     10.5831     22.3533    134.1010
  1099.7500     24.5052     13.5549     21.1833    135.3802
  1100.0000     22.6297     16.5313     20.2435    136.0106
  1100.2500     21.5246     19.0965     19.5233    135.8086
  1100.5000     20.8474     20.9864     18.9889    135.5138
  1100.7500     20.3364     22.1920     18.5879    135.9681
  1101.0000     19.7990     22.8890     18.2656    138.0410
  1101.2500     19.2147     23.2884     17.9823    139.9592
  1101.5000     18.8364     23.5327     17.7208    142.6178
  1101.7500     18.9033     23.6853     17.4768    144.0297
  1102.0000     19.3072     23.7724     17.2424    146.0433
  1102.2500     19.7497     23.8132     16.9987    147.5974
  1102.5000     19.9716     23.8182     16.7250    150.1843
  1102.7500     19.8242     23.7768     16.4162    151.8360
  1103.0000     19.3967     23.6624     16.0897    153.7258
  1103.2500     18.9437     23.4564     15.7743    154.2528
  1103.5000     18.6196     23.1733     15.4934    153.4386
  1103.7500     18.3775     22.8686     15.2566    151.9961
  1104.0000     18.1161     22.6232     15.0622    149.8319
  1104.2500     17.8796     22.5100     14.9003    149.2182
  1104.5000     17.7739     22.5591     14.7545    149.6508
  1104.7500     17.7639     22.7416     14.6027    150.0993
  1105.0000     17.7072     22.9815     14.4226    149.5721
  1105.2500     17.5438     23.1934     14.2018    148.1621
  1105.5000     17.3748     23.3246     13.9443    145.4104
  1105.7500     17.2962     23.3728     13.6680    144.1968
  1106.0000     17.2268     23.3710     13.3935    144.6237
  1106.2500     16.9988     23.3575     13.1326    146.2949
  1106.5000     16.5904     23.3595     12.8844    149.2493
  1106.7500     16.1978     23.3935     12.6412    150.4448
  1107.0000     16.0235     23.4718     12.3994    150.5116
  1107.2500     16.0121     23.6017     12.1651    150.0478
  1107.5000     15.9663     23.7807     11.9510    150.3251
  1107.7500     15.8973     23.9916     11.7693    151.6970
  1108.0000     15.9909     24.2060     11.6266    155.0482
  1108.2500     16.3007     24.3982     11.5245    157.4409
  1108.5000     16.7084     24.5569     11.4614    160.2823
  1108.7500     17.0298     24.6821     11.4371    161.4113
  1109.0000     17.0789     24.7703     11.4556    161.8808
  1109.2500     16.8152     24.8054     11.5292    161.4150
  1109.5000     16.4154     24.7676     11.6764    159.6180
  1109.7500     16.0987     24.6493     11.9161    157.9051
  1110.0000     15.9339     24.4638     12.2609    155.5823
  1110.2500     15.7928     24.2389     12.7153    154.8706
  1110.5000     15.4910     23.9999     13.2794    155.2691
  1110.7500     15.0304     23.7526     13.9547    155.9859
  1111.0000     14.6647     23.4796     14.7495    156.6908
  1111.2500     14.8204     23.1549     15.6822    156.5855
  1111.5000     15.9574     22.7645     16.7804    155.1901
  1111.7500     18.2190     22.3189     18.0727    153.0747
  1112.0000     21.2752     21.8502     19.5724    147.3677
  1112.2500     24.9321     21.3990     21.2622    141.5346
  1112.5000     29.8484     21.0000     23.0941    129.5785
  1112.7500     37.0391     20.6742     25.0232    119.7798
  1113.0000     46.4269     20.4265     27.0627    104.0409
  1113.2500     56.3244     20.2487     29.3198     94.5467
  1113.5000     64.6802     20.1270     31.9754     84.7138
  1113.7500     70.6902     20.0498     35.2138     81.8107
