~Version Information
VERS.                      2.0: CWLS Log ASCII Standard - VERSION 2.0
WRAP.                       NO: One line per depth step
~Well Information Block
STRT.FT               520.0000: 
STOP.FT              2555.2500: 
STEP.FT                 0.2500: 
NULL.                -999.2500: 
COMP.          Pioneer Natural Resources: COMPANY
WELL.          Horsefeathers 24-34: WELL
FLD.           Purgatoire River: FIELD
LOC.           183' FSL & 1570' FWL--: LOCATION
CNTY.               Las Animas: COUNTY
SRVC.                Patterson: SERVICE COMPANY
DATE.          Sun Feb 05 17:35:59 2006: LOG DATE
UWI.           05 071 08675 00: UNIQUE WELL ID
STAT.                 Colorado: STATE
~Curve Information Block
DEPT.FT            0 000 00 00: Depth
SN.Ohm-m                      : IEL Short Normal
SP.mV                         : IEL Spontaneous Potential
DIR.Ohm-m                     : IEL Induction Resistivity
GR.GAPI                       : Gamma Ray
~Parameter Information Block
NPORSHIFT.              0.0000: NPORSHIFT
~A  Depth        SN          SP         DIR          GR     
# ...
  1324.0000   2000.0000   1975.0000     22.7988    107.0025
  1324.2500   2000.0000   1975.0000     23.8224    106.2884
  1324.5000   2000.0000   1975.0000     24.9166    104.8824
  1324.7500   2000.0000   1975.0000     25.9928    103.2045
  1325.0000   2000.0000   1975.0000     26.9275     98.8917
  1325.2500   2000.0000   1975.0000     27.6077     94.5988
  1325.5000   2000.0000   1975.0000     27.9784     86.4270
  1325.7500   2000.0000   1975.0000     28.0574     80.7710
  1326.0000   2000.0000   1975.0000     27.9131     74.4625
  1326.2500   2000.0000   1975.0000     27.6276     72.9799
  1326.5000   2000.0000   1975.0000     27.2675     75.6120
  1326.7500   2000.0000   1975.0000     26.8639     80.1020
  1327.0000   2000.0000   1975.0000     26.4052     88.8398
  1327.2500   2000.0000   1975.0000     25.8454     94.4752
  1327.5000   2000.0000   1975.0000     25.1320    100.7716
  1327.7500   2000.0000   1975.0000     24.2430    103.4776
  1328.0000   2000.0000   1975.0000     23.2085    106.7684
  1328.2500   2000.0000   1975.0000     22.1031    109.3541
  1328.5000   2000.0000   1975.0000     21.0173    114.2012
  1328.7500   2000.0000   1975.0000     20.0291    117.8181
  1329.0000   2000.0000   1975.0000     19.1879    123.4193
  1329.2500   2000.0000   1975.0000     18.5122    127.0351
  1329.5000   2000.0000   1975.0000     17.9967    131.3968
  1329.7500   2000.0000   1975.0000     17.6219    132.9854
  1330.0000   2000.0000   1975.0000     17.3654    132.9777
  1330.2500   2000.0000   1975.0000     17.2092    131.5565
  1330.5000   2000.0000   1975.0000     17.1452    127.7631
  1330.7500   2000.0000   1975.0000     17.1754    124.4054
  1331.0000   2000.0000   1975.0000     17.3094    119.2029
  1331.2500   2000.0000   1975.0000     17.5574    116.7373
  1331.5000   2000.0000   1975.0000     17.9233    116.1272
  1331.7500   2000.0000   1975.0000     18.3995    117.6075
  1332.0000   2000.0000   1975.0000     18.9650    120.3765
  1332.2500   2000.0000   1975.0000     19.5863    121.1170
  1332.5000   2000.0000   1975.0000     20.2212    119.7102
  1332.7500   2000.0000   1975.0000     20.8261    117.6934
  1333.0000   2000.0000   1975.0000     21.3643    114.7981
  1333.2500   2000.0000   1975.0000     21.8131    113.6505
  1333.5000   2000.0000   1975.0000     22.1654    113.1608
  1333.7500   2000.0000   1975.0000     22.4291    113.2541
  1334.0000   2000.0000   1975.0000     22.6252    113.4577
  1334.2500   2000.0000   1975.0000     22.7845    113.6454
  1334.5000   2000.0000   1975.0000     22.9413    114.3196
  1334.7500   2000.0000   1975.0000     23.1238    114.9960
  1335.0000   2000.0000   1975.0000     23.3472    115.6595
  1335.2500   2000.0000   1975.0000     23.6116    115.3569
  1335.5000   2000.0000   1975.0000     23.9054    113.2154
  1335.7500   2000.0000   1975.0000     24.2113    110.5361
  1336.0000   2000.0000   1975.0000     24.5167    104.7478
  1336.2500   2000.0000   1975.0000     24.8224    100.0470
  1336.5000   2000.0000   1975.0000     25.1431     92.8427
  1336.7500   2000.0000   1975.0000     25.4969     88.7558
  1337.0000   2000.0000   1975.0000     25.8907     84.7801
  1337.2500   2000.0000   1975.0000     26.3120     83.6395
  1337.5000   2000.0000   1975.0000     26.7349     83.2462
  1337.7500   2000.0000   1975.0000     27.1328     83.0493
  1338.0000   2000.0000   1975.0000     27.4910     81.8117
  1338.2500   2000.0000   1975.0000     27.8142     80.1509
  1338.5000   2000.0000   1975.0000     28.1233     76.6906
  1338.7500   2000.0000   1975.0000     28.4437     74.1163
  1339.0000   2000.0000   1975.0000     28.7888     70.4300
  1339.2500   2000.0000   1975.0000     29.1515     68.2236
  1339.5000   2000.0000   1975.0000     29.5090     65.2081
  1339.7500   2000.0000   1975.0000     29.8388     63.3155
  1340.0000   2000.0000   1975.0000     30.1349     60.8059
  1340.2500   2000.0000   1975.0000     30.4118     59.6100
  1340.5000   2000.0000   1975.0000     30.6952     58.8040
  1340.7500   2000.0000   1975.0000     31.0057     58.7912
  1341.0000   2000.0000   1975.0000     31.3483     59.0845
  1341.2500   2000.0000   1975.0000     31.7117     59.3126
  1341.5000   2000.0000   1975.0000     32.0763     59.6150
  1341.7500   2000.0000   1975.0000     32.4189     59.7218
  1342.0000   2000.0000   1975.0000     32.7176     59.4859
  1342.2500   2000.0000   1975.0000     32.9567     58.9394
  1342.5000   2000.0000   1975.0000     33.1344     57.6146
  1342.7500   2000.0000   1975.0000     33.2653     56.6422
  1343.0000   2000.0000   1975.0000     33.3711     55.5357
  1343.2500   2000.0000   1975.0000     33.4671     55.1357
  1343.5000   2000.0000   1975.0000     33.5566     54.7992
  1343.7500   2000.0000   1975.0000     33.6332     54.5450
  1344.0000   2000.0000   1975.0000     33.6841     54.0247
  1344.2500   2000.0000   1975.0000     33.6939     53.7301
  1344.5000   2000.0000   1975.0000     33.6542     53.7954
  1344.7500   2000.0000   1975.0000     33.5725     54.3624
  1345.0000   2000.0000   1975.0000     33.4722     55.8617
  1345.2500   2000.0000   1975.0000     33.3781     56.9974
  1345.5000   2000.0000   1975.0000     33.3047     58.6170
  1345.7500   2000.0000   1975.0000     33.2600     59.7200
  1346.0000   2000.0000   1975.0000     33.2581     61.3852
  1346.2500   2000.0000   1975.0000     33.3217     62.1702
  1346.5000   2000.0000   1975.0000     33.4692     62.3241
  1346.7500   2000.0000   1975.0000     33.6965     61.8830
  1347.0000   2000.0000   1975.0000     33.9710     61.2585
  1347.2500   2000.0000   1975.0000     34.2414     61.2399
  1347.5000   2000.0000   1975.0000     34.4561     61.7104
  1347.7500   2000.0000   1975.0000     34.5808     62.0035
  1348.0000   2000.0000   1975.0000     34.6069     61.8756
  1348.2500   2000.0000   1975.0000     34.5517     61.3388
  1348.5000   2000.0000   1975.0000     34.4480     60.1134
  1348.7500   2000.0000   1975.0000     34.3293     59.2169
  1349.0000   2000.0000   1975.0000     34.2138     57.9756
  1349.2500   2000.0000   1975.0000     34.0979     57.2856
  1349.5000   2000.0000   1975.0000     33.9592     56.4798
  1349.7500   2000.0000   1975.0000     33.7702     56.0047
  1350.0000   2000.0000   1975.0000     33.5178     55.1774
  1350.2500   2000.0000   1975.0000     33.2183     54.5984
  1350.5000   2000.0000   1975.0000     32.9186     54.1854
  1350.7500   2000.0000   1975.0000     32.6745     54.5431
  1351.0000   2000.0000   1975.0000     32.5205     56.2286
  1351.2500   2000.0000   1975.0000     32.4518     57.9790
  1351.5000   2000.0000   1975.0000     32.4270     61.0883
  1351.7500   2000.0000   1975.0000     32.3833     63.2418
  1352.0000   2000.0000   1975.0000     32.2512     66.4526
  1352.2500   2000.0000   1975.0000     31.9643     68.6617
  1352.5000   2000.0000   1975.0000     31.4732     72.1999
  1352.7500   2000.0000   1975.0000     30.7663     74.6552
  1353.0000   2000.0000   1975.0000     29.8864     78.4927
  1353.2500   2000.0000   1975.0000     28.9254     81.4751
  1353.5000   2000.0000   1975.0000     27.9947     87.4702
  1353.7500   2000.0000   1975.0000     27.1876     92.6980
  1354.0000   2000.0000   1975.0000     26.5546    101.5893
  1354.2500   2000.0000   1975.0000     26.1049    107.2741
  1354.5000   2000.0000   1975.0000     25.8240    113.9485
  1354.7500   2000.0000   1975.0000     25.6953    116.6788
  1355.0000   2000.0000   1975.0000     25.7071    118.0732
  1355.2500   2000.0000   1975.0000     25.8477    117.4965
  1355.5000   2000.0000   1975.0000     26.0982    115.2022
  1355.7500   2000.0000   1975.0000     26.4349    113.0889
  1356.0000   2000.0000   1975.0000     26.8361    109.3009
  1356.2500   2000.0000   1975.0000     27.2851    106.5699
  1356.5000   2000.0000   1975.0000     27.7623    103.1031
  1356.7500   2000.0000   1975.0000     28.2357    101.9083
  1357.0000   2000.0000   1975.0000     28.6648    102.1816
  1357.2500   2000.0000   1975.0000     29.0204    103.1178
