~Version Information
VERS.                      2.0: CWLS Log ASCII Standard - VERSION 2.0
WRAP.                       NO: One line per depth step
~Well Information Block
STRT.FT               390.0000: 
STOP.FT               825.0000: 
STEP.FT                 0.1000: 
NULL.                -999.2500: 
COMP.          Pioneer Natural Resources: COMPANY
WELL.             Veedol 34-28: WELL
FLD.           Purgatoire River: FIELD
LOC.           357' FSL & 2520' FEL: LOCATION
PROV.                 Colorado: PROVINCE
CNTY.               Las Animas: COUNTRY
SRVC.                Patterson: SERVICE COMPANY
DATE.          Thu Dec 22 14:38:20 2005: LOG DATE
UWI.           05 071 08628 00: UNIQUE WELL ID
~Curve Information Block
DEPT.FT            0 000 00 00: Depth
DCAL.in                       : CDL Caliper
RHOB.g/cc                     : CDL Bulk Density
RHOC.g/cc                     : CDL Density Correction
DPOR.pu                       : CDL Density Porosity
GR.GAPI                       : Gamma Ray
NPOR.pu                       : Neutron Porosity
~Parameter Information Block
~A  Depth       DCAL        RHOB        RHOC        DPOR         GR         NPOR    
# ...
   591.6000      7.8932      2.5166      0.0316      8.0820     84.7425     23.3730
   591.7000      7.8932      2.5382      0.0836      6.7768     87.8694     23.0130
   591.8000      7.8939      2.5386      0.0574      6.7539     86.1135     22.5817
   591.9000      7.8939      2.5330      0.0061      7.0930     82.1380     22.3728
   592.0000      7.8936      2.5458      0.0733      6.3179     79.0794     23.0123
   592.1000      7.8936      2.5734      0.0633      4.6446     77.5354     24.5691
   592.2000      7.8936      2.5994      0.0877      3.0643     76.1214     26.3205
   592.3000      7.8905      2.6173      0.0705      1.9842     74.9538     27.1141
   592.4000      7.8905      2.6318      0.0886      1.1013     72.8052     26.6159
   592.5000      7.8863      2.6462      0.1051      0.2333     67.2965     25.8967
   592.6000      7.8863      2.6573      0.0952     -0.4418     60.6988     25.9001
   592.7000      7.8863      2.6694      0.0796     -1.1756     55.8165     26.2883
   592.8000      7.8862      2.6900      0.1071     -2.4222     51.5474     26.4438
   592.9000      7.8862      2.7122      0.0982     -3.7717     48.0104     26.3840
   593.0000      7.8903      2.7188      0.0854     -4.1673     46.2071     25.9948
   593.1000      7.8903      2.7027      0.0370     -3.1919     45.0009     24.9914
   593.2000      7.8903      2.6750      0.0043     -1.5177     44.0387     23.7438
   593.3000      7.8943      2.6457     -0.0297      0.2616     43.8750     23.0306
   593.4000      7.8943      2.6136     -0.0498      2.2052     45.7586     23.0568
   593.5000      7.8961      2.5854     -0.0816      3.9164     51.0979     23.2724
   593.6000      7.8961      2.5738     -0.0590      4.6187     57.1068     23.1684
   593.7000      7.8961      2.5732      0.0107      4.6570     59.1657     22.8673
   593.8000      7.8950      2.5726     -0.0310      4.6900     58.0502     22.6733
   593.9000      7.8950      2.5723      0.0188      4.7084     57.5995     22.5981
   594.0000      7.8932      2.5649      0.0380      5.1564     59.6916     22.6442
   594.1000      7.8932      2.5459      0.0139      6.3064     62.6800     22.6353
   594.2000      7.8932      2.5300      0.0199      7.2704     64.0750     22.3072
   594.3000      7.8936      2.5309      0.0403      7.2184     63.2887     21.7136
   594.4000      7.8936      2.5440      0.0290      6.4259     62.2791     21.0902
   594.5000      7.8945      2.5567      0.0322      5.6569     62.4275     20.6858
   594.6000      7.8945      2.5684      0.0053      4.9477     64.0145     20.4469
   594.7000      7.8945      2.5892      0.0225      3.6845     66.8343     20.2113
   594.8000      7.8921      2.6113      0.1003      2.3449     71.4476     20.2266
   594.9000      7.8921      2.6108      0.0963      2.3753     78.5985     20.3824
   595.0000      7.8885      2.5929      0.0241      3.4634     84.8053     20.4143
   595.1000      7.8885      2.5843      0.0329      3.9826     86.9855     20.5504
   595.2000      7.8885      2.5872      0.0508      3.8088     87.2965     20.8228
   595.3000      7.8895      2.5843      0.0411      3.9826     87.6072     21.0451
   595.4000      7.8895      2.5674      0.0068      5.0090     86.7675     20.9714
   595.5000      7.8973      2.5386     -0.0224      6.7492     85.1359     20.7903
   595.6000      7.8973      2.5005      0.0178      9.0595     81.9675     21.1699
   595.7000      7.8973      2.4652     -0.0553     11.1993     76.6419     21.9051
   595.8000      7.9039      2.4587     -0.0398     11.5969     72.5546     22.3416
   595.9000      7.9039      2.4841     -0.0228     10.0549     72.2575     22.5499
   596.0000      7.9021      2.5158      0.0082      8.1345     76.4677     22.8418
   596.1000      7.9021      2.5353      0.0393      6.9542     82.3657     23.1206
   596.2000      7.9021      2.5487      0.0294      6.1401     83.7397     23.1599
   596.3000      7.8967      2.5633      0.0771      5.2537     81.9653     23.2014
   596.4000      7.8967      2.5691      0.0867      4.9060     82.3812     23.5746
   596.5000      7.8911      2.5617      0.0581      5.3537     82.7082     23.8075
   596.6000      7.8911      2.5534      0.0257      5.8569     80.4798     23.1832
   596.7000      7.8911      2.5511      0.0573      5.9964     80.2521     22.1854
   596.8000      7.8890      2.5510      0.0391      6.0010     83.1234     21.7878
   596.9000      7.8890      2.5510      0.0501      5.9979     82.8203     21.8361
   597.0000      7.8910      2.5489      0.0414      6.1282     78.0507     21.7987
   597.1000      7.8910      2.5418      0.0519      6.5551     75.1395     21.8607
   597.2000      7.8910      2.5315      0.0308      7.1817     76.9722     22.2875
   597.3000      7.8944      2.5182      0.0395      7.9881     78.9637     22.6887
   597.4000      7.8944      2.5011      0.0044      9.0253     79.8060     22.8333
   597.5000      7.8956      2.4896      0.0131      9.7225     83.9957     23.2838
   597.6000      7.8956      2.4960      0.0030      9.3343     87.5253     24.2127
   597.7000      7.8956      2.5192      0.0349      7.9296     84.0372     25.0222
   597.8000      7.8956      2.5435      0.0657      6.4549     79.1148     25.4610
   597.9000      7.8956      2.5553      0.0724      5.7372     78.3685     25.2657
   598.0000      7.8977      2.5625      0.0208      5.3060     76.1984     24.4157
   598.1000      7.8977      2.5813      0.0308      4.1624     67.3946     23.8979
   598.2000      7.8977      2.6078      0.0645      2.5598     57.1998     24.3385
   598.3000      7.8999      2.6244      0.1071      1.5493     52.8239     25.1081
   598.4000      7.8999      2.6284      0.0503      1.3086     53.4404     25.0674
   598.5000      7.9008      2.6286      0.0544      1.2963     54.5446     23.9707
   598.6000      7.9008      2.6190      0.0759      1.8785     54.3437     22.9956
   598.7000      7.9008      2.5870     -0.0105      3.8170     52.1479     22.6627
   598.8000      7.9004      2.5389     -0.0319      6.7342     48.8042     22.4905
   598.9000      7.9004      2.5010     -0.0939      9.0286     47.5078     22.3521
   599.0000      7.8995      2.5012     -0.1013      9.0188     48.0936     22.2300
   599.1000      7.8995      2.5329     -0.0168      7.0978     47.4605     22.0955
   599.2000      7.8995      2.5634     -0.0148      5.2461     45.3993     22.1006
   599.3000      7.8983      2.5805     -0.0186      4.2151     43.8226     22.2501
   599.4000      7.8983      2.5915     -0.0235      3.5428     44.4856     22.1844
   599.5000      7.8968      2.5956     -0.0023      3.2998     47.8107     21.5169
   599.6000      7.8968      2.5876     -0.0069      3.7810     51.7761     20.4953
   599.7000      7.8968      2.5775     -0.0232      4.3916     53.7986     20.0469
   599.8000      7.8957      2.5774     -0.0054      4.3983     55.1105     20.3031
   599.9000      7.8957      2.5837      0.0346      4.0196     58.5823     20.3185
   600.0000      7.8955      2.5886     -0.0071      3.7196     62.1401     20.1173
   600.1000      7.8955      2.5930      0.0313      3.4528     63.2049     20.4237
   600.2000      7.8955      2.5969     -0.0223      3.2178     63.3107     20.9232
   600.3000      7.8959      2.5949      0.0453      3.3370     64.0822     20.7918
   600.4000      7.8959      2.5817      0.0506      4.1395     64.2291     19.8984
   600.5000      7.8967      2.5663      0.0065      5.0705     62.3716     18.8018
   600.6000      7.8967      2.5608      0.0057      5.4031     59.4822     18.1360
   600.7000      7.8967      2.5560      0.0391      5.6999     57.7218     18.4399
   600.8000      7.8971      2.5378      0.0185      6.7985     58.9061     19.4533
   600.9000      7.8971      2.5120      0.0049      8.3650     61.8849     20.0056
   601.0000      7.8964      2.4931     -0.0003      9.5085     63.7121     19.4151
   601.1000      7.8964      2.4859     -0.0003      9.9438     65.0218     18.6655
