~Version Information
VERS.                      2.0: CWLS Log ASCII Standard - VERSION 2.0
WRAP.                       NO: One line per depth step
~Well Information Block
STRT.FT               370.0000: 
STOP.FT              1259.0000: 
STEP.FT                 0.1000: 
NULL.                -999.2500: 
COMP.          Pioneer Natural Resources: COMPANY
WELL.           Tennis 7-12 Tr: WELL
FLD.           Purgatoire River: FIELD
LOC.           1794' FNL & 1563' FEL: LOCATION
PROV.                 Colorado: PROVINCE
CNTY.               Las Animas: COUNTRY
SRVC.                Patterson: SERVICE COMPANY
DATE.          Tue Dec 20 13:35:40 2005: LOG DATE
UWI.           05 071 08635 00: UNIQUE WELL ID
~Curve Information Block
DEPT.FT            0 000 00 00: Depth
DCAL.in                       : CDL Caliper
RHOB.g/cc                     : CDL Bulk Density
RHOC.g/cc                     : CDL Density Correction
DPOR.pu                       : CDL Density Porosity
GR.GAPI                       : Gamma Ray
~Parameter Information Block
~A  Depth       DCAL        RHOB        RHOC        DPOR         GR     
# ...
   549.2000      7.8178      2.6229      0.0928      1.6450    104.8184
   549.3000      7.8163      2.6087      0.0774      2.5006    106.0612
   549.4000      7.8163      2.5965      0.0401      3.2446    107.9074
   549.5000      7.8154      2.5871      0.0420      3.8126    109.2035
   549.6000      7.8154      2.5780     -0.0133      4.3611    106.4450
   549.7000      7.8154      2.5761     -0.0301      4.4789     97.5713
   549.8000      7.8167      2.5862      0.0271      3.8640     89.5187
   549.9000      7.8167      2.5981      0.0252      3.1481     90.8972
   550.0000      7.8174      2.5999      0.0780      3.0337     99.5780
   550.1000      7.8174      2.5896      0.0868      3.6607    107.4275
   550.2000      7.8174      2.5701      0.0746      4.8432    109.9108
   550.3000      7.8174      2.5463      0.0545      6.2858    109.3447
   550.4000      7.8174      2.5235      0.0583      7.6675    109.1086
   550.5000      7.8171      2.5131     -0.0189      8.2993    107.8816
   550.6000      7.8171      2.5242      0.0227      7.6267    106.7328
   550.7000      7.8171      2.5460      0.0597      6.3054    110.0555
   550.8000      7.8168      2.5654      0.0230      5.1270    114.0834
   550.9000      7.8168      2.5773      0.1115      4.4033    112.5378
   551.0000      7.8174      2.5796      0.1137      4.2669    107.2532
   551.1000      7.8174      2.5794      0.0909      4.2802    102.9046
   551.2000      7.8174      2.5777      0.1077      4.3837    101.8509
   551.3000      7.8184      2.5655      0.0856      5.1231    101.9271
   551.4000      7.8184      2.5532      0.0218      5.8640    103.1679
   551.5000      7.8189      2.5564      0.0760      5.6706    108.2866
   551.6000      7.8189      2.5599      0.0877      5.4593    113.3227
   551.7000      7.8189      2.5468      0.0349      6.2555    112.9901
   551.8000      7.8189      2.5295      0.0593      7.3011    111.7241
   551.9000      7.8189      2.5288      0.0121      7.3460    115.1197
   552.0000      7.8188      2.5481      0.0415      6.1781    115.6100
   552.1000      7.8188      2.5737      0.0496      4.6242    106.7766
   552.2000      7.8188      2.5954      0.0517      3.3104     98.5961
   552.3000      7.8189      2.6075      0.0859      2.5737     99.9320
   552.4000      7.8189      2.6074      0.0743      2.5811    102.9994
   552.5000      7.8187      2.6056      0.0741      2.6900     98.5052
   552.6000      7.8187      2.6104      0.0902      2.3985     90.6527
   552.7000      7.8187      2.6141      0.0826      2.1752     86.1258
   552.8000      7.8174      2.6112      0.0526      2.3537     83.8026
   552.9000      7.8174      2.6087      0.0037      2.5054     81.6527
   553.0000      7.8161      2.6093      0.0562      2.4668     82.4654
   553.1000      7.8161      2.6024     -0.0005      2.8831     83.7864
   553.2000      7.8161      2.5823      0.0116      4.1058     77.4301
   553.3000      7.8163      2.5595     -0.0260      5.4868     65.3804
   553.4000      7.8163      2.5548     -0.0531      5.7691     59.6847
   553.5000      7.8174      2.5727     -0.0060      4.6827     62.4195
   553.6000      7.8174      2.5980      0.0096      3.1541     65.1206
   553.7000      7.8174      2.6087      0.0665      2.5016     65.3384
   553.8000      7.8181      2.5949      0.0044      3.3384     67.3467
   553.9000      7.8181      2.5732     -0.0117      4.6560     70.5148
   554.0000      7.8181      2.5607     -0.0023      5.4142     69.7590
   554.1000      7.8181      2.5580      0.0079      5.5779     67.1227
   554.2000      7.8181      2.5646     -0.0441      5.1740     69.6525
   554.3000      7.8169      2.5833      0.0460      4.0434     77.2816
   554.4000      7.8169      2.6050      0.0534      2.7255     83.9274
   554.5000      7.8153      2.6196      0.0595      1.8400     89.2607
   554.6000      7.8153      2.6314      0.0665      1.1283     97.4336
   554.7000      7.8153      2.6510      0.0979     -0.0614    107.2186
   554.8000      7.8139      2.6751      0.1362     -1.5192    112.3781
   554.9000      7.8139      2.6887      0.1425     -2.3460    111.3759
   555.0000      7.8138      2.6897      0.1283     -2.4064    110.1772
   555.1000      7.8138      2.6771      0.1945     -1.6416    112.4632
   555.2000      7.8138      2.6396      0.1380      0.6282    116.7927
   555.3000      7.8172      2.5827      0.0718      4.0797    122.2908
   555.4000      7.8172      2.5321      0.0080      7.1459    127.2394
   555.5000      7.8208      2.5035     -0.0186      8.8815    127.8161
   555.6000      7.8208      2.4878     -0.0168      9.8288    126.4570
   555.7000      7.8208      2.4781     -0.0394     10.4157    126.2067
   555.8000      7.8223      2.4834     -0.0402     10.0951    122.2054
   555.9000      7.8223      2.4997      0.0601      9.1095    112.1511
   556.0000      7.8224      2.5095      0.0312      8.5137    103.8505
   556.1000      7.8224      2.5136      0.0461      8.2673    102.4028
   556.2000      7.8224      2.5194      0.0375      7.9126    103.4554
   556.3000      7.8222      2.5228      0.0450      7.7079    101.2772
   556.4000      7.8222      2.5188      0.0346      7.9494     96.0195
   556.5000      7.8209      2.5148      0.0043      8.1949     91.3032
   556.6000      7.8209      2.5155      0.0376      8.1489     90.7342
   556.7000      7.8209      2.5177     -0.0038      8.0210     98.4844
   556.8000      7.8198      2.5212      0.0347      7.8075    110.8024
   556.9000      7.8198      2.5240      0.0248      7.6386    118.1524
   557.0000      7.8198      2.5211     -0.0158      7.8121    117.6712
   557.1000      7.8198      2.5131     -0.0056      8.2991    113.4470
   557.2000      7.8198      2.5017      0.0205      8.9868    110.9943
   557.3000      7.8202      2.4882     -0.0241      9.8055    111.7233
   557.4000      7.8202      2.4700      0.0672     10.9101    113.2372
   557.5000      7.8206      2.4398      0.0412     12.7386    114.9778
   557.6000      7.8206      2.4050     -0.0006     14.8502    117.1553
   557.7000      7.8206      2.3860     -0.0195     16.0023    119.9810
   557.8000      7.8207      2.3938     -0.0138     15.5273    125.1269
   557.9000      7.8207      2.4234     -0.0069     13.7308    132.0940
   558.0000      7.8203      2.4632      0.0617     11.3235    135.6543
   558.1000      7.8203      2.5050      0.0727      8.7876    132.5449
   558.2000      7.8203      2.5419      0.1416      6.5544    128.3853
   558.3000      7.8197      2.5648      0.1314      5.1648    127.2031
   558.4000      7.8197      2.5697      0.1330      4.8666    128.3815
   558.5000      7.8198      2.5553      0.1177      5.7366    132.6935
   558.6000      7.8198      2.5257      0.0807      7.5343    139.3899
   558.7000      7.8198      2.4969      0.0386      9.2768    144.4093
   558.8000      7.8209      2.4884      0.0303      9.7969    144.6720
   558.9000      7.8209      2.4956      0.0931      9.3554    141.5211
   559.0000      7.8214      2.4984      0.0734      9.1905    138.3306
   559.1000      7.8214      2.4971      0.0463      9.2686    133.1858
   559.2000      7.8214      2.5048      0.0823      8.7998    124.0711
   559.3000      7.8223      2.5245      0.1070      7.6038    117.0469
   559.4000      7.8223      2.5472      0.1588      6.2326    118.7950
   559.5000      7.8228      2.5553      0.1635      5.7400    125.2797
   559.6000      7.8228      2.5417      0.1170      6.5647    128.2640
   559.7000      7.8228      2.5223      0.0698      7.7368    126.6867
   559.8000      7.8205      2.5180      0.0520      7.9997    120.5607
   559.9000      7.8205      2.5314      0.0620      7.1903    112.8202
   560.0000      7.8188      2.5545      0.0651      5.7884    110.6911
   560.1000      7.8188      2.5844      0.0935      3.9729    113.7805
   560.2000      7.8188      2.6110      0.1497      2.3611    118.5038
   560.3000      7.8194      2.6117      0.1377      2.3198    123.6982
