~Version Information
VERS.                      2.0: CWLS Log ASCII Standard - VERSION 2.0
WRAP.                       NO: One line per depth step
~Well Information Block
STRT.FT               890.0000: 
STOP.FT              2097.0000: 
STEP.FT                 0.2500: 
NULL.                -999.2500: 
COMP.          Pioneer Natural Resources: COMPANY
WELL.          Greenwood 43-29 Tr: WELL
FLD.           Purgatoire River: FIELD
LOC.           1478' FSL & 744' FEL: LOCATION
STAT.                 Colorado: State
CNTY.               Las Animas: COUNTY
CTRY. USA : Country
SECT. 29 : Section
TOWN. 32S : Township
RANG. 67W : Range
SRVC.                Patterson: SERVICE COMPANY
DATE.          Wed Aug 31 08:07:28 2005: LOG DATE
API.           05 071 08478 00: UNIQUE WELL ID
~Curve Information Block
DEPT.FT            0 000 00 00: Depth
SN.Ohm-m                      : IEL Short Normal
SP.mV                         : IEL Spontaneous Potential
DIR.Ohm-m                     : IEL Induction Resistivity
GR.GAPI                       : Gamma Ray
~Parameter Information Block
~A  Depth        SN          SP         DIR          GR     
# ...
  1191.5000   2000.0000   2000.0000     17.6718    145.6134
  1191.7500   2000.0000   2000.0000     18.3262    137.8533
  1192.0000   2000.0000   2000.0000     19.0164    124.8520
  1192.2500   2000.0000   2000.0000     19.7343    116.2031
  1192.5000   2000.0000   2000.0000     20.4844    104.6442
  1192.7500   2000.0000   2000.0000     21.2898     98.6117
  1193.0000   2000.0000   2000.0000     22.1804     93.1088
  1193.2500   2000.0000   2000.0000     23.1641     92.0213
  1193.5000   2000.0000   2000.0000     24.1990     93.5806
  1193.7500   2000.0000   2000.0000     25.1921     95.9518
  1194.0000   2000.0000   2000.0000     26.0385    100.5532
  1194.2500   2000.0000   2000.0000     26.6753    104.3400
  1194.5000   2000.0000   2000.0000     27.1009    111.3769
  1194.7500   2000.0000   2000.0000     27.3396    116.5197
  1195.0000   2000.0000   2000.0000     27.3887    122.9814
  1195.2500   2000.0000   2000.0000     27.2061    125.5326
  1195.5000   2000.0000   2000.0000     26.7495    126.8120
  1195.7500   2000.0000   2000.0000     26.0324    126.6959
  1196.0000   2000.0000   2000.0000     25.1388    126.0339
  1196.2500   2000.0000   2000.0000     24.1835    125.4011
  1196.5000   2000.0000   2000.0000     23.2553    124.3082
  1196.7500   2000.0000   2000.0000     22.3919    123.7817
  1197.0000   2000.0000   2000.0000     21.5930    123.9291
  1197.2500   2000.0000   2000.0000     20.8495    124.9289
  1197.5000   2000.0000   2000.0000     20.1603    127.9333
  1197.7500   2000.0000   2000.0000     19.5268    130.6337
  1198.0000   2000.0000   2000.0000     18.9377    134.3883
  1198.2500   2000.0000   2000.0000     18.3638    135.9031
  1198.5000   2000.0000   2000.0000     17.7733    136.6205
  1198.7500   2000.0000   2000.0000     17.1573    136.8831
  1199.0000   2000.0000   2000.0000     16.5392    138.6365
  1199.2500   2000.0000   2000.0000     15.9558    141.1164
  1199.5000   2000.0000   2000.0000     15.4291    146.1925
  1199.7500   2000.0000   2000.0000     14.9551    149.7421
  1200.0000   2000.0000   2000.0000     14.5189    154.3994
  1200.2500   2000.0000   2000.0000     14.1184    157.0810
  1200.5000   2000.0000   2000.0000     13.7714    161.2060
  1200.7500   2000.0000   2000.0000     13.5019    164.2421
  1201.0000   2000.0000   2000.0000     13.3199    168.2074
  1201.2500   2000.0000   2000.0000     13.2149    169.2395
  1201.5000   2000.0000   2000.0000     13.1649    166.9604
  1201.7500   2000.0000   2000.0000     13.1501    163.2814
  1202.0000   2000.0000   2000.0000     13.1617    156.9375
  1202.2500   2000.0000   2000.0000     13.2014    153.6213
  1202.5000   2000.0000   2000.0000     13.2750    151.2319
  1202.7500   2000.0000   2000.0000     13.3868    151.1986
  1203.0000   2000.0000   2000.0000     13.5364    152.3040
  1203.2500   2000.0000   2000.0000     13.7184    153.1304
  1203.5000   2000.0000   2000.0000     13.9246    154.2176
  1203.7500   2000.0000   2000.0000     14.1484    155.0952
  1204.0000   2000.0000   2000.0000     14.3878    156.7915
  1204.2500   2000.0000   2000.0000     14.6406    157.8270
  1204.5000   2000.0000   2000.0000     14.8947    158.3511
  1204.7500   2000.0000   2000.0000     15.1229    157.5792
  1205.0000   2000.0000   2000.0000     15.2924    154.3365
  1205.2500   2000.0000   2000.0000     15.3869    151.0314
  1205.5000   2000.0000   2000.0000     15.4221    145.9513
  1205.7500   2000.0000   2000.0000     15.4387    143.6830
  1206.0000   2000.0000   2000.0000     15.4799    143.0846
  1206.2500   2000.0000   2000.0000     15.5724    144.2712
  1206.5000   2000.0000   2000.0000     15.7254    146.7337
  1206.7500   2000.0000   2000.0000     15.9436    147.7642
  1207.0000   2000.0000   2000.0000     16.2392    147.5677
  1207.2500   2000.0000   2000.0000     16.6312    146.5477
  1207.5000   2000.0000   2000.0000     17.1323    144.7034
  1207.7500   2000.0000   2000.0000     17.7369    143.5305
  1208.0000   2000.0000   2000.0000     18.4208    141.1723
  1208.2500   2000.0000   2000.0000     19.1523    138.5263
  1208.5000   2000.0000   2000.0000     19.9096    132.3845
  1208.7500   2000.0000   2000.0000     20.6924    126.9169
  1209.0000   2000.0000   2000.0000     21.5194    116.7788
  1209.2500   2000.0000   2000.0000     22.4163    108.6680
  1209.5000   2000.0000   2000.0000     23.4085     94.7387
  1209.7500   2000.0000   2000.0000     24.5304     84.9078
  1210.0000   2000.0000   2000.0000     25.8514     70.8725
  1210.2500   2000.0000   2000.0000     27.4965     62.7192
  1210.5000   2000.0000   2000.0000     29.6360     52.9506
  1210.7500   2000.0000   2000.0000     32.4383     48.2477
  1211.0000   2000.0000   2000.0000     35.9979     43.9500
  1211.2500   2000.0000   2000.0000     40.2566     42.7034
  1211.5000   2000.0000   2000.0000     44.9432     42.4131
  1211.7500   2000.0000   2000.0000     49.5647     42.6766
  1212.0000   2000.0000   2000.0000     53.5020     43.0166
  1212.2500   2000.0000   2000.0000     56.2171     43.0567
  1212.5000   2000.0000   2000.0000     57.4845     42.9122
  1212.7500   2000.0000   2000.0000     57.4718     42.7415
  1213.0000   2000.0000   2000.0000     56.5914     42.4601
  1213.2500   2000.0000   2000.0000     55.2571     42.4398
  1213.5000   2000.0000   2000.0000     53.7212     43.3753
  1213.7500   2000.0000   2000.0000     52.0676     45.2529
  1214.0000   2000.0000   2000.0000     50.3020     51.0313
  1214.2500   2000.0000   2000.0000     48.4482     57.1572
  1214.5000   2000.0000   2000.0000     46.5850     68.8529
  1214.7500   2000.0000   2000.0000     44.8152     76.8974
  1215.0000   2000.0000   2000.0000     43.2227     86.5696
  1215.2500   2000.0000   2000.0000     41.8450     90.4922
  1215.5000   2000.0000   2000.0000     40.6633     92.6332
  1215.7500   2000.0000   2000.0000     39.6118     92.1127
  1216.0000   2000.0000   2000.0000     38.6049     89.3021
  1216.2500   2000.0000   2000.0000     37.5687     86.3978
  1216.5000   2000.0000   2000.0000     36.4435     80.9327
  1216.7500   2000.0000   2000.0000     35.1650     76.9735
  1217.0000   2000.0000   2000.0000     33.6624     71.8787
  1217.2500   2000.0000   2000.0000     31.9019     70.0590
  1217.5000   2000.0000   2000.0000     29.9402     71.1230
  1217.7500   2000.0000   2000.0000     27.9240     74.6061
  1218.0000   2000.0000   2000.0000     26.0203     83.3574
  1218.2500   2000.0000   2000.0000     24.3442     90.7846
  1218.5000   2000.0000   2000.0000     22.9323    102.5997
  1218.7500   2000.0000   2000.0000     21.7656    109.8362
  1219.0000   2000.0000   2000.0000     20.8077    118.6763
  1219.2500   2000.0000   2000.0000     20.0320    123.5640
  1219.5000   2000.0000   2000.0000     19.4211    130.9689
  1219.7500   2000.0000   2000.0000     18.9434    136.4471
  1220.0000   2000.0000   2000.0000     18.5360    144.5928
  1220.2500   2000.0000   2000.0000     18.1215    149.0149
  1220.5000   2000.0000   2000.0000     17.6564    153.2928
  1220.7500   2000.0000   2000.0000     17.1644    154.6712
  1221.0000   2000.0000   2000.0000     16.7186    154.9680
  1221.2500   2000.0000   2000.0000     16.3912    154.2764
  1221.5000   2000.0000   2000.0000     16.2173    152.6017
  1221.7500   2000.0000   2000.0000     16.1920    151.4223
  1222.0000   2000.0000   2000.0000     16.2855    149.6520
  1222.2500   2000.0000   2000.0000     16.4612    148.2083
  1222.5000   2000.0000   2000.0000     16.6879    144.9223
  1222.7500   2000.0000   2000.0000     16.9430    141.6305
  1223.0000   2000.0000   2000.0000     17.2114    135.1614
  1223.2500   2000.0000   2000.0000     17.4839    130.4805
  1223.5000   2000.0000   2000.0000     17.7572    124.4015
  1223.7500   2000.0000   2000.0000     18.0302    121.5702
  1224.0000   2000.0000   2000.0000     18.2960    119.4451
  1224.2500   2000.0000   2000.0000     18.5352    119.3030
  1224.5000   2000.0000   2000.0000     18.7165    120.2397
  1224.7500   2000.0000   2000.0000     18.8074    120.8962
