~Version Information
VERS.                      2.0: CWLS Log ASCII Standard - VERSION 2.0
WRAP.                       NO: One line per depth step
~Well Information Block
STRT.FT               480.0000: 
STOP.FT              1946.0000: 
STEP.FT                 0.1000: 
NULL.                -999.2500: 
COMP.          XTO Energy Inc.: COMPANY
WELL.          Golden Eagle 19-15: WELL
FLD.           Purgatoire River: FIELD
LOC.           1121' FSL & 2332' FEL--: LOCATION
CNTY.               Las Animas: COUNTY
SRVC.                Patterson: SERVICE COMPANY
DATE.          Mon Mar 13 10:27:20 2006: LOG DATE
UWI.           05 071 08717 00: UNIQUE WELL ID
STAT.                 Colorado: STATE
~Curve Information Block
DEPT.FT            0 000 00 00: Depth
DCAL.in                       : CDL Caliper
RHOB.g/cc                     : CDL Bulk Density
RHOC.g/cc                     : CDL Density Correction
DPOR.pu                       : CDL Density Porosity
NPOR.pu                       : Neutron Porosity
GR.GAPI                       : Gamma Ray
~Parameter Information Block
~A  Depth       DCAL        RHOB        RHOC        DPOR        NPOR         GR     
# ...
   576.0000      8.0260      2.4819     -0.0028     10.1898     16.1580     80.4329
   576.1000      8.0260      2.4950      0.0027      9.3959     16.1884     81.1912
   576.2000      8.0260      2.5322      0.0198      7.1400     16.1774     78.9805
   576.3000      8.0268      2.5741      0.0589      4.5991     16.0008     76.9205
   576.4000      8.0268      2.5967      0.0779      3.2319     15.8068     75.9372
   576.5000      8.0269      2.5926      0.0949      3.4809     15.7750     74.5757
   576.6000      8.0269      2.5706      0.0804      4.8126     15.8583     71.5749
   576.7000      8.0269      2.5441     -0.0096      6.4196     15.7906     68.4183
   576.8000      8.0270      2.5174      0.0568      8.0338     15.6201     67.1185
   576.9000      8.0270      2.4922      0.0017      9.5606     15.6005     66.5175
   577.0000      8.0285      2.4817      0.0079     10.2006     15.5679     65.8330
   577.1000      8.0285      2.4905      0.0484      9.6667     15.3711     66.1559
   577.2000      8.0285      2.5075      0.0298      8.6371     15.2527     68.1731
   577.3000      8.0303      2.5213      0.0348      7.7972     15.2070     72.1362
   577.4000      8.0303      2.5288      0.0202      7.3431     15.0860     75.2800
   577.5000      8.0302      2.5361      0.0496      6.9033     15.0292     73.4931
   577.6000      8.0302      2.5442      0.0414      6.4130     15.1950     68.6415
   577.7000      8.0302      2.5465      0.0388      6.2748     15.4634     66.7989
   577.8000      8.0274      2.5371      0.0285      6.8435     15.5944     69.8958
   577.9000      8.0274      2.5218      0.0019      7.7723     15.4700     75.4794
   578.0000      8.0262      2.5126      0.0431      8.3246     15.2815     78.8547
   578.1000      8.0262      2.5118     -0.0042      8.3738     15.3392     77.6267
   578.2000      8.0262      2.5127      0.0419      8.3200     15.7573     75.3366
   578.3000      8.0271      2.5123     -0.0058      8.3468     16.3179     74.4358
   578.4000      8.0271      2.5257      0.0380      7.5349     16.6163     73.9781
   578.5000      8.0276      2.5629      0.0140      5.2817     16.5216     73.3189
   578.6000      8.0276      2.5979      0.1082      3.1571     16.2586     72.1778
   578.7000      8.0276      2.5968      0.1064      3.2239     16.3359     69.8120
   578.8000      8.0274      2.5714      0.0593      4.7610     17.1158     64.7676
   578.9000      8.0274      2.5599      0.0311      5.4607     18.2077     57.8595
   579.0000      8.0278      2.5693      0.0302      4.8934     18.9574     53.3523
   579.1000      8.0278      2.5779      0.0591      4.3707     19.2447     52.6481
   579.2000      8.0278      2.5723      0.0289      4.7102     19.4023     53.5884
   579.3000      8.0282      2.5622      0.0193      5.3211     19.5734     55.5916
   579.4000      8.0282      2.5573      0.0340      5.6204     19.6217     59.1744
   579.5000      8.0276      2.5567      0.0134      5.6527     19.6618     63.9104
   579.6000      8.0276      2.5648      0.0242      5.1626     19.9556     68.3906
   579.7000      8.0276      2.5760      0.0750      4.4867     20.2486     71.5787
   579.8000      8.0265      2.5776      0.0286      4.3905     20.0941     74.6473
   579.9000      8.0265      2.5739      0.0514      4.6104     19.6620     79.4699
   580.0000      8.0273      2.5686      0.0745      4.9308     19.2515     83.1650
   580.1000      8.0273      2.5538      0.0857      5.8301     18.5987     81.3744
   580.2000      8.0273      2.5268      0.0192      7.4668     17.6764     76.6672
   580.3000      8.0281      2.4980      0.0334      9.2124     16.8596     73.0645
   580.4000      8.0281      2.4810      0.0006     10.2422     16.3150     70.9243
   580.5000      8.0267      2.4803      0.0306     10.2821     15.9081     70.7690
   580.6000      8.0267      2.4849      0.0613     10.0058     15.5315     72.9050
   580.7000      8.0267      2.4846      0.0242     10.0219     15.3737     75.1881
   580.8000      8.0237      2.4825      0.0454     10.1539     15.3380     73.9828
   580.9000      8.0237      2.4837      0.0125     10.0791     15.1853     71.1942
   581.0000      8.0220      2.4893      0.0709      9.7378     15.0176     72.2626
   581.1000      8.0220      2.5008      0.0274      9.0447     14.9728     76.6021
   581.2000      8.0220      2.5206      0.0553      7.8406     15.0426     78.5014
   581.3000      8.0227      2.5325      0.1039      7.1189     15.0640     75.0512
   581.4000      8.0227      2.5188      0.0619      7.9514     14.9095     68.9694
   581.5000      8.0239      2.4914      0.0410      9.6103     14.7136     65.2437
   581.6000      8.0239      2.4744     -0.0062     10.6401     14.6359     66.0370
   581.7000      8.0239      2.4796      0.0052     10.3295     14.5795     67.3309
   581.8000      8.0240      2.4942      0.0514      9.4409     14.3513     65.2553
   581.9000      8.0240      2.4960      0.0378      9.3332     14.0054     62.1022
   582.0000      8.0238      2.4845      0.0056     10.0332     13.8127     61.3828
   582.1000      8.0238      2.4768      0.0233     10.4943     13.9871     62.5585
   582.2000      8.0238      2.4858      0.0083      9.9486     14.4591     64.9301
   582.3000      8.0240      2.5047      0.0581      8.8049     14.8388     68.4194
   582.4000      8.0240      2.5061      0.0943      8.7200     14.7208     71.0146
   582.5000      8.0257      2.4788      0.0076     10.3773     14.3145     71.6135
   582.6000      8.0257      2.4479     -0.0178     12.2505     14.2744     71.2904
   582.7000      8.0257      2.4410     -0.0112     12.6668     14.4614     72.1307
   582.8000      8.0265      2.4574     -0.0001     11.6748     14.3584     74.1014
   582.9000      8.0265      2.4740      0.0304     10.6686     14.2173     73.2653
   583.0000      8.0264      2.4781      0.0038     10.4198     14.3185     67.6944
   583.1000      8.0264      2.4781      0.0215     10.4193     14.4356     60.5055
   583.2000      8.0264      2.4781      0.0511     10.4177     14.3049     55.8064
   583.3000      8.0266      2.4752      0.0131     10.5946     13.8688     55.5037
   583.4000      8.0266      2.4708      0.0304     10.8609     13.3359     58.2962
   583.5000      8.0263      2.4672      0.0241     11.0794     13.0455     61.2511
   583.6000      8.0263      2.4668      0.0227     11.1052     13.2273     63.8913
   583.7000      8.0263      2.4668      0.0356     11.1002     13.7672     65.8031
   583.8000      8.0259      2.4628      0.0264     11.3464     14.1512     65.0879
   583.9000      8.0259      2.4590      0.0181     11.5779     14.0369     62.7156
   584.0000      8.0261      2.4625      0.0337     11.3665     13.6868     61.7605
   584.1000      8.0261      2.4761      0.0278     10.5374     13.4639     62.4663
   584.2000      8.0261      2.4942      0.0195      9.4421     13.4387     62.6918
   584.3000      8.0261      2.4996      0.0558      9.1157     13.6411     62.5753
   584.4000      8.0261      2.4834      0.0205     10.0968     13.9219     63.6559
   584.5000      8.0271      2.4639     -0.0073     11.2790     14.0772     64.5774
   584.6000      8.0271      2.4691     -0.0124     10.9625     14.2514     63.9660
   584.7000      8.0271      2.5004      0.0311      9.0656     14.4461     61.8568
   584.8000      8.0289      2.5247      0.0806      7.5912     14.6074     59.6658
   584.9000      8.0289      2.5173      0.0351      8.0411     14.9460     59.8552
   585.0000      8.0289      2.4942      0.0243      9.4410     15.3252     63.3406
   585.1000      8.0289      2.4823      0.0294     10.1617     15.5690     67.9577
   585.2000      8.0289      2.4879      0.0345      9.8262     16.0417     71.9665
   585.3000      8.0296      2.5022      0.0579      8.9564     16.7131     74.0323
   585.4000      8.0296      2.5151      0.0425      8.1752     17.0415     72.8426
   585.5000      8.0302      2.5235      0.0363      7.6697     16.8698     70.5472
