~Version Information
VERS.                      2.0: CWLS Log ASCII Standard - VERSION 2.0
WRAP.                       NO: One line per depth step
~Well Information Block
STRT.FT               742.7000: 
STOP.FT              1614.5000: 
STEP.FT                 0.1000: 
NULL.                -999.2500: 
COMP.          Pioneer Natural Resources: COMPANY
WELL.           Kermit 32-7 Tr: WELL
FLD.           Purgatoire River: FIELD
LOC.           2009' FNL & 2196' FEL: LOCATION
PROV.                 Colorado: PROVINCE
CNTY.               Las Animas: COUNTRY
SRVC.                Patterson: SERVICE COMPANY
DATE.          Mon Jan 16 13:19:56 2006: LOG DATE
UWI.           05 071 08664 00: UNIQUE WELL ID
~Curve Information Block
DEPT.FT            0 000 00 00: Depth
DCAL.in                       : CDL Caliper
RHOB.g/cc                     : CDL Bulk Density
RHOC.g/cc                     : CDL Density Correction
DPOR.pu                       : CDL Density Porosity
GR.GAPI                       : Gamma Ray
~Parameter Information Block
~A  Depth       DCAL        RHOB        RHOC        DPOR         GR     
# ...
  1381.1000      7.9233      2.5347      0.0905      6.9872    154.7275
  1381.2000      7.9233      2.5319      0.0544      7.1605    159.7178
  1381.3000      7.9391      2.5421      0.0491      6.5375    154.5935
  1381.4000      7.9391      2.5654      0.1177      5.1301    148.4863
  1381.5000      7.8650      2.5788      0.1195      4.3169    151.7097
  1381.6000      7.8650      2.5704      0.1065      4.8240    160.5101
  1381.7000      7.8650      2.5526      0.1279      5.9029    162.3928
  1381.8000      7.8643      2.5318      0.0910      7.1615    156.2781
  1381.9000      7.8643      2.5078      0.0614      8.6187    151.1907
  1382.0000      7.9581      2.4896      0.0472      9.7187    149.1601
  1382.1000      7.9581      2.4853      0.0840      9.9793    147.1421
  1382.2000      7.9581      2.4915      0.0559      9.6052    144.0755
  1382.3000      7.9451      2.5079      0.1051      8.6104    141.4163
  1382.4000      7.9451      2.5417      0.0595      6.5608    140.1252
  1382.5000      7.9608      2.5866      0.1789      3.8428    137.8686
  1382.6000      7.9608      2.6155      0.1605      2.0893    134.0304
  1382.7000      7.9608      2.6134      0.1543      2.2202    128.5814
  1382.8000      7.9722      2.5950      0.0885      3.3321    120.5620
  1382.9000      7.9722      2.5848      0.0949      3.9488    116.2484
  1383.0000      7.9579      2.5903      0.0876      3.6197    122.9313
  1383.1000      7.9579      2.5986      0.0709      3.1151    134.0057
  1383.2000      7.9579      2.5864      0.1371      3.8528    141.4710
  1383.3000      7.9389      2.5442      0.0508      6.4147    145.0456
  1383.4000      7.9389      2.5005      0.0066      9.0601    146.2168
  1383.5000      7.9608      2.4929      0.0413      9.5240    147.9727
  1383.6000      7.9608      2.5188      0.0517      7.9504    152.1252
  1383.7000      7.9608      2.5425      0.1634      6.5168    156.1493
  1383.8000      7.9226      2.5420      0.1052      6.5471    153.5433
  1383.9000      7.9226      2.5293      0.1156      7.3136    144.6958
  1384.0000      7.8739      2.5214      0.0980      7.7917    138.9217
  1384.1000      7.8739      2.5227      0.0801      7.7159    142.6626
  1384.2000      7.8739      2.5303      0.0812      7.2547    150.9012
  1384.3000      7.8725      2.5406      0.1395      6.6274    155.2958
  1384.4000      7.8725      2.5529      0.1016      5.8878    155.2816
  1384.5000      7.9147      2.5606      0.1836      5.4199    152.0531
  1384.6000      7.9147      2.5452      0.1620      6.3523    143.4281
  1384.7000      7.9147      2.5086      0.0481      8.5673    133.4659
  1384.8000      7.9775      2.4855      0.0111      9.9686    130.7150
  1384.9000      7.9775      2.4955      0.0579      9.3642    135.1827
  1385.0000      7.9485      2.5177      0.0905      8.0169    137.6560
  1385.1000      7.9485      2.5221      0.1166      7.7490    134.1294
  1385.2000      7.9485      2.5056      0.0572      8.7513    133.9001
  1385.3000      7.9494      2.4888      0.0280      9.7722    143.9240
  1385.4000      7.9494      2.4895      0.0789      9.7251    156.8494
  1385.5000      8.0072      2.5006      0.0675      9.0531    158.7495
  1385.6000      8.0072      2.4975      0.0745      9.2397    148.8352
  1385.7000      8.0072      2.4764      0.0180     10.5236    143.1161
  1385.8000      7.9866      2.4624      0.0158     11.3706    147.0728
  1385.9000      7.9866      2.4728      0.0699     10.7406    150.2082
  1386.0000      8.0114      2.4958      0.0717      9.3473    149.0666
  1386.1000      8.0114      2.5083      0.0656      8.5895    148.4733
  1386.2000      8.0114      2.5032      0.0525      8.8947    148.6185
  1386.3000      7.9658      2.4970      0.0431      9.2752    146.5346
  1386.4000      7.9658      2.5016      0.0671      8.9921    142.0884
  1386.5000      7.9605      2.5050      0.1038      8.7853    137.7682
  1386.6000      7.9605      2.4971      0.0413      9.2663    133.3639
  1386.7000      7.9605      2.4893      0.0703      9.7393    127.1652
  1386.8000      7.9360      2.4966      0.0414      9.2990    122.7802
  1386.9000      7.9360      2.5329      0.0015      7.0940    121.3123
  1387.0000      7.8331      2.6015      0.0786      2.9401    118.9166
  1387.1000      7.8331      2.6765      0.1535     -1.6067    117.4707
  1387.2000      7.8331      2.7238      0.2064     -4.4744    121.5657
  1387.3000      7.8256      2.7304      0.2087     -4.8737    126.1535
  1387.4000      7.8256      2.7092      0.1562     -3.5866    127.7439
  1387.5000      7.8252      2.6797      0.1835     -1.7979    131.8351
  1387.6000      7.8252      2.6486      0.1337      0.0831    136.9741
  1387.7000      7.8252      2.6184      0.1121      1.9167    137.4716
  1387.8000      7.8133      2.5948      0.0782      3.3440    135.7918
  1387.9000      7.8133      2.5881     -0.0200      3.7523    133.4231
  1388.0000      7.8402      2.6036      0.0572      2.8121    128.3220
  1388.1000      7.8402      2.6208      0.1247      1.7727    123.4004
  1388.2000      7.8402      2.6154      0.0433      2.0969    121.9585
  1388.3000      7.8899      2.5911      0.0589      3.5683    123.7871
  1388.4000      7.8899      2.5675      0.0037      4.9994    126.4579
  1388.5000      7.8705      2.5571      0.0604      5.6313    127.1163
  1388.6000      7.8705      2.5501      0.0180      6.0519    125.3579
  1388.7000      7.8705      2.5454     -0.0361      6.3373    122.5501
  1388.8000      7.8512      2.5548      0.0362      5.7720    121.9132
  1388.9000      7.8512      2.5705      0.0309      4.8163    124.2830
  1389.0000      7.8627      2.5860      0.0218      3.8816    125.1935
  1389.1000      7.8627      2.6063      0.0459      2.6462    122.9100
  1389.2000      7.8627      2.6228      0.0668      1.6464    121.8605
  1389.3000      7.8986      2.6247      0.0227      1.5355    124.3856
  1389.4000      7.8986      2.6208      0.0835      1.7668    127.9347
  1389.5000      7.8899      2.6165      0.0559      2.0279    128.6420
  1389.6000      7.8899      2.5972      0.0794      3.1977    125.3182
  1389.7000      7.8899      2.5595      0.0281      5.4859    120.0321
  1389.8000      7.8926      2.5351     -0.0211      6.9613    116.3144
  1389.9000      7.8926      2.5492      0.0354      6.1088    116.0724
  1390.0000      7.8799      2.5787      0.0841      4.3189    115.3546
  1390.1000      7.8799      2.5917      0.0516      3.5350    112.0737
  1390.2000      7.8799      2.5890      0.0652      3.6943    109.8172
  1390.3000      7.8822      2.5884      0.0136      3.7343    111.5833
  1390.4000      7.8822      2.5984      0.0611      3.1245    117.4882
  1390.5000      7.8836      2.6120      0.0278      2.3027    120.5544
  1390.6000      7.8836      2.6198      0.0525      1.8323    112.4429
  1390.7000      7.8836      2.6183      0.0739      1.9217     99.3571
  1390.8000      7.8804      2.6054      0.0835      2.7029     96.1125
  1390.9000      7.8804      2.5906      0.0288      3.5977    106.1204
  1391.0000      7.8793      2.5904      0.0282      3.6134    116.3512
  1391.1000      7.8793      2.5988      0.0213      3.1004    118.6071
  1391.2000      7.8793      2.5920      0.0735      3.5151    117.8973
  1391.3000      7.8866      2.5704     -0.0194      4.8270    118.7203
  1391.4000      7.8866      2.5615      0.0452      5.3627    120.1866
  1391.5000      7.8892      2.5704      0.0944      4.8235    119.8369
  1391.6000      7.8892      2.5828      0.0486      4.0744    117.0705
  1391.7000      7.8892      2.5931      0.0587      3.4471    112.6758
  1391.8000      7.8957      2.5905      0.0720      3.6043    108.8226
  1391.9000      7.8957      2.5694     -0.0006      4.8820    108.1281
  1392.0000      7.8836      2.5530      0.0140      5.8788    110.3921
  1392.1000      7.8836      2.5588      0.0652      5.5249    114.3674
  1392.2000      7.8836      2.5722      0.0575      4.7164    120.3889
