~Version Information
 VERS.                                  2.0 : CWLS LAS VERSION
 WRAP.                                   NO : WRAPING MODE
 SWARE .                 MController 2.5.0N : SOFTWARE VERSION
~Well Information
 WELL.                    Hellzonfire 32-31 : WELL
 COMP.    Pioneer Natural Resources USA Inc : COMPANY
 FLD.                      Purgatoire River : FIELD
 LOC.                 SW/NE SEC31 T32S R66W : LOCATION
 DATE.                             09/01/05 : DATE(S) LOGGED
 SRVC.       Blanco Geological Services LLC : SERVICE COMPANY
 STAT.                             Colorado : STATE
 CNTY.                           Las Animas : COUNTY
 CTRY.                                  USA : COUNTRY
 API.                       05-071-08483-00 : API NUMBER
 STRT.FT                             356.00 : START DEPTH
 STOP.FT                            2480.00 : STOP DEPTH
 STEP.FT                               1.00 : DEPTH INCREMENT
 NULL.                                -9999 : NULL VALUE
~Curve information
 DEPTH.FT                                   :
 ROP.MIN/FT                                 :
 GAS.UNITS                                  :
~ASCII Log data
# ...
      1556.0         3.02        440.0 
      1557.0         0.40        354.5 
      1558.0         0.37        314.1 
      1559.0         0.57        310.0 
      1560.0         0.27        288.6 
      1561.0         0.23        279.4 
      1562.0         0.20        271.2 
      1563.0         0.33        263.3 
      1564.0         0.23        251.9 
      1565.0         0.17        229.4 
      1566.0         0.22        226.7 
      1567.0         0.17        203.0 
      1568.0         0.27        194.3 
      1569.0         0.30        177.4 
      1570.0         0.27        169.1 
      1571.0         0.23        167.6 
      1572.0         0.20        162.7 
      1573.0         0.27        154.3 
      1574.0         0.23        153.9 
      1575.0         0.27        152.9 
      1576.0         0.23        159.9 
      1577.0         0.23        172.8 
      1578.0         0.37        179.5 
      1579.0         0.35        191.4 
      1580.0         0.30        190.7 
      1581.0         0.27        186.0 
      1582.0         0.30        180.3 
      1583.0         0.27        175.7 
      1584.0         0.30        174.9 
      1585.0         0.27        160.6 
      1586.0         2.75        468.8 
      1587.0         0.30        405.5 
      1588.0         0.10        383.5 
      1589.0         0.30        357.5 
      1590.0         0.37        324.4 
      1591.0         0.30        316.0 
      1592.0         0.33        338.7 
      1593.0         0.27        359.6 
      1594.0         0.32        377.3 
      1595.0         0.33        379.3 
      1596.0         0.33        377.7 
      1597.0         0.37        367.5 
      1598.0         0.37        359.9 
      1599.0         0.33        352.2 
      1600.0         0.33        340.7 
      1601.0         0.33        331.0 
      1602.0         0.33        326.9 
      1603.0         0.38        322.9 
      1604.0         0.33        315.6 
      1605.0         0.37        314.4 
      1606.0         0.43        306.9 
      1607.0         0.47        305.6 
      1608.0         0.60        320.0 
      1609.0         0.63        336.3 
      1610.0         0.68        349.4 
      1611.0         0.63        370.6 
      1612.0         0.70        407.8 
      1613.0         0.77        416.2 
      1614.0         0.43        389.7 
      1615.0         0.30        297.9 
      1616.0         3.18       1495.1 
      1617.0         0.45       1170.6 
      1618.0         0.30       1011.7 
      1619.0         0.27        991.1 
      1620.0         0.40        957.0 
      1621.0         0.30        856.7 
      1622.0         0.20        850.3 
      1623.0         0.27        809.7 
      1624.0         0.27        790.0 
      1625.0         0.30        770.0 
      1626.0         0.27        720.1 
      1627.0         0.30        703.0 
      1628.0         0.23        681.7 
      1629.0         0.25        670.1 
      1630.0         0.27        658.2 
      1631.0         0.27        650.8 
      1632.0         0.27        630.5 
      1633.0         0.20        617.6 
      1634.0         0.20        617.6 
      1635.0         0.23        602.1 
      1636.0         0.20        587.6 
      1637.0         0.17        582.5 
      1638.0         0.17        583.1 
      1639.0         0.13        583.1 
      1640.0         0.20        585.4 
      1641.0         0.27        608.9 
      1642.0         0.20        618.6 
      1643.0         0.23        621.5 
      1644.0         0.23        621.5 
      1645.0         0.28        613.4 
      1646.0         2.87        871.9 
      1647.0         0.45        956.6 
      1648.0         0.43        973.7 
      1649.0         0.33        940.2 
      1650.0         0.33        880.6 
      1651.0         0.30        863.5 
      1652.0         0.33        824.2 
      1653.0         0.37        809.7 
      1654.0         0.47        813.9 
      1655.0         0.47        781.3 
      1656.0         0.42        741.7 
      1657.0         0.40        709.1 
      1658.0         0.27        673.4 
      1659.0         0.37        676.3 
      1660.0         0.40        689.5 
      1661.0         0.30        700.8 
      1662.0         0.43        701.1 
      1663.0         0.37        699.5 
      1664.0         0.30        670.8 
      1665.0         0.28        648.6 
      1666.0         0.30        605.4 
      1667.0         0.30        613.1 
      1668.0         0.23        594.7 
      1669.0         0.30        561.9 
      1670.0         0.23        529.6 
      1671.0         0.23        502.6 
      1672.0         0.43        455.5 
      1673.0         0.50        448.1 
      1674.0         0.53        147.3 
      1675.0         2.35        396.6 
      1676.0         0.17        392.9 
      1677.0         0.30        397.1 
      1678.0         0.27        390.0 
      1679.0         0.27        363.6 
      1680.0         0.25        340.5 
      1681.0         0.20        335.8 
      1682.0         0.27        300.7 
      1683.0         0.23        269.8 
      1684.0         0.23        269.1 
      1685.0         0.27        270.8 
      1686.0         0.27        269.1 
      1687.0         0.20        268.4 
      1688.0         0.20        256.9 
      1689.0         0.27        250.8 
      1690.0         0.17        242.2 
      1691.0         0.27        236.8 
      1692.0         0.23        224.3 
      1693.0         0.30        219.4 
      1694.0         0.28        217.7 
      1695.0         0.20        213.6 
      1696.0         0.30        212.5 
      1697.0         0.37        219.3 
      1698.0         0.17        219.3 
      1699.0         0.23        213.5 
      1700.0         0.17        205.9 
      1701.0         0.23        205.0 
      1702.0         0.17        197.0 
      1703.0         0.23        195.4 
      1704.0         0.30        166.6 
      1705.0         0.17        134.9 
      1706.0         2.02        326.4 
      1707.0         0.37        337.9 
      1708.0         0.47        373.5 
      1709.0         0.30        389.9 
      1710.0         0.27        398.5 
      1711.0         0.43        395.8 
      1712.0         0.68        342.0 
      1713.0         0.30        317.5 
      1714.0         0.37        336.1 
      1715.0         0.30        343.2 
      1716.0         0.37        343.5 
      1717.0         0.37        329.6 
      1718.0         0.33        305.7 
      1719.0         0.33        300.1 
      1720.0         0.30        280.0 
      1721.0         0.38        269.6 
      1722.0         0.30        259.0 
      1723.0         0.30        253.2 
      1724.0         0.43        251.3 
      1725.0         0.40        245.3 
      1726.0         0.40        239.0 
      1727.0         0.43        235.2 
      1728.0         0.43        233.0 
      1729.0         0.37        228.7 
      1730.0         0.42        224.5 
      1731.0         0.47        222.3 
      1732.0         0.40        232.6 
      1733.0         0.43        234.7 
      1734.0         0.37        232.5 
      1735.0         0.37        223.1 
      1736.0         4.67        338.2 
      1737.0         0.53        321.3 
      1738.0         0.83        320.1 
      1739.0         0.57        325.9 
      1740.0         0.43        329.1 
      1741.0         0.23        314.2 
      1742.0         0.23        293.6 
      1743.0         0.28        280.3 
      1744.0         0.20        261.0 
      1745.0         0.20        258.5 
      1746.0         0.23        256.1 
      1747.0         0.33        256.2 
      1748.0         0.37        251.5 
      1749.0         0.47        234.2 
      1750.0         0.60        223.3 
      1751.0         0.37        191.8 
      1752.0         0.33        184.0 
      1753.0         0.35        182.1 
      1754.0         0.27        178.7 
      1755.0         0.23        184.3 
