~Version Information
VERS.                      2.0: CWLS Log ASCII Standard - VERSION 2.0
WRAP.                       NO: One line per depth step
~Well Information Block
STRT.FT                 0.0000: 
STOP.FT               878.0000: 
STEP.FT                 0.2500: 
NULL.                -999.2500: 
COMP.          Pioneer Natural Resources: COMPANY
WELL.           Hartford 31-18: WELL
FLD.           Purgatorie River: FIELD
LOC.           375' FNL & 1660' FEL: LOCATION
PROV.                 Colorado: PROVINCE
CNTY.               Las Animas: COUNTRY
SRVC.                Patterson: SERVICE COMPANY
DATE.          Mon Nov 28 12:10:49 2005: LOG DATE
UWI.             05-071-08555             : UNIQUE WELL ID
~Curve Information Block
DEPT.FT            0 000 00 00: Depth
CCL.                          : Casing Collar Locator
TT3.usec                      : CBL 3' Travel Time
AMP3.mV                       : CBL 3' Amplitude
GR.GAPI                       : Gamma Ray
~Parameter Information Block
~A  Depth       CCL         TT3         AMP3         GR     
# ...
   737.0000      0.0000    679.3447      7.7675     66.6357
   737.2500      0.0000    676.2418      7.9002     72.9828
   737.5000      0.0000    675.3356      8.0837     78.1760
   737.7500      0.0000    675.5950      8.3000     82.2247
   738.0000      0.0000    676.1088      8.5338     85.5061
   738.2500      0.0000    676.4622      8.7727     88.3437
   738.5000      0.0000    676.6693      8.9914     90.6686
   738.7500      0.0000    676.8624      9.1535     91.9316
   739.0000      0.0000    677.0390      9.2298     91.6063
   739.2500      0.0000    677.1496      9.2069     89.9171
   739.5000      0.0000    677.1913      9.0842     87.7462
   739.7500      0.0000    677.1888      8.8930     85.7671
   740.0000      0.0000    677.1287      8.6949     83.9615
   740.2500      0.0000    676.8675      8.5213     82.0445
   740.5000      0.0000    676.0270      8.3584     80.2207
   740.7500      0.0000    673.6255      8.1886     79.4772
   741.0000      0.0000    667.7109      7.9928     80.9198
   741.2500      0.0000    656.9859      7.7513     84.5928
   741.5000      0.0000    644.1729      7.4857     89.0606
   741.7500      0.0000    635.4811      7.2519     92.4842
   742.0000      0.0000    635.6149      7.0717     94.1074
   742.2500      0.0000    644.8127      6.9138     94.3330
   742.5000      0.0000    659.3828      6.7594     93.3421
   742.7500      0.0000    675.0434      6.6576     90.2439
   743.0000      0.0000    690.1754      6.6737     84.0307
   743.2500      0.0000    703.6794      6.7982     75.0782
   743.5000      0.0000    712.8118      6.9525     65.2834
   743.7500      0.0000    715.7030      7.0759     56.8441
   744.0000      0.0000    712.2326      7.1777     51.1621
   744.2500      0.0000    703.3890      7.2968     48.7950
   744.5000      0.0000    693.3536      7.4185     49.8828
   744.7500      0.0000    688.9969      7.4877     54.0636
   745.0000      0.0000    693.7263      7.5074     60.1059
   745.2500      0.0000    703.8106      7.5472     66.3317
   745.5000      0.0000    712.5597      7.6427     71.7144
   745.7500      0.0000    716.2643      7.7662     76.1627
   746.0000      0.0000    714.6758      7.9114     79.6159
   746.2500      0.0000    709.1473      8.1163     81.6012
   746.5000      0.0000    702.0952      8.3813     82.0929
   746.7500      0.0000    695.0115      8.6430     82.1107
   747.0000      0.0000    687.8647      8.8420     82.8162
   747.2500      0.0000    681.7432      8.9645     84.2908
   747.5000      0.0000    678.2221      9.0355     85.5657
   747.7500      0.0000    677.0090      9.0895     85.5669
   748.0000      0.0000    676.7586      9.1095     83.9157
   748.2500      0.0000    676.5977      9.0349     81.1879
   748.5000      0.0000    676.3098      8.8808     78.4786
   748.7500      0.0000    675.9662      8.7699     76.5450
   749.0000      0.0000    675.5626      8.7764     75.4031
   749.2500      0.0000    675.0098      8.8081     74.7240
   749.5000      0.0000    674.3804      8.7182     74.2933
   749.7500      0.0000    673.8804      8.4906     73.8956
   750.0000      0.0000    673.6424      8.2393     73.1597
   750.2500      0.0000    673.6699      8.0552     71.9562
   750.5000      0.0000    673.8701      7.9178     70.7458
   750.7500      0.0000    674.1150      7.7530     70.2790
   751.0000      0.0000    674.3007      7.5476     71.1497
   751.2500      0.0000    674.2245      7.3710     73.6875
   751.5000      0.0000    673.2869      7.2871     77.9212
   751.7500      0.0000    671.0556      7.2898     83.4405
   752.0000      0.0000    669.6956      7.3228     89.3336
   752.2500      0.0000    673.2993      7.3491     94.2699
   752.5000      0.0000    679.9247      7.3905     96.8308
   752.7500      0.0000    680.8644      7.4764     96.0927
   753.0000      0.0000    674.2807      7.5809     92.0490
   753.2500      0.0000    668.4529      7.6442     85.5852
   753.5000      0.0000    668.5029      7.6402     78.2584
   753.7500      0.0000    671.4880      7.6098     71.9996
   754.0000      0.0000    673.6701      7.6130     68.4775
   754.2500      0.0000    674.4834      7.6620     68.2141
   754.5000      0.0000    674.9018      7.7281     70.2561
   754.7500      0.0000    676.1854      7.7886     73.0477
   755.0000      0.0000    679.5322      7.8402     75.7408
   755.2500      0.0000    684.2006      7.8618     78.4256
   755.5000      0.0000    686.3192      7.8143     81.1688
   755.7500      0.0000    683.3146      7.7134     83.4065
   756.0000      0.0000    678.3709      7.6324     84.6319
   756.2500      0.0000    675.4938      7.6031     85.3491
   756.5000      0.0000    673.1295      7.5957     86.7333
   756.7500      0.0000    668.8668      7.5827     89.2929
   757.0000      0.0000    666.1911      7.5500     92.2299
   757.2500      0.0000    670.7496      7.4862     94.2075
   757.5000      0.0000    684.4240      7.4037     94.6486
   757.7500      0.0000    702.6113      7.3336     94.3155
   758.0000      0.0000    714.4863      7.2877     94.4745
   758.2500      0.0000    710.6255      7.2539     95.3347
   758.5000      0.0000    690.5710      7.2241     95.7076
   758.7500      0.0000    662.8278      7.1897     94.5240
   759.0000      0.0000    638.6475      7.0926     92.0840
   759.2500      0.0000    623.5460      6.8370     89.3259
   759.5000      0.0000    618.5693      6.4222     86.5920
   759.7500      0.0000    627.2755      5.9637     83.8217
   760.0000      0.0000    649.7694      5.5410     81.3608
   760.2500      0.0000    674.6124      5.2091     79.7269
   760.5000      0.0000    690.5729      5.0595     78.8852
   760.7500      0.0000    701.7510      5.0841     78.5899
   761.0000     -2.0000    717.9465      5.1576     79.1504
   761.2500     -2.0000    739.1120      5.2068     80.8994
   761.5000      0.0000    758.0462      5.2648     82.8043
   761.7500      0.0000    766.8303      5.3940     82.4378
   762.0000      0.0000    758.4771      5.6771     77.9466
   762.2500      0.0000    731.6493      6.2380     70.0957
   762.5000      0.0000    698.1518      7.0413     62.0775
   762.7500      0.0000    676.3078      7.7693     57.0069
   763.0000      0.0000    673.6945      8.1817     55.5941
   763.2500      0.0000    683.2362      8.3461     56.3699
   763.5000      0.0000    692.6769      8.3858     57.8419
   763.7500      0.0000    693.7689      8.3450     59.6588
   764.0000      0.0000    687.0688      8.2819     61.6280
   764.2500      0.0000    679.2041      8.2753     62.6979
   764.5000      0.0000    675.5994      8.3630     61.7749
   764.7500      0.0000    678.2925      8.5191     59.1218
   765.0000      0.0000    686.8639      8.6808     56.1802
   765.2500      0.0000    696.5180      8.7962     54.1152
   765.5000      0.0000    698.5942      8.8529     53.1126
   765.7500      0.0000    687.9087      8.8675     52.9428
   766.0000      0.0000    669.6771      8.8636     53.4031
   766.2500      0.0000    657.4932      8.8637     54.0435
   766.5000      0.0000    662.3077      8.8791     54.1393
   766.7500      0.0000    681.2969      8.8965     53.3482
   767.0000      0.0000    700.7628      8.8893     52.0850
   767.2500      0.0000    711.6172      8.8479     51.0423
   767.5000      0.0000    715.2647      8.7845     50.5845
   767.7500      0.0000    716.1554      8.7105     50.6903
   768.0000      0.0000    716.5216      8.6236     51.2874
   768.2500      0.0000    716.8989      8.5104     52.4046
   768.5000      0.0000    717.2909      8.3569     53.9024
   768.7500      0.0000    717.5184      8.1799     55.2598
   769.0000      0.0000    717.4658      8.0245     55.9387
   769.2500      0.0000    717.2476      7.9202     55.8876
   769.5000      0.0000    717.0832      7.8670     55.4235
   769.7500      0.0000    717.0314      7.8500     54.7483
   770.0000      0.0000    716.9350      7.8612     53.9250
   770.2500      0.0000    716.5959      7.9124     53.2712
