~Version Information
VERS.                      2.0: CWLS Log ASCII Standard - VERSION 2.0
WRAP.                       NO: One line per depth step
~Well Information Block
STRT.FT               322.3000: 
STOP.FT              1375.0000: 
STEP.FT                 0.1000: 
NULL.                -999.2500: 
COMP.          Pioneer Natural Resources: COMPANY
WELL.          Buffet 41-36 Tr: WELL
FLD.           Purgatoire River: FIELD
LOC.           119' FNL & 271' FEL: LOCATION
PROV.                 Colorado: PROVINCE
CNTY.               Las Animas: COUNTRY
SRVC.                Patterson: SERVICE COMPANY
DATE.          Thu Dec 29 07:13:13 2005: LOG DATE
UWI.           05 071 08627 00: UNIQUE WELL ID
~Curve Information Block
DEPT.FT            0 000 00 00: Depth
DCAL.in                       : CDL Caliper
RHOB.g/cc                     : CDL Bulk Density
RHOC.g/cc                     : CDL Density Correction
DPOR.pu                       : CDL Density Porosity
GR.GAPI                       : Gamma Ray
~Parameter Information Block
~A  Depth       DCAL        RHOB        RHOC        DPOR         GR     
# ...
   893.5000      7.9820      2.5979      0.0227      3.1562     70.4080
   893.6000      7.9820      2.6067      0.0263      2.6235     69.3582
   893.7000      7.9820      2.6091      0.0441      2.4805     65.3774
   893.8000      7.9827      2.6077      0.0395      2.5624     60.8708
   893.9000      7.9827      2.6099      0.0243      2.4329     56.4898
   894.0000      7.9826      2.6133      0.0631      2.2248     54.2248
   894.1000      7.9826      2.6095      0.0220      2.4558     56.6841
   894.2000      7.9826      2.5960     -0.0081      3.2722     61.4053
   894.3000      7.9798      2.5772     -0.0050      4.4134     63.3225
   894.4000      7.9798      2.5656     -0.0266      5.1130     60.7498
   894.5000      7.9773      2.5657      0.0204      5.1098     58.5159
   894.6000      7.9773      2.5650      0.0228      5.1526     62.0947
   894.7000      7.9773      2.5606      0.0134      5.4164     68.9654
   894.8000      7.9775      2.5609      0.0288      5.3993     72.1073
   894.9000      7.9775      2.5574      0.0681      5.6141     67.9975
   895.0000      7.9798      2.5351      0.0211      6.9666     62.1203
   895.1000      7.9798      2.5012     -0.0022      9.0206     60.9434
   895.2000      7.9798      2.4712      0.0172     10.8365     62.2919
   895.3000      7.9830      2.4489      0.0362     12.1859     62.1618
   895.4000      7.9830      2.4381      0.0111     12.8426     61.4786
   895.5000      7.9862      2.4451     -0.0125     12.4175     61.1797
   895.6000      7.9862      2.4614      0.0687     11.4325     59.7577
   895.7000      7.9862      2.4736      0.0352     10.6899     56.2182
   895.8000      7.9883      2.4800      0.0707     10.3038     52.4025
   895.9000      7.9883      2.4798      0.0559     10.3181     52.2796
   896.0000      7.9913      2.4784      0.0352     10.4004     57.2835
   896.1000      7.9913      2.4808      0.0420     10.2553     63.8894
   896.2000      7.9913      2.4786      0.0620     10.3906     68.5179
   896.3000      7.9939      2.4661      0.0483     11.1461     71.2740
   896.4000      7.9939      2.4543      0.0472     11.8613     71.7939
   896.5000      7.9948      2.4539      0.0405     11.8839     72.0529
   896.6000      7.9948      2.4565      0.0481     11.7282     76.4960
   896.7000      7.9948      2.4537      0.0203     11.8959     84.2493
   896.8000      7.9952      2.4539      0.0455     11.8826     92.9911
   896.9000      7.9952      2.4569      0.0706     11.7006    103.4322
   897.0000      7.9974      2.4464      0.0764     12.3382    113.5030
   897.1000      7.9974      2.4090      0.1091     14.6050    120.5239
   897.2000      7.9974      2.3415      0.0656     18.6954    124.3369
   897.3000      8.0035      2.2461      0.0731     24.4776    123.9248
   897.4000      8.0035      2.1305      0.0288     31.4840    121.4066
   897.5000      8.0118      2.0079      0.0005     38.9142    122.1740
   897.6000      8.0118      1.8851     -0.0629     46.3571    125.7242
   897.7000      8.0118      1.7606     -0.0822     53.9003    125.2667
   897.8000      8.0179      1.6341     -0.1142     61.5722    119.4252
   897.9000      8.0179      1.5174     -0.1316     68.6417    114.6290
   898.0000      8.0195      1.4312     -0.0883     73.8693    111.6910
   898.1000      8.0195      1.3884     -0.0605     76.4606    106.3721
   898.2000      8.0195      1.3930      0.0160     76.1810     99.0035
   898.3000      8.0228      1.4513      0.0331     72.6463     93.0043
   898.4000      8.0228      1.5762      0.0550     65.0779     89.0575
   898.5000      8.0285      1.7512      0.1651     54.4709     84.6468
   898.6000      8.0285      1.9214      0.2304     44.1572     79.6679
   898.7000      8.0285      2.0641      0.2069     35.5088     80.3063
   898.8000      8.0257      2.2019      0.2755     27.1582     88.2836
   898.9000      8.0257      2.3337      0.3435     19.1674     96.4489
   899.0000      8.0144      2.4309      0.3553     13.2803    101.4504
   899.1000      8.0144      2.4815      0.1772     10.2151    103.4162
   899.2000      8.0144      2.5015      0.1010      9.0022    101.4670
   899.3000      8.0025      2.5125      0.0957      8.3351     99.6594
   899.4000      8.0025      2.5181      0.0927      7.9912    103.6252
   899.5000      7.9986      2.5117      0.0346      8.3811    113.4706
   899.6000      7.9986      2.4990      0.0058      9.1536    125.7431
   899.7000      7.9986      2.4930     -0.0099      9.5144    133.7843
   899.8000      7.9987      2.4950      0.0205      9.3939    130.6180
   899.9000      7.9987      2.4988      0.0500      9.1623    120.1053
   900.0000      7.9930      2.5076      0.0276      8.6320    114.1253
   900.1000      7.9930      2.5251      0.0443      7.5686    114.6770
   900.2000      7.9930      2.5411      0.0958      6.6021    113.3366
   900.3000      7.9832      2.5450      0.0782      6.3610    109.8830
   900.4000      7.9832      2.5388      0.0618      6.7367    107.6871
   900.5000      7.9782      2.5286      0.0342      7.3592    104.0397
   900.6000      7.9782      2.5221      0.0153      7.7527     98.8662
   900.7000      7.9782      2.5213      0.0237      7.7982     96.7564
   900.8000      7.9794      2.5205      0.0031      7.8461     99.0524
   900.9000      7.9794      2.5212     -0.0224      7.8055    103.9053
   901.0000      7.9813      2.5259     -0.0282      7.5237    106.8941
   901.1000      7.9813      2.5257      0.0297      7.5363    107.6549
   901.2000      7.9813      2.5140      0.0054      8.2421    111.7875
   901.3000      7.9797      2.4992     -0.0224      9.1371    114.8700
   901.4000      7.9797      2.4858     -0.0013      9.9518    110.9480
   901.5000      7.9758      2.4714     -0.0174     10.8221    106.3971
   901.6000      7.9758      2.4664     -0.0207     11.1300    106.2195
   901.7000      7.9758      2.4728      0.0197     10.7405    104.8009
   901.8000      7.9707      2.4752      0.0552     10.5954    100.3114
   901.9000      7.9707      2.4711      0.0525     10.8416     99.7947
   902.0000      7.9663      2.4723      0.0595     10.7693    103.6562
   902.1000      7.9663      2.4793      0.0786     10.3455    107.5990
   902.2000      7.9663      2.4814      0.1105     10.2154    110.4356
   902.3000      7.9630      2.4741      0.0825     10.6578    114.1266
   902.4000      7.9630      2.4674      0.1194     11.0660    120.9796
   902.5000      7.9602      2.4794      0.0927     10.3375    128.9640
   902.6000      7.9602      2.5159      0.1302      8.1294    133.6977
   902.7000      7.9602      2.5584      0.1899      5.5485    132.8944
   902.8000      7.9618      2.5890      0.2054      3.6957    129.8021
   902.9000      7.9618      2.6030      0.2179      2.8490    130.7559
   903.0000      7.9702      2.5955      0.2290      3.3022    138.9466
   903.1000      7.9702      2.5696      0.1452      4.8724    152.1879
   903.2000      7.9702      2.5456      0.1378      6.3266    161.0152
   903.3000      7.9804      2.5411      0.1308      6.6000    158.6379
   903.4000      7.9804      2.5569      0.1170      5.6433    151.5208
   903.5000      7.9832      2.5735      0.1442      4.6394    146.6090
   903.6000      7.9832      2.5683      0.1266      4.9525    141.9756
   903.7000      7.9832      2.5488      0.0974      6.1348    139.3218
   903.8000      7.9829      2.5394      0.0990      6.7045    144.4202
   903.9000      7.9829      2.5406      0.1129      6.6300    153.2324
   904.0000      7.9919      2.5339      0.1015      7.0393    157.7662
   904.1000      7.9919      2.5206      0.0703      7.8430    157.0784
   904.2000      7.9919      2.5205      0.0701      7.8513    154.4148
   904.3000      8.0024      2.5320      0.0742      7.1493    150.6868
   904.4000      8.0024      2.5339      0.0369      7.0372    148.3408
   904.5000      8.0058      2.5203      0.0153      7.8623    148.7999
   904.6000      8.0058      2.5073      0.0380      8.6466    147.1738
