~Version Information
VERS.                      2.0: CWLS Log ASCII Standard - VERSION 2.0
WRAP.                       NO: One line per depth step
~Well Information Block
STRT.FT               597.2500: 
STOP.FT              1567.2500: 
STEP.FT                 0.2500: 
NULL.                -999.2500: 
COMP.          Pioneer Natural Resources: COMPANY
WELL.           Butch 33-10 Tr: WELL
FLD.           Purgatoire River: FIELD
LOC.           2309' FSL & 1337' FEL--: LOCATION
PROV.                 Colorado: PROVINCE
CNTY.               Las Animas: COUNTRY
SRVC.                Patterson: SERVICE COMPANY
DATE.          Sat Jan 14 05:18:29 2006: LOG DATE
UWI.           05 071 08649 00: UNIQUE WELL ID
~Curve Information Block
DEPT.FT            0 000 00 00: Depth
SN.Ohm-m                      : IEL Short Normal
SP.mV                         : IEL Spontaneous Potential
DIR.Ohm-m                     : IEL Induction Resistivity
GR.GAPI                       : Gamma Ray
~Parameter Information Block
~A  Depth        SN          SP         DIR          GR     
# ...
   798.2500     26.0737    -65.3016     23.7454    107.1442
   798.5000     26.0450    -65.1352     23.8097    110.3580
   798.7500     26.0526    -64.9917     23.8675    112.5622
   799.0000     26.0355    -64.8723     23.9141    115.3747
   799.2500     25.8913    -64.7748     23.9296    117.2949
   799.5000     25.5822    -64.6945     23.8968    120.8318
   799.7500     25.1883    -64.6259     23.8209    123.2775
   800.0000     24.8726    -64.5648     23.7333    125.8521
   800.2500     24.7948    -64.5099     23.6715    126.6230
   800.5000     25.0252    -64.4635     23.6535    127.2222
   800.7500     25.5041    -64.4308     23.6690    127.7916
   801.0000     26.0709    -64.4180     23.6878    128.5419
   801.2500     26.5527    -64.4295     23.6769    127.9880
   801.5000     26.8578    -64.4665     23.6116    124.0559
   801.7500     27.0052    -64.5251     23.4812    119.6043
   802.0000     27.0779    -64.5977     23.2908    112.8650
   802.2500     27.1489    -64.6746     23.0599    110.3145
   802.5000     27.2377    -64.7483     22.8130    111.4312
   802.7500     27.3085    -64.8160     22.5685    115.2960
   803.0000     27.2968    -64.8820     22.3320    123.5579
   803.2500     27.1556    -64.9592     22.1008    129.0658
   803.5000     26.8940    -65.0672     21.8750    135.3697
   803.7500     26.5743    -65.2308     21.6637    137.9188
   804.0000     26.2700    -65.4776     21.4831    139.7034
   804.2500     26.0278    -65.8347     21.3462    140.1232
   804.5000     25.8728    -66.3278     21.2557    140.4825
   804.7500     25.8612    -66.9801     21.2048    140.5200
   805.0000     26.1202    -67.8128     21.1869    139.3181
   805.2500     26.8114    -68.8471     21.2035    137.3215
   805.5000     28.0307    -70.1067     21.2626    133.5367
   805.7500     29.7153    -71.6185     21.3674    131.7229
   806.0000     31.6076    -73.4122     21.5043    131.6486
   806.2500     33.3027    -75.5165     21.6402    133.4443
   806.5000     34.3821    -77.9536     21.7285    137.6463
   806.7500     34.5726    -80.7311     21.7210    140.1876
   807.0000     33.8455    -83.8378     21.5700    141.6088
   807.2500     32.4136    -87.2441     21.2274    140.6815
   807.5000     30.6360    -90.9102     20.6514    137.8941
   807.7500     28.8648    -94.8008     19.8321    136.3279
   808.0000     27.3104    -98.9014     18.8162    135.6743
   808.2500     25.9890   -103.2295     17.6998    136.4493
   808.5000     24.7659   -107.8328     16.5879    138.9018
   808.7500     23.4572   -112.7691     15.5546    140.8523
   809.0000     21.9352   -118.0709     14.6309    143.0062
   809.2500     20.1925   -123.7037     13.8176    143.2755
   809.5000     18.3364   -129.5350     13.1053    141.5295
   809.7500     16.5241   -135.3285     12.4849    139.1691
   810.0000     14.8882   -140.7738     11.9488    134.6157
   810.2500     13.5001   -145.5482     11.4854    131.3684
   810.5000     12.3742   -149.3939     11.0787    127.0999
   810.7500     11.4884   -152.1837     10.7114    125.3584
   811.0000     10.8031   -153.9531     10.3722    125.2541
   811.2500     10.2752   -154.8827     10.0609    126.6006
   811.5000      9.8647   -155.2363      9.7883    129.0976
   811.7500      9.5414   -155.2746      9.5708    130.1635
   812.0000      9.2947   -155.1739      9.4259    130.4128
   812.2500      9.1426   -154.9755      9.3682    129.9272
   812.5000      9.1293   -154.5823      9.4100    128.8247
   812.7500      9.3168   -153.7975      9.5617    128.2103
   813.0000      9.7809   -152.3934      9.8332    128.1956
   813.2500     10.6126   -150.1850     10.2345    129.0364
   813.5000     11.9202   -147.0887     10.7738    131.1164
   813.7500     13.8275   -143.1532     11.4551    132.4912
   814.0000     16.4558   -138.5565     12.2734    134.3199
   814.2500     19.8700   -133.5755     13.2085    135.8992
   814.5000     24.0030   -128.5388     14.2181    139.4013
   814.7500     28.6185   -123.7753     15.2375    141.8897
   815.0000     33.3591   -119.5715     16.1994    143.8210
   815.2500     37.8496   -116.1444     17.0787    143.1832
   815.5000     41.7922   -113.6325     17.9262    139.8434
   815.7500     45.0213   -112.1017     18.8361    137.0679
   816.0000     47.5146   -111.5620     19.8472    134.1547
   816.2500     49.3495   -111.9857     20.8403    133.7817
   816.5000     50.6134   -113.3241     21.5359    135.0791
   816.7500     51.3228   -115.5182     21.6682    136.1773
   817.0000     51.4114   -118.5056     21.2312    137.2095
   817.2500     50.7905   -122.2220     20.5184    137.8564
   817.5000     49.4235   -126.6034     19.9133    139.6168
   817.7500     47.3547   -131.5887     19.6769    141.1391
   818.0000     44.6829   -137.1255     19.8445    142.9018
   818.2500     41.5168   -143.1762     20.1535    143.3403
   818.5000     37.9458   -149.7228     19.9917    142.8785
   818.7500     34.0500   -156.7665     18.6438    142.0298
   819.0000     29.9598   -164.3178     15.9848    140.5418
   819.2500     25.9210   -172.3753     12.7627    139.8396
   819.5000     22.2584   -180.8992      9.8623    139.7883
   819.7500     19.2169   -189.7866      7.6797    140.5979
   820.0000     16.8318   -198.8589      6.2072    143.1296
   820.2500     14.9693   -207.8688      5.3070    145.4497
   820.5000     13.4794   -216.5260      4.8584    148.7427
   820.7500     12.2979   -224.5359      4.8063    149.9766
   821.0000     11.4312   -231.6362      5.1860    149.4591
   821.2500     10.8842   -237.6180      6.1724    147.3868
   821.5000     10.6177   -242.3229      8.1828    141.6512
   821.7500     10.5570   -245.6201     11.9129    136.2621
   822.0000     10.6204   -247.3759     17.0131    127.4140
   822.2500     10.7393   -247.4339     18.2435    122.7187
   822.5000     10.8721   -245.6206     13.7224    119.9507
   822.7500     11.0165   -241.7810      9.5510    120.9454
   823.0000     11.2215   -235.8364      7.4190    124.1939
   823.2500     11.5981   -227.8449      6.7815    125.8354
   823.5000     12.3357   -218.0422      7.3896    126.2177
   823.7500     13.7121   -206.8456      9.7252    125.2007
   824.0000     16.0547   -194.8150     15.9376    122.1211
   824.2500     19.6229   -182.5802     34.6315    119.0312
   824.5000     24.4644   -170.7539    102.6136    113.0439
   824.7500     30.3525   -159.8543    151.1055    108.5807
   825.0000     36.8581   -150.2545     64.1530    102.0255
   825.2500     43.4969   -142.1679     32.7288     98.0446
   825.5000     49.8730   -135.6645     21.9612     92.8711
   825.7500     55.7776   -130.7075     17.7547     89.9708
   826.0000     61.2152   -127.1936     16.4319     86.0296
   826.2500     66.3249   -124.9878     16.9626     83.1672
   826.5000     71.2144   -123.9440     19.2298     78.0609
   826.7500     75.8114   -123.9120     23.5243     74.5446
   827.0000     79.8336   -124.7362     30.0708     70.6930
   827.2500     82.8666   -126.2513     37.8959     69.7730
   827.5000     84.4529   -128.2821     43.6900     70.5928
   827.7500     84.1510   -130.6504     44.3421     71.5940
   828.0000     81.6297   -133.1900     41.1310     71.7577
   828.2500     76.8432   -135.7664     37.4637     70.4310
   828.5000     70.1895   -138.2944     35.3701     67.0150
   828.7500     62.4867   -140.7476     35.5303     64.7981
   829.0000     54.7270   -143.1512     38.0856     63.1687
   829.2500     47.7471   -145.5591     42.6183     63.7369
   829.5000     42.0125   -148.0184     47.2188     67.1725
   829.7500     37.6008   -150.5328     48.3222     70.8097
   830.0000     34.3342   -153.0378     44.4125     77.1971
   830.2500     31.9452   -155.3961     38.4229     81.5824
   830.5000     30.1897   -157.4201     33.6466     88.2949
   830.7500     28.8941   -158.9140     31.3191     93.0672
   831.0000     27.9657   -159.7244     31.6281    100.5011
   831.2500     27.4087   -159.7843     34.7405    105.0910
   831.5000     27.3333   -159.1361     41.1611    110.4275
