~Version Information
VERS.                      2.0: CWLS Log ASCII Standard - VERSION 2.0
WRAP.                       NO: One line per depth step
~Well Information Block
STRT.FT                -6.0000: 
STOP.FT              1295.2500: 
STEP.FT                 0.2500: 
NULL.                -999.2500: 
COMP.          Pioneer Natural Resources: COMPANY
WELL.            Erin 21-15 Tr: WELL
FLD.           Purgatoire River: FIELD
LOC.           1217' FNL & 2284' FWL--: LOCATION
CNTY.               Las Animas: COUNTY
SRVC.                         : SERVICE COMPANY
DATE.          Fri Mar 10 09:14:17 2006: LOG DATE
UWI.           05 071 08712 00: UNIQUE WELL ID
STAT.                       CO: STATE
~Curve Information Block
DEPT.FT            0 000 00 00: Depth
GR.GAPI                       : Gamma Ray
CCL.                          : Casing Collar Locator
TT3.usec                      : CBL 3' Travel Time
AMP3.mV                       : CBL 3' Amplitude
~Parameter Information Block
~A  Depth        GR         CCL         TT3         AMP3    
# ...
   664.0000    122.3739      0.0000    727.2562     11.6627
   664.2500    121.2797      0.0000    731.1988     11.7405
   664.5000    118.7669      0.0000    734.4003     11.8104
   664.7500    117.4191      0.0000    738.0790     11.8056
   665.0000    118.5447      0.0000    742.5547     11.7009
   665.2500    120.6374      0.0000    746.6356     11.5275
   665.5000    121.2841      0.0000    748.8073     11.3278
   665.7500    120.1272      0.0000    748.6958     11.1200
   666.0000    119.2067      0.0000    747.5243     10.9114
   666.2500    120.6471      0.0000    747.2331     10.7218
   666.5000    124.6358      0.0000    749.0616     10.5755
   666.7500    129.4221      0.0000    752.9177     10.4804
   667.0000    132.5948      0.0000    757.7635     10.4225
   667.2500    132.4391      0.0000    762.3327     10.3701
   667.5000    128.9474      0.0000    765.7490     10.2873
   667.7500    123.9737      0.0000    767.7880     10.1616
   668.0000    119.9080      0.0000    768.5604     10.0221
   668.2500    117.7196      0.0000    767.8549      9.9197
   668.5000    116.4021      0.0000    764.9301      9.8835
   668.7500    114.3625      0.0000    759.1966      9.9004
   669.0000    111.1528      0.0000    751.2721      9.9354
   669.2500    107.7135      0.0000    743.2187      9.9624
   669.5000    105.0435      0.0000    737.4604      9.9734
   669.7500    103.0227      0.0000    735.0942      9.9645
   670.0000    100.7888      0.0000    734.7535      9.9290
   670.2500     97.9509      0.0000    733.1177      9.8731
   670.5000     95.2274      0.0000    727.4448      9.8249
   670.7500     94.1332      0.0000    718.1833      9.8133
   671.0000     95.9074      0.0000    708.7801      9.8451
   671.2500    100.1872      0.0000    702.8450      9.9074
   671.5000    104.7078      0.0000    701.5501      9.9911
   671.7500    106.8461      0.0000    702.4743     10.1060
   672.0000    105.7327      0.0000    699.6320     10.2737
   672.2500    102.8039      0.0000    686.2092     10.5065
   672.5000    100.4470      0.0000    661.1121     10.7919
   672.7500    100.2934      0.0000    634.0356     11.0866
   673.0000    102.5010      0.0000    620.9838     11.3230
   673.2500    106.0862      0.0000    631.6265     11.4362
   673.5000    109.7725      0.0000    660.6821     11.3968
   673.7500    112.7086      0.0000    692.3509     11.2156
   674.0000    114.6066      0.0000    713.3194     10.9272
   674.2500    115.4268      0.0000    721.7291     10.5863
   674.5000    115.2365      0.0000    724.5691     10.2603
   674.7500    114.3131      0.0000    728.4517      9.9845
   675.0000    113.0997      0.0000    734.7649      9.7318
   675.2500    112.0000      0.0000    742.0485      9.4614
   675.5000    111.2567      0.0000    748.4193      9.1802
   675.7500    110.9429      0.0000    750.7168      8.9259
   676.0000    110.9715      0.0000    745.6843      8.7123
   676.2500    111.1418      2.0000    734.8427      8.5233
   676.5000    111.3480      2.0000    726.3167      8.3476
   676.7500    111.9017      0.0000    728.9600      8.2147
   677.0000    113.4703      0.0000    744.2397      8.2030
   677.2500    116.3303      0.0000    765.1134      8.3835
   677.5000    119.7487      0.0000    782.7260      8.7166
   677.7500    122.4630      0.0000    792.7384      9.0301
   678.0000    123.7123      0.0000    795.5144      9.1577
   678.2500    123.5553      0.0000    792.9916      9.0819
   678.5000    122.5263      0.0000    786.9657      8.9079
   678.7500    121.3139      0.0000    779.0731      8.7379
   679.0000    120.4655      0.0000    770.9316      8.6116
   679.2500    120.0808      0.0000    764.2349      8.5320
   679.5000    119.7979      0.0000    760.4080      8.4978
   679.7500    119.0201      0.0000    759.2416      8.5071
   680.0000    117.2128      0.0000    758.1968      8.5524
   680.2500    114.3912      0.0000    754.4877      8.6220
   680.5000    111.4113      0.0000    748.1310      8.7063
   680.7500    109.3928      0.0000    742.0137      8.8010
   681.0000    108.9265      0.0000    738.8769      8.9033
   681.2500    110.1504      0.0000    738.9498      9.0107
   681.5000    113.2158      0.0000    740.4813      9.1212
   681.7500    117.9894      0.0000    741.7086      9.2309
   682.0000    123.3779      0.0000    741.7819      9.3318
   682.2500    127.5458      0.0000    740.3992      9.4156
   682.5000    129.0708      0.0000    737.6283      9.4774
   682.7500    127.7640      0.0000    734.1863      9.5096
   683.0000    124.4832      0.0000    731.1728      9.4955
   683.2500    120.6307      0.0000    729.2678      9.4149
   683.5000    117.8834      0.0000    728.3890      9.2590
   683.7500    117.7059      0.0000    728.0432      9.0406
   684.0000    120.3478      0.0000    727.8150      8.7912
   684.2500    124.3229      0.0000    727.5851      8.5488
   684.5000    127.4308      0.0000    727.5399      8.3481
   684.7500    128.4447      0.0000    728.2049      8.2113
   685.0000    127.5314      0.0000    730.5810      8.1413
   685.2500    125.3007      0.0000    736.0648      8.1209
   685.5000    122.3393      0.0000    745.5562      8.1269
   685.7500    119.7420      0.0000    758.1177      8.1435
   686.0000    119.0825      0.0000    770.9793      8.1656
   686.2500    121.0956      0.0000    781.7667      8.1935
   686.5000    124.6852      0.0000    790.4644      8.2304
   686.7500    127.7000      0.0000    798.3807      8.2808
   687.0000    128.6310      0.0000    805.7593      8.3453
   687.2500    127.4965      0.0000    811.4238      8.4162
   687.5000    125.3575      0.0000    814.1810      8.4813
   687.7500    123.2772      0.0000    813.5676      8.5262
   688.0000    121.8860      0.0000    809.6454      8.5344
   688.2500    121.6827      0.0000    803.0087      8.4908
   688.5000    123.0564      0.0000    794.9406      8.3906
   688.7500    125.7587      0.0000    786.8179      8.2445
   689.0000    128.8994      0.0000    779.0918      8.0720
   689.2500    131.8666      0.0000    771.3453      7.8942
   689.5000    134.8327      0.0000    763.7180      7.7358
   689.7500    137.9991      0.0000    757.9507      7.6260
   690.0000    140.6704      0.0000    756.3914      7.5840
   690.2500    141.4329      0.0000    759.6473      7.5983
   690.5000    139.2492      0.0000    765.1948      7.6260
   690.7500    134.2130      0.0000    768.5439      7.6189
   691.0000    127.1595      0.0000    766.6530      7.5542
   691.2500    118.7844      0.0000    760.7000      7.4458
   691.5000    109.5783      0.0000    754.7140      7.3309
   691.7500    100.4391      0.0000    751.0761      7.2411
   692.0000     92.5240      0.0000    748.5052      7.1771
   692.2500     86.3109      0.0000    744.9731      7.1103
   692.5000     81.3927      0.0000    741.2841      7.0127
   692.7500     77.2892      0.0000    740.8303      6.8838
   693.0000     74.0229      0.0000    746.4161      6.7463
   693.2500     71.9311      0.0000    757.7220      6.6197
   693.5000     71.3594      0.0000    771.1711      6.5069
   693.7500     72.7064      0.0000    781.9207      6.4043
   694.0000     76.4706      0.0000    786.4515      6.3171
   694.2500     82.8721      0.0000    784.0652      6.2579
   694.5000     91.2559      0.0000    776.6839      6.2307
   694.7500     99.9427      0.0000    767.7505      6.2235
   695.0000    107.0156      0.0000    761.2897      6.2160
   695.2500    111.4760      0.0000    760.6376      6.1934
   695.5000    113.4903      0.0000    766.2994      6.1518
   695.7500    113.5107      0.0000    775.0981      6.0997
   696.0000    111.4836      0.0000    782.7219      6.0583
   696.2500    106.9973      0.0000    787.1071      6.0510
   696.5000     99.8819      0.0000    788.7751      6.0834
   696.7500     90.6329      0.0000    788.8170      6.1315
   697.0000     80.6097      0.0000    787.5594      6.1551
   697.2500     71.8122      0.0000    784.7944      6.1293
