~Version Information
VERS.                      2.0: CWLS Log ASCII Standard - VERSION 2.0
WRAP.                       NO: One line per depth step
~Well Information Block
STRT.FT                 0.0000: 
STOP.FT              1193.0000: 
STEP.FT                 0.1000: 
NULL.                -999.2500: 
COMP.          Pioneer Natural Resources: COMPANY
WELL.          Big Pine 32-15 Tr: WELL
FLD.           Purgatorie River: FIELD
LOC.           2546' FNL & 1451' FEL: LOCATION
STAT.                 Colorado: State
CNTY.               Las Animas: COUNTY
CTRY. USA : Country
SECT. 15 : Section
TOWN. 33S : Township
RANG. 67W : Range
SRVC.                Patterson: SERVICE COMPANY
DATE.          Tue Nov 08 07:11:35 2005: LOG DATE
API. 05-071-08604                         : UNIQUE WELL ID
~Curve Information Block
DEPT.FT            0 000 00 00: Depth
DCAL.in                       : CDL Caliper
RHOB.g/cc                     : CDL Bulk Density
RHOC.g/cc                     : CDL Density Correction
DPOR.pu                       : CDL Density Porosity
GR.GAPI                       : Gamma Ray
NPOR.pu                       : Neutron Porosity
~Parameter Information Block
~A  Depth       DCAL        RHOB        RHOC        DPOR         GR         NPOR    
# ...
   240.0000     -2.8029      2.3224      2.0000     -0.0066     75.0608     25.0208
   240.1000     -2.8029      2.3169      2.0000     -0.0067     73.9354     25.2558
   240.2000     -2.8029      2.3249      2.0000     -0.0065     74.7181     24.8912
   240.3000     -2.8029      2.3443      2.0000     -0.0061     76.5785     24.1907
   240.4000     -2.8029      2.3559      2.0000     -0.0059     76.8728     23.5818
   240.5000     -2.8029      2.3579      2.0000     -0.0058     75.5924     23.1805
   240.6000     -2.8029      2.3650      2.0000     -0.0057     73.5062     23.0604
   240.7000     -2.8029      2.3825      2.0000     -0.0054     71.1669     23.3110
   240.8000     -2.8029      2.3909      2.0000     -0.0052     70.4589     23.5562
   240.9000     -2.8029      2.3739      2.0000     -0.0055     72.5049     23.4390
   241.0000     -2.8029      2.3428      2.0000     -0.0061     76.5809     23.2099
   241.1000     -2.8029      2.3171      2.0000     -0.0067     81.3482     23.2957
   241.2000     -2.8029      2.3116      2.0000     -0.0068     84.1508     23.7553
   241.3000     -2.8029      2.3296      2.0000     -0.0064     83.1713     24.2920
   241.4000     -2.8029      2.3503      2.0000     -0.0060     79.5739     24.7066
   241.5000     -2.8029      2.3561      2.0000     -0.0059     75.3945     24.8274
   241.6000     -2.8029      2.3529      2.0000     -0.0059     74.0043     24.4895
   241.7000     -2.8029      2.3588      2.0000     -0.0058     76.9574     24.0425
   241.8000     -2.8029      2.3842      2.0000     -0.0053     79.2021     24.1318
   241.9000     -2.8029      2.4149      2.0000     -0.0047     77.7897     24.6806
   242.0000     -2.8029      2.4319      2.0000     -0.0044     76.8391     25.1097
   242.1000     -2.8029      2.4356      2.0000     -0.0043     79.0240     25.2833
   242.2000     -2.8029      2.4345      2.0000     -0.0043     81.5203     25.2497
   242.3000     -2.8029      2.4237      2.0000     -0.0045     82.2434     24.8825
   242.4000     -2.8029      2.3970      2.0000     -0.0051     82.3749     24.3417
   242.5000     -2.8029      2.3790      2.0000     -0.0054     80.9756     24.0120
   242.6000     -2.8029      2.3906      2.0000     -0.0052     77.4796     23.9754
   242.7000     -2.8029      2.4093      2.0000     -0.0048     75.5961     24.1305
   242.8000     -2.8029      2.4119      2.0000     -0.0048     77.1208     24.3456
   242.9000     -2.8029      2.4121      2.0000     -0.0048     80.2824     24.4394
   243.0000     -2.8029      2.4205      2.0000     -0.0046     83.4758     24.3689
   243.1000     -2.8029      2.4192      2.0000     -0.0046     84.4488     24.1424
   243.2000     -2.8029      2.4014      2.0000     -0.0050     83.5716     23.8303
   243.3000     -2.8029      2.3829      2.0000     -0.0053     83.9448     23.7350
   243.4000     -2.8029      2.3705      2.0000     -0.0056     84.4521     23.9009
   243.5000     -2.8029      2.3660      2.0000     -0.0057     83.1124     24.0483
   243.6000     -2.8029      2.3812      2.0000     -0.0054     81.9052     24.1176
   243.7000     -2.8029      2.4051      2.0000     -0.0049     81.7664     24.0643
   243.8000     -2.8029      2.4069      2.0000     -0.0049     82.0357     23.8783
   243.9000     -2.8029      2.3869      2.0000     -0.0053     83.1701     23.7889
   244.0000     -2.8029      2.3736      2.0000     -0.0055     83.9651     23.8809
   244.1000     -2.8029      2.3725      2.0000     -0.0056     84.3759     24.1670
   244.2000     -2.8029      2.3641      2.0000     -0.0057     86.6326     24.7465
   244.3000     -2.8029      2.3514      2.0000     -0.0060     89.7771     25.5459
   244.4000     -2.8029      2.3618      2.0000     -0.0058     90.1330     26.3206
   244.5000     -2.8029      2.3940      2.0000     -0.0051     85.6233     26.7250
   244.6000     -2.8029      2.4183      2.0000     -0.0046     79.6475     26.5249
   244.7000     -2.8029      2.4256      2.0000     -0.0045     78.0244     25.8441
   244.8000     -2.8029      2.4311      2.0000     -0.0044     81.3549     25.2070
   244.9000     -2.8029      2.4369      2.0000     -0.0043     83.9776     25.1122
   245.0000     -2.8029      2.4278      2.0000     -0.0044     82.4093     25.4524
   245.1000     -2.8029      2.4098      2.0000     -0.0048     80.7675     25.5100
   245.2000     -2.8029      2.3988      2.0000     -0.0050     82.5715     24.9547
   245.3000     -2.8029      2.3845      2.0000     -0.0053     84.0259     24.3344
   245.4000     -2.8029      2.3535      2.0000     -0.0059     83.0590     24.0294
   245.5000     -2.8029      2.3202      2.0000     -0.0066     83.5418     23.8710
   245.6000     -2.8029      2.3103      2.0000     -0.0068     85.1393     23.8845
   245.7000     -2.8029      2.3265      2.0000     -0.0065     83.1035     24.3335
   245.8000     -2.8029      2.3471      2.0000     -0.0061     77.8216     24.8396
   245.9000     -2.8029      2.3538      2.0000     -0.0059     72.9189     24.8510
   246.0000     -2.8029      2.3572      2.0000     -0.0059     71.5642     24.6515
   246.1000     -2.8029      2.3680      2.0000     -0.0056     76.6527     24.5667
   246.2000     -2.8029      2.3661      2.0000     -0.0057     87.1118     24.4002
   246.3000     -2.8029      2.3388      2.0000     -0.0062     94.2040     24.4735
   246.4000     -2.8029      2.3012      2.0000     -0.0070     91.2664     25.2758
   246.5000     -2.8029      2.2665      2.0000     -0.0077     85.2385     26.1107
   246.6000     -2.8029      2.2475      2.0000     -0.0081     83.9646     26.2165
   246.7000     -2.8029      2.2600      2.0000     -0.0078     85.8650     25.8918
   246.8000     -2.8029      2.2954      2.0000     -0.0071     87.8325     25.6147
   246.9000     -2.8029      2.3192      2.0000     -0.0066     88.0313     25.4605
   247.0000     -2.8029      2.3175      2.0000     -0.0067     85.7380     25.2956
   247.1000     -2.8029      2.3104      2.0000     -0.0068     82.9740     25.0140
   247.2000     -2.8029      2.3080      2.0000     -0.0068     81.6707     24.8393
   247.3000     -2.8029      2.3076      2.0000     -0.0069     80.8484     24.9377
   247.4000     -2.8029      2.3117      2.0000     -0.0068     80.1571     25.0578
   247.5000     -2.8029      2.3176      2.0000     -0.0067     80.5354     25.0302
   247.6000     -2.8029      2.3233      2.0000     -0.0065     81.3776     24.8664
   247.7000     -2.8029      2.3349      2.0000     -0.0063     81.1521     24.6556
   247.8000     -2.8029      2.3552      2.0000     -0.0059     79.1586     24.4411
   247.9000     -2.8029      2.3779      2.0000     -0.0054     76.9339     24.1583
   248.0000     -2.8029      2.3997      2.0000     -0.0050     75.8824     23.9293
   248.1000     -2.8029      2.4189      2.0000     -0.0046     74.3668     23.8263
   248.2000     -2.8029      2.4367      2.0000     -0.0043     71.7275     23.7637
   248.3000     -2.8029      2.4578      2.0000     -0.0038     70.6353     23.8039
   248.4000     -2.8029      2.4659      2.0000     -0.0037     70.6962     24.0690
   248.5000     -2.8029      2.4476      2.0000     -0.0041     69.1166     24.6398
   248.6000     -2.8029      2.4265      2.0000     -0.0045     67.5712     25.1090
   248.7000     -2.8029      2.4243      2.0000     -0.0045     67.7642     24.8438
   248.8000     -2.8029      2.4291      2.0000     -0.0044     68.1507     24.1825
   248.9000     -2.8029      2.4331      2.0000     -0.0043     69.2577     23.7013
   249.0000     -2.8029      2.4470      2.0000     -0.0041     72.0517     23.0945
   249.1000     -2.8029      2.4757      2.0000     -0.0035     74.1882     22.0990
   249.2000     -2.8029      2.5092      2.0000     -0.0028     73.0603     21.2847
   249.3000     -2.8029      2.5247      2.0000     -0.0025     69.9420     21.2438
   249.4000     -2.8029      2.5098      2.0000     -0.0028     66.7813     21.7562
   249.5000     -2.8029      2.4780      2.0000     -0.0034     64.9453     22.0965
