~Version Information
VERS.                      2.0: CWLS Log ASCII Standard - VERSION 2.0
WRAP.                       NO: One line per depth step
~Well Information Block
STRT.FT               370.0000: 
STOP.FT              2832.5000: 
STEP.FT                 0.1000: 
NULL.                -999.2500: 
COMP.          Pioneer Natural Resources: COMPANY
WELL.          Black Cat 13-32: WELL
FLD.           Purgatoire River: FIELD
LOC.           1865' FSL & 1120' FWL--: LOCATION
PROV.                 Colorado: PROVINCE
CNTY.               Las Animas: COUNTRY
SRVC.                Patterson: SERVICE COMPANY
DATE.          Sun Jul 31 08:38:44 2005: LOG DATE
UWI.           05 071 08450 00: UNIQUE WELL ID
~Curve Information Block
DEPT.FT            0 000 00 00: Depth
DCAL.in                       : CDL Caliper
DPOR.pu                       : CDL Density Porosity
NPOR.pu                       : Neutron Porosity
RHOB.g/cc                     : CDL Bulk Density
RHOC.g/cc                     : CDL Density Correction
GR.GAPI                       : Gamma Ray
~Parameter Information Block
~A  Depth       DCAL        DPOR        NPOR        RHOB        RHOC         GR     
# ...
   523.6000      8.0506      3.3307     27.9032      2.5950      0.0485    120.0042
   523.7000      8.0506      3.1416     27.8884      2.5982      0.0763    123.1050
   523.8000      8.0518      3.5152     27.7317      2.5920      0.0467    126.1135
   523.9000      8.0518      3.9635     27.8151      2.5846      0.0637    130.9208
   524.0000      8.0523      4.3215     28.1161      2.5787      0.0426    136.8398
   524.1000      8.0523      4.5074     28.3947      2.5756      0.0517    142.0671
   524.2000      8.0523      4.9080     28.6760      2.5690      0.0800    145.2719
   524.3000      8.0526      5.5686     28.8559      2.5581      0.0228    146.4927
   524.4000      8.0526      5.6072     28.8839      2.5575      0.0293    147.2211
   524.5000      8.0542      4.9754     29.0482      2.5679      0.0511    145.2824
   524.6000      8.0542      4.5320     29.1744      2.5752      0.0427    137.4279
   524.7000      8.0542      4.8666     28.7880      2.5697      0.0818    128.9285
   524.8000      8.0544      5.6231     28.3052      2.5572      0.0365    126.5321
   524.9000      8.0544      5.3587     28.3117      2.5616      0.0056    130.4985
   525.0000      8.0532      3.6526     28.4257      2.5897      0.0856    136.6719
   525.1000      8.0532      2.1965     27.9892      2.6138      0.0833    140.9704
   525.2000      8.0532      2.3533     27.3824      2.6112      0.0662    143.6160
   525.3000      8.0528      3.9316     27.4075      2.5851      0.0124    143.0718
   525.4000      8.0528      5.6909     27.9652      2.5561     -0.0021    137.2054
   525.5000      8.0535      6.1782     28.4723      2.5481      0.0206    134.3049
   525.6000      8.0535      4.9225     28.3552      2.5688      0.0334    139.7090
   525.7000      8.0535      2.9637     27.2830      2.6011      0.0750    145.2178
   525.8000      8.0545      1.8694     25.7382      2.6192      0.0620    146.2840
   525.9000      8.0545      2.2398     24.7794      2.6130      0.0463    147.1049
   526.0000      8.0553      3.2547     24.8400      2.5963      0.0359    147.8140
   526.1000      8.0553      3.7684     25.2251      2.5878      0.0199    143.3503
   526.2000      8.0553      3.4481     25.2036      2.5931      0.0418    133.4176
   526.3000      8.0552      2.8083     25.0015      2.6037      0.0492    124.7456
   526.4000      8.0552      2.5568     25.0988      2.6078      0.0519    121.7435
   526.5000      8.0534      3.0558     25.3092      2.5996      0.0566    123.8260
   526.6000      8.0534      4.0201     25.3934      2.5837      0.0279    127.3929
   526.7000      8.0534      4.5987     25.3739      2.5741      0.0165    127.2254
   526.8000      8.0516      4.6387     25.3149      2.5735      0.0310    122.6455
   526.9000      8.0516      4.6166     25.5790      2.5738      0.0228    119.3212
   527.0000      8.0525      4.1559     26.3512      2.5814     -0.0437    123.0875
   527.1000      8.0525      3.0663     27.2595      2.5994      0.0642    130.8219
   527.2000      8.0525      2.4358     27.7101      2.6098      0.0545    133.6523
   527.3000      8.0534      2.7962     27.5037      2.6039      0.0116    128.7088
   527.4000      8.0534      3.5797     27.2740      2.5909      0.0278    120.6990
   527.5000      8.0534      4.3931     27.5051      2.5775      0.0279    115.8549
   527.6000      8.0534      5.4042     27.8501      2.5608      0.0512    117.5543
   527.7000      8.0534      6.4021     27.9336      2.5444      0.0065    122.5255
   527.8000      8.0531      6.4386     27.7359      2.5438      0.0156    126.6095
   527.9000      8.0531      5.7809     27.4251      2.5546      0.0467    129.3149
   528.0000      8.0519      5.6820     27.2896      2.5562      0.0170    129.5311
   528.1000      8.0519      5.7959     27.2949      2.5544      0.0052    129.1631
   528.2000      8.0519      5.0492     27.1105      2.5667      0.0169    130.5212
   528.3000      8.0507      3.9358     26.6879      2.5851      0.0509    133.3476
   528.4000      8.0507      3.4859     26.3496      2.5925      0.0311    137.1080
   528.5000      8.0497      3.4946     26.3500      2.5923      0.0361    139.7598
   528.6000      8.0497      3.4361     26.7380      2.5933      0.0376    140.0509
   528.7000      8.0497      3.4765     27.2716      2.5926      0.0542    139.7275
   528.8000      8.0499      3.9295     27.4420      2.5852      0.0304    139.6901
   528.9000      8.0499      4.5520     26.8648      2.5749      0.0343    138.7814
   529.0000      8.0506      4.4047     25.8929      2.5773      0.0179    136.0544
   529.1000      8.0506      2.9070     25.3551      2.6020      0.0237    133.9046
   529.2000      8.0506      1.2686     25.5523      2.6291      0.0929    133.1755
   529.3000      8.0499      1.1319     25.9997      2.6313      0.0394    129.9138
   529.4000      8.0499      1.8263     26.0466      2.6199      0.0387    125.3677
   529.5000      8.0490      1.8268     25.8049      2.6199     -0.0010    124.8516
   529.6000      8.0490      1.7948     25.8898      2.6204      0.0933    129.1201
   529.7000      8.0490      3.0679     26.5482      2.5994      0.0180    130.9035
   529.8000      8.0476      4.6425     27.1995      2.5734     -0.0066    125.7531
   529.9000      8.0476      4.9973     27.2409      2.5675      0.0125    122.5693
   530.0000      8.0469      4.0651     27.0456      2.5829      0.0161    127.0677
   530.1000      8.0469      2.5548     27.1000      2.6078      0.0389    132.6730
   530.2000      8.0469      1.1017     27.1110      2.6318      0.0262    133.5881
   530.3000      8.0490      0.1902     26.7780      2.6469      0.0764    129.0058
   530.4000      8.0490      0.7714     26.3513      2.6373      0.0789    124.4780
   530.5000      8.0522      3.5080     26.2495      2.5921      0.0596    126.5134
   530.6000      8.0522      6.9694     26.5705      2.5350     -0.0387    130.3713
   530.7000      8.0522      8.5057     26.8756      2.5097     -0.0501    130.4024
   530.8000      8.0528      7.8832     26.7453      2.5199      0.0105    128.1225
   530.9000      8.0528      6.9510     26.4983      2.5353     -0.0310    126.4869
   531.0000      8.0514      6.0023     26.8066      2.5510     -0.0186    127.0561
   531.1000      8.0514      4.6323     27.4691      2.5736      0.0813    131.1564
   531.2000      8.0514      3.7769     27.8747      2.5877      0.0544    137.8991
   531.3000      8.0520      4.1758     27.7808      2.5811      0.1035    144.1164
   531.4000      8.0520      5.2605     27.0159      2.5632      0.0211    148.3246
   531.5000      8.0547      5.6517     25.9758      2.5567     -0.0193    149.6994
   531.6000      8.0547      4.7880     25.5106      2.5710      0.0501    148.5559
   531.7000      8.0547      3.5364     25.7005      2.5917      0.0556    146.8016
   531.8000      8.0567      2.6000     26.1131      2.6071      0.0684    143.7375
   531.9000      8.0567      1.9804     26.5395      2.6173      0.0474    139.5621
   532.0000      8.0561      1.8782     26.8762      2.6190      0.0718    136.3740
   532.1000      8.0561      2.4511     27.1202      2.6096      0.0237    133.6860
   532.2000      8.0561      3.2210     27.3051      2.5969      0.0332    134.4078
   532.3000      8.0545      3.9274     27.2968      2.5852      0.0466    139.9405
   532.4000      8.0545      4.7577     27.2270      2.5715      0.0271    143.9960
   532.5000      8.0544      5.5927     27.2774      2.5577      0.0151    143.6142
   532.6000      8.0544      5.9980     27.1600      2.5510      0.0187    141.5052
   532.7000      8.0544      5.8551     26.6738      2.5534      0.0008    139.2688
   532.8000      8.0554      5.4527     26.1129      2.5600      0.0460    136.2548
   532.9000      8.0554      4.9913     25.7556      2.5676     -0.0044    129.4552
   533.0000      8.0560      4.4784     25.5818      2.5761      0.0413    117.9582
   533.1000      8.0560      4.1651     25.6518      2.5813      0.0405    109.0239
