~Version Information
 VERS.                                  2.0 : CWLS LAS VERSION
 WRAP.                                   NO : WRAPING MODE
 SWARE .                 MController 2.5.0J : SOFTWARE VERSION
~Well Information
 WELL.                     McDonald 33-31 R : WELL
 COMP.  Pioneer Natural Resources USA, Inc. : COMPANY
 FLD.                      Purgatoire River : FIELD
 LOC.                NW/SE Sec 31 T32S R66W : LOCATION
 DATE.                             09/22/05 : DATE(S) LOGGED
 SRVC.       BLANCO Geological Services LLC : SERVICE COMPANY
 STAT.                                   CO : STATE
 CNTY.                           Las Animas : COUNTY
 CTRY.                                  USA : COUNTRY
 API.                       05-071-08533-00 : API NUMBER
 STRT.FT                             377.00 : START DEPTH
 STOP.FT                            2310.00 : STOP DEPTH
 STEP.FT                               1.00 : DEPTH INCREMENT
 NULL.                                -9999 : NULL VALUE
~Curve information
 DEPTH.FT                                   :
 ROP.MIN/FT                                 :
 GAS.UNITS                                  :
~ASCII Log data
# ...
       977.0         0.33        176.8 
       978.0         0.23        175.0 
       979.0         0.27        171.4 
       980.0         0.28        171.3 
       981.0         0.23        169.4 
       982.0         0.43        169.4 
       983.0         0.33        167.1 
       984.0         0.27        166.5 
       985.0         0.23        164.7 
       986.0         0.30        125.6 
       987.0         0.20         97.2 
       988.0         0.20        108.9 
       989.0         0.27        155.0 
       990.0         2.25       1228.4 
       991.0         0.37        650.2 
       992.0         0.30        604.1 
       993.0         0.27        572.7 
       994.0         0.30        554.6 
       995.0         0.33        540.0 
       996.0         0.35        537.8 
       997.0         0.40        535.6 
       998.0         0.47        531.8 
       999.0         0.40        529.2 
      1000.0         0.43        546.7 
      1001.0         0.37        547.3 
      1002.0         0.37        520.7 
      1003.0         0.43        521.0 
      1004.0         0.22        521.6 
      1005.0         0.23        518.1 
      1006.0         0.23        514.9 
      1007.0         0.23        514.3 
      1008.0         0.23        516.9 
      1009.0         0.20        538.1 
      1010.0         0.23        546.1 
      1011.0         0.23        545.1 
      1012.0         0.50        544.5 
      1013.0         0.53        526.1 
      1014.0         0.33        560.0 
      1015.0         0.18        561.3 
      1016.0         0.17        520.7 
      1017.0         0.27        459.7 
      1018.0         0.17        440.0 
      1019.0         0.23        102.6 
      1020.0         1.70       1134.2 
      1021.0         0.37       1027.2 
      1022.0         0.42        819.6 
      1023.0         0.27        661.3 
      1024.0         0.27        620.6 
      1025.0         0.27        594.6 
      1026.0         0.23        573.0 
      1027.0         0.27        560.0 
      1028.0         0.20        544.8 
      1029.0         0.27        542.9 
      1030.0         0.23        542.9 
      1031.0         0.33        541.0 
      1032.0         0.23        536.5 
      1033.0         0.20        530.5 
      1034.0         0.23        530.8 
      1035.0         0.18        519.7 
      1036.0         0.20        496.5 
      1037.0         0.20        488.6 
      1038.0         0.23        485.4 
      1039.0         0.23        489.2 
      1040.0         0.23        498.1 
      1041.0         0.27        505.4 
      1042.0         0.27        505.7 
      1043.0         0.27        506.1 
      1044.0         0.27        506.1 
      1045.0         0.30        501.9 
      1046.0         0.27        501.3 
      1047.0         0.27        490.5 
      1048.0         0.32        440.0 
      1049.0         0.27         87.2 
      1050.0         2.20       1113.8 
      1051.0         0.27        985.3 
      1052.0         0.32        752.7 
      1053.0         0.33        643.2 
      1054.0         0.23        605.7 
      1055.0         0.33        561.0 
      1056.0         0.33        535.6 
      1057.0         0.27        541.6 
      1058.0         0.30        564.5 
      1059.0         0.40        564.1 
      1060.0         0.37        554.9 
      1061.0         0.27        542.6 
      1062.0         0.28        526.1 
      1063.0         0.27        529.2 
      1064.0         0.27        534.9 
      1065.0         0.23        508.9 
      1066.0         0.20        513.7 
      1067.0         0.23        528.9 
      1068.0         0.20        541.9 
      1069.0         0.17        543.5 
      1070.0         0.23        543.8 
      1071.0         0.17        548.9 
      1072.0         0.33        556.2 
      1073.0         0.50        546.1 
      1074.0         0.45        520.0 
      1075.0         0.20        500.3 
      1076.0         0.20        496.2 
      1077.0         0.23        460.4 
      1078.0         0.20        444.2 
      1079.0         0.23        447.3 
      1080.0         1.90       1023.1 
      1081.0         0.35        806.9 
      1082.0         0.30        644.4 
      1083.0         0.33        595.2 
      1084.0         0.27        569.5 
      1085.0         0.23        562.2 
      1086.0         0.23        557.2 
      1087.0         0.33        554.9 
      1088.0         0.50        525.4 
      1089.0         0.83        562.9 
      1090.0         0.38        559.1 
      1091.0         0.37        555.9 
      1092.0         0.37        545.7 
      1093.0         0.37        541.0 
      1094.0         0.50        548.3 
      1095.0         0.40        546.4 
      1096.0         0.27        551.1 
      1097.0         0.27        561.3 
      1098.0         0.17        568.0 
      1099.0         0.20        570.8 
      1100.0         0.20        570.8 
      1101.0         0.25        566.7 
      1102.0         0.33        560.0 
      1103.0         0.40        556.5 
      1104.0         0.30        551.1 
      1105.0         0.30        549.2 
      1106.0         0.27        551.8 
      1107.0         0.27        504.8 
      1108.0         0.23        467.7 
      1109.0         0.30        481.9 
      1110.0         2.55       1263.7 
      1111.0         0.27        697.1 
      1112.0         0.17        649.5 
      1113.0         0.20        617.5 
      1114.0         0.27        582.9 
      1115.0         0.20        560.7 
      1116.0         0.17        559.4 
      1117.0         0.18        557.5 
      1118.0         0.17        554.0 
      1119.0         0.17        547.6 
      1120.0         0.53        536.5 
      1121.0         0.53        451.5 
      1122.0         0.17         46.1 
      1123.0         0.17         39.3 
      1124.0         0.13         33.4 
      1125.0         0.20         29.4 
      1126.0         0.17         26.3 
      1127.0         0.13         25.2 
      1128.0         0.13         24.1 
      1129.0         0.17         22.6 
      1130.0         0.20         22.0 
      1131.0         0.45         20.0 
      1132.0         0.17         15.6 
      1133.0         0.13         14.9 
      1134.0         0.20         14.1 
      1135.0         0.20         12.5 
      1136.0         0.17         11.6 
      1137.0         0.13         11.1 
      1138.0         0.20         10.5 
      1139.0         0.20          9.8 
      1140.0         2.12          9.1 
      1141.0         0.27          6.7 
      1142.0         0.23          6.7 
      1143.0         0.30          6.9 
      1144.0         0.20          6.7 
      1145.0         0.47          6.8 
      1146.0         0.37          6.5 
      1147.0         0.37          6.7 
      1148.0         0.33          6.7 
      1149.0         0.17          6.1 
      1150.0         0.18          6.9 
      1151.0         0.23          6.7 
      1152.0         0.17          6.6 
      1153.0         0.13          6.9 
      1154.0         0.17          6.8 
      1155.0         0.13          6.9 
      1156.0         0.13          7.0 
      1157.0         0.17          6.9 
      1158.0         0.17          7.0 
      1159.0         0.17          7.5 
      1160.0         0.17          7.6 
      1161.0         0.17          7.5 
      1162.0         0.33          8.4 
      1163.0         0.17          8.2 
      1164.0         0.47          8.2 
      1165.0         0.33          7.5 
      1166.0         0.22          7.5 
      1167.0         0.20          8.4 
      1168.0         0.13          8.5 
      1169.0         0.20          9.2 
      1170.0         1.90          9.8 
      1171.0         0.33          6.1 
      1172.0         0.45          5.9 
      1173.0         0.53          6.2 
      1174.0         0.23         13.7 
      1175.0         0.20         74.9 
      1176.0         0.13        105.2 
