~Version Information
VERS.                      2.0: CWLS Log ASCII Standard - VERSION 2.0
WRAP.                       NO: One line per depth step
~Well Information Block
STRT.FT               460.0000: 
STOP.FT              1509.0000: 
STEP.FT                 0.2500: 
NULL.                -999.2500: 
COMP.          Pioneer Natural Resources: COMPANY
WELL.           Amore 32-09 Tr: WELL
FLD.           Purgatoire River: FIELD
LOC.           1941' FNL & 2297' FEL: LOCATION
PROV.                 Colorado: PROVINCE
CNTY.               Las Animas: COUNTRY
SRVC.                Patterson: SERVICE COMPANY
DATE.          Mon Nov 14 11:07:52 2005: LOG DATE
UWI.           05 071 08584 00: UNIQUE WELL ID
~Curve Information Block
DEPT.FT            0 000 00 00: Depth
SN.Ohm-m                      : IEL Short Normal
SP.mV                         : IEL Spontaneous Potential
DIR.Ohm-m                     : IEL Induction Resistivity
GR.GAPI                       : Gamma Ray
~Parameter Information Block
~A  Depth        SN          SP         DIR          GR     
# ...
   594.0000   2000.0000   2000.0000     25.7226    131.0574
   594.2500   2000.0000   2000.0000     26.8787    130.6562
   594.5000   2000.0000   2000.0000     28.0383    126.6672
   594.7500   2000.0000   2000.0000     29.0868    121.0553
   595.0000   2000.0000   2000.0000     29.8623    109.1692
   595.2500   2000.0000   2000.0000     30.1856    100.8409
   595.5000   2000.0000   2000.0000     29.9930     91.2694
   595.7500   2000.0000   2000.0000     29.4394     87.8170
   596.0000   2000.0000   2000.0000     28.8248     86.2637
   596.2500   2000.0000   2000.0000     28.4184     86.3495
   596.5000   2000.0000   2000.0000     28.3448     86.2099
   596.7500   2000.0000   2000.0000     28.5724     85.6276
   597.0000   2000.0000   2000.0000     28.9540     85.0451
   597.2500   2000.0000   2000.0000     29.3019     86.0114
   597.5000   2000.0000   2000.0000     29.4928     91.5360
   597.7500   2000.0000   2000.0000     29.5536     98.4493
   598.0000   2000.0000   2000.0000     29.6557    112.1797
   598.2500   2000.0000   2000.0000     30.0086    121.3948
   598.5000   2000.0000   2000.0000     30.7323    131.0991
   598.7500   2000.0000   2000.0000     31.7849    133.2304
   599.0000   2000.0000   2000.0000     32.9720    129.6898
   599.2500   2000.0000   2000.0000     34.0427    123.9628
   599.5000   2000.0000   2000.0000     34.8225    113.2419
   599.7500   2000.0000   2000.0000     35.2979    106.2619
   600.0000   2000.0000   2000.0000     35.5960     97.6972
   600.2500   2000.0000   2000.0000     35.9096     93.5210
   600.5000   2000.0000   2000.0000     36.4284     89.2866
   600.7500   2000.0000   2000.0000     37.2960     87.4493
   601.0000   2000.0000   2000.0000     38.5812     85.1361
   601.2500   2000.0000   2000.0000     40.2483     83.1731
   601.5000   2000.0000   2000.0000     42.1411     78.9909
   601.7500   2000.0000   2000.0000     44.0101     75.6101
   602.0000   2000.0000   2000.0000     45.6257     70.4997
   602.2500   2000.0000   2000.0000     46.9193     67.4731
   602.5000   2000.0000   2000.0000     48.0052     63.9141
   602.7500   2000.0000   2000.0000     49.0335     62.2420
   603.0000   2000.0000   2000.0000     50.0177     60.4635
   603.2500   2000.0000   2000.0000     50.8057     59.5453
   603.5000   2000.0000   2000.0000     51.2155     58.6765
   603.7500   2000.0000   2000.0000     51.1898     58.7010
   604.0000   2000.0000   2000.0000     50.8209     59.7599
   604.2500   2000.0000   2000.0000     50.2702     60.8602
   604.5000   2000.0000   2000.0000     49.7035     62.4032
   604.7500   2000.0000   2000.0000     49.2821     63.1328
   605.0000   2000.0000   2000.0000     49.1628     63.8614
   605.2500   2000.0000   2000.0000     49.4752     64.2634
   605.5000   2000.0000   2000.0000     50.2917     64.7695
   605.7500   2000.0000   2000.0000     51.5845     64.9203
   606.0000   2000.0000   2000.0000     53.1592     64.8161
   606.2500   2000.0000   2000.0000     54.6084     64.7084
   606.5000   2000.0000   2000.0000     55.4105     64.9259
   606.7500   2000.0000   2000.0000     55.2115     65.4257
   607.0000   2000.0000   2000.0000     54.0864     66.4111
   607.2500   2000.0000   2000.0000     52.5031     66.8807
   607.5000   2000.0000   2000.0000     51.0331     66.8397
   607.7500   2000.0000   2000.0000     50.0997     66.2516
   608.0000   2000.0000   2000.0000     49.8919     64.7706
   608.2500   2000.0000   2000.0000     50.4058     63.6974
   608.5000   2000.0000   2000.0000     51.5259     62.5849
   608.7500   2000.0000   2000.0000     53.0867     62.3574
   609.0000   2000.0000   2000.0000     54.8618     62.5037
   609.2500   2000.0000   2000.0000     56.5083     62.5953
   609.5000   2000.0000   2000.0000     57.5984     62.5627
   609.7500   2000.0000   2000.0000     57.8285     62.7129
   610.0000   2000.0000   2000.0000     57.2463     63.7867
   610.2500   2000.0000   2000.0000     56.2275     65.0394
   610.5000   2000.0000   2000.0000     55.2166     67.0172
   610.7500   2000.0000   2000.0000     54.5071     68.0218
   611.0000   2000.0000   2000.0000     54.1941     68.9970
   611.2500   2000.0000   2000.0000     54.2509     69.5618
   611.5000   2000.0000   2000.0000     54.6345     70.8827
   611.7500   2000.0000   2000.0000     55.3567     72.2453
   612.0000   2000.0000   2000.0000     56.4739     74.6173
   612.2500   2000.0000   2000.0000     57.9870     75.9305
   612.5000   2000.0000   2000.0000     59.7339     76.9383
   612.7500   2000.0000   2000.0000     61.3931     76.9549
   613.0000   2000.0000   2000.0000     62.6433     76.0945
   613.2500   2000.0000   2000.0000     63.3809     74.8809
   613.5000   2000.0000   2000.0000     63.7759     72.2197
   613.7500   2000.0000   2000.0000     64.0841     70.3637
   614.0000   2000.0000   2000.0000     64.3775     68.7537
   614.2500   2000.0000   2000.0000     64.4349     69.0146
   614.5000   2000.0000   2000.0000     63.9143     71.2938
   614.7500   2000.0000   2000.0000     62.7062     73.4298
   615.0000   2000.0000   2000.0000     61.1100     76.2960
   615.2500   2000.0000   2000.0000     59.6374     77.5865
   615.5000   2000.0000   2000.0000     58.6887     78.4905
   615.7500   2000.0000   2000.0000     58.3890     78.3744
   616.0000   2000.0000   2000.0000     58.5970     77.0228
   616.2500   2000.0000   2000.0000     59.0006     75.4969
   616.5000   2000.0000   2000.0000     59.2678     73.0419
   616.7500   2000.0000   2000.0000     59.2212     71.7876
   617.0000   2000.0000   2000.0000     58.8996     70.9365
   617.2500   2000.0000   2000.0000     58.4485     71.0084
   617.5000   2000.0000   2000.0000     57.9607     71.6223
   617.7500   2000.0000   2000.0000     57.4184     72.1205
   618.0000   2000.0000   2000.0000     56.7573     73.0246
   618.2500   2000.0000   2000.0000     55.9656     73.9586
   618.5000   2000.0000   2000.0000     55.1361     76.0158
   618.7500   2000.0000   2000.0000     54.4472     77.5223
   619.0000   2000.0000   2000.0000     54.0925     78.9809
   619.2500   2000.0000   2000.0000     54.1896     78.9403
   619.5000   2000.0000   2000.0000     54.7261     77.2865
   619.7500   2000.0000   2000.0000     55.5713     75.5448
   620.0000   2000.0000   2000.0000     56.5221     73.0467
   620.2500   2000.0000   2000.0000     57.3462     71.8633
   620.5000   2000.0000   2000.0000     57.8232     70.6550
   620.7500   2000.0000   2000.0000     57.8131     69.9032
   621.0000   2000.0000   2000.0000     57.3271     68.9133
   621.2500   2000.0000   2000.0000     56.5122     68.8951
   621.5000   2000.0000   2000.0000     55.5540     70.6378
   621.7500   2000.0000   2000.0000     54.5853     72.6619
   622.0000   2000.0000   2000.0000     53.6621     75.1435
   622.2500   2000.0000   2000.0000     52.7906     75.4659
   622.5000   2000.0000   2000.0000     51.9701     73.8859
   622.7500   2000.0000   2000.0000     51.2361     72.0964
   623.0000   2000.0000   2000.0000     50.6688     69.1756
   623.2500   2000.0000   2000.0000     50.3519     67.2611
   623.5000   2000.0000   2000.0000     50.3213     64.8869
   623.7500   2000.0000   2000.0000     50.5549     64.0225
   624.0000   2000.0000   2000.0000     51.0005     64.1052
   624.2500   2000.0000   2000.0000     51.5938     65.0324
   624.5000   2000.0000   2000.0000     52.2447     67.7496
   624.7500   2000.0000   2000.0000     52.8228     70.4665
   625.0000   2000.0000   2000.0000     53.1832     75.4353
   625.2500   2000.0000   2000.0000     53.2332     78.7623
   625.5000   2000.0000   2000.0000     52.9954     82.7297
   625.7500   2000.0000   2000.0000     52.6133     84.2991
   626.0000   2000.0000   2000.0000     52.2741     84.9983
   626.2500   2000.0000   2000.0000     52.0993     84.6915
   626.5000   2000.0000   2000.0000     52.0792     83.7122
   626.7500   2000.0000   2000.0000     52.0944     82.7922
   627.0000   2000.0000   2000.0000     51.9994     80.7070
   627.2500   2000.0000   2000.0000     51.7095     78.7590
