~Version Information
VERS.                      2.0: CWLS Log ASCII Standard - VERSION 2.0
WRAP.                       NO: One line per depth step
~Well Information Block
STRT.FT                -9.0000: 
STOP.FT              1841.0000: 
STEP.FT                 0.2500: 
NULL.                -999.2500: 
COMP.          Pioneer Natural Resources: COMPANY
WELL.          Cooper 11-13 Tr: WELL
FLD.           Purgatorie River: FIELD
LOC.           476' FNL & 738' FWL: LOCATION
STAT.                       CO: State
CNTY.               Las Animas: COUNTY
CTRY. USA : Country
SECT. 13 : Section
TOWN. 32S : Township
RANG. 67W : Range
SRVC.          Patterson Wireline: SERVICE COMPANY
DATE.          Thu Sep 29 08:59:13 2005: LOG DATE
API.           05 071 08525 00: UNIQUE WELL ID
~Curve Information Block
DEPT.FT            0 000 00 00: Depth
CCL.                          : Casing Collar Locator
TT3.usec                      : CBL 3' Travel Time
AMP3.mV                       : CBL 3' Amplitude
GR.GAPI                       : Gamma Ray
~Parameter Information Block
~A  Depth       CCL         TT3         AMP3         GR     
    -9.0000   -999.2500   -999.2500   -999.2500     72.5242
    -8.7500   -999.2500   -999.2500   -999.2500     72.5698
    -8.5000   -999.2500   -999.2500   -999.2500     71.8587
    -8.2500   -999.2500   -999.2500   -999.2500     71.2290
    -8.0000   -999.2500   -999.2500   -999.2500     71.3307
    -7.7500   -999.2500   -999.2500   -999.2500     72.1209
    -7.5000   -999.2500   -999.2500   -999.2500     73.2643
    -7.2500   -999.2500   -999.2500   -999.2500     74.6284
    -7.0000   -999.2500   -999.2500   -999.2500     75.9804
    -6.7500   -999.2500   -999.2500   -999.2500     76.5742
    -6.5000   -999.2500   -999.2500   -999.2500     75.7452
    -6.2500   -999.2500   -999.2500   -999.2500     73.9570
    -6.0000   -999.2500   -999.2500   -999.2500     72.6085
    -5.7500   -999.2500   -999.2500   -999.2500     72.5829
    -5.5000   -999.2500   -999.2500   -999.2500     73.5059
    -5.2500   -999.2500   -999.2500   -999.2500     74.5443
    -5.0000   -999.2500   -999.2500   -999.2500     75.3401
    -4.7500   -999.2500   -999.2500   -999.2500     75.9343
    -4.5000   -999.2500   -999.2500   -999.2500     76.2417
    -4.2500   -999.2500   1155.0000      0.0672     75.9289
    -4.0000   -999.2500   1155.0000      0.0598     74.7108
    -3.7500   -999.2500   1155.0000      0.0540     72.6349
    -3.5000   -999.2500   1155.0000      0.0525     70.0949
    -3.2500   -999.2500   1155.0000      0.0544     67.5221
    -3.0000   -999.2500   1155.0000      0.0565     65.0694
    -2.7500   -999.2500   1155.0000      0.0568     62.8243
    -2.5000   -999.2500   1155.0000      0.0562     61.1769
    -2.2500   -999.2500   1155.0000      0.0553     60.4181
    -2.0000   -999.2500   1155.0000      0.0528     59.8517
    -1.7500   -999.2500   1155.0000      0.0482     57.8272
    -1.5000   -999.2500   1155.0000      0.0457     53.0229
    -1.2500   -999.2500   1155.0000      0.0510     45.6896
    -1.0000   -999.2500   1155.0000      0.0655     37.6148
    -0.7500   -999.2500   1155.0000      0.0840     30.9176
    -0.5000   -999.2500   1155.0000      0.0989     26.8750
    -0.2500   -999.2500   1155.0000      0.1058     25.7441
     0.0000   -999.2500   1155.0000      0.1050     27.2775
     0.2500   -999.2500   1155.0000      0.0887     35.6137
     0.5000   -999.2500   1155.0000      0.0754     40.0541
     0.7500   -999.2500   1155.0000      0.0603     43.4886
     1.0000   -999.2500   1155.0000      0.0458     46.1504
     1.2500      0.0000   1155.0000      0.0334     48.7655
     1.5000      0.0000   1155.0000      0.0242     51.6942
     1.7500      0.0000   1155.0000      0.0183     54.5729
     2.0000      0.0000   1155.0000      0.0157     56.7206
     2.2500      0.0000   1155.0000      0.0162     57.8255
     2.5000      0.0000   1155.0000      0.0205     58.2910
     2.7500      0.0000   1155.0000      0.0297     58.9567
     3.0000      0.0000   1155.0000      0.0440     60.3787
     3.2500      0.0000   1155.0000      0.0612     62.3322
     3.5000      0.0000   1155.0000      0.0766     64.2016
     3.7500      0.0000   1155.0000      0.0862     65.8904
     4.0000      0.0000   1154.9989      0.0884     68.0358
     4.2500      0.0000   1154.9928      0.0850     71.1651
     4.5000      0.0000   1154.9635      0.0785     74.8609
     4.7500      0.0000   1154.8348      0.0713     77.8539
     5.0000      0.0000   1154.3663      0.0678     78.8680
     5.2500      0.0000   1152.8386      0.0840     77.5441
     5.5000      0.0000   1148.0789      0.1749     74.7379
     5.7500      0.0000   1134.3524      0.5253     71.8721
     6.0000      0.0000   1100.0376      1.6352     69.8702
     6.2500      0.0000   1029.2388      4.5173     68.6996
     6.5000      0.0000    911.5773     10.5677     67.8886
     6.7500      0.0000    755.5349     20.7385     67.2452
     7.0000      0.0000    590.8499     34.3388     66.9078
     7.2500      0.0000    452.5876     48.7354     66.8017
     7.5000      0.0000    360.2233     60.7555     66.3440
     7.7500      0.0000    311.1128     68.6500     64.9295
     8.0000      0.0000    290.3286     72.7226     62.6884
     8.2500      0.0000    283.3292     74.3743     60.5602
     8.5000      0.0000    281.4533     74.9065     59.4420
     8.7500      0.0000    281.0509     75.0527     59.2604
     9.0000      0.0000    280.9806     75.1017     59.1013
     9.2500      0.0000    280.9699     75.1370     58.2364
     9.5000      0.0000    280.9638     75.1778     56.7791
     9.7500      0.0000    280.9551     75.2312     55.3970
    10.0000      0.0000    280.9426     75.2972     54.7532
    10.2500      0.0000    280.9274     75.3665     55.2548
    10.5000      0.0000    280.9137     75.4229     56.9645
    10.7500      0.0000    280.9060     75.4485     59.5927
    11.0000      0.0000    280.9137     75.4060     62.6698
    11.2500      0.0000    280.9645     75.1706     65.6408
    11.5000      0.0000    281.1256     74.4283     67.9722
    11.7500      0.0000    281.5105     72.6734     69.5426
    12.0000      0.0000    282.2358     69.4777     70.6701
    12.2500      0.0000    283.3270     64.9400     71.2890
    12.5000      0.0000    284.6438     59.8652     70.5233
    12.7500      0.0000    285.9226     55.3749     67.7100
    13.0000      0.0000    286.9202     52.2744     63.5400
    13.2500      0.0000    287.5361     50.7206     59.6311
    13.5000      0.0000    287.8191     50.3411     57.1106
    13.7500      2.0000    287.8844     50.5864     55.7710
    14.0000      0.0000    287.8188     51.0489     54.4242
    14.2500      0.0000    287.6310     51.5855     52.0899
    14.5000      0.0000    287.2524     52.2547     48.9992
    14.7500      0.0000    286.5844     53.2388     46.4378
    15.0000      0.0000    285.5843     54.8648     45.5937
    15.2500      0.0000    284.3439     57.5575     46.6423
    15.5000      0.0000    283.0769     61.4793     49.0136
    15.7500      0.0000    281.9963     66.1107     52.2394
    16.0000      0.0000    281.2020     70.3890     55.9851
    16.2500      0.0000    280.6820     73.4351     59.3571
    16.5000      0.0000    280.3785     75.0919     61.1143
    16.7500      0.0000    280.2270     75.7750     60.9471
    17.0000      0.0000    280.1670     75.9880     60.0010
    17.2500      0.0000    280.1507     76.0369     59.8175
    17.5000      0.0000    280.1500     76.0362     61.0078
    17.7500      0.0000    280.1537     76.0163     62.9961
    18.0000      0.0000    280.1592     75.9901     64.7715
    18.2500      0.0000    280.1658     75.9698     65.8578
    18.5000      0.0000    280.1718     75.9629     66.5838
    18.7500      0.0000    280.1759     75.9706     67.3449
    19.0000      0.0000    280.1778     75.9887     67.7497
    19.2500      0.0000    280.1780     76.0111     66.7795
    19.5000      0.0000    280.1776     76.0352     63.8356
    19.7500      0.0000    280.1775     76.0625     59.5367
    20.0000      0.0000    280.1775     76.0930     55.4235
    20.2500      0.0000    280.1771     76.1207     52.8170
    20.5000      0.0000    280.1760     76.1385     51.9250
    20.7500      0.0000    280.1743     76.1464     51.9562
    21.0000      0.0000    280.1728     76.1527     52.0710
    21.2500      0.0000    280.1724     76.1653     52.3049
    21.5000      0.0000    280.1738     76.1842     53.5873
    21.7500      0.0000    280.1765     76.2026     56.7133
    22.0000      0.0000    280.1790     76.2112     61.2747
    22.2500      0.0000    280.1794     76.1979     65.8636
    22.5000      0.0000    280.1763     76.1414     69.4639
    22.7500      0.0000    280.1685     76.0041     72.3336
    23.0000      0.0000    280.1553     75.7280     75.2614
    23.2500      0.0000    280.1359     75.2300     78.2802
    23.5000      0.0000    280.1100     74.3939     80.6034
    23.7500      0.0000    280.0790     73.0663     81.8223
    24.0000      0.0000    280.0502     71.0758     82.7250
    24.2500      0.0000    280.0455     68.2890     84.5464
