~Version Information
VERS.                      2.0: CWLS Log ASCII Standard - VERSION 2.0
WRAP.                       NO: One line per depth step
~Well Information Block
STRT.FT                10.0000: 
STOP.FT              1044.5000: 
STEP.FT                 0.1000: 
NULL.                -999.2500: 
COMP.          Pioneer Natural Resources: COMPANY
WELL.          Stags Leap 13-30: WELL
FLD.           Purgatorie River: FIELD
LOC.           1813' FSL & 117' FWL: LOCATION
PROV.                 Colorado: PROVINCE
CNTY.               Las Animas: COUNTRY
SRVC.                Patterson: SERVICE COMPANY
DATE.          Fri Dec 09 09:46:17 2005: LOG DATE
UWI.                          : UNIQUE WELL ID
~Curve Information Block
DEPT.FT            0 000 00 00: Depth
DCAL.in                       : CDL Caliper
RHOB.g/cc                     : CDL Bulk Density
RHOC.g/cc                     : CDL Density Correction
DPOR.pu                       : CDL Density Porosity
GR.GAPI                       : Gamma Ray
NPOR.pu                       : Neutron Porosity
~Parameter Information Block
~A  Depth       DCAL        RHOB        RHOC        DPOR         GR         NPOR    
# ...
   758.8000      8.0575      2.5865      0.0764      3.8508     65.3354     19.7796
   758.9000      8.0575      2.5921      0.0665      3.5090     68.4507     19.7543
   759.0000      8.0593      2.5849      0.0594      3.9470     70.2264     19.7573
   759.1000      8.0593      2.5655      0.0496      5.1190     70.1475     19.9508
   759.2000      8.0593      2.5448      0.0184      6.3775     68.4938     20.1864
   759.3000      8.0788      2.5356      0.0196      6.9347     66.7982     20.2892
   759.4000      8.0788      2.5428      0.0172      6.4994     66.4236     20.3884
   759.5000      8.0827      2.5573      0.0752      5.6169     67.4179     20.5353
   759.6000      8.0827      2.5678      0.0619      4.9796     69.1573     20.5176
   759.7000      8.0827      2.5695      0.0604      4.8816     71.0158     20.3816
   759.8000      8.0962      2.5557      0.0682      5.7166     71.4758     20.2218
   759.9000      8.0962      2.5247      0.0255      7.5952     69.7110     19.9531
   760.0000      8.0593      2.4859      0.0321      9.9480     67.4827     19.6184
   760.1000      8.0593      2.4441      0.0290     12.4775     67.3780     19.1856
   760.2000      8.0593      2.4079     -0.0152     14.6723     70.4724     18.6547
   760.3000      8.0277      2.3895      0.0058     15.7878     75.1675     18.1606
   760.4000      8.0277      2.3810      0.0221     16.3043     78.5008     17.6268
   760.5000      8.0199      2.3553      0.1004     17.8600     79.6909     16.8887
   760.6000      8.0199      2.2961      0.0507     21.4457     80.8923     15.9752
   760.7000      8.0199      2.2154      0.0512     26.3418     82.8832     15.1235
   760.8000      7.9969      2.1301      0.0623     31.5072     85.3294     14.5396
   760.9000      7.9969      2.0482      0.0071     36.4701     88.0895     14.1837
   761.0000      7.9830      1.9793      0.0124     40.6502     89.5649     13.8022
   761.1000      7.9830      1.9307      0.0077     43.5929     89.1463     13.3740
   761.2000      7.9830      1.9038     -0.0143     45.2270     87.6748     13.1550
   761.3000      8.0063      1.9016     -0.0371     45.3567     86.5802     13.3805
   761.4000      8.0063      1.9296     -0.0029     43.6617     88.0129     14.1321
   761.5000      8.1462      1.9887      0.0688     40.0772     91.6236     15.0216
   761.6000      8.1462      2.0734      0.1435     34.9474     94.1231     15.7570
   761.7000      8.1462      2.1699      0.1607     29.0980     94.8792     16.6603
   761.8000      8.1765      2.2606      0.1693     23.6015     96.4472     17.7714
   761.9000      8.1765      2.3318      0.1381     19.2829     98.3296     18.8183
   762.0000      8.0721      2.3825      0.1315     16.2108     98.9546     19.7701
   762.1000      8.0721      2.4199      0.1287     13.9430     99.9828     20.4701
   762.2000      8.0721      2.4492      0.1079     12.1671    101.4028     20.8902
   762.3000      8.0500      2.4727      0.1060     10.7476    102.7129     21.3430
   762.4000      8.0500      2.4894      0.1044      9.7318    106.0330     22.0926
   762.5000      8.0252      2.4939      0.1082      9.4610    111.0350     23.0026
   762.6000      8.0252      2.4872      0.0445      9.8696    114.3834     23.4102
   762.7000      8.0252      2.4807      0.0404     10.2580    115.6760     23.2152
   762.8000      8.0432      2.4782      0.0543     10.4101    115.5644     23.0957
   762.9000      8.0432      2.4740      0.0344     10.6664    114.0579     23.2801
   763.0000      8.0738      2.4673      0.0341     11.0720    112.7296     23.4774
   763.1000      8.0738      2.4647     -0.0278     11.2284    112.8851     23.5621
   763.2000      8.0738      2.4690      0.0206     10.9675    113.5819     23.5623
   763.3000      8.0492      2.4698      0.0346     10.9200    113.4443     23.4277
   763.4000      8.0492      2.4605      0.0186     11.4839    111.9514     23.1389
   763.5000      8.0298      2.4479      0.0169     12.2464    110.4413     22.8450
   763.6000      8.0298      2.4385      0.0043     12.8177    109.8299     22.8059
   763.7000      8.0298      2.4336      0.0018     13.1144    109.7561     23.1550
   763.8000      8.0388      2.4365     -0.0132     12.9380    111.4823     23.6431
   763.9000      8.0388      2.4500      0.0089     12.1207    114.6582     23.9836
   764.0000      8.0423      2.4671      0.0506     11.0838    115.2524     24.1893
   764.1000      8.0423      2.4787     -0.0103     10.3831    112.3323     24.1950
   764.2000      8.0423      2.4800      0.0331     10.3020    110.2431     23.8975
   764.3000      8.0202      2.4725     -0.0259     10.7585    110.0805     23.6933
   764.4000      8.0202      2.4698     -0.0305     10.9187    108.8312     23.8752
   764.5000      8.0242      2.4773      0.0097     10.4662    106.2179     24.1826
   764.6000      8.0242      2.4835     -0.0067     10.0880    104.5089     24.2860
   764.7000      8.0242      2.4870      0.0214      9.8803    103.9995     24.2895
   764.8000      8.0196      2.4983     -0.0083      9.1960    103.5017     24.4878
   764.9000      8.0196      2.5221      0.0195      7.7537    103.2364     24.8489
   765.0000      8.0132      2.5498      0.0303      6.0709    104.5721     25.0685
   765.1000      8.0132      2.5670      0.1049      5.0303    106.3988     24.9157
   765.2000      8.0132      2.5680      0.0576      4.9706    104.7252     24.5477
   765.3000      7.9870      2.5620      0.0883      5.3358     99.3090     24.4110
   765.4000      7.9870      2.5570      0.0550      5.6384     95.6235     24.4867
   765.5000      7.9584      2.5540      0.0525      5.8185     96.6361     24.4902
   765.6000      7.9584      2.5499      0.0483      6.0694     99.0660     24.4506
   765.7000      7.9584      2.5484     -0.0056      6.1547     99.9999     24.2571
   765.8000      7.9434      2.5559      0.0398      5.7015    100.3520     23.7460
   765.9000      7.9434      2.5587      0.0953      5.5310    100.8973     23.1414
   766.0000      7.9415      2.5407      0.0543      6.6269    101.6796     22.6019
   766.1000      7.9415      2.5121      0.0484      8.3583    103.0557     22.0506
   766.2000      7.9415      2.4880      0.0474      9.8156    104.6390     21.4170
   766.3000      7.9333      2.4657      0.0559     11.1702    106.4149     20.6476
   766.4000      7.9333      2.4446      0.0089     12.4505    108.5220     19.9549
   766.5000      7.9687      2.4317      0.0293     13.2311    109.7314     19.7319
   766.6000      7.9687      2.4294      0.0522     13.3722    109.6596     20.0585
   766.7000      7.9687      2.4353      0.0270     13.0095    109.5352     20.6979
   766.8000      8.0448      2.4364      0.0600     12.9434    109.5619     21.1541
   766.9000      8.0448      2.4176      0.0033     14.0863    110.0344     21.1321
   767.0000      8.0244      2.3842      0.0224     16.1086    111.0995     20.9821
   767.1000      8.0244      2.3507      0.0099     18.1366    111.4684     21.0852
   767.2000      8.0244      2.3309     -0.0193     19.3369    109.6228     21.3349
   767.3000      8.0305      2.3328     -0.0024     19.2267    104.6183     21.3719
   767.4000      8.0305      2.3474      0.0130     18.3391     99.0573     21.2397
   767.5000      7.9857      2.3620      0.0103     17.4532     96.9804     21.1610
   767.6000      7.9857      2.3750      0.0440     16.6692     97.3409     21.1039
   767.7000      7.9857      2.3925      0.0259     15.6084     96.0983     21.2296
   767.8000      7.9893      2.4198      0.0933     13.9493     93.0695     21.7124
   767.9000      7.9893      2.4512      0.1332     12.0482     90.5762     22.2295
   768.0000      7.9648      2.4788      0.1233     10.3739     89.6867     22.6570
   768.1000      7.9648      2.5050      0.0670      8.7851     90.3046     23.2928
   768.2000      7.9648      2.5314      0.0958      7.1874     92.3507     24.0628
   768.3000      8.0041      2.5511      0.1141      5.9910     94.4414     24.6645
