~Version Information
VERS.                      2.0: CWLS Log ASCII Standard - VERSION 2.0
WRAP.                       NO: One line per depth step
~Well Information Block
STRT.FT               480.0000: 
STOP.FT              1946.0000: 
STEP.FT                 0.1000: 
NULL.                -999.2500: 
COMP.          XTO Energy Inc.: COMPANY
WELL.          Golden Eagle 19-15: WELL
FLD.           Purgatoire River: FIELD
LOC.           1121' FSL & 2332' FEL--: LOCATION
CNTY.               Las Animas: COUNTY
SRVC.                Patterson: SERVICE COMPANY
DATE.          Mon Mar 13 10:27:20 2006: LOG DATE
UWI.           05 071 08717 00: UNIQUE WELL ID
STAT.                 Colorado: STATE
~Curve Information Block
DEPT.FT            0 000 00 00: Depth
DCAL.in                       : CDL Caliper
RHOB.g/cc                     : CDL Bulk Density
RHOC.g/cc                     : CDL Density Correction
DPOR.pu                       : CDL Density Porosity
NPOR.pu                       : Neutron Porosity
GR.GAPI                       : Gamma Ray
~Parameter Information Block
~A  Depth       DCAL        RHOB        RHOC        DPOR        NPOR         GR     
# ...
  1430.4000      7.9354      2.5044      0.0249      8.8222     27.2368    124.4182
  1430.5000      7.9409      2.4907      0.0212      9.6541     27.3327    126.7734
  1430.6000      7.9409      2.4836      0.0373     10.0874     27.0481    123.5609
  1430.7000      7.9409      2.4871      0.0405      9.8731     26.4497    116.0019
  1430.8000      7.9420      2.4979      0.0564      9.2211     25.8474    112.7758
  1430.9000      7.9420      2.5109      0.0537      8.4300     25.7312    114.7018
  1431.0000      7.9434      2.5274      0.0605      7.4302     26.1285    115.2151
  1431.1000      7.9434      2.5427      0.0633      6.5026     26.4640    111.8340
  1431.2000      7.9434      2.5509      0.0313      6.0083     26.3298    107.3685
  1431.3000      7.9440      2.5590      0.0238      5.5139     26.1098    105.1376
  1431.4000      7.9440      2.5709      0.0516      4.7936     26.2137    108.6018
  1431.5000      7.9425      2.5777      0.0631      4.3834     26.2570    113.8550
  1431.6000      7.9425      2.5742      0.0482      4.5944     25.9231    112.4666
  1431.7000      7.9425      2.5603      0.0645      5.4354     25.5755    105.6674
  1431.8000      7.9410      2.5433      0.0203      6.4676     25.3555    101.5168
  1431.9000      7.9410      2.5428      0.0173      6.4971     24.9338    102.6837
  1432.0000      7.9415      2.5683      0.0469      4.9539     24.5231    101.2045
  1432.1000      7.9415      2.6011      0.0778      2.9654     24.4799     92.1915
  1432.2000      7.9415      2.6135      0.0787      2.2137     24.5159     82.6972
  1432.3000      7.9428      2.5995      0.0676      3.0608     24.3527     77.6310
  1432.4000      7.9428      2.5777      0.0374      4.3805     23.9638     78.5614
  1432.5000      7.9425      2.5652      0.0495      5.1396     23.4448     83.2153
  1432.6000      7.9425      2.5616      0.0267      5.3563     23.2738     84.9030
  1432.7000      7.9425      2.5616      0.0203      5.3606     23.6006     85.7039
  1432.8000      7.9406      2.5612      0.0824      5.3810     23.9189     88.3270
  1432.9000      7.9406      2.5578      0.0228      5.5880     23.9860     87.3004
  1433.0000      7.9402      2.5469      0.0464      6.2514     23.8752     82.0070
  1433.1000      7.9402      2.5211      0.0499      7.8128     23.6033     77.9461
  1433.2000      7.9402      2.4947     -0.0328      9.4115     23.3281     77.5787
  1433.3000      7.9406      2.4925     -0.0119      9.5431     23.3083     78.7638
  1433.4000      7.9406      2.5098      0.0479      8.4989     23.4319     78.0863
  1433.5000      7.9371      2.5339     -0.0218      7.0342     23.4644     76.8026
  1433.6000      7.9371      2.5676      0.0501      4.9918     23.4021     76.8105
  1433.7000      7.9371      2.6019      0.0824      2.9133     23.2790     77.2425
  1433.8000      7.9288      2.6183      0.1042      1.9194     23.1120     77.9207
  1433.9000      7.9288      2.6173      0.0748      1.9843     23.0000     77.4093
  1434.0000      7.9203      2.6144      0.0804      2.1586     22.8091     74.4732
  1434.1000      7.9203      2.6162      0.0591      2.0505     22.3596     70.9714
  1434.2000      7.9203      2.6185      0.0319      1.9067     22.0588     69.6897
  1434.3000      7.9153      2.6133      0.0593      2.2219     22.3527     71.8435
  1434.4000      7.9153      2.5977      0.0294      3.1702     23.1026     77.9978
  1434.5000      7.9141      2.5843      0.0109      3.9792     23.7337     89.3649
  1434.6000      7.9141      2.5806      0.0015      4.2088     23.8565    101.7538
  1434.7000      7.9141      2.5782      0.0266      4.3513     23.7238    106.6881
  1434.8000      7.9154      2.5714      0.0481      4.7660     23.8328    105.3071
  1434.9000      7.9154      2.5593      0.0341      5.4964     24.5919    104.8658
  1435.0000      7.9154      2.5410      0.0250      6.6086     25.8039    108.6669
  1435.1000      7.9154      2.5131      0.0498      8.2999     26.6886    115.1985
  1435.2000      7.9154      2.4756      0.0229     10.5682     27.0846    121.2199
  1435.3000      7.9113      2.4474     -0.0192     12.2791     27.2503    124.0789
  1435.4000      7.9113      2.4601     -0.0037     11.5120     27.0200    121.4701
  1435.5000      7.9031      2.5246      0.0534      7.5989     26.5927    118.1222
  1435.6000      7.9031      2.6242      0.0941      1.5630     26.4974    121.1217
  1435.7000      7.9031      2.7307      0.1609     -4.8921     26.7130    126.6187
  1435.8000      7.8939      2.8252      0.1598    -10.6197     26.9161    128.2224
  1435.9000      7.8939      2.9149      0.1682    -16.0525     26.9449    125.9678
  1436.0000      7.8837      3.0016      0.2003    -21.3063     26.9527    121.8416
  1436.1000      7.8837      3.0542      0.2556    -24.4971     27.1272    115.2350
  1436.2000      7.8837      3.0461      0.2073    -24.0054     27.2478    106.8557
  1436.3000      7.8700      2.9908      0.1343    -20.6558     27.0697    100.2269
  1436.4000      7.8700      2.9112      0.1533    -15.8322     26.4348     95.8771
  1436.5000      7.8604      2.8259      0.0822    -10.6580     25.3867     91.2175
  1436.6000      7.8604      2.7670      0.0839     -7.0904     24.4211     85.6948
  1436.7000      7.8604      2.7411      0.1205     -5.5216     23.8481     83.7589
  1436.8000      7.8584      2.7142      0.1379     -3.8893     23.5712     87.3914
  1436.9000      7.8584      2.6639      0.1416     -0.8397     23.3994     90.2847
  1437.0000      7.8597      2.6062      0.0873      2.6537     23.2592     86.9365
  1437.1000      7.8597      2.5707      0.0936      4.8073     23.2547     79.4548
  1437.2000      7.8597      2.5619      0.0933      5.3383     23.3246     72.1112
  1437.3000      7.8656      2.5604      0.0882      5.4291     23.3153     67.4585
  1437.4000      7.8656      2.5579      0.0818      5.5832     23.2473     68.4240
  1437.5000      7.8831      2.5659      0.0639      5.0984     23.0901     73.8740
  1437.6000      7.8831      2.5809      0.1064      4.1870     22.8406     77.2668
  1437.7000      7.8831      2.5773      0.0924      4.4073     22.6482     75.8561
  1437.8000      7.9041      2.5562      0.0333      5.6847     22.4991     73.0441
  1437.9000      7.9041      2.5448      0.0432      6.3763     22.4220     72.8029
  1438.0000      7.9123      2.5478      0.0383      6.1924     22.5669     75.8039
  1438.1000      7.9123      2.5528      0.0485      5.8911     22.8870     79.2943
  1438.2000      7.9123      2.5534      0.0646      5.8550     23.2832     81.1690
  1438.3000      7.9086      2.5526      0.0446      5.9029     23.3926     83.4750
  1438.4000      7.9086      2.5556      0.0551      5.7219     22.8948     87.8150
  1438.5000      7.9018      2.5666      0.0233      5.0523     22.3544     89.4333
  1438.6000      7.9018      2.5859      0.0880      3.8841     22.3504     87.1742
  1438.7000      7.9018      2.5993      0.1245      3.0756     22.6373     87.5043
  1438.8000      7.9018      2.6019      0.0344      2.9148     22.8114     87.4773
  1438.9000      7.9018      2.6041      0.0412      2.7795     22.8041     79.1726
  1439.0000      7.9093      2.5936      0.1128      3.4192     22.7215     67.1388
  1439.1000      7.9093      2.5622      0.0442      5.3183     22.6022     61.6036
  1439.2000      7.9093      2.5424      0.0082      6.5215     22.4812     62.8139
  1439.3000      7.9159      2.5550      0.0547      5.7576     22.3001     64.5078
  1439.4000      7.9159      2.5810      0.0502      4.1835     21.9414     65.8617
  1439.5000      7.9187      2.5986      0.0575      3.1147     21.7586     68.4573
  1439.6000      7.9187      2.6033      0.0636      2.8324     22.0313     70.9573
  1439.7000      7.9187      2.6073      0.0228      2.5855     22.4516     73.9318
  1439.8000      7.9230      2.6212      0.0482      1.7427     22.8578     77.1338
  1439.9000      7.9230      2.6306      0.0944      1.1754     23.2893     77.5656
