~Version Information
VERS.                      2.0: CWLS Log ASCII Standard - VERSION 2.0
WRAP.                       NO: One line per depth step
~Well Information Block
STRT.FT               840.0000: 
STOP.FT              1913.5000: 
STEP.FT                 0.2500: 
NULL.                -999.2500: 
COMP.          Petrogulf Corporation: COMPANY
WELL.             Kraft 17-23R: WELL
FLD.           Purgatorie River: FIELD
LOC.           1509' FSL & 1673' FWL: LOCATION
PROV.                 Colorado: PROVINCE
CNTY.               Las Animas: COUNTRY
SRVC.                Patterson: SERVICE COMPANY
DATE.          Tue Oct 11 13:03:25 2005: LOG DATE
UWI.                          : UNIQUE WELL ID
~Curve Information Block
DEPT.FT            0 000 00 00: Depth
SP.mV                         : DIL Spontaneous Potential
RILD.Ohm-m                    : DIL Deep Resistivity
RILM.Ohm-m                    : DIL Medium Resistivity
RLL3.Ohm-m                    : DIL Shallow Resistivity
GR.GAPI                       : Gamma Ray
~Parameter Information Block
~A  Depth        SP         RILD        RILM        RLL3         GR     
# ...
  1036.0000    182.8240     15.2888     16.2671     17.6133    107.9759
  1036.2500    182.7574     14.5257     15.4496     17.5971    106.3178
  1036.5000    182.5959     13.8347     14.6611     17.2560    104.1636
  1036.7500    182.3696     13.2346     13.9126     16.5300    103.4069
  1037.0000    182.1132     12.7317     13.2175     15.5428    104.7735
  1037.2500    181.8517     12.3233     12.5895     14.5336    107.8836
  1037.5000    181.5962     11.9996     12.0402     13.7502    114.6652
  1037.7500    181.3476     11.7472     11.5768     13.3236    119.1500
  1038.0000    181.1043     11.5510     11.2021     13.1921    124.5078
  1038.2500    180.8680     11.3977     10.9151     13.1647    127.4684
  1038.5000    180.6463     11.2770     10.7114     13.0914    131.5924
  1038.7500    180.4523     11.1813     10.5849     12.9732    133.8271
  1039.0000    180.3020     11.1045     10.5284     12.9231    135.6538
  1039.2500    180.2098     11.0405     10.5333     13.0549    136.0113
  1039.5000    180.1847     10.9839     10.5892     13.4122    136.1692
  1039.7500    180.2294     10.9308     10.6835     13.9632    136.1282
  1040.0000    180.3382     10.8807     10.8008     14.6252    135.0555
  1040.2500    180.4935     10.8355     10.9237     15.2804    133.4148
  1040.5000    180.6638     10.7982     11.0338     15.7744    130.4811
  1040.7500    180.8128     10.7711     11.1149     15.9436    129.0526
  1041.0000    180.9128     10.7549     11.1553     15.7113    128.2291
  1041.2500    180.9555     10.7504     11.1503     15.1807    128.1793
  1041.5000    180.9500     10.7586     11.1023     14.5938    127.9842
  1041.7500    180.9137     10.7808     11.0204     14.1535    127.6577
  1042.0000    180.8634     10.8169     10.9176     13.8816    127.5003
  1042.2500    180.8097     10.8643     10.8089     13.6472    128.2254
  1042.5000    180.7542     10.9185     10.7085     13.3214    131.4646
  1042.7500    180.6913     10.9738     10.6294     12.9131    135.1507
  1043.0000    180.6147     11.0263     10.5820     12.5818    141.7785
  1043.2500    180.5250     11.0749     10.5741     12.5249    145.5769
  1043.5000    180.4317     11.1218     10.6103     12.8293    148.3241
  1043.7500    180.3487     11.1719     10.6923     13.4138    147.9953
  1044.0000    180.2860     11.2322     10.8183     14.1179    145.7097
  1044.2500    180.2444     11.3116     10.9836     14.8372    144.2084
  1044.5000    180.2134     11.4200     11.1817     15.5594    143.4498
  1044.7500    180.1727     11.5662     11.4048     16.2761    144.0910
  1045.0000    180.0947     11.7566     11.6462     16.8954    145.6895
  1045.2500    179.9487     11.9941     11.9014     17.2660    146.1143
  1045.5000    179.7104     12.2768     12.1695     17.2883    144.5850
  1045.7500    179.3709     12.5984     12.4531     17.0085    142.3158
  1046.0000    178.9391     12.9471     12.7574     16.6181    138.5990
  1046.2500    178.4346     13.3064     13.0876     16.3712    136.9908
  1046.5000    177.8797     13.6561     13.4465     16.4904    136.9000
  1046.7500    177.2977     13.9747     13.8318     17.1103    137.9876
  1047.0000    176.7153     14.2437     14.2342     18.2407    138.9640
  1047.2500    176.1639     14.4516     14.6368     19.7234    137.6832
  1047.5000    175.6759     14.5957     15.0164     21.2205    132.1392
  1047.7500    175.2774     14.6815     15.3472     22.3036    127.0430
  1048.0000    174.9840     14.7210     15.6058     22.6456    120.4758
  1048.2500    174.8022     14.7311     15.7764     22.1982    118.5348
  1048.5000    174.7319     14.7315     15.8547     21.2119    120.2720
  1048.7500    174.7691     14.7403     15.8483     20.0726    123.4908
  1049.0000    174.9045     14.7690     15.7741     19.0956    127.8025
  1049.2500    175.1196     14.8206     15.6538     18.4213    128.5296
  1049.5000    175.3836     14.8893     15.5094     18.0324    126.0777
  1049.7500    175.6536     14.9642     15.3604     17.8248    123.5202
  1050.0000    175.8828     15.0342     15.2227     17.6800    121.3676
  1050.2500    176.0318     15.0925     15.1092     17.5213    121.8455
  1050.5000    176.0788     15.1394     15.0304     17.3437    124.3978
  1050.7500    176.0218     15.1821     14.9949     17.2162    126.2031
  1051.0000    175.8714     15.2331     15.0098     17.2609    128.3406
  1051.2500    175.6411     15.3090     15.0800     17.6089    129.6136
  1051.5000    175.3427     15.4289     15.2083     18.3273    130.9385
  1051.7500    174.9900     15.6133     15.3955     19.3464    130.4247
  1052.0000    174.6033     15.8838     15.6428     20.4575    126.3946
  1052.2500    174.2108     16.2617     15.9537     21.4078    122.1575
  1052.5000    173.8457     16.7673     16.3377     22.0218    115.9865
  1052.7500    173.5423     17.4178     16.8123     22.2737    113.1565
  1053.0000    173.3323     18.2246     17.4042     22.3500    111.4070
  1053.2500    173.2418     19.1882     18.1493     22.8283    111.7500
  1053.5000    173.2897     20.2941     19.0900     25.0461    113.9447
  1053.7500    173.4856     21.5115     20.2719     31.5535    115.8958
  1054.0000    173.8299     22.7972     21.7366     46.2130    117.7403
  1054.2500    174.3163     24.1018     23.5116     73.1113    116.8781
  1054.5000    174.9349     25.3736     25.5931    113.6934    110.4462
  1054.7500    175.6734     26.5615     27.9229    163.2234    102.5236
  1055.0000    176.5169     27.6185     30.3649    209.7416     87.3179
  1055.2500    177.4510     28.5046     32.6948    238.1434     77.1950
  1055.5000    178.4645     29.1848     34.6254    237.9586     65.5870
  1055.7500    179.5462     29.6225     35.8772    209.5397     61.4935
  1056.0000    180.6731     29.7785     36.2713    163.9112     61.5392
  1056.2500    181.8018     29.6203     35.7895    116.3083     65.3962
  1056.5000    182.8770     29.1362     34.5649     78.2407     75.2028
  1056.7500    183.8515     28.3418     32.8155     53.5263     82.8984
  1057.0000    184.7041     27.2781     30.7694     39.7890     93.6689
  1057.2500    185.4398     26.0056     28.6169     32.5518     99.6253
  1057.5000    186.0802     24.5958     26.4944     28.3278    107.3734
  1057.7500    186.6510     23.1215     24.4879     25.4257    112.6792
  1058.0000    187.1731     21.6474     22.6445     23.3274    121.4996
  1058.2500    187.6580     20.2255     20.9838     21.8890    127.3504
  1058.5000    188.1071     18.8947     19.5066     20.9525    134.3997
  1058.7500    188.5141     17.6821     18.2025     20.3182    137.3492
  1059.0000    188.8676     16.6034     17.0541     19.8254    139.2794
  1059.2500    189.1540     15.6644     16.0419     19.3984    139.5593
  1059.5000    189.3619     14.8627     15.1469     19.0381    139.9732
  1059.7500    189.4891     14.1910     14.3532     18.7754    140.7469
  1060.0000    189.5462     13.6411     13.6495     18.6038    142.1553
  1060.2500    189.5523     13.2078     13.0300     18.4377    142.4977
  1060.5000    189.5227     12.8905     12.4941     18.1417    141.3618
  1060.7500    189.4581     12.6919     12.0458     17.6148    139.7806
  1061.0000    189.3445     12.6145     11.6931     16.8583    137.1615
  1061.2500    189.1624     12.6569     11.4463     15.9839    135.4560
  1061.5000    188.8989     12.8107     11.3176     15.2025    132.4924
  1061.7500    188.5559     13.0611     11.3201     14.8408    129.9438
  1062.0000    188.1526     13.3916     11.4675     15.3599    125.0141
  1062.2500    187.7225     13.7902     11.7737     17.2993    120.8900
  1062.5000    187.3054     14.2559     12.2534     21.0984    113.7150
  1062.7500    186.9328     14.8006     12.9223     26.8361    108.9110
  1063.0000    186.6143     15.4475     13.7981     34.0852    102.9284
  1063.2500    186.3336     16.2286     14.9025     42.3131     99.9823
  1063.5000    186.0580     17.1817     16.2647     52.3437     96.3378
  1063.7500    185.7542     18.3492     17.9257     68.8696     93.5959
