~Version Information
VERS.                      2.0: CWLS Log ASCII Standard - VERSION 2.0
WRAP.                       NO: One line per depth step
~Well Information Block
STRT.FT               235.0000: 
STOP.FT              1271.0000: 
STEP.FT                 0.1000: 
NULL.                -999.2500: 
COMP.          Pioneer Natural Resources: COMPANY
WELL.              Julie 11-30: WELL
FLD.           Purgatoire River: FIELD
LOC.           672' FNL & 1052' FWL: LOCATION
CNTY.               Las Animas: COUNTY
SRVC.                Patterson: SERVICE COMPANY
DATE.          Fri Apr 14 07:21:24 2006: LOG DATE
UWI.           05 071 08724 00: UNIQUE WELL ID
STAT.                 Colorado: STATE
~Curve Information Block
DEPT.FT            0 000 00 00: Depth
DCAL.in                       : CDL Caliper
RHOB.g/cc                     : CDL Bulk Density
RHOC.g/cc                     : CDL Density Correction
DPOR.pu                       : CDL Density Porosity
GR.GAPI                       : Gamma Ray
NPOR.pu                       : Neutron Porosity
~Parameter Information Block
~A  Depth       DCAL        RHOB        RHOC        DPOR         GR         NPOR    
# ...
   849.4000      8.1063      2.5469     -0.0026      6.2509     88.6215     24.4807
   849.5000      8.1248      2.5670      0.0463      5.0320     89.7133     23.7176
   849.6000      8.1248      2.5784      0.0675      4.3386     91.3650     22.7041
   849.7000      8.1248      2.5782      0.0632      4.3500     94.6698     22.4100
   849.8000      8.1294      2.5799      0.0009      4.2463    101.7380     23.1091
   849.9000      8.1294      2.5842      0.0716      3.9895    109.4492     23.8433
   850.0000      8.1277      2.5697      0.0286      4.8675    111.3294     23.7988
   850.1000      8.1277      2.5451      0.0031      6.3564    110.2843     23.4029
   850.2000      8.1277      2.5379      0.0286      6.7909    114.2309     23.5146
   850.3000      8.1305      2.5458      0.0117      6.3151    117.7679     24.1266
   850.4000      8.1305      2.5556     -0.0128      5.7200    113.5539     24.5532
   850.5000      8.1380      2.5579      0.0463      5.5793    107.1856     24.5556
   850.6000      8.1380      2.5418      0.0376      6.5567    105.0515     24.2108
   850.7000      8.1380      2.5112     -0.0089      8.4111    108.9199     23.5781
   850.8000      8.1304      2.4902     -0.0473      9.6825    117.2776     23.2056
   850.9000      8.1304      2.4989      0.0017      9.1564    125.6237     23.5258
   851.0000      8.1286      2.5287     -0.0066      7.3485    131.7009     23.9636
   851.1000      8.1286      2.5573     -0.0016      5.6202    131.5823     23.7380
   851.2000      8.1286      2.5737      0.0754      4.6239    123.5299     23.0467
   851.3000      8.1274      2.5758      0.0702      4.4949    115.4228     22.4961
   851.4000      8.1274      2.5675      0.0401      4.9979    113.7130     22.3558
   851.5000      8.1217      2.5543      0.0902      5.8014    115.5521     22.5777
   851.6000      8.1217      2.5305      0.0971      7.2445    117.2205     22.8587
   851.7000      8.1217      2.5076      0.0392      8.6299    117.7745     23.0780
   851.8000      8.1265      2.5139      0.0583      8.2496    117.6717     23.4147
   851.9000      8.1265      2.5425      0.0840      6.5162    116.9658     23.8263
   852.0000      8.1284      2.5596      0.0779      5.4785    114.5263     24.0691
   852.1000      8.1284      2.5568      0.1070      5.6496    111.2131     24.2189
   852.2000      8.1284      2.5458      0.0598      6.3174    108.5451     24.3373
   852.3000      8.1290      2.5283      0.1035      7.3771    108.8326     24.0001
   852.4000      8.1290      2.5047      0.0395      8.8059    112.2413     23.2995
   852.5000      8.1278      2.4796      0.0524     10.3249    115.4046     23.0005
   852.6000      8.1278      2.4589      0.0279     11.5817    116.4646     23.3462
   852.7000      8.1278      2.4551      0.0263     11.8129    116.6464     23.9992
   852.8000      8.1160      2.4770     -0.0001     10.4854    117.0434     24.3463
   852.9000      8.1160      2.5145      0.0444      8.2125    118.0932     23.9847
   853.0000      8.1254      2.5403      0.0728      6.6504    122.2003     23.5514
   853.1000      8.1254      2.5388      0.0933      6.7407    129.2377     23.4803
   853.2000      8.1254      2.5260      0.0340      7.5133    133.2899     23.2469
   853.3000      8.1282      2.5208      0.1508      7.8286    131.7619     22.7975
   853.4000      8.1282      2.5173      0.1454      8.0443    125.8012     22.5897
   853.5000      8.1297      2.5109      0.0793      8.4316    118.2959     22.7704
   853.6000      8.1297      2.5019      0.1081      8.9750    114.1708     23.3565
   853.7000      8.1297      2.4798      0.1330     10.3148    113.9143     23.9754
   853.8000      8.1289      2.4450      0.0748     12.4265    113.8312     23.8924
   853.9000      8.1289      2.4165      0.0746     14.1511    113.9314     23.1760
   854.0000      8.1301      2.4093      0.0841     14.5857    116.3418     22.6906
   854.1000      8.1301      2.4237      0.0511     13.7148    119.1177     22.8095
   854.2000      8.1301      2.4549      0.1026     11.8241    120.7493     23.3355
   854.3000      8.1276      2.4894      0.1743      9.7327    124.5563     23.9339
   854.4000      8.1276      2.5179      0.1655      8.0088    131.2072     24.0590
   854.5000      8.1286      2.5508      0.2040      6.0111    134.2168     23.6316
   854.6000      8.1286      2.5894      0.2963      3.6721    135.1392     23.2704
   854.7000      8.1286      2.6121      0.3038      2.2969    139.9005     23.3977
   854.8000      8.1303      2.5951      0.3988      3.3284    143.6642     24.0230
   854.9000      8.1303      2.5391      0.1735      6.7212    141.6969     24.6362
   855.0000      8.1288      2.4973      0.0724      9.2572    136.2509     24.7775
   855.1000      8.1288      2.5087      0.1291      8.5650    130.9958     24.8176
   855.2000      8.1288      2.5352      0.1406      6.9567    129.2307     25.1247
   855.3000      8.1284      2.5278      0.1139      7.4063    131.4208     25.3156
   855.4000      8.1284      2.4938      0.0318      9.4689    136.7225     25.1676
   855.5000      8.1276      2.4761      0.0396     10.5421    140.2125     25.0127
   855.6000      8.1276      2.4915      0.1096      9.6079    136.5994     25.1478
   855.7000      8.1276      2.5170      0.1283      8.0581    130.9872     25.3762
   855.8000      8.1274      2.5360      0.0864      6.9066    129.6932     25.5700
   855.9000      8.1274      2.5506      0.1452      6.0231    130.6502     25.9959
   856.0000      8.1252      2.5553      0.1484      5.7411    129.4346     26.6296
   856.1000      8.1252      2.5524      0.0861      5.9173    124.8024     27.2391
   856.2000      8.1252      2.5659      0.0199      5.0973    120.5963     27.7581
   856.3000      8.1279      2.5948      0.0995      3.3425    119.3820     28.2968
   856.4000      8.1279      2.5999      0.1346      3.0354    118.4831     28.5528
   856.5000      8.1310      2.5714      0.0529      4.7611    116.9748     28.3218
   856.6000      8.1310      2.5482      0.0624      6.1690    113.8422     28.0886
   856.7000      8.1310      2.5571      0.0401      5.6289    108.2629     28.2460
   856.8000      8.1282      2.5941      0.0951      3.3883    103.7383     28.7007
   856.9000      8.1282      2.6358      0.1178      0.8630    101.3133     29.1869
   857.0000      8.1295      2.6649      0.0917     -0.9014     98.8052     29.4333
   857.1000      8.1295      2.6802      0.1229     -1.8273     96.8464     29.3633
   857.2000      8.1295      2.6834      0.0935     -2.0241     96.7767     29.0945
   857.3000      8.1286      2.6876      0.0988     -2.2817     98.1994     28.7162
   857.4000      8.1286      2.7082      0.1365     -3.5302    100.8615     28.3166
   857.5000      8.1320      2.7417      0.0887     -5.5549    104.4651     28.0342
   857.6000      8.1320      2.7629      0.1259     -6.8401    107.0508     27.9671
   857.7000      8.1320      2.7457      0.0926     -5.8015    107.0981     27.7396
   857.8000      8.1290      2.6953      0.0994     -2.7465    106.5997     27.0511
   857.9000      8.1290      2.6430      0.0374      0.4221    106.7965     26.3960
   858.0000      8.1242      2.6094      0.0320      2.4613    107.4438     26.1872
   858.1000      8.1242      2.5869      0.0303      3.8260    110.5412     26.1265
   858.2000      8.1242      2.5609      0.0223      5.4010    116.9237     25.8839
   858.3000      8.1295      2.5330     -0.0002      7.0910    123.0157     25.7333
   858.4000      8.1295      2.5223     -0.0405      7.7401    124.8083     25.9279
   858.5000      8.1276      2.5277      0.0621      7.4144    124.1914     26.2026
   858.6000      8.1276      2.5187      0.0566      7.9549    125.0656     26.1598
   858.7000      8.1276      2.4895     -0.0344      9.7298    125.6698     25.8531
   858.8000      8.1264      2.4678      0.0014     11.0406    124.9687     25.8010
   858.9000      8.1264      2.4738     -0.0039     10.6792    125.6078     26.0017
