~Version Information
VERS.                      2.0: CWLS Log ASCII Standard - VERSION 2.0
WRAP.                       NO: One line per depth step
~Well Information Block
STRT.FT               452.0000: 
STOP.FT              1726.5000: 
STEP.FT                 0.1000: 
NULL.                -999.2500: 
COMP.          Pioneer Natural Resources: COMPANY
WELL.          Parrothead 31-31 Tr: WELL
FLD.           Purgatoire River: FIELD
LOC.           496' FNL & 1546' FEL: LOCATION
PROV.                 Colorado: PROVINCE
CNTY.               Las Animas: COUNTRY
SRVC.                Patterson: SERVICE COMPANY
DATE.          Thu Nov 10 07:29:36 2005: LOG DATE
UWI.           05 071 08610 00: UNIQUE WELL ID
~Curve Information Block
DEPT.FT            0 000 00 00: Depth
DCAL.in                       : CDL Caliper
RHOB.g/cc                     : CDL Bulk Density
RHOC.g/cc                     : CDL Density Correction
DPOR.pu                       : CDL Density Porosity
GR.GAPI                       : Gamma Ray
NPOR.pu                       : Neutron Porosity
~Parameter Information Block
~A  Depth       DCAL        RHOB        RHOC        DPOR         GR         NPOR    
# ...
  1709.6000      7.9285      2.5587      0.0647      5.5328    100.4005     25.8824
  1709.7000      7.9285      2.5616      0.0687      5.3573     51.4959     26.4742
  1709.8000      7.9007      2.5695      0.1107      4.8808     16.4287     27.2273
  1709.9000      7.9007      2.5690      0.0505      4.9118      3.0159     27.4891
  1710.0000      7.9045      2.5588      0.0535      5.5296      0.3051     27.3140
  1710.1000      7.9045      2.5572      0.0203      5.6247      0.0162     26.9397
  1710.2000      7.9045      2.5774      0.1009      4.4006      0.0000     26.8806
  1710.3000      7.8831      2.5993      0.0645      3.0723   -999.2500     27.4755
  1710.4000      7.8831      2.6054      0.0576      2.7019   -999.2500     27.7100
  1710.5000      7.8703      2.6035      0.0641      2.8175   -999.2500     27.1920
  1710.6000      7.8703      2.5952      0.0566      3.3197   -999.2500     26.9751
  1710.7000      7.8703      2.5738      0.0607      4.6179   -999.2500     27.1277
  1710.8000      7.8640      2.5493      0.0010      6.1012   -999.2500     27.0916
  1710.9000      7.8640      2.5371      0.0132      6.8453   -999.2500     27.3433
  1711.0000      7.8541      2.5263      0.0298      7.4997   -999.2500     27.9368
  1711.1000      7.8541      2.5027      0.0261      8.9255   -999.2500     27.6777
  1711.2000      7.8541      2.4869     -0.0438      9.8855   -999.2500     26.3533
  1711.3000      7.8693      2.4996      0.0178      9.1166   -999.2500     25.3570
  1711.4000      7.8693      2.5211      0.0533      7.8136   -999.2500     25.7121
  1711.5000      7.8622      2.5301      0.0520      7.2672   -999.2500     27.1248
  1711.6000      7.8622      2.5287      0.0491      7.3539   -999.2500     29.7656
  1711.7000      7.8622      2.5248      0.0456      7.5889   -999.2500     35.0108
  1711.8000      7.8634      2.5227      0.0623      7.7145   -999.2500     41.7452
  1711.9000      7.8634      2.5205      0.0658      7.8472   -999.2500     46.3161
  1712.0000      7.8882      2.5135      0.0892      8.2710   -999.2500     47.9682
  1712.1000      7.8882      2.5085      0.0262      8.5775   -999.2500     48.2928
  1712.2000      7.8882      2.5178      0.0640      8.0104   -999.2500     48.3271
  1712.3000      7.9050      2.5361      0.0758      6.9001   -999.2500     48.3290
  1712.4000      7.9050      2.5442      0.1150      6.4130   -999.2500   -999.2500
  1712.5000      7.8766      2.5310      0.0715      7.2119   -999.2500   -999.2500
  1712.6000      7.8766      2.5146      0.0248      8.2049   -999.2500   -999.2500
  1712.7000      7.8766      2.5166      0.0968      8.0859   -999.2500   -999.2500
  1712.8000      7.8853      2.5305      0.0762      7.2405   -999.2500   -999.2500
  1712.9000      7.8853      2.5370      0.1105      6.8513   -999.2500   -999.2500
  1713.0000      7.8964      2.5274      0.0903      7.4311   -999.2500   -999.2500
  1713.1000      7.8964      2.5146      0.0578      8.2063   -999.2500   -999.2500
  1713.2000      7.8964      2.5179      0.0397      8.0078   -999.2500   -999.2500
  1713.3000      7.9041      2.5350      0.0647      6.9683   -999.2500   -999.2500
  1713.4000      7.9041      2.5447      0.0694      6.3835   -999.2500   -999.2500
  1713.5000      7.9041      2.5389      0.0461      6.7305   -999.2500   -999.2500
  1713.6000      7.9041      2.5260      0.1065      7.5122   -999.2500   -999.2500
  1713.7000      7.9041      2.5148      0.0514      8.1923   -999.2500   -999.2500
  1713.8000      7.8757      2.5122      0.0837      8.3523   -999.2500   -999.2500
  1713.9000      7.8757      2.5117      0.1230      8.3831   -999.2500   -999.2500
  1714.0000      7.8689      2.5010      0.0787      9.0311   -999.2500   -999.2500
  1714.1000      7.8689      2.4798      0.0645     10.3159   -999.2500   -999.2500
  1714.2000      7.8689      2.4595      0.0539     11.5478   -999.2500   -999.2500
  1714.3000      7.9053      2.4498      0.0528     12.1320   -999.2500   -999.2500
  1714.4000      7.9053      2.4464      0.0621     12.3413   -999.2500   -999.2500
  1714.5000      7.8910      2.4449      0.0191     12.4309   -999.2500   -999.2500
  1714.6000      7.8910      2.4592      0.0681     11.5641   -999.2500   -999.2500
  1714.7000      7.8910      2.4939      0.0981      9.4621   -999.2500   -999.2500
  1714.8000      7.9305      2.5275      0.1676      7.4219   -999.2500   -999.2500
  1714.9000      7.9305      2.5420      0.1914      6.5469   -999.2500   -999.2500
  1715.0000      7.9557      2.5444      0.1036      6.4003   -999.2500   -999.2500
  1715.1000      7.9557      2.5419      0.1578      6.5519   -999.2500   -999.2500
  1715.2000      7.9557      2.5297      0.0999      7.2936   -999.2500   -999.2500
  1715.3000      7.9496      2.5164      0.1249      8.0976   -999.2500   -999.2500
  1715.4000      7.9496      2.5134      0.1136      8.2817   -999.2500   -999.2500
  1715.5000      7.9306      2.5104      0.1337      8.4633   -999.2500   -999.2500
  1715.6000      7.9306      2.4916      0.0820      9.6024   -999.2500   -999.2500
  1715.7000      7.9306      2.4607      0.0659     11.4704   -999.2500   -999.2500
  1715.8000      7.8507      2.4355      0.0336     13.0013   -999.2500   -999.2500
  1715.9000      7.8507      2.4325      0.0410     13.1808   -999.2500   -999.2500
  1716.0000      7.9042      2.4554      0.0871     11.7920   -999.2500   -999.2500
  1716.1000      7.9042      2.4983      0.0988      9.1933   -999.2500   -999.2500
  1716.2000      7.9042      2.5529      0.1380      5.8856   -999.2500   -999.2500
  1716.3000      7.9787      2.5971      0.1709      3.2045   -999.2500   -999.2500
  1716.4000      7.9787      2.6052      0.1789      2.7158   -999.2500   -999.2500
  1716.5000      7.9791      2.5865      0.0709      3.8471   -999.2500   -999.2500
  1716.6000      7.9791      2.5733      0.1045      4.6514   -999.2500   -999.2500
  1716.7000      7.9791      2.5705      0.1249      4.8196   -999.2500   -999.2500
  1716.8000      7.9007      2.5679      0.1049      4.9732   -999.2500   -999.2500
  1716.9000      7.9007      2.5719      0.0750      4.7310   -999.2500   -999.2500
  1717.0000      7.8586      2.5801      0.1227      4.2371   -999.2500   -999.2500
  1717.1000      7.8586      2.5713      0.0813      4.7724   -999.2500   -999.2500
  1717.2000      7.8586      2.5550      0.0615      5.7571   -999.2500   -999.2500
  1717.3000      7.8462      2.5571      0.0910      5.6295   -999.2500   -999.2500
  1717.4000      7.8462      2.5691      0.1125      4.9015   -999.2500   -999.2500
  1717.5000      7.8528      2.5776      0.0664      4.3852   -999.2500   -999.2500
  1717.6000      7.8528      2.5885      0.0700      3.7243   -999.2500   -999.2500
  1717.7000      7.8528      2.5952      0.0824      3.3201   -999.2500   -999.2500
  1717.8000      7.9145      2.5856      0.0251      3.9016   -999.2500   -999.2500
  1717.9000      7.9145      2.5731      0.0423      4.6602   -999.2500   -999.2500
  1718.0000      7.9059      2.5742      0.1199      4.5954   -999.2500   -999.2500
  1718.1000      7.9059      2.5822      0.1156      4.1115   -999.2500   -999.2500
  1718.2000      7.9059      2.5825      0.0810      4.0904   -999.2500   -999.2500
  1718.3000      7.8772      2.5701      0.1068      4.8410   -999.2500   -999.2500
  1718.4000      7.8772      2.5537      0.0477      5.8365   -999.2500   -999.2500
  1718.5000      7.8413      2.5494      0.0623      6.1000   -999.2500   -999.2500
  1718.6000      7.8413      2.5541      0.0871      5.8125   -999.2500   -999.2500
  1718.7000      7.8413      2.5491      0.0596      6.1144   -999.2500   -999.2500
  1718.8000      7.8608      2.5331      0.0466      7.0839   -999.2500   -999.2500
  1718.9000      7.8608      2.5260      0.0272      7.5128   -999.2500   -999.2500
  1719.0000      7.8674      2.5374      0.0753      6.8271   -999.2500   -999.2500
  1719.1000      7.8674      2.5494      0.0958      6.0945   -999.2500   -999.2500
