~Version Information
VERS.                      2.0: CWLS Log ASCII Standard - VERSION 2.0
WRAP.                       NO: One line per depth step
~Well Information Block
STRT.FT               580.0000: 
STOP.FT              1029.0000: 
STEP.FT                 0.1000: 
NULL.                -999.2500: 
COMP.          Pioneer Natural Resources: COMPANY
WELL.             Quartz 13-22: WELL
FLD.           Purgatoire River: FIELD
LOC.           1933' FSL & 675' FWL: LOCATION
PROV.                 Colorado: PROVINCE
CNTY.               Las Animas: COUNTRY
SRVC.                Patterson: SERVICE COMPANY
DATE.          Fri Dec 16 10:30:09 2005: LOG DATE
UWI.           05 071 08638 00: UNIQUE WELL ID
~Curve Information Block
DEPT.FT            0 000 00 00: Depth
DCAL.in                       : CDL Caliper
RHOB.g/cc                     : CDL Bulk Density
RHOC.g/cc                     : CDL Density Correction
DPOR.pu                       : CDL Density Porosity
GR.GAPI                       : Gamma Ray
NPOR.pu                       : Neutron Porosity
~Parameter Information Block
~A  Depth       DCAL        RHOB        RHOC        DPOR         GR         NPOR    
# ...
   724.0000      7.9798      2.5330     -0.0392      7.0933     73.8529     19.6818
   724.1000      7.9798      2.5293      0.0253      7.3150     87.5065     19.7200
   724.2000      7.9798      2.5366      0.0018      6.8754     98.6125     19.7630
   724.3000      7.9832      2.5479     -0.0043      6.1897     97.1080     19.9403
   724.4000      7.9832      2.5620      0.0058      5.3355     89.8223     20.0441
   724.5000      7.9779      2.5785      0.0409      4.3313     84.0184     19.7832
   724.6000      7.9779      2.5903      0.0638      3.6195     81.2802     19.6724
   724.7000      7.9779      2.5953      0.0289      3.3177     83.7395     20.0847
   724.8000      7.9681      2.5998      0.0357      3.0431     86.0768     20.6378
   724.9000      7.9681      2.5958      0.0619      3.2849     82.0054     20.7857
   725.0000      7.9669      2.5784     -0.0197      4.3393     77.3811     20.4703
   725.1000      7.9669      2.5667     -0.0146      5.0492     77.3739     20.0595
   725.2000      7.9669      2.5708      0.0106      4.7975     78.8805     19.7804
   725.3000      7.9760      2.5822      0.0231      4.1106     79.1106     19.6531
   725.4000      7.9760      2.5903      0.0241      3.6187     77.6101     19.5470
   725.5000      7.9904      2.5884      0.0245      3.7344     75.6852     19.1931
   725.6000      7.9904      2.5734      0.0494      4.6429     73.8569     18.7013
   725.7000      7.9904      2.5442      0.0409      6.4122     70.8280     18.5191
   725.8000      7.9753      2.5133     -0.0342      8.2825     66.0025     18.5919
   725.9000      7.9753      2.5005     -0.0337      9.0623     60.2207     18.7041
   726.0000      7.9733      2.5049     -0.0079      8.7955     55.1424     18.9126
   726.1000      7.9733      2.5138     -0.0019      8.2521     52.6569     19.1409
   726.2000      7.9733      2.5212      0.0212      7.8076     51.9129     19.4425
   726.3000      7.9763      2.5316      0.0373      7.1762     49.5716     19.8051
   726.4000      7.9763      2.5550      0.0025      5.7558     46.9823     20.0089
   726.5000      7.9806      2.5833      0.0983      4.0429     47.3381     19.8723
   726.6000      7.9806      2.5960      0.0468      3.2698     48.9328     19.0274
   726.7000      7.9806      2.5929     -0.0046      3.4608     49.5161     17.9530
   726.8000      7.9768      2.5873     -0.0148      3.8023     49.5980     17.6030
   726.9000      7.9768      2.5856      0.0230      3.9057     50.4369     17.9454
   727.0000      7.9605      2.5830      0.0516      4.0634     52.3511     18.3427
   727.1000      7.9605      2.5744      0.0619      4.5799     54.5805     18.4629
   727.2000      7.9605      2.5658      0.0394      5.1055     56.4291     18.5111
   727.3000      7.9492      2.5653      0.0443      5.1335     59.9482     18.6380
   727.4000      7.9492      2.5710      0.0108      4.7906     65.2286     18.5907
   727.5000      7.9493      2.5718      0.0260      4.7364     66.9541     18.3434
   727.6000      7.9493      2.5632     -0.0025      5.2594     63.8715     18.2254
   727.7000      7.9493      2.5619     -0.0363      5.3420     61.1468     18.3000
   727.8000      7.9666      2.5786      0.0447      4.3282     62.1907     18.3306
   727.9000      7.9666      2.5932      0.0696      3.4396     64.9492     18.2042
   728.0000      7.9470      2.5885      0.0547      3.7287     68.0671     17.9969
   728.1000      7.9470      2.5737      0.0332      4.6262     74.1259     17.6747
   728.2000      7.9470      2.5662      0.0457      5.0793     82.8915     17.3003
   728.3000      7.9446      2.5671      0.0580      5.0256     93.0836     17.1262
   728.4000      7.9446      2.5670      0.0432      5.0295    106.9620     17.0795
   728.5000      7.9441      2.5657      0.0559      5.1103    123.2952     17.0182
   728.6000      7.9441      2.5643      0.0297      5.1953    133.9548     17.1650
   728.7000      7.9441      2.5576      0.0372      5.6024    136.6903     17.6313
   728.8000      7.9351      2.5446      0.0545      6.3874    138.3123     18.2446
   728.9000      7.9351      2.5348     -0.0291      6.9828    140.5725     18.9829
   729.0000      7.9475      2.5325      0.0549      7.1202    138.8224     19.9052
   729.1000      7.9475      2.5248      0.0402      7.5865    132.3373     20.8527
   729.2000      7.9475      2.5059      0.0262      8.7358    123.5849     21.6800
   729.3000      7.9590      2.4878      0.0012      9.8320    117.2570     22.3479
   729.4000      7.9590      2.4823     -0.0189     10.1659    118.0703     22.6535
   729.5000      7.9725      2.4902      0.0270      9.6847    119.8503     22.7841
   729.6000      7.9725      2.5085     -0.0160      8.5768    116.2849     23.1221
   729.7000      7.9725      2.5317      0.0347      7.1727    110.9940     23.6017
   729.8000      7.9785      2.5493      0.0049      6.1015    106.3363     23.9936
   729.9000      7.9785      2.5569      0.0359      5.6440    101.7013     24.1636
   730.0000      7.9861      2.5569     -0.0047      5.6449     97.8877     24.1145
   730.1000      7.9861      2.5535      0.0241      5.8478     96.2809     23.9950
   730.2000      7.9861      2.5446      0.0033      6.3894     95.4391     23.7966
   730.3000      7.9789      2.5337     -0.0304      7.0485     92.9422     23.3578
   730.4000      7.9789      2.5328     -0.0271      7.1023     91.3189     22.7716
   730.5000      7.9696      2.5392     -0.0052      6.7176     94.4844     22.3126
   730.6000      7.9696      2.5467     -0.0356      6.2583    100.9621     22.0941
   730.7000      7.9696      2.5564      0.0020      5.6702    106.8932     22.0378
   730.8000      7.9652      2.5583      0.0243      5.5546    110.7108     21.9654
   730.9000      7.9652      2.5473      0.0077      6.2238    112.0204     21.5025
   731.0000      7.9587      2.5368      0.0088      6.8618    113.0584     20.6646
   731.1000      7.9587      2.5340      0.0324      7.0292    117.1375     20.0770
   731.2000      7.9587      2.5330      0.0202      7.0898    123.7000     19.8381
   731.3000      7.9617      2.5217      0.0170      7.7778    126.2398     19.5464
   731.4000      7.9617      2.4871      0.0267      9.8733    120.5334     19.1388
   731.5000      7.9634      2.4374     -0.0085     12.8862    112.5339     18.8096
   731.6000      7.9634      2.3938     -0.0204     15.5294    110.9138     18.7357
   731.7000      7.9634      2.3599     -0.0526     17.5810    115.9105     18.7609
   731.8000      7.9652      2.3240     -0.0464     19.7554    123.2581     18.7156
   731.9000      7.9652      2.2813     -0.0463     22.3457    131.3134     18.8193
   732.0000      7.9633      2.2510     -0.0923     24.1790    137.5501     19.1504
   732.1000      7.9633      2.2545     -0.0088     23.9677    137.1744     19.6811
   732.2000      7.9633      2.2789      0.0254     22.4927    131.3382     20.5036
   732.3000      7.9680      2.2985      0.0284     21.3022    126.8435     21.1829
   732.4000      7.9680      2.3056      0.0922     20.8749    125.6404     21.2375
   732.5000      7.9914      2.3082      0.0425     20.7143    124.5645     21.1909
   732.6000      7.9914      2.3148      0.1049     20.3181    121.0050     21.3493
   732.7000      7.9914      2.3249      0.0706     19.7012    117.0741     21.5594
   732.8000      7.9964      2.3476      0.0548     18.3277    118.6587     21.9348
   732.9000      7.9964      2.3875      0.0902     15.9062    124.1035     22.4140
   733.0000      7.9906      2.4250      0.1128     13.6381    128.2364     22.4664
   733.1000      7.9906      2.4482      0.0316     12.2322    131.3468     21.4953
   733.2000      7.9906      2.4644      0.0613     11.2471    133.9287     19.8447
   733.3000      7.9734      2.4664      0.0660     11.1272    134.8178     18.4749
   733.4000      7.9734      2.4332      0.0742     13.1423    134.0958     17.7388
   733.5000      7.9763      2.3530      0.0618     18.0027    131.2135     17.1980
