~Version Information
VERS.                      2.0: CWLS Log ASCII Standard - VERSION 2.0
WRAP.                       NO: One line per depth step
~Well Information Block
STRT.FT                 5.0000: 
STOP.FT               880.0000: 
STEP.FT                 0.2500: 
NULL.                -999.2500: 
COMP.          Pioneer Natural Resources: COMPANY
WELL.          Bienville 31-28: WELL
FLD.           Purgatoire River: FIELD
LOC.           1212' FNL & 2271' FEL: LOCATION
PROV.                 Colorado: PROVINCE
CNTY.               Las Animas: COUNTRY
SRVC.                Patterson: SERVICE COMPANY
DATE.          Tue Jan 24 11:44:03 2006: LOG DATE
UWI.           05 071 08666 00: UNIQUE WELL ID
~Curve Information Block
DEPT.FT            0 000 00 00: Depth
GR.GAPI                       : Gamma Ray
CCL.                          : Casing Collar Locator
TT3.usec                      : CBL 3' Travel Time
AMP3.mV                       : CBL 3' Amplitude
~Parameter Information Block
~A  Depth        GR         CCL         TT3         AMP3    
# ...
   608.0000     48.3486      0.0000    759.9140      8.6041
   608.2500     46.7210      0.0000    758.7868      8.6829
   608.5000     44.7256      0.0000    759.9206      8.7344
   608.7500     42.5762      0.0000    761.6492      8.7447
   609.0000     40.6958      0.0000    762.8152      8.7302
   609.2500     39.6648      0.0000    763.1554      8.7252
   609.5000     39.9590      0.0000    762.8951      8.7537
   609.7500     41.7527      0.0000    762.3063      8.8102
   610.0000     44.8625      0.0000    761.4445      8.8708
   610.2500     48.7763      0.0000    759.9788      8.9195
   610.5000     52.8213      0.0000    757.2297      8.9599
   610.7500     56.4795      0.0000    752.6808      8.9985
   611.0000     59.5991      0.0000    746.8608      9.0293
   611.2500     62.3789      0.0000    741.7709      9.0385
   611.5000     65.2211      0.0000    739.9332      9.0206
   611.7500     68.4768      0.0000    742.4943      8.9836
   612.0000     72.2191      0.0000    748.2307      8.9375
   612.2500     76.3168      0.0000    754.5821      8.8822
   612.5000     80.7217      0.0000    759.6180      8.8105
   612.7500     85.4055      0.0000    763.0247      8.7202
   613.0000     89.8711      0.0000    765.5490      8.6192
   613.2500     93.0234      0.0000    767.7751      8.5219
   613.5000     93.9429      0.0000    769.3750      8.4412
   613.7500     92.8604      0.0000    769.4957      8.3853
   614.0000     91.1062      0.0000    767.9611      8.3599
   614.2500     89.8954      0.0000    765.9795      8.3703
   614.5000     89.2559      0.0000    765.5236      8.4125
   614.7500     88.3891      0.0000    767.9858      8.4640
   615.0000     86.9818      0.0000    773.2019      8.4916
   615.2500     85.7385      0.0000    779.3749      8.4759
   615.5000     85.5402      0.0000    784.0251      8.4221
   615.7500     86.5013      0.0000    785.4819      8.3419
   616.0000     88.0052      0.0000    783.7889      8.2337
   616.2500     89.3524      0.0000    780.3252      8.0916
   616.5000     90.2079      0.0000    776.7356      7.9304
   616.7500     90.5555      0.0000    774.2345      7.7925
   617.0000     90.3709      0.0000    773.2525      7.7277
   617.2500     89.3541      0.0000    772.9271      7.7646
   617.5000     87.0097      0.0000    771.1121      7.8889
   617.7500     83.1215      0.0000    765.9195      8.0455
   618.0000     78.3869      0.0000    757.6686      8.1694
   618.2500     74.5719      0.0000    749.1062      8.2227
   618.5000     73.5367      0.0000    743.7596      8.1986
   618.7500     75.6315      0.0000    743.9496      8.0949
   619.0000     79.1695      0.0000    749.4935      7.9063
   619.2500     81.6997      0.0000    757.7718      7.6496
   619.5000     81.6931      0.0000    765.3054      7.3796
   619.7500     79.1450      0.0000    769.6121      7.1668
   620.0000     75.1539      0.0000    770.2305      7.0645
   620.2500     71.1297      0.0000    768.9323      7.0865
   620.5000     68.1090      0.0000    768.6465      7.2026
   620.7500     66.6627      0.0000    770.8935      7.3534
   621.0000     67.3336      0.0000    774.2207      7.4804
   621.2500     70.7097      0.0000    775.7877      7.5544
   621.5000     76.6749      0.0000    774.0170      7.5766
   621.7500     83.7384      0.0000    769.3049      7.5614
   622.0000     89.5963      0.0000    762.9487      7.5291
   622.2500     92.6046      0.0000    756.2895      7.5103
   622.5000     92.7278      0.0000    750.9442      7.5377
   622.7500     91.3004      0.0000    749.0958      7.6222
   623.0000     90.1253      0.0000    752.3148      7.7369
   623.2500     90.5054      0.0000    759.5568      7.8295
   623.5000     92.5638      0.0000    767.0114      7.8555
   623.7500     95.2824      0.0000    770.8076      7.8097
   624.0000     97.2821      0.0000    769.8829      7.7354
   624.2500     97.6293      0.0000    766.0889      7.7074
   624.5000     96.0776      0.0000    762.0314      7.7972
   624.7500     92.8145      0.0000    759.2489      8.0400
   625.0000     88.1047      0.0000    758.0043      8.4157
   625.2500     82.2192      0.0000    757.9468      8.8555
   625.5000     75.7046      0.0000    758.6262      9.2727
   625.7500     69.5119      0.0000    759.6313      9.5986
   626.0000     64.7089      0.0000    760.6422      9.8029
   626.2500     62.0569      0.0000    761.5879      9.9010
   626.5000     61.6601      0.0000    762.8392      9.9530
   626.7500     62.8287      0.0000    765.1761     10.0441
   627.0000     64.4882      0.0000    769.3019     10.2416
   627.2500     65.8425      0.0000    775.0377     10.5573
   627.5000     66.5230      0.0000    780.9920     10.9399
   627.7500     66.3620      0.0000    785.4656     11.2956
   628.0000     65.5625      0.0000    787.9355     11.5197
   628.2500     65.0289      0.0000    789.3802     11.5382
   628.5000     66.0062      0.0000    791.0035     11.3442
   628.7500     69.1303      0.0000    793.0167     10.9997
   629.0000     73.8272      0.0000    794.8391     10.6009
   629.2500     78.5087      0.0000    796.0198     10.2380
   629.5000     81.3615      0.0000    796.5786      9.9756
   629.7500     81.4070      0.0000    796.6091      9.8443
   630.0000     79.2570      0.0000    795.7737      9.8307
   630.2500     76.7378      0.0000    793.1501      9.8775
   630.5000     75.4859      0.0000    787.6837      9.9082
   630.7500     75.8407      0.0000    779.2408      9.8640
   631.0000     76.9509      0.0000    769.3549      9.7281
   631.2500     77.6584      0.0000    760.4521      9.5197
   631.5000     77.3811      0.0000    754.0016      9.2706
   631.7500     76.4575      0.0000    749.7019      9.0000
   632.0000     75.7428      0.0000    746.4274      8.7087
   632.2500     75.8164      0.0000    743.3434      8.3970
   632.5000     76.5778      0.0000    740.1130      8.0859
   632.7500     77.4758      0.0000    736.9310      7.8148
   633.0000     77.9029      0.0000    734.8187      7.6160
   633.2500     77.3962      0.0000    735.3073      7.4930
   633.5000     75.7799      0.0000    739.1255      7.4222
   633.7500     73.2638      0.0000    745.2076      7.3742
   634.0000     70.3086      0.0000    751.3551      7.3341
   634.2500     67.3773      0.0000    755.8583      7.3037
   634.5000     64.8779      0.0000    758.3542      7.2874
   634.7500     63.2352      0.0000    759.4303      7.2782
   635.0000     62.7465      0.0000    759.8355      7.2608
   635.2500     63.3514      0.0000    760.0642      7.2280
   635.5000     64.7822      0.0000    760.3159      7.1891
   635.7500     66.8734      0.0000    760.6034      7.1652
   636.0000     69.3786      0.0000    760.8589      7.1744
   636.2500     71.6135      0.0000    760.9145      7.2157
   636.5000     72.8230      0.0000    760.3076      7.2541
   636.7500     72.9270      0.0000    758.0308      7.2222
   637.0000     72.4491      0.0000    752.7861      7.0544
   637.2500     71.7044      0.0000    744.3129      6.7330
   637.5000     70.4597      0.0000    735.0458      6.2884
   637.7500     68.4047      0.0000    729.7898      5.7542
   638.0000     65.6479      0.0000    732.4097      5.1637
   638.2500     62.6217      0.0000    742.2518      4.6063
   638.5000     59.6558      0.0000    753.9149      4.2197
   638.7500     56.8995      0.0000    760.8877      4.0820
   639.0000     54.8033      0.0000    760.5485      4.1509
   639.2500     54.4420      0.0000    756.6842      4.3371
   639.5000     56.8548      0.0000    756.8257      4.6128
   639.7500     61.8429      0.0000    765.9741      5.0551
   640.0000     67.6110      0.0000    782.1971      5.7952
   640.2500     71.8315      0.0000    798.0178      6.8738
   640.5000     73.2414      0.0000    806.2761      8.0849
   640.7500     72.3407      0.0000    805.1603      9.0264
   641.0000     70.5373      0.0000    798.0711      9.4112
   641.2500     68.7527      0.0000    789.7474      9.3013
