~Version Information
VERS.                      2.0: CWLS Log ASCII Standard - VERSION 2.0
WRAP.                       NO: One line per depth step
~Well Information Block
STRT.FT               860.0000: 
STOP.FT              2362.5000: 
STEP.FT                 0.2500: 
NULL.                -999.2500: 
COMP.          Pioneer Natural Resources: COMPANY
WELL.            Cayenne 23-23: WELL
FLD.           Purgatoire River: FIELD
LOC.           2555' FSL & 2386' FWL: LOCATION
PROV.                 Colorado: PROVINCE
CNTY.               Las Animas: COUNTRY
SRVC.                Patterson: SERVICE COMPANY
DATE.          Wed Aug 17 06:47:40 2005: LOG DATE
UWI.           05 071 08476 00: UNIQUE WELL ID
~Curve Information Block
DEPT.FT            0 000 00 00: Depth
SN.Ohm-m                      : IEL Short Normal
SP.mV                         : IEL Spontaneous Potential
DIR.Ohm-m                     : IEL Induction Resistivity
GR.GAPI                       : Gamma Ray
~Parameter Information Block
~A  Depth        SN          SP         DIR          GR     
# ...
  1262.0000     25.9567   -171.9654 100000.0000     75.1630
  1262.2500     25.4113   -188.4293     54.9035     75.3990
  1262.5000     24.6710   -207.0140     18.8344     76.4940
  1262.7500     23.5902   -227.5806     17.1473     78.4239
  1263.0000     22.2221   -249.6503     55.3416     84.7091
  1263.2500     20.6891   -272.3107 100000.0000     91.6475
  1263.5000     18.9440   -294.2768 100000.0000    105.1576
  1263.7500     16.7746   -314.1831 100000.0000    114.5758
  1264.0000     14.0576   -331.1328 100000.0000    125.9562
  1264.2500     10.9890   -345.2912 100000.0000    130.2991
  1264.5000      8.0214   -357.8221 100000.0000    131.2819
  1264.7500      5.5373   -369.7352 100000.0000    128.7588
  1265.0000      3.6284   -380.7245 100000.0000    121.6736
  1265.2500      2.2220   -389.5074 100000.0000    115.4286
  1265.5000      1.2886   -395.2318 100000.0000    104.5261
  1265.7500      0.8035   -398.1946 100000.0000     96.7842
  1266.0000      0.6313   -399.3201 100000.0000     85.7726
  1266.2500      0.5968   -399.2613 100000.0000     79.4348
  1266.5000      0.6002   -397.8277 100000.0000     71.8486
  1266.7500      0.6147   -393.8280 100000.0000     68.2349
  1267.0000      0.6376   -385.4476 100000.0000     65.3679
  1267.2500      0.6758   -371.3127 100000.0000     65.0820
  1267.5000      0.7313   -351.5705     12.3646     65.9347
  1267.7500      0.7217   -327.8101      3.1478     66.4263
  1268.0000      0.5449   -301.8020      1.7453     66.1258
  1268.2500      0.3050   -274.5879      1.3279     65.2997
  1268.5000      0.2160   -246.8087      1.2795     63.6738
  1268.7500      0.2988   -219.3704      1.5231     62.5140
  1269.0000      0.4428   -193.4478      2.1714     60.7290
  1269.2500      0.6113   -170.0506      3.2532     59.7256
  1269.5000      0.8337   -149.7525      3.4760     59.3743
  1269.7500      1.1914   -132.6987      2.1828     60.4469
  1270.0000      1.8184   -118.7175      1.1872     64.5297
  1270.2500      2.7774   -107.4360      0.7158     68.9466
  1270.5000      4.0266    -98.3703      0.5071     77.5555
  1270.7500      5.6027    -90.9973      0.4341     83.7939
  1271.0000      7.6794    -84.8370      0.4575     92.2676
  1271.2500     10.2913    -79.5423      0.5903     96.8867
  1271.5000     13.1435    -74.9456      0.9282    102.6007
  1271.7500     15.7669    -71.0207      1.9115    105.9519
  1272.0000     17.7360    -67.7841      8.7581    110.4388
  1272.2500     18.8737    -65.2047 100000.0000    112.8968
  1272.5000     19.3615    -63.1645 100000.0000    115.3778
  1272.7500     19.5498    -61.4739 100000.0000    116.0382
  1273.0000     19.7001    -59.9200 100000.0000    115.2174
  1273.2500     19.8746    -58.3283 100000.0000    113.1718
  1273.5000     19.9387    -56.6183 100000.0000    107.3135
  1273.7500     19.7188    -54.8327 100000.0000    101.6396
  1274.0000     19.1567    -53.1203 100000.0000     92.3096
  1274.2500     18.2801    -51.6651 100000.0000     87.5887
  1274.5000     17.1809    -50.5935 100000.0000     86.2830
  1274.7500     16.0143    -49.9109 100000.0000     90.0558
  1275.0000     14.9015    -49.5079 100000.0000    100.8227
  1275.2500     13.9411    -49.2326 100000.0000    109.0974
  1275.5000     13.2614    -48.9788    238.2690    119.5188
  1275.7500     12.8941    -48.7273     57.9106    124.2199
  1276.0000     12.7277    -48.5204     42.2906    128.5868
  1276.2500     12.6302    -48.4052     45.8539    130.6912
  1276.5000     12.5336    -48.3946     75.6393    133.4816
  1276.7500     12.4482    -48.4601    456.5067    134.6434
  1277.0000     12.4240    -48.5501 100000.0000    133.7002
  1277.2500     12.4923    -48.6171 100000.0000    130.6697
  1277.5000     12.6770    -48.6424 100000.0000    123.0770
  1277.7500     13.0184    -48.6442     75.5706    117.2227
  1278.0000     13.4979    -48.6670     31.7728    110.0906
  1278.2500     14.0238    -48.7584     19.9978    107.7047
  1278.5000     14.5832    -48.9353     15.2561    107.6585
  1278.7500     15.2800    -49.1546     13.0894    108.5715
  1279.0000     16.1649    -49.3169     12.1224    108.2805
  1279.2500     17.1407    -49.3151     11.7911    105.9767
  1279.5000     18.0422    -49.0967     11.8204     99.7384
  1279.7500     18.7361    -48.6946     12.0711     94.7794
  1280.0000     19.1575    -48.2070     12.4811     88.3147
  1280.2500     19.3042    -47.7445     13.0252     85.7453
  1280.5000     19.1939    -47.3814     13.6788     85.8269
  1280.7500     18.8455    -47.1387     14.3910     88.9003
  1281.0000     18.2943    -46.9969     15.0788     97.7209
  1281.2500     17.5650    -46.9263     15.6461    105.4318
  1281.5000     16.6779    -46.9119     16.0185    116.8884
  1281.7500     15.7063    -46.9598     16.1708    122.6012
  1282.0000     14.7855    -47.0832     16.1299    126.1412
  1282.2500     14.0625    -47.2845     15.9542    125.1020
  1282.5000     13.5814    -47.5461     15.7097    120.4807
  1282.7500     13.2655    -47.8317     15.4544    117.0810
  1283.0000     13.0568    -48.0962     15.2347    113.5291
  1283.2500     12.9543    -48.3003     15.0861    112.3028
  1283.5000     12.9585    -48.4275     15.0311    111.0250
  1283.7500     13.0661    -48.4968     15.0734    109.7689
  1284.0000     13.2802    -48.5602     15.1953    106.6912
  1284.2500     13.5996    -48.6771     15.3639    104.0316
  1284.5000     13.9805    -48.8735     15.5473    100.0302
  1284.7500     14.3453    -49.1135     15.7282     97.9513
  1285.0000     14.6401    -49.3128     15.9065     96.3837
  1285.2500     14.8630    -49.3873     16.0869     96.3373
  1285.5000     15.0656    -49.3018     16.2676     97.0195
  1285.7500     15.3063    -49.0872     16.4374     97.4689
  1286.0000     15.5446    -48.8237     16.5838     97.7732
  1286.2500     15.6057    -48.6070     16.6991     97.9214
  1286.5000     15.3598    -48.5101     16.7769     98.9474
  1286.7500     14.9414    -48.5584     16.8038    100.7115
  1287.0000     14.6252    -48.7306     16.7561    105.1281
  1287.2500     14.4949    -48.9830     16.6113    108.7382
  1287.5000     14.4094    -49.2797     16.3625    114.0618
  1287.7500     14.2304    -49.6066     16.0270    117.2661
  1288.0000     13.9392    -49.9701     15.6399    121.4572
  1288.2500     13.5737    -50.3917     15.2425    123.6326
  1288.5000     13.1609    -50.9017     14.8711    125.4255
  1288.7500     12.7562    -51.5309     14.5511    125.6300
  1289.0000     12.4782    -52.2981     14.2938    125.4494
  1289.2500     12.3855    -53.1978     14.0986    125.9637
  1289.5000     12.3408    -54.1935     13.9587    128.9163
  1289.7500     12.1491    -55.2219     13.8681    132.3012
  1290.0000     11.8062    -56.2088     13.8258    138.0760
  1290.2500     11.4724    -57.0910     13.8331    141.1284
  1290.5000     11.2741    -57.8331     13.8882    142.2877
  1290.7500     11.2571    -58.4315     13.9822    139.8172
  1291.0000     11.5054    -58.9027     14.1012    131.0635
  1291.2500     12.1296    -59.2533     14.2318    122.8534
  1291.5000     13.0560    -59.4574     14.3635    109.7842
  1291.7500     14.0127    -59.4693     14.4858    101.9718
  1292.0000     14.7959    -59.2725     14.5843     92.5163
  1292.2500     15.3764    -58.9167     14.6439     87.5552
  1292.5000     15.7551    -58.5023     14.6574     81.9018
  1292.7500     15.8624    -58.1250     14.6303     79.7309
  1293.0000     15.6324    -57.8336     14.5753     80.2741
  1293.2500     15.1330    -57.6305     14.5027     83.8360
  1293.5000     14.5481    -57.4995     14.4141     93.7188
  1293.7500     14.0018    -57.4294     14.3049    102.1354
  1294.0000     13.4851    -57.4232     14.1702    114.4178
  1294.2500     12.9750    -57.4937     14.0105    120.8136
  1294.5000     12.5051    -57.6519     13.8294    126.7330
  1294.7500     12.1127    -57.8941     13.6293    128.7255
  1295.0000     11.8199    -58.2017     13.4085    130.3402
  1295.2500     11.6245    -58.5533     13.1670    130.9970
