~Version Information
VERS.                      2.0: CWLS Log ASCII Standard - VERSION 2.0
WRAP.                       NO: One line per depth step
~Well Information Block
STRT.FT                -6.7500: 
STOP.FT              1121.2500: 
STEP.FT                 0.2500: 
NULL.                -999.2500: 
COMP.          Pioneer Natural Resources: COMPANY
WELL.              Draco 31-21: WELL
FLD.           Purgatorie River: FIELD
LOC.           491' FNL & 2446' FEL--: LOCATION
CNTY.               Las Animas: COUNTY
SRVC.          Patterson Wireline: SERVICE COMPANY
DATE.          Mon Feb 06 09:50:04 2006: LOG DATE
UWI.           05 071 08672 00: UNIQUE WELL ID
STAT.                       CO: STATE
~Curve Information Block
DEPT.FT            0 000 00 00: Depth
CCL.                          : Casing Collar Locator
TT3.usec                      : CBL 3' Travel Time
AMP3.mV                       : CBL 3' Amplitude
GR.GAPI                       : Gamma Ray
~Parameter Information Block
~A  Depth       CCL         TT3         AMP3         GR     
    -6.7500   -999.2500   -999.2500   -999.2500     94.0266
    -6.5000   -999.2500   -999.2500   -999.2500     92.6592
    -6.2500   -999.2500   -999.2500   -999.2500     90.2188
    -6.0000   -999.2500   -999.2500   -999.2500     86.0915
    -5.7500   -999.2500   -999.2500   -999.2500     80.8535
    -5.5000   -999.2500   -999.2500   -999.2500     75.8182
    -5.2500   -999.2500   -999.2500   -999.2500     72.1472
    -5.0000   -999.2500   -999.2500   -999.2500     70.4963
    -4.7500   -999.2500   -999.2500   -999.2500     71.1551
    -4.5000   -999.2500   -999.2500   -999.2500     74.1516
    -4.2500   -999.2500   -999.2500   -999.2500     79.1718
    -4.0000   -999.2500   -999.2500   -999.2500     85.4418
    -3.7500   -999.2500   -999.2500   -999.2500     91.7064
    -3.5000   -999.2500   -999.2500   -999.2500     96.4706
    -3.2500   -999.2500   -999.2500   -999.2500     98.5122
    -3.0000   -999.2500   -999.2500   -999.2500     97.4639
    -2.7500   -999.2500   -999.2500   -999.2500     94.1171
    -2.5000   -999.2500   -999.2500   -999.2500     89.9695
    -2.2500   -999.2500   -999.2500   -999.2500     86.1536
    -2.0000   -999.2500   -999.2500   -999.2500     83.0093
    -1.7500   -999.2500   1161.0000      0.4516     80.7566
    -1.5000   -999.2500   1161.0000      0.4466     79.9755
    -1.2500   -999.2500   1161.0000      0.4394     81.0909
    -1.0000   -999.2500   1161.0000      0.4312     83.8044
    -0.7500   -999.2500   1161.0000      0.4217     87.0835
    -0.5000   -999.2500   1161.0000      0.4102     89.3645
    -0.2500   -999.2500   1161.0000      0.3988     89.0779
     0.0000   -999.2500   1161.0000      0.3910     85.6511
     0.2500   -999.2500   1161.0000      0.3912     73.8008
     0.5000   -999.2500   1161.0000      0.3967     68.2496
     0.7500   -999.2500   1161.0000      0.4045     63.4416
     1.0000   -999.2500   1161.0000      0.4144     58.5172
     1.2500   -999.2500   1161.0000      0.4258     52.5173
     1.5000   -999.2500   1161.0000      0.4367     45.3622
     1.7500   -999.2500   1161.0000      0.4453     38.0972
     2.0000   -999.2500   1161.0000      0.4512     32.2226
     2.2500   -999.2500   1161.0000      0.4550     28.9594
     2.5000   -999.2500   1161.0000      0.4569     29.0885
     2.7500   -999.2500   1161.0000      0.4575     32.9635
     3.0000   -999.2500   1161.0000      0.4582     40.1886
     3.2500   -999.2500   1161.0000      0.4600     49.3728
     3.5000      0.0000   1161.0000      0.4619     58.5891
     3.7500      0.0000   1160.9855      0.4625     66.2055
     4.0000      0.0000   1160.9056      0.4625     71.2737
     4.2500      0.0000   1160.5206      0.4643     73.3678
     4.5000      0.0000   1159.0806      0.4689     72.4100
     4.7500      0.0000   1154.9783      0.4732     68.8599
     5.0000      0.0000   1145.9650      0.4791     63.9663
     5.2500      0.0000   1130.3455      0.5141     59.4315
     5.5000      0.0000   1107.2390      0.7110     56.5581
     5.7500      0.0000   1073.2466      1.4988     55.7333
     6.0000      0.0000   1018.2348      3.8979     56.5828
     6.2500      0.0000    928.7567      9.5865     58.3376
     6.5000      0.0000    800.7289     20.1239     60.2923
     6.7500      0.0000    649.2583     35.3624     62.4085
     7.0000      0.0000    503.5771     52.5504     65.2713
     7.2500      0.0000    390.2439     67.6624     68.9054
     7.5000      0.0000    319.2760     78.0165     71.9173
     7.7500      0.0000    283.7337     83.5407     72.5248
     8.0000      0.0000    269.5929     85.8253     70.4256
     8.2500      0.0000    265.1454     86.5402     67.1112
     8.5000      0.0000    264.0455     86.6890     64.3161
     8.7500      0.0000    263.8346     86.6906     62.5139
     9.0000      0.0000    263.8023     86.6743     60.9243
     9.2500      0.0000    263.8004     86.6762     58.6989
     9.5000      0.0000    263.7967     86.7198     55.8548
     9.7500      0.0000    263.7910     86.8200     53.1082
    10.0000      0.0000    263.7840     86.9673     51.1391
    10.2500      0.0000    263.7765     87.1227     50.2521
    10.5000      0.0000    263.7697     87.2394     50.5856
    10.7500      0.0000    263.7648     87.2936     52.2852
    11.0000      0.0000    263.7623     87.2953     55.1882
    11.2500      0.0000    263.7621     87.2740     58.4265
    11.5000      0.0000    263.7639     87.2561     60.7485
    11.7500      0.0000    263.7673     87.2550     61.4321
    12.0000      0.0000    263.7707     87.2749     60.7682
    12.2500      0.0000    263.7717     87.3144     59.6602
    12.5000      0.0000    263.7686     87.3656     58.9741
    12.7500      0.0000    263.7623     87.4139     59.2000
    13.0000      0.0000    263.7582     87.4261     60.3559
    13.2500      0.0000    263.7696     87.3005     62.0470
    13.5000      0.0000    263.8299     86.7836     63.7341
    13.7500      0.0000    264.0110     85.4338     65.0630
    14.0000      0.0000    264.4271     82.8242     65.9442
    14.2500      0.0000    265.1913     78.9720     66.3762
    14.5000      0.0000    266.3232     74.5446     66.2795
    14.7500      0.0000    267.6779     70.4424     65.4906
    15.0000      0.0000    268.9855     67.1860     63.8541
    15.2500      0.0000    269.9936     64.8473     61.3041
    15.5000      0.0000    270.5982     63.3760     57.8960
    15.7500      0.0000    270.8582     62.6986     53.9285
    16.0000      0.0000    270.9058     62.6079     50.1612
    16.2500     -2.0000    270.8492     62.8401     47.6784
    16.5000      0.0000    270.7333     63.2934     47.1156
    16.7500      0.0000    270.5467     64.1648     47.9848
    17.0000      0.0000    270.2338     65.9232     49.1098
    17.2500      0.0000    269.7032     69.0393     49.7054
    17.5000      0.0000    268.8672     73.4813     49.7530
    17.7500      0.0000    267.7303     78.4299     49.5134
    18.0000      0.0000    266.4516     82.7251     49.1471
    18.2500      0.0000    265.2861     85.6359     48.8215
    18.5000      0.0000    264.4329     87.0777     48.8264
    18.7500      0.0000    263.9355     87.2101     49.3155
    19.0000      0.0000    263.7170     86.0715     49.9416
    19.2500      0.0000    263.6850     83.5741     49.8687
    19.5000      0.0000    263.8052     79.6772     48.3768
    19.7500      0.0000    264.1339     74.5125     45.6570
    20.0000      0.0000    264.8659     68.3822     42.9688
    20.2500      0.0000    266.4271     61.6800     41.8253
    20.5000      0.0000    269.4847     54.8063     42.9217
    20.7500      0.0000    274.6272     48.1215     45.7615
    21.0000      0.0000    281.7375     41.9071     49.1778
    21.2500      0.0000    289.6660     36.3346     52.1505
    21.5000      0.0000    296.8239     31.4684     54.1366
    21.7500      0.0000    302.3138     27.3104     54.7903
    22.0000      0.0000    306.5403     23.8469     53.7798
    22.2500      0.0000    310.8316     21.0567     51.1369
    22.5000      0.0000    316.4742     18.8980     47.6253
    22.7500      0.0000    323.7635     17.3094     44.4555
    23.0000      0.0000    331.6786     16.2151     42.5459
    23.2500      0.0000    338.5551     15.5238     42.1611
    23.5000      0.0000    343.2463     15.1346     43.1982
    23.7500      0.0000    345.6935     14.9564     45.4371
    24.0000      0.0000    346.5546     14.9201     48.3582
    24.2500      0.0000    346.5578     14.9712     50.9721
    24.5000      0.0000    346.2000     15.0580     52.1688
    24.7500      0.0000    345.7650     15.1310     51.4278
    25.0000      0.0000    345.3899     15.1561     49.3195
    25.2500      0.0000    345.1288     15.1261     47.2737
    25.5000      0.0000    345.0838     15.0551     46.6526
    25.7500      0.0000    345.8396     14.9558     47.8562
    26.0000      0.0000    349.4173     14.8200     50.2426
    26.2500      0.0000    360.6903     14.6206     52.7105
    26.5000      0.0000    387.6540     14.3353     54.1546
