~Version Information
VERS.                      2.0: CWLS Log ASCII Standard - VERSION 2.0
WRAP.                       NO: One line per depth step
~Well Information Block
STRT.FT               860.0000: 
STOP.FT              2360.5000: 
STEP.FT                 0.1000: 
NULL.                -999.2500: 
COMP.          Pioneer Natural Resources: COMPANY
WELL.            Cayenne 23-23: WELL
FLD.           Purgatoire River: FIELD
LOC.           2555' FSL & 2386' FWL: LOCATION
PROV.                 Colorado: PROVINCE
CNTY.               Las Animas: COUNTRY
SRVC.                Patterson: SERVICE COMPANY
DATE.          Wed Aug 17 08:28:25 2005: LOG DATE
UWI.           05 071 08476 00: UNIQUE WELL ID
~Curve Information Block
DEPT.FT            0 000 00 00: Depth
DCAL.in                       : CDL Caliper
RHOB.g/cc                     : CDL Bulk Density
RHOC.g/cc                     : CDL Density Correction
DPOR.pu                       : CDL Density Porosity
GR.GAPI                       : Gamma Ray
NPOR.pu                       : Neutron Porosity
~Parameter Information Block
~A  Depth       DCAL        RHOB        RHOC        DPOR         GR         NPOR    
   860.0000      5.0715      1.6722      0.3878     59.2595    112.2438     26.1956
   860.1000      5.0715      1.6871      0.4035     58.3568    117.2848     25.1892
   860.2000      5.0715      1.6854      0.3900     58.4590    124.6757     23.5266
   860.3000      5.0816      1.6826      0.3395     58.6323    133.1173     22.5413
   860.4000      5.0816      1.6931      0.3864     57.9915    138.5121     23.2792
   860.5000      5.0833      1.7135      0.4028     56.7571    140.3772     25.1423
   860.6000      5.0833      1.7353      0.4182     55.4380    138.9478     25.8991
   860.7000      5.0833      1.7515      0.4433     54.4545    135.7368     24.9677
   860.8000      5.0752      1.7549      0.4329     54.2488    138.6041     24.0280
   860.9000      5.0752      1.7467      0.4266     54.7454    143.7328     24.1008
   861.0000      5.0726      1.7362      0.4081     55.3848    136.0942     24.9463
   861.1000      5.0726      1.7297      0.4115     55.7751    119.4338     25.7070
   861.2000      5.0726      1.7293      0.4058     55.8021    105.6728     25.8221
   861.3000      5.0763      1.7359      0.4373     55.4020     96.4861     25.7253
   861.4000      5.0763      1.7547      0.4106     54.2597     90.8044     25.9298
   861.5000      5.0583      1.7962      0.4284     51.7479     88.1171     26.0958
   861.6000      5.0583      1.8535      0.5110     48.2714     88.1714     25.9659
   861.7000      5.0583      1.8978      0.5267     45.5883     89.6192     26.0946
   861.8000      5.0397      1.9119      0.5090     44.7313     87.2469     26.4289
   861.9000      5.0397      1.9077      0.4830     44.9905     79.4310     26.2250
   862.0000      5.0712      1.9034      0.4981     45.2467     70.7864     26.0999
   862.1000      5.0712      1.9029      0.4687     45.2780     68.6690     26.6761
   862.2000      5.0712      1.9005      0.4963     45.4247     77.0527     27.1091
   862.3000      5.0732      1.8928      0.4863     45.8928     89.3395     27.0207
   862.4000      5.0732      1.8846      0.4828     46.3877     99.7802     26.7333
   862.5000      5.0742      1.8826      0.4699     46.5082    108.6272     25.8992
   862.6000      5.0742      1.8846      0.4974     46.3858    113.8517     24.7284
   862.7000      5.0742      1.8895      0.4961     46.0890    116.1451     24.6515
   862.8000      5.0732      1.9063      0.4844     45.0745    119.5143     25.9198
   862.9000      5.0732      1.9389      0.5047     43.0945    121.9072     27.1088
   863.0000      5.0679      1.9800      0.5231     40.6073    119.1307     27.2719
   863.1000      5.0679      2.0187      0.5451     38.2631    114.2785     26.4488
   863.2000      5.0679      2.0463      0.5503     36.5876    115.4985     25.2922
   863.3000      5.0703      2.0635      0.5358     35.5463    122.1672     24.7634
   863.4000      5.0703      2.0776      0.5342     34.6893    126.5985     25.1586
   863.5000      5.0709      2.0888      0.5616     34.0092    123.6356     25.9524
   863.6000      5.0709      2.0945      0.5616     33.6640    115.4565     26.4392
   863.7000      5.0709      2.1014      0.5683     33.2498    111.8359     26.4668
   863.8000      5.0781      2.1146      0.5711     32.4493    113.4857     26.6598
   863.9000      5.0781      2.1289      0.5582     31.5804    111.0863     27.0584
   864.0000      5.0727      2.1370      0.5657     31.0884    106.1423     26.7814
   864.1000      5.0727      2.1382      0.5749     31.0192    107.2861     25.7572
   864.2000      5.0727      2.1394      0.5493     30.9431    112.9348     25.1277
   864.3000      5.0647      2.1446      0.5789     30.6275    115.7206     25.4836
   864.4000      5.0647      2.1504      0.5653     30.2808    115.3662     26.1508
   864.5000      5.0774      2.1583      0.5590     29.7985    115.5371     26.2391
   864.6000      5.0774      2.1735      0.5582     28.8783    114.3451     25.4794
   864.7000      5.0774      2.1947      0.5690     27.5936    107.0805     24.6762
   864.8000      5.0720      2.2162      0.5618     26.2904     98.6222     24.6857
   864.9000      5.0720      2.2306      0.5938     25.4204     97.0686     25.2103
   865.0000      5.0707      2.2325      0.5810     25.3046     99.0698     25.6935
   865.1000      5.0707      2.2276      0.5430     25.6028    100.8313     26.0555
   865.2000      5.0707      2.2261      0.5400     25.6888    104.1118     26.1864
   865.3000      5.0656      2.2287      0.5597     25.5314    106.0255     26.1272
   865.4000      5.0656      2.2340      0.5233     25.2096    106.6641     25.9791
   865.5000      5.0684      2.2409      0.5696     24.7918    108.7700     25.6747
   865.6000      5.0684      2.2404      0.5683     24.8247    110.0365     25.0237
   865.7000      5.0684      2.2299      0.5417     25.4609    108.4383     24.1121
   865.8000      5.0679      2.2139      0.5452     26.4284    108.2336     23.4485
   865.9000      5.0679      2.1940      0.5192     27.6373    114.8461     22.8435
   866.0000      5.0747      2.1691      0.5522     29.1467    123.5918     22.0811
   866.1000      5.0747      2.1380      0.5118     31.0321    127.2359     22.0307
   866.2000      5.0747      2.1053      0.4910     33.0120    129.9150     22.8386
   866.3000      5.0755      2.0792      0.4858     34.5957    136.2256     23.8330
   866.4000      5.0755      2.0662      0.4672     35.3821    138.1544     24.7506
   866.5000      5.0746      2.0662      0.4923     35.3825    130.6794     25.3798
   866.6000      5.0746      2.0676      0.4980     35.2947    122.8949     25.4382
   866.7000      5.0746      2.0643      0.4599     35.4968    120.8790     25.1607
   866.8000      5.0754      2.0629      0.4530     35.5830    124.3985     25.1121
   866.9000      5.0754      2.0659      0.4667     35.4024    130.5697     25.3013
   867.0000      5.0809      2.0718      0.4482     35.0399    133.5203     25.4641
   867.1000      5.0809      2.0813      0.4846     34.4639    134.2516     25.4901
   867.2000      5.0809      2.0951      0.4522     33.6300    136.4984     25.1358
   867.3000      5.0718      2.1144      0.4624     32.4604    138.2473     24.3432
   867.4000      5.0718      2.1318      0.4891     31.4049    139.5538     23.7622
   867.5000      5.0792      2.1371      0.4855     31.0869    143.1200     23.9074
   867.6000      5.0792      2.1343      0.4731     31.2537    144.5531     24.3257
   867.7000      5.0792      2.1339      0.4521     31.2771    141.4188     24.7532
   867.8000      5.0810      2.1362      0.4652     31.1422    139.9695     25.6032
   867.9000      5.0810      2.1341      0.4522     31.2684    140.5772     26.5968
   868.0000      5.0842      2.1296      0.4110     31.5415    137.3158     27.1058
   868.1000      5.0842      2.1343      0.4238     31.2529    131.5445     27.2017
   868.2000      5.0842      2.1514      0.4372     30.2175    129.4888     27.4344
   868.3000      5.0772      2.1757      0.4198     28.7440    130.5718     27.6170
   868.4000      5.0772      2.2010      0.4395     27.2122    131.4268     27.1945
   868.5000      5.0817      2.2143      0.4615     26.4043    131.1828     26.5205
   868.6000      5.0817      2.2094      0.4139     26.7024    128.4939     26.0064
   868.7000      5.0817      2.1978      0.4278     27.4037    122.5445     25.5038
   868.8000      5.0967      2.1922      0.4242     27.7461    114.8161     25.0531
   868.9000      5.0967      2.1896      0.4218     27.9016    110.1708     25.1296
   869.0000      5.0818      2.1797      0.4011     28.5009    111.7099     25.6719
   869.1000      5.0818      2.1586      0.3832     29.7827    115.2103     25.8001
   869.2000      5.0818      2.1301      0.3467     31.5093    117.4937     25.2342
   869.3000      5.0775      2.1061      0.3239     32.9627    123.3068     24.4895
   869.4000      5.0775      2.0963      0.3420     33.5566    136.1445     23.6371
   869.5000      5.0818      2.0946      0.3775     33.6589    149.4834     22.6402
