~Version Information
VERS.                      2.0: CWLS Log ASCII Standard - VERSION 2.0
WRAP.                       NO: One line per depth step
~Well Information Block
STRT.FT                 0.0000: 
STOP.FT              1528.0000: 
STEP.FT                 0.1000: 
NULL.                -999.2500: 
COMP.          Pioneer Natural Resources: COMPANY
WELL.             Andrew 23-15: WELL
FLD.           Purgatorie River: FIELD
LOC.           2137' FSL & 2292' FWL: LOCATION
PROV.                 Colorado: PROVINCE
CNTY.               Las Animas: COUNTRY
SRVC.                Patterson: SERVICE COMPANY
DATE.          Sat Aug 13 12:06:57 2005: LOG DATE
UWI.                          : UNIQUE WELL ID
~Curve Information Block
DEPT.FT            0 000 00 00: Depth
DCAL.in                       : CDL Caliper
RHOB.g/cc                     : CDL Bulk Density
RHOC.g/cc                     : CDL Density Correction
DPOR.pu                       : CDL Density Porosity
GR.GAPI                       : Gamma Ray
NPOR.pu                       : Neutron Porosity
~Parameter Information Block
~A  Depth       DCAL        RHOB        RHOC        DPOR         GR         NPOR    
# ...
  1411.2000      7.8256      2.4819      0.0147     10.1870    106.1537     27.5511
  1411.3000      7.8228      2.4799      0.0226     10.3073    107.9809     27.4446
  1411.4000      7.8228      2.4809      0.0329     10.2500    109.6879     27.4286
  1411.5000      7.8147      2.4793      0.0305     10.3481    110.4273     27.6607
  1411.6000      7.8147      2.4725      0.0281     10.7587    110.9829     27.9551
  1411.7000      7.8147      2.4635      0.0069     11.3053    112.3532     28.2220
  1411.8000      7.8012      2.4646      0.0118     11.2379    111.1620     28.2145
  1411.9000      7.8012      2.4850      0.0282     10.0028    105.6137     27.8728
  1412.0000      7.7875      2.5182      0.0602      7.9908     99.0846     27.4973
  1412.1000      7.7875      2.5509      0.0621      6.0090     95.7698     27.3129
  1412.2000      7.7875      2.5718      0.0857      4.7375     97.0528     27.1948
  1412.3000      7.8102      2.5755      0.0975      4.5135    100.9055     27.0161
  1412.4000      7.8102      2.5674      0.0757      5.0035    105.3314     27.1257
  1412.5000      7.8033      2.5574      0.0686      5.6110    108.8404     27.7360
  1412.6000      7.8033      2.5480      0.0626      6.1807    109.1807     28.2339
  1412.7000      7.8033      2.5371      0.0769      6.8436    106.5804     28.0261
  1412.8000      7.7962      2.5262      0.0342      7.5001    103.8592     27.4548
  1412.9000      7.7962      2.5221      0.0589      7.7505    103.3624     27.2280
  1413.0000      7.7556      2.5269      0.0616      7.4616    105.8900     27.6203
  1413.1000      7.7556      2.5321      0.0468      7.1439    110.3353     28.2432
  1413.2000      7.7556      2.5278      0.0702      7.4059    112.9559     28.3774
  1413.3000      7.7633      2.5151      0.0292      8.1745    111.1718     27.9851
  1413.4000      7.7633      2.5085      0.0109      8.5735    107.7894     27.7324
  1413.5000      7.7853      2.5176      0.0224      8.0265    106.8831     27.7776
  1413.6000      7.7853      2.5347      0.0535      6.9864    109.9851     27.7215
  1413.7000      7.7853      2.5502      0.0627      6.0472    112.5112     27.4490
  1413.8000      7.7843      2.5639      0.0530      5.2164    109.2861     27.1629
  1413.9000      7.7843      2.5779      0.0803      4.3676    104.2653     27.1050
  1414.0000      7.7753      2.5882      0.0814      3.7479    102.7687     27.1756
  1414.1000      7.7753      2.5921      0.0560      3.5075    103.7884     26.9174
  1414.2000      7.7753      2.5924      0.0412      3.4900    103.6969     26.4034
  1414.3000      7.7799      2.5850      0.0537      3.9395    103.0392     26.0296
  1414.4000      7.7799      2.5605      0.0602      5.4243    105.0987     25.9213
  1414.5000      7.7935      2.5101      0.0524      8.4760    107.4339     26.1230
  1414.6000      7.7935      2.4350      0.0095     13.0289    104.9030     26.3862
  1414.7000      7.7935      2.3581     -0.0287     17.6922     97.7451     26.3359
  1414.8000      7.7782      2.3028     -0.0117     21.0424     90.4180     26.0976
  1414.9000      7.7782      2.2698      0.0165     23.0448     87.6881     26.0238
  1415.0000      7.7232      2.2558     -0.0094     23.8889     89.1659     26.1517
  1415.1000      7.7232      2.2686      0.0042     23.1127     89.7781     26.3686
  1415.2000      7.7232      2.3091      0.0688     20.6594     87.2781     26.5553
  1415.3000      7.6791      2.3662      0.1536     17.2023     84.1307     26.6497
  1415.4000      7.6791      2.4286      0.1997     13.4165     81.5752     26.7113
  1415.5000      7.6081      2.4893      0.2203      9.7372     78.6895     26.6643
  1415.6000      7.6081      2.5378      0.2013      6.7978     74.9417     26.4231
  1415.7000      7.6081      2.5656      0.2134      5.1170     70.4638     26.1569
  1415.8000      7.6368      2.5801      0.1420      4.2386     65.3647     25.9121
  1415.9000      7.6368      2.5967      0.0628      3.2313     60.6028     25.4577
  1416.0000      7.6753      2.6205      0.0423      1.7888     57.9715     24.7724
  1416.1000      7.6753      2.6506      0.0266     -0.0393     58.1776     24.1437
  1416.2000      7.6753      2.6896      0.0454     -2.4027     60.8544     23.5813
  1416.3000      7.7620      2.7349      0.0913     -5.1463     64.4556     22.9428
  1416.4000      7.7620      2.7726      0.2020     -7.4317     67.9518     22.3711
  1416.5000      7.7548      2.7885      0.2114     -8.3939     70.8995     21.7359
  1416.6000      7.7548      2.7806      0.2174     -7.9140     71.2148     20.7200
  1416.7000      7.7548      2.7573      0.1712     -6.5019     68.8669     19.5891
  1416.8000      7.6991      2.7296      0.1069     -4.8218     66.0245     18.7433
  1416.9000      7.6991      2.7068      0.0540     -3.4413     64.2754     18.1921
  1417.0000      7.6786      2.6919      0.0572     -2.5381     65.2545     17.8812
  1417.1000      7.6786      2.6866      0.0108     -2.2154     68.8706     17.8341
  1417.2000      7.6786      2.6944      0.0672     -2.6905     72.8581     18.0125
  1417.3000      7.7432      2.7056      0.0508     -3.3707     75.0439     18.1856
  1417.4000      7.7432      2.7077      0.0690     -3.4983     76.7130     17.8755
  1417.5000      7.7794      2.7063      0.0300     -3.4106     79.9947     17.0555
  1417.6000      7.7794      2.7108      0.0438     -3.6822     82.7648     16.2917
  1417.7000      7.7794      2.7118      0.0724     -3.7453     83.0434     15.9273
  1417.8000      7.8013      2.6993      0.0340     -2.9880     82.9569     15.7896
  1417.9000      7.8013      2.6815      0.0319     -1.9086     83.6545     15.5800
  1418.0000      7.7948      2.6694      0.0242     -1.1758     83.2873     15.4557
  1418.1000      7.7948      2.6657      0.0488     -0.9491     80.1171     15.6311
  1418.2000      7.7948      2.6692      0.0344     -1.1628     75.8020     15.8810
  1418.3000      7.7921      2.6849      0.0140     -2.1157     74.6005     16.0152
  1418.4000      7.7921      2.7089      0.0500     -3.5671     77.5477     16.1283
  1418.5000      7.7802      2.7223      0.0601     -4.3816     81.5374     16.3042
  1418.6000      7.7802      2.7230      0.0135     -4.4265     83.8978     16.4832
  1418.7000      7.7802      2.7233      0.0692     -4.4445     83.9914     16.6787
  1418.8000      7.7681      2.7187      0.1137     -4.1660     82.7910     16.8322
  1418.9000      7.7681      2.7043      0.0492     -3.2909     82.0900     16.7292
  1419.0000      7.7648      2.6977      0.0253     -2.8936     83.3295     16.4474
  1419.1000      7.7648      2.7074      0.0752     -3.4768     85.3362     16.3468
  1419.2000      7.7648      2.7199      0.0555     -4.2385     84.4117     16.3692
  1419.3000      7.7593      2.7260      0.0417     -4.6062     80.7348     16.2049
  1419.4000      7.7593      2.7201      0.0642     -4.2458     78.7753     15.9880
  1419.5000      7.7515      2.7030      0.0482     -3.2103     79.7822     15.9660
  1419.6000      7.7515      2.6875      0.0625     -2.2731     80.2640     16.0965
  1419.7000      7.7515      2.6842      0.0181     -2.0753     78.0646     16.1951
  1419.8000      7.7735      2.6924      0.0366     -2.5674     76.6079     16.1964
  1419.9000      7.7735      2.7024      0.0359     -3.1750     77.6849     16.1294
  1420.0000      7.7752      2.7032      0.0661     -3.2270     77.9798     16.0340
  1420.1000      7.7752      2.6908      0.0393     -2.4708     76.6033     16.1151
  1420.2000      7.7752      2.6722      0.0488     -1.3428     75.3500     16.2988
  1420.3000      7.7725      2.6603     -0.0069     -0.6263     75.2238     16.2762
  1420.4000      7.7725      2.6658      0.0281     -0.9589     75.4186     16.1754
  1420.5000      7.7640      2.6852      0.0313     -2.1342     72.9513     16.1502
  1420.6000      7.7640      2.7012      0.0540     -3.1028     68.8085     16.0327
  1420.7000      7.7640      2.6990      0.0653     -2.9704     67.7759     15.9112
