~Version Information
VERS.                      2.0: CWLS Log ASCII Standard - VERSION 2.0
WRAP.                       NO: One line per depth step
~Well Information Block
STRT.FT                 0.0000: 
STOP.FT              1877.2500: 
STEP.FT                 0.2500: 
NULL.                -999.2500: 
COMP.          Pioneer Natural Resources: COMPANY
WELL.            Corazon 13-10: WELL
FLD.           Purgatoire River: FIELD
LOC.           2510' FSL & 439' FWL--------: LOCATION
PROV.                 Colorado: PROVINCE
CNTY.               Las Animas: COUNTRY
SRVC.                         : SERVICE COMPANY
DATE.          Mon Dec 19 14:34:49 2005: LOG DATE
UWI.                          : UNIQUE WELL ID
~Curve Information Block
DEPT.FT            0 000 00 00: Depth
CCL.                          : Casing Collar Locator
TT3.usec                      : CBL 3' Travel Time
AMP3.mV                       : CBL 3' Amplitude
AMP5.mV                       : CBL 5' Amplitude
GR.GAPI                       : Gamma Ray
~Parameter Information Block
~A  Depth       CCL         TT3         AMP3        AMP5         GR     
# ...
  1736.0000      0.0000    714.9292      4.2566      0.5046     41.4239
  1736.2500      0.0000    710.9029      4.1828      0.4268     43.6789
  1736.5000      0.0000    704.8852      4.1399      0.3462     49.7493
  1736.7500      0.0000    699.2529      4.1573      0.2851     58.3242
  1737.0000      0.0000    695.5276      4.2442      0.2701     66.8136
  1737.2500      0.0000    693.6819      4.3824      0.3119     73.1829
  1737.5000      0.0000    692.9431      4.5370      0.3911     77.2510
  1737.7500      0.0000    692.5998      4.6721      0.4638     80.2826
  1738.0000      0.0000    692.2441      4.7637      0.4880     83.4796
  1738.2500      0.0000    691.7494      4.8084      0.4521     86.9498
  1738.5000      0.0000    691.1851      4.8239      0.3818     89.9946
  1738.7500      0.0000    690.6847      4.8365      0.3238     92.1184
  1739.0000      0.0000    690.3455      4.8666      0.3176     93.4985
  1739.2500      0.0000    690.1938      4.9219      0.3755     94.4789
  1739.5000      0.0000    690.1944      4.9973      0.4767     95.0032
  1739.7500      0.0000    690.2714      5.0777      0.5806     94.6548
  1740.0000      0.0000    690.2781      5.1392      0.6489     92.8980
  1740.2500      0.0000    689.8220      5.1570      0.6641     89.3913
  1740.5000      0.0000    687.8065      5.1190      0.6331     84.5318
  1740.7500      0.0000    681.8782      5.0378      0.5771     79.5293
  1741.0000      0.0000    668.3535      4.9488      0.5153     75.4897
  1741.2500      0.0000    643.3593      4.8918      0.4605     72.5856
  1741.5000      0.0000    605.3583      4.8907      0.4270     70.3960
  1741.7500      0.0000    557.7739      4.9460      0.4312     68.7258
  1742.0000      0.0000    509.0647      5.0415      0.4756     67.7107
  1742.2500      0.0000    468.8191      5.1520      0.5377     67.3577
  1742.5000      0.0000    442.6341      5.2478      0.5838     67.3049
  1742.7500      0.0000    430.3912      5.3043      0.5939     66.8449
  1743.0000      0.0000    428.5800      5.3182      0.5712     65.1125
  1743.2500      0.0000    433.1879      5.3149      0.5365     61.8071
  1743.5000      0.0000    440.9331      5.3372      0.5164     57.9589
  1743.7500      0.0000    449.6147      5.4194      0.5281     55.4603
  1744.0000      0.0000    458.2315      5.5608      0.5655     55.4837
  1744.2500      0.0000    466.3243      5.7168      0.6021     57.5356
  1744.5000      0.0000    472.8170      5.8224      0.6132     60.1060
  1744.7500      0.0000    475.8696      5.8368      0.5975     61.9296
  1745.0000      0.0000    474.1472      5.7751      0.5751     62.5127
  1745.2500      0.0000    468.1605      5.6978      0.5665     61.8406
  1745.5000      0.0000    460.2889      5.6668      0.5751     60.0185
  1745.7500      0.0000    453.6801      5.7014      0.5884     57.3584
  1746.0000      0.0000    451.4106      5.7714      0.5963     54.5776
  1746.2500      0.0000    456.8595      5.8306      0.6025     52.4796
  1746.5000      0.0000    474.1164      5.8590      0.6133     51.3140
  1746.7500      0.0000    506.0606      5.8736      0.6216     50.6417
  1747.0000      0.0000    550.2071      5.9027      0.6115     49.9023
  1747.2500      0.0000    596.6118      5.9547      0.5789     49.0074
  1747.5000      0.0000    631.3720      6.0168      0.5420     48.3973
  1747.7500      0.0000    643.2545      6.0741      0.5281     48.6194
  1748.0000      0.0000    628.4225      6.1221      0.5480     49.7905
  1748.2500      0.0000    591.8456      6.1579      0.5827     51.3637
  1748.5000      0.0000    545.6766      6.1682      0.5983     52.4485
  1748.7500      0.0000    503.8048      6.1359      0.5798     52.4272
  1749.0000      0.0000    474.8428      6.0625      0.5495     51.3677
  1749.2500      0.0000    459.2973      5.9845      0.5447     49.9178
  1749.5000      0.0000    452.7147      5.9588      0.5765     48.8663
  1749.7500      0.0000    450.4989      6.0203      0.6171     48.8577
  1750.0000      0.0000    450.3475      6.1483      0.6326     50.2791
  1750.2500      0.0000    452.1465      6.2781      0.6228     53.0536
  1750.5000      0.0000    456.8169      6.3527      0.6170     56.5676
  1750.7500      0.0000    465.2633      6.3624      0.6322     60.0517
  1751.0000      0.0000    478.1320      6.3365      0.6522     63.1126
  1751.2500      0.0000    496.1340      6.3054      0.6519     65.8392
  1751.5000      0.0000    518.9149      6.2821      0.6323     68.4846
  1751.7500      0.0000    542.1859      6.2756      0.6158     71.1571
  1752.0000      0.0000    557.7086      6.3043      0.6139     73.7233
  1752.2500      0.0000    559.9818      6.3797      0.6166     75.8260
  1752.5000      0.0000    553.4079      6.4829      0.6122     77.0176
  1752.7500      0.0000    549.2631      6.5773      0.6006     77.0192
  1753.0000      0.0000    554.6198      6.6500      0.5836     75.8133
  1753.2500      0.0000    567.3759      6.7233      0.5606     73.4386
  1753.5000      0.0000    582.8771      6.8196      0.5384     70.0326
  1753.7500      0.0000    601.1921      6.9305      0.5327     66.3485
  1754.0000      0.0000    625.2637      7.0298      0.5507     63.7986
  1754.2500      0.0000    654.7899      7.1033      0.5824     63.4736
  1754.5000      0.0000    684.8026      7.1553      0.6133     65.1967
  1754.7500      0.0000    709.2866      7.1954      0.6400     67.6760
  1755.0000      0.0000    724.2278      7.2289      0.6707     69.4267
  1755.2500      0.0000    727.4231      7.2554      0.7100     69.6261
  1755.5000      0.0000    717.2198      7.2734      0.7466     68.5518
  1755.7500      0.0000    693.1616      7.2875      0.7607     67.3655
  1756.0000      0.0000    657.9142      7.3080      0.7479     67.2451
  1756.2500      0.0000    617.5727      7.3425      0.7308     68.5941
  1756.5000      0.0000    579.3373      7.3953      0.7381     71.0890
  1756.7500      0.0000    547.9829      7.4769      0.7729     74.3061
  1757.0000      0.0000    524.1476      7.5998      0.8057     77.9540
  1757.2500      0.0000    506.8565      7.7536      0.8060     81.4290
  1757.5000      0.0000    497.0079      7.8990      0.7777     83.5889
  1757.7500      0.0000    496.2391      8.0014      0.7592     83.4019
  1758.0000      0.0000    503.0094      8.0695      0.7850     80.7594
  1758.2500      0.0000    512.4725      8.1520      0.8462     76.5505
  1758.5000      0.0000    520.8382      8.2924      0.8918     72.1441
  1758.7500      0.0000    528.9798      8.4941      0.8724     68.7994
  1759.0000      0.0000    540.9917      8.7267      0.7837     67.2075
  1759.2500      0.0000    558.1441      8.9593      0.6664     67.2669
  1759.5000      0.0000    574.1141      9.1760      0.5703     68.1482
  1759.7500      0.0000    579.5007      9.3569      0.5205     68.6986
  1760.0000      0.0000    573.2657      9.4544      0.5095     68.0636
  1760.2500      0.0000    566.7912      9.3960      0.5129     66.0397
  1760.5000      0.0000    573.7581      9.1290      0.5114     62.9238
  1760.7500      0.0000    597.2274      8.6820      0.5032     59.3915
  1761.0000      0.0000    627.7820      8.1740      0.4960     56.5831
  1761.2500      0.0000    651.5970      7.7303      0.4931     55.6376
  1761.5000      0.0000    658.6256      7.4049      0.4973     56.7324
  1761.7500      0.0000    645.8898      7.2152      0.5223     58.9066
  1762.0000      0.0000    616.2191      7.2048      0.5772     60.9292
  1762.2500      0.0000    574.9506      7.4033      0.6377     62.0744
  1762.5000      0.0000    528.8906      7.7447      0.6542     62.3533
  1762.7500      0.0000    489.0698      8.0837      0.6024     62.5274
  1763.0000     -2.0000    470.9957      8.2879      0.5166     63.6919
  1763.2500      0.0000    486.2746      8.3210      0.4595     66.2361
  1763.5000      0.0000    531.3947      8.2756      0.4636     69.1762
  1763.7500      0.0000    585.8079      8.3184      0.5103     70.9592
