~Version Information
VERS.                      2.0: CWLS Log ASCII Standard - VERSION 2.0
WRAP.                       NO: One line per depth step
~Well Information Block
STRT.FT               529.2000: 
STOP.FT              1325.2000: 
STEP.FT                 0.1000: 
NULL.                -999.2500: 
COMP.          Pioneer Natural Resources: COMPANY
WELL.            Erin 21-15 Tr: WELL
FLD.           Purgatoire River: FIELD
LOC.           1217' FNL & 2284' FWL--: LOCATION
CNTY.               Las Animas: COUNTY
SRVC.                Patterson: SERVICE COMPANY
DATE.          Mon Mar 06 14:26:48 2006: LOG DATE
UWI.           05 071 08712 00: UNIQUE WELL ID
STAT.                 Colorado: STATE
~Curve Information Block
DEPT.FT            0 000 00 00: Depth
DCAL.in                       : CDL Caliper
RHOB.g/cc                     : CDL Bulk Density
RHOC.g/cc                     : CDL Density Correction
DPOR.pu                       : CDL Density Porosity
GR.GAPI                       : Gamma Ray
~Parameter Information Block
~A  Depth       DCAL        RHOB        RHOC        DPOR         GR     
# ...
   887.6000      7.9567      2.6729      0.0765     -1.3856    122.3555
   887.7000      7.9567      2.6771      0.0742     -1.6428    123.9190
   887.8000      7.9554      2.6651      0.1005     -0.9161    121.6309
   887.9000      7.9554      2.6531      0.0845     -0.1851    119.7025
   888.0000      7.9503      2.6562      0.0784     -0.3781    122.1270
   888.1000      7.9503      2.6796      0.0747     -1.7926    125.9052
   888.2000      7.9503      2.6989      0.1533     -2.9612    127.1450
   888.3000      7.9478      2.6847      0.0891     -2.1015    126.7701
   888.4000      7.9478      2.6446      0.0105      0.3300    125.4939
   888.5000      7.9484      2.6030      0.0096      2.8459    123.9912
   888.6000      7.9484      2.5757     -0.0114      4.5027    126.2087
   888.7000      7.9484      2.5634      0.0002      5.2480    132.9142
   888.8000      7.9495      2.5544     -0.0035      5.7933    138.2179
   888.9000      7.9495      2.5480     -0.0350      6.1789    136.7727
   889.0000      7.9484      2.5507      0.0206      6.0197    130.7622
   889.1000      7.9484      2.5555      0.0190      5.7249    125.9650
   889.2000      7.9484      2.5507      0.0742      6.0161    125.3207
   889.3000      7.9462      2.5307      0.0537      7.2301    126.3840
   889.4000      7.9462      2.5052      0.0275      8.7734    125.4280
   889.5000      7.9464      2.4969      0.0184      9.2772    125.4163
   889.6000      7.9464      2.5220      0.0152      7.7562    128.3759
   889.7000      7.9464      2.5756      0.0642      4.5102    128.4713
   889.8000      7.9466      2.6391      0.0918      0.6603    124.1953
   889.9000      7.9466      2.6980      0.1286     -2.9069    122.4146
   890.0000      7.9395      2.7461      0.1191     -5.8271    125.6063
   890.1000      7.9395      2.7702      0.2147     -7.2829    127.8204
   890.2000      7.9395      2.7526      0.1238     -6.2178    125.6448
   890.3000      7.9250      2.7131      0.0558     -3.8223    119.5600
   890.4000      7.9250      2.6914      0.0666     -2.5088    112.1396
   890.5000      7.9232      2.6940      0.0828     -2.6645    107.5919
   890.6000      7.9232      2.6989      0.0647     -2.9634    108.2483
   890.7000      7.9232      2.6924      0.0316     -2.5719    114.0429
   890.8000      7.9484      2.6733      0.0735     -1.4132    123.3764
   890.9000      7.9484      2.6438      0.0307      0.3736    133.0761
   891.0000      7.9814      2.6152      0.0357      2.1109    138.9407
   891.1000      7.9814      2.5989      0.0438      3.0952    138.3996
   891.2000      7.9814      2.5887      0.0901      3.7124    130.8373
   891.3000      7.9988      2.5732      0.0394      4.6527    120.5770
   891.4000      7.9988      2.5607      0.0421      5.4136    111.3269
   891.5000      8.0020      2.5572      0.0879      5.6241    107.1088
   891.6000      8.0020      2.5521      0.0688      5.9350    111.8661
   891.7000      8.0020      2.5418      0.0544      6.5568    122.1670
   891.8000      8.0002      2.5351      0.0566      6.9659    131.4951
   891.9000      8.0002      2.5392      0.0568      6.7122    136.0838
   892.0000      7.9977      2.5466      0.0715      6.2666    136.2020
   892.1000      7.9977      2.5415      0.0986      6.5750    137.0400
   892.2000      7.9977      2.5288      0.0561      7.3465    142.7858
   892.3000      7.9984      2.5252      0.0386      7.5633    148.3901
   892.4000      7.9984      2.5256      0.0749      7.5413    147.1498
   892.5000      8.0005      2.5134      0.0567      8.2797    142.1109
   892.6000      8.0005      2.4885      0.0180      9.7891    139.6598
   892.7000      8.0005      2.4587      0.0057     11.5939    141.9517
   892.8000      8.0011      2.4303      0.0111     13.3163    145.7424
   892.9000      8.0011      2.4145     -0.0171     14.2737    143.8492
   893.0000      8.0020      2.4191      0.0146     13.9958    134.1148
   893.1000      8.0020      2.4319      0.0499     13.2179    125.7425
   893.2000      8.0020      2.4378      0.0302     12.8604    127.0570
   893.3000      8.0032      2.4466      0.0041     12.3297    135.5252
   893.4000      8.0032      2.4722      0.0833     10.7751    142.5068
   893.5000      8.0024      2.5079      0.0871      8.6135    141.8310
   893.6000      8.0024      2.5440      0.1160      6.4259    138.2909
   893.7000      8.0024      2.5778      0.1282      4.3740    137.9977
   893.8000      8.0013      2.6030      0.1376      2.8508    137.6357
   893.9000      8.0013      2.6108      0.1183      2.3752    135.1516
   894.0000      7.9998      2.6063      0.0665      2.6478    134.3561
   894.1000      7.9998      2.6048      0.0605      2.7419    136.1909
   894.2000      7.9998      2.6114      0.0447      2.3404    139.3731
   894.3000      7.9971      2.6216      0.0317      1.7226    141.4479
   894.4000      7.9971      2.6312      0.0865      1.1372    139.9342
   894.5000      7.9973      2.6352      0.0372      0.8977    137.3537
   894.6000      7.9973      2.6358      0.0697      0.8622    136.8633
   894.7000      7.9973      2.6406      0.0740      0.5721    136.0186
   894.8000      7.9992      2.6450      0.1004      0.3010    132.5042
   894.9000      7.9992      2.6387      0.0935      0.6824    129.3708
   895.0000      7.9992      2.6231      0.0719      1.6312    130.5954
   895.1000      7.9992      2.6033      0.0572      2.8304    136.4586
   895.2000      7.9992      2.5766      0.0634      4.4513    141.3676
   895.3000      7.9994      2.5441     -0.0135      6.4207    138.7965
   895.4000      7.9994      2.5241     -0.0299      7.6325    131.2463
   895.5000      8.0013      2.5305      0.0283      7.2447    126.7580
   895.6000      8.0013      2.5593      0.0391      5.4980    127.2893
   895.7000      8.0013      2.5956      0.0688      3.2969    128.8580
   895.8000      8.0028      2.6161      0.0993      2.0559    127.3560
   895.9000      8.0028      2.6139      0.0596      2.1863    123.3385
   896.0000      8.0044      2.6028      0.0797      2.8632    119.0003
   896.1000      8.0044      2.5916      0.0578      3.5406    114.7209
   896.2000      8.0044      2.5854      0.0703      3.9136    112.8338
   896.3000      8.0097      2.5900      0.0588      3.6390    115.9724
   896.4000      8.0097      2.6073      0.0886      2.5882    124.8446
   896.5000      8.0188      2.6233      0.0844      1.6160    135.6934
   896.6000      8.0188      2.6202      0.0676      1.8069    141.9060
   896.7000      8.0188      2.6023      0.0636      2.8889    142.3867
   896.8000      8.0257      2.5880      0.0325      3.7585    142.1704
   896.9000      8.0257      2.5846      0.0438      3.9659    142.2830
   897.0000      8.0279      2.5868      0.0367      3.8296    140.3006
   897.1000      8.0279      2.5900      0.0570      3.6359    136.5124
   897.2000      8.0279      2.5943      0.0373      3.3788    134.0762
   897.3000      8.0266      2.6016      0.0470      2.9325    135.7725
   897.4000      8.0266      2.6160      0.0202      2.0600    139.8542
   897.5000      8.0261      2.6384      0.0661      0.7015    143.8231
   897.6000      8.0261      2.6554      0.1005     -0.3260    147.8514
   897.7000      8.0261      2.6502      0.0900     -0.0092    148.9968
   897.8000      8.0279      2.6293      0.0471      1.2568    144.5263
   897.9000      8.0279      2.6127      0.0681      2.2598    134.0489
   898.0000      8.0285      2.6062      0.0500      2.6557    121.3725
   898.1000      8.0285      2.6002      0.0744      3.0205    115.1794
   898.2000      8.0285      2.5869      0.0399      3.8268    117.9920
   898.3000      8.0274      2.5769      0.0218      4.4314    124.3835
   898.4000      8.0274      2.5839      0.0304      4.0062    128.3408
   898.5000      8.0267      2.5977      0.0731      3.1717    127.6936
   898.6000      8.0267      2.6016      0.0463      2.9340    123.4917
   898.7000      8.0267      2.6007      0.0437      2.9860    118.9309
