~Version Information
VERS.                      2.0: CWLS Log ASCII Standard - VERSION 2.0
WRAP.                       NO: One line per depth step
~Well Information Block
STRT.FT                 0.0000: 
STOP.FT              1877.2500: 
STEP.FT                 0.2500: 
NULL.                -999.2500: 
COMP.          Pioneer Natural Resources: COMPANY
WELL.            Corazon 13-10: WELL
FLD.           Purgatoire River: FIELD
LOC.           2510' FSL & 439' FWL--------: LOCATION
PROV.                 Colorado: PROVINCE
CNTY.               Las Animas: COUNTRY
SRVC.                         : SERVICE COMPANY
DATE.          Mon Dec 19 14:34:49 2005: LOG DATE
UWI.                          : UNIQUE WELL ID
~Curve Information Block
DEPT.FT            0 000 00 00: Depth
CCL.                          : Casing Collar Locator
TT3.usec                      : CBL 3' Travel Time
AMP3.mV                       : CBL 3' Amplitude
AMP5.mV                       : CBL 5' Amplitude
GR.GAPI                       : Gamma Ray
~Parameter Information Block
~A  Depth       CCL         TT3         AMP3        AMP5         GR     
# ...
   728.0000      0.0000    751.0656     14.7622      2.7524     96.7187
   728.2500      0.0000    748.7975     14.5612      2.7601     96.7558
   728.5000      0.0000    747.8758     14.3367      2.7874     95.0501
   728.7500      0.0000    746.7087     14.1694      2.7877     91.8497
   729.0000      0.0000    743.2173     14.1125      2.7296     88.1030
   729.2500      0.0000    737.2087     14.1711      2.6261     84.9629
   729.5000      0.0000    730.2299     14.3084      2.5175     83.6481
   729.7500      0.0000    723.5487     14.4699      2.4384     85.2358
   730.0000      0.0000    717.3565     14.6031      2.4076     89.8787
   730.2500      0.0000    712.0300     14.6660      2.4331     96.1898
   730.5000      0.0000    709.3149     14.6428      2.5118    101.7689
   730.7500      0.0000    711.4814     14.5641      2.6257    104.6084
   731.0000      0.0000    719.2653     14.4961      2.7475    104.1647
   731.2500      0.0000    730.8845     14.4907      2.8480    101.2359
   731.5000      0.0000    743.0625     14.5406      2.9028     96.9373
   731.7500      0.0000    752.8591     14.5911      2.9013     91.9374
   732.0000      0.0000    758.7203     14.5936      2.8532     86.6133
   732.2500      0.0000    760.1926     14.5461      2.7830     81.6215
   732.5000      0.0000    757.1665     14.4851      2.7156     77.9200
   732.7500      0.0000    750.0714     14.4530      2.6669     75.9231
   733.0000      0.0000    741.0818     14.4787      2.6386     74.8637
   733.2500      0.0000    734.2388     14.5810      2.6220     73.5228
   733.5000      0.0000    732.8214     14.7715      2.6139     71.5780
   733.7500      0.0000    736.1607     15.0414      2.6266     69.9109
   734.0000      0.0000    739.9791     15.3471      2.6797     69.6263
   734.2500      0.0000    740.3248     15.6232      2.7820     70.9660
   734.5000      0.0000    736.6952     15.8199      2.9237     73.0913
   734.7500      0.0000    731.4087     15.9349      3.0792     74.8245
   735.0000      0.0000    726.9300     16.0113      3.2170     75.5491
   735.2500      0.0000    724.2328     16.1030      3.3182     75.3280
   735.5000      0.0000    723.0081     16.2345      3.3926     74.2929
   735.7500      0.0000    722.5592     16.3846      3.4691     72.3067
   736.0000      0.0000    722.3661     16.5091      3.5615     69.3109
   736.2500      0.0000    722.1857     16.5802      3.6427     65.6728
   736.5000      0.0000    721.9528     16.6032      3.6618     62.0357
   736.7500      0.0000    721.6804     16.6053      3.5916     59.1095
   737.0000      0.0000    721.3972     16.6189      3.4612     57.7605
   737.2500      0.0000    721.1246     16.6653      3.3364     58.8819
   737.5000      0.0000    720.8788     16.7403      3.2685     62.6895
   737.7500      0.0000    720.6946     16.8169      3.2623     68.1342
   738.0000      0.0000    720.6323     16.8703      3.2849     73.2673
   738.2500      0.0000    720.7380     16.8981      3.2972     76.3231
   738.5000      0.0000    720.9888     16.9116      3.2802     76.6118
   738.7500      0.0000    721.2907     16.9173      3.2410     74.6940
   739.0000      0.0000    721.5423     16.9130      3.2070     71.9383
   739.2500      0.0000    721.6993     16.8980      3.2164     69.8164
   739.5000      0.0000    721.7783     16.8768      3.3016     69.2212
   739.7500      0.0000    721.7809     16.8541      3.4641     70.0237
   740.0000      0.0000    721.5930     16.8330      3.6645     71.2839
   740.2500      0.0000    720.9343     16.8207      3.8460     72.2049
   740.5000      0.0000    719.4929     16.8325      3.9709     72.7702
   740.7500      0.0000    717.3212     16.8893      4.0322     73.1764
   741.0000      0.0000    715.1569     17.0063      4.0318     73.0235
   741.2500      0.0000    714.0286     17.1833      3.9495     71.7100
   741.5000      0.0000    714.1525     17.3985      3.7432     69.5501
   741.7500      0.0000    714.4323     17.5962      3.3878     67.9443
   742.0000      0.0000    713.2481     17.6612      2.9115     68.2595
   742.2500      0.0000    709.5202     17.4038      2.3879     70.7673
   742.5000      0.0000    702.5167     16.6294      1.9013     74.9109
   742.7500      0.0000    691.4460     15.2994      1.5249     80.5238
   743.0000      0.0000    677.4049     13.6283      1.3089     88.1625
   743.2500      0.0000    666.4479     11.9580      1.2609     97.5055
   743.5000      0.0000    667.6193     10.5374      1.3356    105.6518
   743.7500      0.0000    684.5659      9.4661      1.4516    108.1103
   744.0000      0.0000    710.3493      8.7676      1.5264    102.0975
   744.2500      0.0000    732.8954      8.3971      1.5153     88.7216
   744.5000      0.0000    744.1332      8.2151      1.4291     72.1815
   744.7500     -2.0000    742.4335      8.0504      1.3092     57.3517
   745.0000      0.0000    728.3831      7.8004      1.1857     47.6564
   745.2500      0.0000    700.7025      7.4874      1.0657     43.9617
   745.5000      0.0000    657.5377      7.2766      0.9529     44.6447
   745.7500      0.0000    603.0766      7.4399      0.8571     46.7795
   746.0000      0.0000    551.3961      8.2097      0.7872     47.8259
   746.2500      0.0000    519.5380      9.5930      0.7503     46.8061
   746.5000      0.0000    515.8422     11.3330      0.7698     44.3092
   746.7500      0.0000    537.4507     13.0561      0.8941     41.5783
   747.0000      0.0000    576.4528     14.4542      1.1680     39.5681
   747.2500      0.0000    623.3033     15.3782      1.5742     38.6645
   747.5000      0.0000    666.9743     15.8401      2.0112     39.0819
   747.7500      0.0000    698.7244     15.9534      2.3521     41.4203
   748.0000      0.0000    716.7096     15.8568      2.5323     46.7449
   748.2500      0.0000    724.6030     15.6671      2.5788     55.9069
   748.5000      0.0000    726.6006     15.4627      2.5698     68.5580
   748.7500      0.0000    725.0793     15.2759      2.5769     82.6030
   749.0000      0.0000    721.4353     15.0985      2.6238     94.5170
   749.2500      0.0000    717.0973     14.9151      2.6768    100.5669
   749.5000      0.0000    713.5726     14.7341      2.6798     98.5397
   749.7500      0.0000    711.9952     14.5824      2.6043     89.0281
   750.0000      0.0000    712.5399     14.4804      2.4685     75.2468
   750.2500      0.0000    714.3519     14.4330      2.3191     61.2725
   750.5000      0.0000    716.2671     14.4407      2.2047     50.0397
   750.7500      0.0000    717.6263     14.5049      2.1579     42.6941
   751.0000      0.0000    718.4037     14.6238      2.1802     39.4904
   751.2500      0.0000    718.8329     14.7893      2.2414     40.9287
   751.5000      0.0000    719.1106     14.9853      2.2997     47.8318
   751.7500      0.0000    719.3231     15.1823      2.3393     60.2660
   752.0000      0.0000    719.4752     15.3371      2.3920     76.3925
   752.2500      0.0000    719.5474     15.4106      2.5081     92.6091
   752.5000      0.0000    719.5530     15.3946      2.6980    105.3247
   752.7500      0.0000    719.5364     15.3266      2.9105    113.0846
   753.0000      0.0000    719.5351     15.2736      3.0730    117.2591
   753.2500      0.0000    719.5603     15.2851      3.1451    120.6362
   753.5000      0.0000    719.6115     15.3532      3.1345    125.0595
   753.7500      0.0000    719.6926     15.4205      3.0762    130.1485
   754.0000      0.0000    719.7737     15.4258      3.0037    134.1644
   754.2500      0.0000    719.7094     15.3444      2.9339    135.9715
   754.5000      0.0000    719.1907     15.1975      2.8704    135.9686
   754.7500      0.0000    717.8607     15.0375      2.8195    135.1701
   755.0000      0.0000    715.6492     14.9198      2.7969    133.8416
   755.2500      0.0000    713.0489     14.8740      2.8108    131.4386
   755.5000      0.0000    710.8868     14.8931      2.8462    127.5937
   755.7500      0.0000    709.7441     14.9546      2.8821    122.6615
