~Version Information
VERS.                      2.0: CWLS Log ASCII Standard - VERSION 2.0
WRAP.                       NO: One line per depth step
~Well Information Block
STRT.FT               588.7000: 
STOP.FT              1820.2000: 
STEP.FT                 0.1000: 
NULL.                -999.2500: 
COMP.          Pioneer Natural Resources: COMPANY
WELL.           Loews 41-32 Tr: WELL
FLD.           Purgatoire River: FIELD
LOC.           706' FNL & 224' FEL--: LOCATION
CNTY.               Las Animas: COUNTY
SRVC.                Patterson: SERVICE COMPANY
DATE.          Tue Feb 21 10:23:46 2006: LOG DATE
UWI.           05 071 08690 00: UNIQUE WELL ID
STAT.                 Colorado: STATE
~Curve Information Block
DEPT.FT            0 000 00 00: Depth
DCAL.in                       : CDL Caliper
RHOB.g/cc                     : CDL Bulk Density
RHOC.g/cc                     : CDL Density Correction
DPOR.pu                       : CDL Density Porosity
GR.GAPI                       : Gamma Ray
~Parameter Information Block
~A  Depth       DCAL        RHOB        RHOC        DPOR         GR     
# ...
   991.9000      8.1275      2.4431      0.1099     12.5412    133.6822
   992.0000      8.1275      2.4353      0.0559     13.0103    135.1249
   992.1000      8.1275      2.4255      0.0615     13.6064    129.9057
   992.2000      8.1275      2.4255      0.0644     13.6037    123.3959
   992.3000      8.1301      2.4305      0.0780     13.3037    120.8864
   992.4000      8.1301      2.4307      0.0658     13.2892    122.9986
   992.5000      8.1336      2.4245      0.0313     13.6663    128.3318
   992.6000      8.1336      2.4195      0.0232     13.9718    132.5789
   992.7000      8.1336      2.4141      0.0751     14.2965    131.1760
   992.8000      8.1355      2.3960      0.0871     15.3952    125.6109
   992.9000      8.1355      2.3690      0.0723     17.0287    121.5283
   993.0000      8.1373      2.3485      0.0684     18.2704    121.7884
   993.1000      8.1373      2.3418      0.0196     18.6796    124.9927
   993.2000      8.1373      2.3530      0.0431     18.0008    128.0074
   993.3000      8.1395      2.3799      0.0633     16.3720    128.1167
   993.4000      8.1395      2.4043      0.1297     14.8909    124.4058
   993.5000      8.1444      2.4064      0.1169     14.7656    120.0899
   993.6000      8.1444      2.3932      0.1026     15.5625    118.2597
   993.7000      8.1444      2.3917      0.0940     15.6539    118.9067
   993.8000      8.1508      2.4087      0.1378     14.6229    120.9957
   993.9000      8.1508      2.4197      0.1421     13.9571    123.7768
   994.0000      8.1546      2.4004      0.0740     15.1264    127.5896
   994.1000      8.1546      2.3484      0.0197     18.2784    131.3658
   994.2000      8.1546      2.2675      0.0044     23.1818    130.5277
   994.3000      8.1566      2.1563     -0.0395     29.9227    124.8529
   994.4000      8.1566      2.0231     -0.1300     37.9920    121.3151
   994.5000      8.1558      1.8970     -0.1948     45.6350    122.6159
   994.6000      8.1558      1.8044     -0.1615     51.2458    125.2390
   994.7000      8.1558      1.7462     -0.1703     54.7760    126.2515
   994.8000      8.1350      1.7117     -0.1366     56.8694    123.6292
   994.9000      8.1350      1.6942     -0.0921     57.9280    117.4062
   995.0000      8.0912      1.6921     -0.0479     58.0534    110.3953
   995.1000      8.0912      1.7079     -0.0041     57.0959    106.3909
   995.2000      8.0912      1.7428      0.1052     54.9789    104.2209
   995.3000      8.0568      1.7993      0.1096     51.5590     99.6859
   995.4000      8.0568      1.8832      0.1715     46.4743     92.8775
   995.5000      8.0474      1.9867      0.2466     40.1988     87.9633
   995.6000      8.0474      2.0870      0.2680     34.1205     87.3717
   995.7000      8.0474      2.1629      0.2230     29.5184     89.8068
   995.8000      8.0487      2.2120      0.1494     26.5484     92.4679
   995.9000      8.0487      2.2497      0.1608     24.2612     95.7053
   996.0000      8.0492      2.2850      0.1619     22.1242    102.4315
   996.1000      8.0492      2.3220      0.1003     19.8769    111.7667
   996.2000      8.0492      2.3670      0.1657     17.1505    120.0175
   996.3000      8.0476      2.4102      0.1637     14.5349    124.2906
   996.4000      8.0476      2.4404      0.1419     12.7016    125.5731
   996.5000      8.0450      2.4591      0.1331     11.5667    126.4483
   996.6000      8.0450      2.4589      0.1745     11.5826    127.3748
   996.7000      8.0450      2.4340      0.0768     13.0921    129.0006
   996.8000      8.0388      2.4095      0.0678     14.5788    130.7187
   996.9000      8.0388      2.4125      0.0518     14.3934    131.5436
   997.0000      8.0321      2.4421      0.1023     12.6018    131.1671
   997.1000      8.0321      2.4797      0.1597     10.3231    130.1554
   997.2000      8.0321      2.5103      0.1639      8.4641    132.2157
   997.3000      8.0270      2.5288      0.1273      7.3468    136.4446
   997.4000      8.0270      2.5378      0.1090      6.8012    139.2485
   997.5000      8.0203      2.5433      0.1514      6.4652    140.4191
   997.6000      8.0203      2.5518      0.0979      5.9532    138.2699
   997.7000      8.0203      2.5641      0.1327      5.2054    133.3843
   997.8000      8.0141      2.5652      0.1342      5.1411    131.8088
   997.9000      8.0141      2.5521      0.0679      5.9351    133.7882
   998.0000      8.0103      2.5381      0.1070      6.7848    136.2921
   998.1000      8.0103      2.5280      0.0613      7.3958    138.0781
   998.2000      8.0103      2.5271      0.0507      7.4492    132.7605
   998.3000      8.0064      2.5327      0.0626      7.1111    119.7868
   998.4000      8.0064      2.5343      0.0351      7.0116    110.6841
   998.5000      8.0029      2.5340      0.0534      7.0313    112.6866
   998.6000      8.0029      2.5375      0.0489      6.8175    118.7929
   998.7000      8.0029      2.5424      0.0608      6.5196    122.4451
   998.8000      8.0025      2.5416      0.0646      6.5725    126.9134
   998.9000      8.0025      2.5373      0.0311      6.8312    130.3476
   999.0000      8.0057      2.5458      0.0458      6.3131    126.4533
   999.1000      8.0057      2.5679      0.0288      4.9766    120.5155
   999.2000      8.0057      2.5782      0.0942      4.3514    121.9184
   999.3000      8.0089      2.5623      0.0173      5.3166    128.0173
   999.4000      8.0089      2.5396     -0.0098      6.6884    130.5229
   999.5000      8.0096      2.5272      0.0453      7.4440    127.2579
   999.6000      8.0096      2.5151      0.0432      8.1771    122.2314
   999.7000      8.0096      2.4975      0.0215      9.2406    121.0433
   999.8000      8.0093      2.4809      0.0470     10.2511    124.8579
   999.9000      8.0093      2.4622      0.0449     11.3835    131.2784
  1000.0000      8.0071      2.4342      0.0740     13.0793    137.0982
  1000.1000      8.0071      2.4035      0.0163     14.9374    138.1450
  1000.2000      8.0071      2.3894      0.0248     15.7944    136.1098
  1000.3000      8.0056      2.4026      0.0015     14.9913    137.4221
  1000.4000      8.0056      2.4344      0.0273     13.0675    140.7868
  1000.5000      8.0033      2.4624      0.0735     11.3697    141.5718
  1000.6000      8.0033      2.4805     -0.0009     10.2741    141.3006
  1000.7000      8.0033      2.5049      0.0150      8.7918    142.1364
  1000.8000      7.9921      2.5323      0.0724      7.1349    142.8278
  1000.9000      7.9921      2.5415      0.0418      6.5786    140.6196
  1001.0000      7.9764      2.5374      0.0352      6.8252    135.3710
  1001.1000      7.9764      2.5435      0.0502      6.4550    131.2724
  1001.2000      7.9764      2.5687      0.0379      4.9260    131.7102
  1001.3000      7.9666      2.5948      0.0909      3.3429    136.1721
  1001.4000      7.9666      2.5904      0.0985      3.6126    139.6520
  1001.5000      7.9637      2.5589      0.0111      5.5217    136.7289
  1001.6000      7.9637      2.5407      0.0198      6.6231    130.2706
  1001.7000      7.9637      2.5455      0.0576      6.3319    127.5643
  1001.8000      7.9631      2.5476      0.0758      6.2030    127.6009
  1001.9000      7.9631      2.5424      0.0353      6.5229    123.0933
  1002.0000      7.9616      2.5487      0.0189      6.1407    115.2576
  1002.1000      7.9616      2.5652      0.0692      5.1420    111.8460
  1002.2000      7.9616      2.5688      0.0849      4.9190    115.1445
  1002.3000      7.9618      2.5524      0.0577      5.9131    121.0137
  1002.4000      7.9618      2.5354      0.0515      6.9458    126.2594
  1002.5000      7.9641      2.5366      0.0318      6.8743    127.2384
  1002.6000      7.9641      2.5505      0.0707      6.0330    121.2180
  1002.7000      7.9641      2.5663      0.0339      5.0741    114.8099
  1002.8000      7.9664      2.5877      0.0604      3.7762    111.7690
  1002.9000      7.9664      2.6147      0.0574      2.1378    108.3486
  1003.0000      7.9675      2.6459      0.0149      0.2456    104.8369
