~Version Information
VERS.                      2.0: CWLS Log ASCII Standard - VERSION 2.0
WRAP.                       NO: One line per depth step
~Well Information Block
STRT.FT               -10.2500: 
STOP.FT              2437.2500: 
STEP.FT                 0.2500: 
NULL.                -999.2500: 
COMP.          Pioneer Natural Resources: COMPANY
WELL.          Hellzonfire 32-31: WELL
FLD.           Purgatorie River: FIELD
LOC.           1993' FNL & 2265' FEL------: LOCATION
STAT.                       CO: State
CNTY.               Las Animas: COUNTY
CTRY. USA : Country
SECT. 31 : Section
TOWN. 32S : Township
RANG. 66W : Range
SRVC.          Patterson Wireline: SERVICE COMPANY
DATE.          Thu Sep 08 11:10:17 2005: LOG DATE
API.           05 071 08483 00: UNIQUE WELL ID
~Curve Information Block
DEPT.FT            0 000 00 00: Depth
CCL.                          : Casing Collar Locator
TT3.usec                      : CBL 3' Travel Time
AMP3.mV                       : CBL 3' Amplitude
GR.GAPI                       : Gamma Ray
~Parameter Information Block
~A  Depth       CCL         TT3         AMP3         GR     
# ...
  2401.7500      0.0000    744.2625      7.8887     80.9522
  2402.0000      0.0000    737.7119      7.9494     86.4292
  2402.2500      0.0000    733.3531      8.0154     92.2882
  2402.5000      0.0000    733.9197      8.0787     96.6190
  2402.7500      0.0000    735.8235      8.1336     98.0950
  2403.0000      0.0000    731.6556      8.1845     96.5949
  2403.2500      0.0000    717.8401      8.2426     93.1815
  2403.5000      0.0000    699.0854      8.3131     89.4167
  2403.7500      0.0000    684.2392      8.3872     86.5450
  2404.0000      0.0000    677.9404      8.4500     85.3062
  2404.2500      0.0000    677.2938      8.4977     86.2059
  2404.5000      0.0000    676.7123      8.5421     89.5533
  2404.7500      0.0000    674.4154      8.5917     95.3050
  2405.0000      0.0000    673.0821      8.6354    102.9979
  2405.2500      0.0000    675.4786      8.6582    111.4404
  2405.5000      0.0000    681.3863      8.6714    118.4651
  2405.7500      0.0000    688.3156      8.7094    121.7009
  2406.0000      0.0000    693.4257      8.7900    120.2614
  2406.2500      0.0000    694.3615      8.8919    115.7312
  2406.5000      0.0000    689.2070      8.9777    111.2577
  2406.7500      0.0000    676.4335      9.0325    109.3198
  2407.0000      0.0000    655.7195      9.0726    110.0885
  2407.2500      0.0000    630.0037      9.1170    111.7316
  2407.5000      0.0000    606.8970      9.1558    112.0364
  2407.7500      0.0000    595.5486      9.1612    109.7941
  2408.0000      0.0000    599.3240      9.1361    105.2498
  2408.2500      0.0000    612.2657      9.1360     99.8415
  2408.5000      0.0000    624.8442      9.2216     95.6232
  2408.7500      0.0000    632.6168      9.3927     94.5504
  2409.0000      0.0000    638.0414      9.5835     97.7706
  2409.2500      0.0000    645.2990      9.7185    105.0059
  2409.5000      0.0000    655.3405      9.7614    114.2176
  2409.7500      0.0000    665.6290      9.7211    121.7388
  2410.0000      0.0000    673.0314      9.6330    123.3842
  2410.2500      0.0000    675.9550      9.5393    116.7751
  2410.5000      0.0000    674.1365      9.4727    103.3774
  2410.7500      0.0000    668.0419      9.4485     88.0255
  2411.0000      0.0000    659.5789      9.4658     76.0937
  2411.2500      0.0000    652.3425      9.5135     70.7342
  2411.5000      0.0000    649.7174      9.5760     71.9946
  2411.7500      0.0000    652.4924      9.6336     77.8746
  2412.0000      0.0000    658.5426      9.6639     86.1082
  2412.2500      0.0000    664.8505      9.6505     95.1045
  2412.5000      0.0000    669.9224      9.5964    103.6067
  2412.7500      0.0000    674.3828      9.5241    110.1137
  2413.0000      0.0000    679.3373      9.4592    113.1346
  2413.2500      0.0000    684.2428      9.4127    112.1172
  2413.5000      0.0000    686.4836      9.3817    107.9816
  2413.7500      0.0000    683.2509      9.3632    102.5305
  2414.0000      0.0000    674.1418      9.3602     97.3443
  2414.2500      0.0000    662.0845      9.3741     93.1595
  2414.5000      0.0000    651.7521      9.3964     89.8702
  2414.7500      0.0000    646.8950      9.4118     86.7788
  2415.0000      0.0000    648.5423      9.4072     83.0664
  2415.2500      0.0000    654.6774      9.3757     78.5010
  2415.5000      0.0000    661.1040      9.3198     73.7250
  2415.7500      0.0000    663.4376      9.2528     69.6853
  2416.0000      0.0000    659.4569      9.1959     66.8842
  2416.2500      0.0000    650.2537      9.1693     65.2376
  2416.5000      0.0000    639.3329      9.1841     64.5487
  2416.7500      0.0000    630.5704      9.2390     65.0918
  2417.0000      0.0000    626.5421      9.3200     67.6426
  2417.2500      0.0000    627.9728      9.4034     72.8513
  2417.5000      0.0000    634.1705      9.4645     80.5545
  2417.7500      0.0000    643.6126      9.4903     89.4993
  2418.0000      0.0000    653.8350      9.4840     97.6135
  2418.2500      0.0000    661.4819      9.4577    102.8532
  2418.5000      0.0000    663.9617      9.4233    104.0436
  2418.7500      0.0000    661.5410      9.3957    100.9066
  2419.0000      0.0000    657.2104      9.4030     93.7903
  2419.2500      0.0000    654.1641      9.4842     84.1681
  2419.5000      0.0000    653.1964      9.6642     75.2911
  2419.7500      0.0000    651.8672      9.9201     71.1868
  2420.0000      0.0000    646.8226     10.1730     73.8645
  2420.2500      0.0000    638.0379     10.3271     81.2927
  2420.5000      0.0000    629.5965     10.3325     88.7395
  2420.7500      0.0000    624.7488     10.2134     92.6312
  2421.0000      0.0000    621.9278     10.0398     93.0479
  2421.2500      0.0000    618.2261      9.8830     92.5292
  2421.5000      0.0000    615.1066      9.7944     93.0018
  2421.7500      0.0000    617.1777      9.7995     94.2680
  2422.0000      0.0000    625.3340      9.8931     95.0140
  2422.2500      0.0000    633.7700     10.0412     94.4538
  2422.5000      0.0000    633.9094     10.2016     92.6586
  2422.7500      0.0000    619.3691     10.3478     89.4531
  2423.0000      0.0000    587.8817     10.4742     83.3422
  2423.2500      0.0000    542.6270     10.5817     72.2015
  2423.5000      0.0000    493.8886     10.6626     55.7129
  2423.7500      0.0000    456.2547     10.7028     36.8867
  2424.0000      0.0000    439.6735     10.6961     20.3841
  2424.2500      0.0000    441.5289     10.6537      9.2248
  2424.5000      0.0000    448.4878     10.5963      3.3744
  2424.7500      0.0000    447.9507     10.5374      0.9886
  2425.0000      0.0000    439.0650     10.4779      0.2301
  2425.2500      0.0000    432.9276     10.4153      0.0420
  2425.5000      0.0000    441.7837     10.3541      0.0052
  2425.7500      0.0000    466.8935     10.3064      0.0000
  2426.0000      0.0000    495.2293     10.2820   -999.2500
  2426.2500      0.0000    508.9068     10.2785   -999.2500
  2426.5000      0.0000    500.8426     10.2814   -999.2500
  2426.7500      0.0000    482.2455     10.2710   -999.2500
  2427.0000      0.0000    473.5737     10.2333   -999.2500
  2427.2500      0.0000    488.0735     10.1565   -999.2500
  2427.5000      0.0000    523.7067      9.9966   -999.2500
  2427.7500      0.0000    567.1349      9.6392   -999.2500
  2428.0000      0.0000    599.6631      8.9328   -999.2500
  2428.2500      0.0000    599.2332      7.7898   -999.2500
  2428.5000      0.0000    546.1869      6.2504   -999.2500
  2428.7500      0.0000    438.1002      4.4792   -999.2500
  2429.0000      0.0000    299.6982      2.7399   -999.2500
  2429.2500      0.0000    170.6187      1.3161   -999.2500
  2429.5000      0.0000     79.3877      0.3708   -999.2500
  2429.7500      0.0000     29.7970     -0.1283   -999.2500
  2430.0000      0.0000      8.9362     -0.3356   -999.2500
  2430.2500      0.0000      2.1248     -0.4029   -999.2500
  2430.5000      0.0000      0.3943     -0.4198   -999.2500
  2430.7500      0.0000      0.0528     -0.4232   -999.2500
  2431.0000      0.0000   -999.2500   -999.2500   -999.2500
  2431.2500      0.0000   -999.2500   -999.2500   -999.2500
  2431.5000      0.0000   -999.2500   -999.2500   -999.2500
  2431.7500      0.0000   -999.2500   -999.2500   -999.2500
  2432.0000      0.0000   -999.2500   -999.2500   -999.2500
  2432.2500      0.0000   -999.2500   -999.2500   -999.2500
  2432.5000      0.0000   -999.2500   -999.2500   -999.2500
  2432.7500      0.0000   -999.2500   -999.2500   -999.2500
  2433.0000      0.0000   -999.2500   -999.2500   -999.2500
  2433.2500      0.0000   -999.2500   -999.2500   -999.2500
  2433.5000      0.0000   -999.2500   -999.2500   -999.2500
  2433.7500      0.0000   -999.2500   -999.2500   -999.2500
  2434.0000      0.0000   -999.2500   -999.2500   -999.2500
  2434.2500      0.0000   -999.2500   -999.2500   -999.2500
  2434.5000      0.0000   -999.2500   -999.2500   -999.2500
  2434.7500      0.0000   -999.2500   -999.2500   -999.2500
  2435.0000      0.0000   -999.2500   -999.2500   -999.2500
