~Version Information
VERS.                      2.0: CWLS Log ASCII Standard - VERSION 2.0
WRAP.                       NO: One line per depth step
~Well Information Block
STRT.FT                10.0000: 
STOP.FT              1360.0000: 
STEP.FT                 0.1000: 
NULL.                -999.2500: 
COMP.          Pioneer Natural Resources: COMPANY
WELL.              Geyser 41-2: WELL
FLD.           Purgatorie River: FIELD
LOC.           506' FNL & 1127' FEL: LOCATION
PROV.                 Colorado: PROVINCE
CNTY.               Las Animas: COUNTRY
SRVC.                Patterson: SERVICE COMPANY
DATE.          Thu Dec 01 07:38:14 2005: LOG DATE
UWI.                          : UNIQUE WELL ID
~Curve Information Block
DEPT.FT            0 000 00 00: Depth
DCAL.in                       : CDL Caliper
RHOB.g/cc                     : CDL Bulk Density
RHOC.g/cc                     : CDL Density Correction
DPOR.pu                       : CDL Density Porosity
GR.GAPI                       : Gamma Ray
NPOR.pu                       : Neutron Porosity
~Parameter Information Block
~A  Depth       DCAL        RHOB        RHOC        DPOR         GR         NPOR    
# ...
   902.8000      7.9661      2.5520      0.0656      5.9412    117.0462     25.4642
   902.9000      7.9661      2.5629      0.0337      5.2812    117.2837     25.4541
   903.0000      7.9717      2.5657      0.0815      5.1061    119.9961     25.2227
   903.1000      7.9717      2.5517      0.0747      5.9596    122.6913     24.8925
   903.2000      7.9717      2.5292     -0.0150      7.3237    121.2480     24.6302
   903.3000      7.9684      2.5267     -0.0006      7.4733    115.2856     24.4914
   903.4000      7.9684      2.5460      0.0336      6.3032    110.0377     24.4684
   903.5000      7.9760      2.5608      0.0686      5.4070    109.7821     24.6209
   903.6000      7.9760      2.5582      0.0553      5.5629    111.6470     24.8254
   903.7000      7.9760      2.5562      0.0044      5.6827    112.5076     25.0211
   903.8000      7.9829      2.5737      0.0183      4.6263    112.6388     25.2881
   903.9000      7.9829      2.5976      0.0659      3.1770    113.3927     25.4019
   904.0000      7.9759      2.6036      0.0423      2.8096    115.9538     25.1728
   904.1000      7.9759      2.5865      0.0855      3.8461    117.3791     24.7587
   904.2000      7.9759      2.5504      0.0522      6.0393    114.9622     24.2743
   904.3000      7.9828      2.4966     -0.0444      9.2967    112.0531     23.7100
   904.4000      7.9828      2.4291     -0.0587     13.3890    111.2536     23.0769
   904.5000      7.9754      2.3483     -0.0653     18.2825    110.1546     22.2461
   904.6000      7.9754      2.2432     -0.0590     24.6521    107.8277     20.9136
   904.7000      7.9754      2.1126     -0.1152     32.5677    106.3728     18.9306
   904.8000      7.9728      1.9767     -0.1539     40.8031    104.4681     16.7741
   904.9000      7.9728      1.8461     -0.1502     48.7210    101.2183     14.9676
   905.0000      7.9876      1.7104     -0.1277     56.9436     99.3947     13.6222
   905.1000      7.9876      1.5821     -0.1814     64.7182     97.8496     12.7244
   905.2000      7.9876      1.4966     -0.1714     69.9046     92.3662     12.1187
   905.3000      8.0121      1.4469     -0.0158     72.9135     83.6478     11.6791
   905.4000      8.0121      1.3975      0.0030     75.9085     75.8690     11.3923
   905.5000      8.0324      1.3515     -0.0153     78.6979     71.0248     11.1661
   905.6000      8.0324      1.3305      0.0281     79.9708     68.8111     10.9355
   905.7000      8.0324      1.3316      0.0637     79.9003     68.6011     10.7882
   905.8000      8.0591      1.3391      0.0937     79.4504     68.9910     10.8621
   905.9000      8.0591      1.3480      0.0728     78.9109     68.9669     11.1281
   906.0000      8.1456      1.3678      0.0611     77.7066     67.9666     11.6059
   906.1000      8.1456      1.4065      0.0815     75.3620     66.6597     12.4772
   906.2000      8.1456      1.4703      0.0826     71.4941     67.9271     13.6732
   906.3000      8.2090      1.5663      0.1076     65.6762     72.7165     14.8350
   906.4000      8.2090      1.6845      0.1698     58.5178     79.1270     16.0119
   906.5000      8.0741      1.8078      0.1849     51.0447     85.0570     17.4789
   906.6000      8.0741      1.9393      0.2455     43.0698     89.8460     19.0195
   906.7000      8.0741      2.0810      0.2833     34.4849     94.9003     20.3386
   906.8000      8.1251      2.2115      0.3363     26.5762    100.4018     21.5253
   906.9000      8.1251      2.3158      0.2478     20.2559    105.5396     22.6821
   907.0000      8.0503      2.3997      0.2241     15.1718    111.4074     23.8373
   907.1000      8.0503      2.4630      0.2265     11.3341    118.3423     24.8123
   907.2000      8.0503      2.5019      0.1473      8.9779    125.2037     25.3086
   907.3000      7.9863      2.5254      0.1052      7.5506    131.7730     25.5225
   907.4000      7.9863      2.5398      0.1498      6.6818    138.2580     25.9027
   907.5000      7.9826      2.5450      0.1133      6.3656    142.0411     26.5702
   907.6000      7.9826      2.5454      0.1001      6.3376    141.1236     27.2487
   907.7000      7.9826      2.5450      0.0973      6.3629    138.3708     27.7070
   907.8000      7.9845      2.5512      0.0541      5.9893    136.0857     27.9584
   907.9000      7.9845      2.5734      0.0340      4.6442    133.5130     28.0025
   908.0000      7.9748      2.5992      0.0690      3.0809    129.6356     27.6658
   908.1000      7.9748      2.6069      0.0214      2.6119    125.4457     27.0182
   908.2000      7.9748      2.5973      0.0114      3.1925    122.4127     26.4770
   908.3000      7.9805      2.5801      0.0149      4.2390    119.8065     26.1507
   908.4000      7.9805      2.5547      0.0266      5.7754    118.3572     25.8553
   908.5000      7.9661      2.5289     -0.0527      7.3395    119.9208     25.4952
   908.6000      7.9661      2.5215     -0.0328      7.7889    122.7492     25.0937
   908.7000      7.9661      2.5262      0.0171      7.5004    123.5968     24.7760
   908.8000      7.9672      2.5212      0.0045      7.8034    123.2275     24.5374
   908.9000      7.9672      2.5094     -0.0274      8.5189    123.8008     24.4216
   909.0000      7.9962      2.5057     -0.0224      8.7428    127.2159     24.4599
   909.1000      7.9962      2.5061      0.0132      8.7218    133.8163     24.4641
   909.2000      7.9962      2.4927      0.0484      9.5314    139.0926     24.4620
   909.3000      7.9876      2.4724     -0.0275     10.7666    140.5351     24.6783
   909.4000      7.9876      2.4756     -0.0386     10.5689    141.0900     25.0612
   909.5000      7.9903      2.5016      0.0287      8.9933    142.1490     25.3896
   909.6000      7.9903      2.5224      0.0445      7.7359    141.7019     25.6998
   909.7000      7.9903      2.5313     -0.0173      7.1948    140.7420     26.0944
   909.8000      7.9917      2.5328      0.0676      7.1017    141.2781     26.2500
   909.9000      7.9917      2.5243     -0.0051      7.6176    141.7276     25.9345
   910.0000      7.9757      2.5139     -0.0046      8.2466    140.3711     25.6723
   910.1000      7.9757      2.5123     -0.0096      8.3473    138.5999     25.7732
   910.2000      7.9757      2.5141     -0.0038      8.2370    139.4145     25.7871
   910.3000      7.9755      2.5125     -0.0453      8.3309    141.5859     25.5200
   910.4000      7.9755      2.5132     -0.0245      8.2939    140.9379     25.2512
   910.5000      7.9826      2.5169     -0.0213      8.0688    138.3005     25.0831
   910.6000      7.9826      2.5150      0.0097      8.1844    135.7165     24.9594
   910.7000      7.9826      2.5137     -0.0209      8.2576    134.3967     24.8534
   910.8000      7.9805      2.5263      0.0154      7.4998    136.5318     24.6694
   910.9000      7.9805      2.5446      0.0578      6.3907    140.0162     24.6724
   911.0000      7.9737      2.5592      0.0302      5.5048    140.2045     25.1370
   911.1000      7.9737      2.5741      0.0737      4.5981    137.9115     25.6923
   911.2000      7.9737      2.5815      0.0872      4.1545    137.7193     26.0066
   911.3000      7.9776      2.5660      0.0774      5.0904    139.7038     26.2938
   911.4000      7.9776      2.5346      0.0060      6.9921    139.0809     26.6793
   911.5000      7.9770      2.5118     -0.0061      8.3780    133.3270     26.8479
   911.6000      7.9770      2.5092     -0.0266      8.5341    126.7260     26.5840
   911.7000      7.9770      2.5194      0.0282      7.9130    123.4740     26.0594
   911.8000      7.9821      2.5279     -0.0008      7.4022    122.0798     25.4738
   911.9000      7.9821      2.5251      0.0145      7.5678    119.7069     24.8826
   912.0000      7.9835      2.5146     -0.0200      8.2035    117.1627     24.2514
   912.1000      7.9835      2.5061      0.0168      8.7220    118.3608     23.6337
   912.2000      7.9835      2.4998      0.0373      9.1007    123.7601     23.1951
   912.3000      7.9750      2.4928      0.0377      9.5253    129.5822     23.0741
