~Version Information
VERS.                      2.0: CWLS Log ASCII Standard - VERSION 2.0
WRAP.                       NO: One line per depth step
~Well Information Block
STRT.FT               970.0000: 
STOP.FT              1882.0000: 
STEP.FT                 0.2500: 
NULL.                -999.2500: 
COMP.          Petrogulf Corporation: COMPANY
WELL.             Norton 9-14R: WELL
FLD.           Purgatorie River: FIELD
LOC.           725' FSL & 1103' FWL: LOCATION
PROV.                 Colorado: PROVINCE
CNTY.               Las Animas: COUNTRY
SRVC.                Patterson: SERVICE COMPANY
DATE.          Thu Oct 06 16:10:47 2005: LOG DATE
UWI.                          : UNIQUE WELL ID
~Curve Information Block
DEPT.FT            0 000 00 00: Depth
SP.mV                         : DIL Spontaneous Potential
RILD.Ohm-m                    : DIL Deep Resistivity
RILM.Ohm-m                    : DIL Medium Resistivity
RLL3.Ohm-m                    : DIL Shallow Resistivity
GR.GAPI                       : Gamma Ray
~Parameter Information Block
~A  Depth        SP         RILD        RILM        RLL3         GR     
# ...
  1082.0000    181.0854     15.9929     18.9577     71.8124     61.5105
  1082.2500    182.9275     16.3705     18.9057     58.4326     61.9006
  1082.5000    184.6530     16.7175     18.6632     47.2029     66.7015
  1082.7500    186.1194     16.9805     18.3113     37.2780     72.1005
  1083.0000    187.1970     17.1133     17.9248     28.6193     81.8376
  1083.2500    187.8284     17.0884     17.5570     22.2018     88.3475
  1083.5000    188.0520     16.9013     17.2357     18.6827     96.8514
  1083.7500    187.9738     16.5698     16.9650     17.7115    101.3549
  1084.0000    187.7232     16.1307     16.7318     18.3853    106.0062
  1084.2500    187.4220     15.6344     16.5136     19.9413    107.4043
  1084.5000    187.1714     15.1364     16.2879     21.9359    106.6323
  1084.7500    187.0432     14.6854     16.0398     23.9338    104.4790
  1085.0000    187.0735     14.3140     15.7657     25.2356    100.2163
  1085.2500    187.2638     14.0322     15.4721     25.1208     97.8255
  1085.5000    187.5856     13.8280     15.1701     23.4597     96.5927
  1085.7500    187.9849     13.6727     14.8687     20.9769     97.7527
  1086.0000    188.3862     13.5318     14.5696     18.7763    101.8849
  1086.2500    188.7038     13.3771     14.2670     17.5993    105.3993
  1086.5000    188.8627     13.1946     13.9507     17.4976    110.6583
  1086.7500    188.8221     12.9866     13.6122     18.0071    113.9620
  1087.0000    188.5806     12.7661     13.2509     18.4785    118.5340
  1087.2500    188.1578     12.5505     12.8767     18.3596    121.0097
  1087.5000    187.5683     12.3546     12.5086     17.4297    123.0057
  1087.7500    186.8110     12.1877     12.1694     15.9048    122.8581
  1088.0000    185.8841     12.0533     11.8802     14.2871    120.5577
  1088.2500    184.8110     11.9491     11.6561     13.0550    118.2015
  1088.5000    183.6519     11.8691     11.5043     12.4436    115.0267
  1088.7500    182.4915     11.8062     11.4245     12.4310    114.0725
  1089.0000    181.4131     11.7561     11.4102     12.8388    115.0540
  1089.2500    180.4707     11.7198     11.4510     13.4453    116.9074
  1089.5000    179.6713     11.7035     11.5348     14.0861    119.8318
  1089.7500    178.9769     11.7171     11.6503     14.7087    121.0107
  1090.0000    178.3260     11.7701     11.7884     15.3210    121.2308
  1090.2500    177.6607     11.8688     11.9440     15.8645    120.6262
  1090.5000    176.9365     12.0142     12.1158     16.1585    119.0296
  1090.7500    176.1237     12.2001     12.3051     16.0244    117.5728
  1091.0000    175.2106     12.4122     12.5137     15.4972    115.0841
  1091.2500    174.2102     12.6280     12.7401     14.9368    113.6329
  1091.5000    173.1577     12.8195     12.9765     14.9414    112.1923
  1091.7500    172.0973     12.9602     13.2064     16.0873    111.3210
  1092.0000    171.0711     13.0327     13.4052     18.5586    108.5993
  1092.2500    170.1112     13.0342     13.5454     21.8042    105.1667
  1092.5000    169.2286     12.9759     13.6044     24.5451     97.7556
  1092.7500    168.4055     12.8782     13.5734     25.4058     92.1125
  1093.0000    167.6024     12.7635     13.4610     23.8594     84.5277
  1093.2500    166.7767     12.6500     13.2909     20.6389     81.1381
  1093.5000    165.8947     12.5472     13.0934     17.1646     79.6479
  1093.7500    164.9279     12.4540     12.8959     14.5625     81.0641
  1094.0000    163.8512     12.3606     12.7169     13.1679     86.0205
  1094.2500    162.6575     12.2532     12.5637     12.7137     90.6276
  1094.5000    161.3763     12.1205     12.4342     12.7506     98.6388
  1094.7500    160.0664     11.9593     12.3200     12.9136    104.2620
  1095.0000    158.7852     11.7753     12.2110     13.0022    112.4376
  1095.2500    157.5629     11.5797     12.0974     12.9848    117.5040
  1095.5000    156.4014     11.3834     11.9715     12.9504    124.2976
  1095.7500    155.2869     11.1939     11.8279     13.0055    127.9286
  1096.0000    154.2027     11.0141     11.6628     13.1758    131.0852
  1096.2500    153.1388     10.8448     11.4736     13.3960    131.3596
  1096.5000    152.0993     10.6858     11.2595     13.5622    129.5575
  1096.7500    151.1080     10.5375     11.0220     13.5671    127.7194
  1097.0000    150.2103     10.4011     10.7658     13.3203    125.5681
  1097.2500    149.4625     10.2786     10.4988     12.7979    125.0370
  1097.5000    148.8993     10.1725     10.2317     12.0867    125.4993
  1097.7500    148.5004     10.0850      9.9767     11.3442    126.3355
  1098.0000    148.1892     10.0180      9.7462     10.7008    127.9873
  1098.2500    147.8760      9.9731      9.5519     10.2128    129.2812
  1098.5000    147.5153      9.9526      9.4047      9.8950    131.4866
  1098.7500    147.1286      9.9606      9.3140      9.7565    133.0913
  1099.0000    146.7830     10.0026      9.2878      9.7958    135.8461
  1099.2500    146.5536     10.0846      9.3334      9.9962    138.3167
  1099.5000    146.4997     10.2120      9.4570     10.3522    143.3730
  1099.7500    146.6511     10.3905      9.6646     10.8914    146.7114
  1100.0000    146.9948     10.6252      9.9615     11.6574    148.1002
  1100.2500    147.4625     10.9201     10.3526     12.6925    145.1110
  1100.5000    147.9402     11.2753     10.8420     14.0641    136.0126
  1100.7500    148.3121     11.6864     11.4315     15.8959    129.2167
  1101.0000    148.5117     12.1440     12.1194     18.3161    121.0290
  1101.2500    148.5424     12.6352     12.8968     21.3151    117.1656
  1101.5000    148.4492     13.1447     13.7445     24.6074    112.9588
  1101.7500    148.2732     13.6536     14.6282     27.6377    111.2132
  1102.0000    148.0307     14.1389     15.4959     29.8133    111.2211
  1102.2500    147.7304     14.5738     16.2789     30.8444    113.2377
  1102.5000    147.3970     14.9317     16.8991     30.9169    117.7018
  1102.7500    147.0719     15.1932     17.2857     30.5082    119.9050
  1103.0000    146.7939     15.3508     17.3952     29.9775    119.7793
  1103.2500    146.5877     15.4100     17.2274     29.2697    117.2578
  1103.5000    146.4655     15.3872     16.8284     27.9890    111.4347
  1103.7500    146.4272     15.3080     16.2766     25.7932    107.7709
  1104.0000    146.4553     15.2037     15.6616     22.7763    105.4102
  1104.2500    146.5146     15.1077     15.0650     19.4992    106.8574
  1104.5000    146.5626     15.0489     14.5502     16.6471    112.8168
  1104.7500    146.5648     15.0460     14.1609     14.6489    117.7451
  1105.0000    146.5027     15.1036     13.9241     13.5829    123.7467
  1105.2500    146.3740     15.2137     13.8554     13.3554    126.0453
  1105.5000    146.1873     15.3627     13.9631     13.9128    127.6497
  1105.7500    145.9602     15.5386     14.2497     15.3445    128.6477
  1106.0000    145.7226     15.7379     14.7130     17.8958    131.5984
  1106.2500    145.5214     15.9659     15.3436     21.9144    134.2942
  1106.5000    145.4223     16.2345     16.1228     27.6425    136.8724
  1106.7500    145.4993     16.5592     17.0196     34.7979    135.9861
  1107.0000    145.8110     16.9585     17.9909     42.2080    130.2794
  1107.2500    146.3735     17.4541     18.9837     48.0561    124.8200
  1107.5000    147.1456     18.0690     19.9434     50.8835    116.8717
  1107.7500    148.0344     18.8220     20.8241     50.5108    112.5865
  1108.0000    148.9221     19.7202     21.5987     47.8830    107.8215
  1108.2500    149.6990     20.7506     22.2653     44.0711    105.6659
  1108.5000    150.2878     21.8751     22.8465     39.6291    104.3004
  1108.7500    150.6490     23.0323     23.3836     34.8475    104.9842
  1109.0000    150.7665     24.1481     23.9270     30.2823    108.3804
  1109.2500    150.6301     25.1547     24.5264     26.8425    111.6343
  1109.5000    150.2361     26.0076     25.2216     25.4579    116.7899
  1109.7500    149.6054     26.6942     26.0355     26.7460    120.1671
