~Version Information
VERS.                      2.0: CWLS Log ASCII Standard - VERSION 2.0
WRAP.                       NO: One line per depth step
~Well Information Block
STRT.FT               505.0000: 
STOP.FT               770.5000: 
STEP.FT                 0.1000: 
NULL.                -999.2500: 
COMP.          Pioneer Natural Resources: COMPANY
WELL.                Zed 11-23: WELL
FLD.           Purgatoire River: FIELD
LOC.           641' FNL & 952' FWL: LOCATION
CNTY.               Las Animas: COUNTY
SRVC.                Patterson: SERVICE COMPANY
DATE.          Mon Feb 27 07:12:43 2006: LOG DATE
UWI.           05 071 08702 00: UNIQUE WELL ID
STAT.                 Colorado: STATE
~Curve Information Block
DEPT.FT            0 000 00 00: Depth
DCAL.in                       : CDL Caliper
RHOB.g/cc                     : CDL Bulk Density
RHOC.g/cc                     : CDL Density Correction
DPOR.pu                       : CDL Density Porosity
GR.GAPI                       : Gamma Ray
NPOR.pu                       : Neutron Porosity
~Parameter Information Block
~A  Depth       DCAL        RHOB        RHOC        DPOR         GR         NPOR    
# ...
   754.6000      7.8532      2.5112      0.0556      8.4102   -999.2500     21.4232
   754.7000      7.8532      2.5186      0.0665      7.9631   -999.2500     22.4699
   754.8000      7.8452      2.5175      0.0218      8.0321   -999.2500     23.6343
   754.9000      7.8452      2.5263      0.0074      7.4950   -999.2500     24.1781
   755.0000      7.8512      2.5526      0.0672      5.9047   -999.2500     24.0265
   755.1000      7.8512      2.5695      0.1299      4.8781   -999.2500     24.0560
   755.2000      7.8512      2.5631      0.0874      5.2689   -999.2500     24.7878
   755.3000      7.8519      2.5544      0.0626      5.7912   -999.2500     25.2448
   755.4000      7.8519      2.5536      0.1071      5.8440   -999.2500     24.2243
   755.5000      7.8595      2.5487      0.0907      6.1423   -999.2500     22.9132
   755.6000      7.8595      2.5404      0.0697      6.6422   -999.2500     24.1848
   755.7000      7.8595      2.5452      0.0338      6.3501   -999.2500     30.1731
   755.8000      7.8604      2.5698      0.1354      4.8616   -999.2500     39.0859
   755.9000      7.8604      2.5978      0.1547      3.1632   -999.2500     45.4469
   756.0000      7.8469      2.6085      0.1625      2.5152   -999.2500     47.7845
   756.1000      7.8469      2.5985      0.1345      3.1226   -999.2500     48.2476
   756.2000      7.8469      2.5844      0.0942      3.9771   -999.2500     48.2967
   756.3000      7.8208      2.5847      0.0707      3.9574   -999.2500     48.2995
   756.4000      7.8208      2.6017      0.1102      2.9248   -999.2500   -999.2500
   756.5000      7.7592      2.6193      0.1272      1.8618   -999.2500   -999.2500
   756.6000      7.7592      2.6216      0.1421      1.7242   -999.2500   -999.2500
   756.7000      7.7592      2.6100      0.1378      2.4265   -999.2500   -999.2500
   756.8000      7.7755      2.5947      0.1111      3.3523   -999.2500   -999.2500
   756.9000      7.7755      2.5831      0.0935      4.0573   -999.2500   -999.2500
   757.0000      7.7965      2.5776      0.0762      4.3860   -999.2500   -999.2500
   757.1000      7.7965      2.5746      0.0949      4.5707   -999.2500   -999.2500
   757.2000      7.7965      2.5664      0.0580      5.0654   -999.2500   -999.2500
   757.3000      7.8357      2.5539      0.0532      5.8214   -999.2500   -999.2500
   757.4000      7.8357      2.5427      0.0433      6.5060   -999.2500   -999.2500
   757.5000      7.8574      2.5360      0.0193      6.9106   -999.2500   -999.2500
   757.6000      7.8574      2.5376      0.0318      6.8148   -999.2500   -999.2500
   757.7000      7.8574      2.5455      0.0514      6.3344   -999.2500   -999.2500
   757.8000      7.8213      2.5460      0.1068      6.3053   -999.2500   -999.2500
   757.9000      7.8213      2.5245      0.0914      7.6069   -999.2500   -999.2500
   758.0000      7.8224      2.4872      0.0438      9.8672   -999.2500   -999.2500
   758.1000      7.8224      2.4575     -0.0246     11.6696   -999.2500   -999.2500
   758.2000      7.8224      2.4467     -0.0005     12.3233   -999.2500   -999.2500
   758.3000      7.8440      2.4427      0.0225     12.5658   -999.2500   -999.2500
   758.4000      7.8440      2.4363      0.0361     12.9520   -999.2500   -999.2500
   758.5000      7.8339      2.4309      0.0304     13.2803   -999.2500   -999.2500
   758.6000      7.8339      2.4284      0.0390     13.4292   -999.2500   -999.2500
   758.7000      7.8339      2.4336      0.0232     13.1170   -999.2500   -999.2500
   758.8000      7.8287      2.4520      0.0803     11.9974   -999.2500   -999.2500
   758.9000      7.8287      2.4779      0.0731     10.4295   -999.2500   -999.2500
   759.0000      7.8173      2.4988      0.1072      9.1646   -999.2500   -999.2500
   759.1000      7.8173      2.5091      0.0532      8.5401   -999.2500   -999.2500
   759.2000      7.8173      2.5139      0.0787      8.2479   -999.2500   -999.2500
   759.3000      7.8218      2.5212      0.0335      7.8077   -999.2500   -999.2500
   759.4000      7.8218      2.5329      0.0622      7.0968   -999.2500   -999.2500
   759.5000      7.8265      2.5421      0.0669      6.5377   -999.2500   -999.2500
   759.6000      7.8265      2.5483      0.0725      6.1627   -999.2500   -999.2500
   759.7000      7.8265      2.5569      0.0893      5.6426   -999.2500   -999.2500
   759.8000      7.8308      2.5625      0.1035      5.3003   -999.2500   -999.2500
   759.9000      7.8308      2.5594      0.1016      5.4929   -999.2500   -999.2500
   760.0000      7.8290      2.5515      0.0777      5.9689   -999.2500   -999.2500
   760.1000      7.8290      2.5458      0.0590      6.3177   -999.2500   -999.2500
   760.2000      7.8290      2.5440      0.1030      6.4235   -999.2500   -999.2500
   760.3000      7.8076      2.5465      0.0541      6.2756   -999.2500   -999.2500
   760.4000      7.8076      2.5562      0.0956      5.6828   -999.2500   -999.2500
   760.5000      7.8051      2.5701      0.1391      4.8415   -999.2500   -999.2500
   760.6000      7.8051      2.5810      0.1054      4.1791   -999.2500   -999.2500
   760.7000      7.8051      2.5827      0.1329      4.0780   -999.2500   -999.2500
   760.8000      7.8533      2.5648      0.1202      5.1646   -999.2500   -999.2500
   760.9000      7.8533      2.5267      0.0654      7.4755   -999.2500   -999.2500
   761.0000      7.8193      2.4831      0.0108     10.1134   -999.2500   -999.2500
   761.1000      7.8193      2.4536     -0.0172     11.9031   -999.2500   -999.2500
   761.2000      7.8193      2.4468     -0.0219     12.3127   -999.2500   -999.2500
   761.3000      7.8198      2.4532      0.0131     11.9287   -999.2500   -999.2500
   761.4000      7.8198      2.4637      0.0186     11.2923   -999.2500   -999.2500
   761.5000      7.8580      2.4830      0.0545     10.1229   -999.2500   -999.2500
   761.6000      7.8580      2.5136      0.0540      8.2640   -999.2500   -999.2500
   761.7000      7.8580      2.5425      0.1345      6.5145   -999.2500   -999.2500
   761.8000      7.8114      2.5491      0.1448      6.1170   -999.2500   -999.2500
   761.9000      7.8114      2.5334      0.0972      7.0660   -999.2500   -999.2500
   762.0000      7.7964      2.5184      0.0280      7.9757   -999.2500   -999.2500
   762.1000      7.7964      2.5172      0.0983      8.0490   -999.2500   -999.2500
   762.2000      7.7964      2.5148      0.1084      8.1946   -999.2500   -999.2500
   762.3000      7.7861      2.4996      0.0465      9.1138   -999.2500   -999.2500
   762.4000      7.7861      2.4874      0.0624      9.8575   -999.2500   -999.2500
   762.5000      7.8110      2.4954      0.0329      9.3701   -999.2500   -999.2500
   762.6000      7.8110      2.5207      0.0822      7.8381   -999.2500   -999.2500
   762.7000      7.8110      2.5444      0.1396      6.4002   -999.2500   -999.2500
   762.8000      7.8278      2.5523      0.1120      5.9191   -999.2500   -999.2500
   762.9000      7.8278      2.5455      0.1526      6.3350   -999.2500   -999.2500
   763.0000      7.8271      2.5393      0.0751      6.7111   -999.2500   -999.2500
   763.1000      7.8271      2.5447      0.1284      6.3836   -999.2500   -999.2500
   763.2000      7.8271      2.5530      0.0770      5.8816   -999.2500   -999.2500
   763.3000      7.8228      2.5597      0.0846      5.4697   -999.2500   -999.2500
   763.4000      7.8228      2.5670      0.1071      5.0324   -999.2500   -999.2500
   763.5000      7.7956      2.5714      0.0963      4.7629   -999.2500   -999.2500
   763.6000      7.7956      2.5715      0.0973      4.7603   -999.2500   -999.2500
   763.7000      7.7956      2.5741      0.0912      4.5990   -999.2500   -999.2500
   763.8000      7.7478      2.5850      0.1177      3.9391   -999.2500   -999.2500
   763.9000      7.7478      2.5915      0.1549      3.5454   -999.2500   -999.2500
   764.0000      7.8479      2.5885      0.0842      3.7271   -999.2500   -999.2500
   764.1000      7.8479      2.5893      0.1181      3.6774   -999.2500   -999.2500
