~Version Information
VERS.                      2.0: CWLS Log ASCII Standard - VERSION 2.0
WRAP.                       NO: One line per depth step
~Well Information Block
STRT.FT                 0.0000: 
STOP.FT              1238.2500: 
STEP.FT                 0.2500: 
NULL.                -999.2500: 
COMP.          Pioneer Natural Resources: COMPANY
WELL.                 Ray 34-6: WELL
FLD.           Purgatoire River: FIELD
LOC.           684' FSL & 2254' FEL: LOCATION
CNTY.               Las Animas: COUNTY
SRVC.                         : SERVICE COMPANY
DATE.          Fri Jun 23 09:23:24 2006: LOG DATE
UWI.           05 071 08695 00: UNIQUE WELL ID
STAT.                       CO: STATE
~Curve Information Block
DEPT.FT            0 000 00 00: Depth
GR.GAPI                       : Gamma Ray
CCL.                          : Casing Collar Locator
TT3.usec                      : CBL 3' Travel Time
AMP3.mV                       : CBL 3' Amplitude
~Parameter Information Block
~A  Depth        GR         CCL         TT3         AMP3    
# ...
  1206.0000     61.3783      0.0000    722.9231      9.2870
  1206.2500     58.5554      0.0000    715.9542      9.3058
  1206.5000     55.6519      0.0000    712.4661      9.3560
  1206.7500     53.7707      0.0000    713.6961      9.4148
  1207.0000     53.9532      0.0000    722.5643      9.4902
  1207.2500     56.5262      0.0000    738.3619      9.5976
  1207.5000     60.8180      0.0000    753.3992      9.7419
  1207.7500     65.7268      0.0000    758.7756      9.9167
  1208.0000     70.3803      0.0000    752.6675     10.1073
  1208.2500     74.1865      0.0000    739.4243     10.2934
  1208.5000     76.6318      0.0000    721.9920     10.4534
  1208.7500     77.3087      0.0000    699.2778     10.5680
  1209.0000     76.1156      0.0000    669.6302     10.6176
  1209.2500     73.5042      0.0000    633.4918     10.5857
  1209.5000     70.6111      0.0000    594.3269     10.4754
  1209.7500     68.8641      0.0000    559.9480     10.3111
  1210.0000     69.0987      0.0000    541.7197     10.1147
  1210.2500     71.0984      0.0000    549.3521      9.8890
  1210.5000     74.1469      0.0000    584.4711      9.6300
  1210.7500     77.8745      0.0000    637.5439      9.3398
  1211.0000     82.4582      0.0000    690.9688      9.0236
  1211.2500     88.2558      0.0000    728.3841      8.6854
  1211.5000     95.4649      0.0000    744.3589      8.3358
  1211.7500    103.7981      0.0000    745.6355      7.9931
  1212.0000    111.9938      0.0000    743.0132      7.6712
  1212.2500    117.6203      0.0000    742.9867      7.3739
  1212.5000    118.0910      0.0000    746.5329      7.1047
  1212.7500    112.6797      0.0000    752.3103      6.8692
  1213.0000    103.5465      0.0000    758.2595      6.6633
  1213.2500     94.3330      0.0000    761.5414      6.4680
  1213.5000     87.6312      0.0000    760.0944      6.2663
  1213.7500     83.7962      0.0000    755.0090      6.0595
  1214.0000     81.7863      0.0000    750.2566      5.8662
  1214.2500     80.6967      0.0000    749.6973      5.7088
  1214.5000     80.4199      0.0000    754.4407      5.6004
  1214.7500     81.1356      0.0000    762.2347      5.5326
  1215.0000     82.6130      0.0000    768.3647      5.4775
  1215.2500     84.3063      0.0000    767.3041      5.4059
  1215.5000     86.0214      0.0000    754.6761      5.3118
  1215.7500     88.1101      0.0000    729.1392      5.2175
  1216.0000     90.7886      0.0000    693.6370      5.1601
  1216.2500     93.4395      0.0000    654.9995      5.1713
  1216.5000     94.8880      0.0000    621.1062      5.2688
  1216.7500     94.4052      0.0000    597.0570      5.4581
  1217.0000     92.2670      0.0000    583.4477      5.7335
  1217.2500     89.2397      0.0000    578.3091      6.0725
  1217.5000     85.6954      0.0000    580.9896      6.4347
  1217.7500     81.4854      0.0000    595.5333      6.7772
  1218.0000     76.6929      0.0000    630.7626      7.0798
  1218.2500     72.2005      0.0000    694.1309      7.3542
  1218.5000     69.1406      0.0000    780.6684      7.6249
  1218.7500     67.7411      0.0000    867.5664      7.9010
  1219.0000     66.9928      0.0000    924.8428      8.1687
  1219.2500     65.6498      0.0000    935.8056      8.4083
  1219.5000     63.5240      0.0000    907.7797      8.6111
  1219.7500     61.6877      0.0000    863.5816      8.7779
  1220.0000     61.3959      0.0000    824.3445      8.9052
  1220.2500     62.8981      0.0000    799.5503      8.9815
  1220.5000     65.2215      0.0000    788.4330      9.0033
  1220.7500     66.9275      0.0000    785.9860      8.9870
  1221.0000     67.1459      0.0000    787.0421      8.9548
  1221.2500     66.0491      0.0000    787.6186      8.9061
  1221.5000     64.4432      0.0000    784.8217      8.8190
  1221.7500     63.0177      0.0000    775.9298      8.6854
  1222.0000     62.1037      0.0000    757.4651      8.5306
  1222.2500     62.0991      0.0000    726.5008      8.3854
  1222.5000     63.8127      0.0000    684.1956      8.2493
  1222.7500     67.8107      0.0000    637.9484      8.0984
  1223.0000     73.2356      0.0000    599.2441      7.9271
  1223.2500     77.8547      0.0000    577.9346      7.7576
  1223.5000     79.7180      0.0000    575.9566      7.5912
  1223.7500     78.4859      0.0000    582.7966      7.3397
  1224.0000     75.1074      0.0000    575.5914      6.8096
  1224.2500     70.9486      0.0000    528.4523      5.8002
  1224.5000     67.3827      0.0000    430.7628      4.2915
  1224.7500     65.3352      0.0000    300.3631      2.5510
  1225.0000     64.8373      0.0000    174.2628      0.9980
  1225.2500     65.4749      0.0000     82.4857     -0.0769
  1225.5000     67.2295      0.0000     31.4207     -0.6550
  1225.7500     70.4111      0.0000      9.5399     -0.8968
  1226.0000     74.9569      0.0000      2.2911     -0.9755
  1226.2500     80.0931      0.0000      0.4297     -0.9955
  1226.5000     84.4452      0.0000      0.0591     -0.9994
  1226.7500     86.5442      0.0000   -999.2500   -999.2500
  1227.0000     85.9078      0.0000   -999.2500   -999.2500
  1227.2500     83.6584      0.0000   -999.2500   -999.2500
  1227.5000     81.4543      0.0000   -999.2500   -999.2500
  1227.7500     79.8149      0.0000   -999.2500   -999.2500
  1228.0000     78.1322      0.0000   -999.2500   -999.2500
  1228.2500     76.2764      0.0000   -999.2500   -999.2500
  1228.5000     75.4079      0.0000   -999.2500   -999.2500
  1228.7500     76.9563      0.0000   -999.2500   -999.2500
  1229.0000     81.1110      0.0000   -999.2500   -999.2500
  1229.2500     86.4099      0.0000   -999.2500   -999.2500
  1229.5000     90.6493      0.0000   -999.2500   -999.2500
  1229.7500     92.3313      0.0000   -999.2500   -999.2500
  1230.0000     91.5194      0.0000   -999.2500   -999.2500
  1230.2500     89.4154      0.0000   -999.2500   -999.2500
  1230.5000     87.1814      0.0000   -999.2500   -999.2500
  1230.7500     85.2638      0.0000   -999.2500   -999.2500
  1231.0000     83.7023      0.0000   -999.2500   -999.2500
  1231.2500     82.6861      0.0000   -999.2500   -999.2500
  1231.5000     82.5175      0.0000   -999.2500   -999.2500
  1231.7500     83.1159      0.0000   -999.2500   -999.2500
  1232.0000     83.7491      0.0000   -999.2500   -999.2500
  1232.2500     83.3106      0.0000   -999.2500   -999.2500
  1232.5000     81.0783   -999.2500   -999.2500   -999.2500
  1232.7500     77.3709   -999.2500   -999.2500   -999.2500
  1233.0000     73.3146   -999.2500   -999.2500   -999.2500
  1233.2500     69.9729   -999.2500   -999.2500   -999.2500
  1233.5000     67.8783   -999.2500   -999.2500   -999.2500
  1233.7500     67.1834   -999.2500   -999.2500   -999.2500
  1234.0000     67.3999   -999.2500   -999.2500   -999.2500
  1234.2500     66.5240   -999.2500   -999.2500   -999.2500
  1234.5000     61.3732   -999.2500   -999.2500   -999.2500
  1234.7500     50.1775   -999.2500   -999.2500   -999.2500
  1235.0000     34.8880   -999.2500   -999.2500   -999.2500
  1235.2500     20.0717   -999.2500   -999.2500   -999.2500
  1235.5000      9.3889   -999.2500   -999.2500   -999.2500
  1235.7500      3.5296   -999.2500   -999.2500   -999.2500
  1236.0000      1.0580   -999.2500   -999.2500   -999.2500
  1236.2500      0.2512   -999.2500   -999.2500   -999.2500
  1236.5000      0.0466   -999.2500   -999.2500   -999.2500
  1236.7500      0.0061   -999.2500   -999.2500   -999.2500
  1237.0000      0.0000   -999.2500   -999.2500   -999.2500
  1237.2500   -999.2500   -999.2500   -999.2500   -999.2500
  1237.5000   -999.2500   -999.2500   -999.2500   -999.2500
  1237.7500   -999.2500   -999.2500   -999.2500   -999.2500
  1238.0000   -999.2500   -999.2500   -999.2500   -999.2500
  1238.2500   -999.2500   -999.2500   -999.2500   -999.2500
