~Version Information
VERS.                      2.0: CWLS Log ASCII Standard - VERSION 2.0
WRAP.                       NO: One line per depth step
~Well Information Block
STRT.FT                 0.0000: 
STOP.FT               878.0000: 
STEP.FT                 0.2500: 
NULL.                -999.2500: 
COMP.          Pioneer Natural Resources: COMPANY
WELL.           Hartford 31-18: WELL
FLD.           Purgatorie River: FIELD
LOC.           375' FNL & 1660' FEL: LOCATION
PROV.                 Colorado: PROVINCE
CNTY.               Las Animas: COUNTRY
SRVC.                Patterson: SERVICE COMPANY
DATE.          Mon Nov 28 12:10:49 2005: LOG DATE
UWI.             05-071-08555             : UNIQUE WELL ID
~Curve Information Block
DEPT.FT            0 000 00 00: Depth
CCL.                          : Casing Collar Locator
TT3.usec                      : CBL 3' Travel Time
AMP3.mV                       : CBL 3' Amplitude
GR.GAPI                       : Gamma Ray
~Parameter Information Block
~A  Depth       CCL         TT3         AMP3         GR     
# ...
   435.5000      0.0000    711.8632     10.7831     83.6090
   435.7500      0.0000    714.3284     10.7894     80.5114
   436.0000      0.0000    719.0381     10.7877     78.2435
   436.2500      0.0000    722.4851     10.7925     78.6077
   436.5000      0.0000    723.8676     10.8161     83.6118
   436.7500      0.0000    724.1146     10.8510     93.3654
   437.0000      0.0000    724.0368     10.8649    105.2328
   437.2500      0.0000    723.9003     10.8220    115.1826
   437.5000      0.0000    723.4636     10.7202    120.1416
   437.7500      0.0000    721.7736     10.5864    119.5813
   438.0000      0.0000    717.1816     10.4507    115.3504
   438.2500      0.0000    709.3941     10.3559    110.3264
   438.5000      0.0000    702.4944     10.3492    107.0249
   438.7500      0.0000    702.2747     10.4450    106.6564
   439.0000      0.0000    708.7408     10.6062    108.7201
   439.2500      0.0000    716.0899     10.7531    111.5364
   439.5000      0.0000    720.2714     10.8269    113.4449
   439.7500      0.0000    721.6960     10.8432    113.4986
   440.0000      0.0000    722.0465     10.8341    111.3386
   440.2500      0.0000    722.1486     10.7885    107.2757
   440.5000      0.0000    722.1757     10.7175    102.6859
   440.7500      0.0000    722.1872     10.6761     99.6116
   441.0000      0.0000    722.2262     10.6682     99.4299
   441.2500      0.0000    722.2517     10.6396    101.9334
   441.5000      0.0000    722.2324     10.5671    105.6304
   441.7500      0.0000    722.2515     10.4734    108.5453
   442.0000      0.0000    722.3908     10.3716    108.9354
   442.2500      0.0000    722.5800     10.2513    106.2743
   442.5000      0.0000    722.6774     10.1217    102.0575
   442.7500      0.0000    722.6324     10.0286     99.0694
   443.0000      0.0000    722.3303     10.0065     99.4072
   443.2500      0.0000    721.1145     10.0420    103.3766
   443.5000      0.0000    717.7786     10.1135    109.9451
   443.7500      0.0000    712.1970     10.2115    117.3992
   444.0000      0.0000    706.7997     10.2974    123.4700
   444.2500      0.0000    704.5972     10.3314    125.8095
   444.5000      0.0000    706.7541     10.3412    123.3031
   444.7500      0.0000    712.2467     10.3817    117.3552
   445.0000      0.0000    718.0727     10.4506    111.7368
   445.2500      0.0000    721.6941     10.5114    110.5644
   445.5000      0.0000    723.1362     10.5729    115.6753
   445.7500      0.0000    723.6083     10.6878    125.4281
   446.0000      0.0000    723.8372     10.8839    135.9355
   446.2500      0.0000    723.9945     11.1488    143.8454
   446.5000      0.0000    724.1334     11.4465    148.3733
   446.7500      0.0000    724.2900     11.6983    150.8804
   447.0000      0.0000    724.3658     11.8011    152.8442
   447.2500      0.0000    724.2394     11.7080    154.4785
   447.5000      0.0000    723.9407     11.4623    155.0199
   447.7500      0.0000    723.5922     11.1392    153.6905
   448.0000      0.0000    723.1399     10.7953    150.1434
   448.2500      0.0000    721.8691     10.4654    144.4929
   448.5000      0.0000    718.3845     10.1661    137.4314
   448.7500      0.0000    712.2571      9.9056    130.3024
   449.0000      0.0000    705.1105      9.7051    124.7798
   449.2500      0.0000    698.1413      9.5906    122.0473
   449.5000      0.0000    691.1278      9.5496    121.7506
   449.7500      0.0000    685.0753      9.5349    121.8512
   450.0000      0.0000    681.5510      9.5086    120.1002
   450.2500      0.0000    680.4622      9.4537    115.9778
   450.5000      0.0000    681.2918      9.3793    111.1084
   450.7500      0.0000    684.3898      9.3072    107.7525
   451.0000      0.0000    688.9250      9.2250    106.9892
   451.2500      0.0000    691.2224      9.1075    108.3361
   451.5000      0.0000    688.7712      8.9905    110.9346
   451.7500      0.0000    683.9864      8.9443    114.8160
   452.0000      0.0000    680.4561      8.9873    120.6449
   452.2500      0.0000    679.2136      9.0867    128.1536
   452.5000      0.0000    680.4799      9.2105    135.3968
   452.7500      0.0000    685.5873      9.3368    140.1096
   453.0000      0.0000    695.4255      9.4407    141.7094
   453.2500      0.0000    707.4761      9.4983    141.6792
   453.5000      0.0000    716.7726      9.5042    142.1319
   453.7500      0.0000    720.3800      9.4870    144.2170
   454.0000      0.0000    718.7207      9.5033    147.5855
   454.2500      0.0000    714.5457      9.6077    150.7959
   454.5000      0.0000    712.3753      9.7995    152.1834
   454.7500      0.0000    714.8212      9.9970    150.9899
   455.0000      0.0000    719.4645     10.1015    148.1927
   455.2500      0.0000    722.7263     10.1018    145.9202
   455.5000      0.0000    723.7558     10.0846    145.4852
   455.7500      0.0000    722.8453     10.1214    146.1044
   456.0000      0.0000    719.6367     10.1695    145.7859
   456.2500      0.0000    714.9334     10.1335    143.2408
   456.5000      0.0000    712.3519      9.9995    138.8341
   456.7500      0.0000    714.4612      9.8501    134.0524
   457.0000      0.0000    718.9567      9.7642    130.2453
   457.2500      0.0000    722.2772      9.7502    127.7531
   457.5000      0.0000    723.7223      9.7552    126.1247
   457.7500      0.0000    724.2941      9.7151    125.0275
   458.0000      0.0000    724.6506      9.6073    124.6586
   458.2500      0.0000    724.8830      9.4733    125.2260
   458.5000      0.0000    724.9329      9.3941    126.4086
   458.7500      0.0000    724.8078      9.4131    127.5900
   459.0000      0.0000    724.5929      9.4896    128.6052
   459.2500      0.0000    724.3598      9.5538    130.0769
   459.5000      0.0000    724.0812      9.5757    132.7633
   459.7500      0.0000    723.4333      9.5607    136.3715
   460.0000      0.0000    721.0325      9.5007    139.2560
   460.2500      0.0000    713.3693      9.3638    139.8420
   460.5000      0.0000    696.3780      9.1419    138.4423
   460.7500      0.0000    672.5773      8.8804    137.1441
   461.0000      0.0000    656.8896      8.5797    137.5117
   461.2500      0.0000    668.5004      8.0739    138.7202
   461.5000      0.0000    713.9723      7.2823    138.4927
   461.7500      0.0000    777.2485      6.5105    135.8752
   462.0000      0.0000    827.9664      6.1023    132.6792
   462.2500      0.0000    857.1064      6.0407    132.0768
   462.5000      0.0000    888.4800      6.1272    135.8828
   462.7500     -2.0000    928.0008      6.2397    142.9462
   463.0000      0.0000    950.5450      6.3354    149.8011
   463.2500      0.0000    946.9492      6.4306    153.0610
   463.5000      0.0000    922.3286      6.6756    151.9512
   463.7500      0.0000    871.1568      7.2865    148.8135
   464.0000      0.0000    799.8419      8.1961    146.8006
   464.2500      0.0000    735.7773      8.9841    146.9960
   464.5000      0.0000    697.7457      9.4290    148.1353
   464.7500      0.0000    682.6393      9.6991    148.9419
   465.0000      0.0000    678.6683      9.8915    149.8154
   465.2500      0.0000    677.8096      9.9428    151.9361
   465.5000      0.0000    677.3235      9.8752    155.4280
   465.7500      0.0000    676.8137      9.7753    158.7391
   466.0000      0.0000    676.3990      9.6808    159.4357
   466.2500      0.0000    676.2133      9.6004    155.6647
   466.5000      0.0000    676.2383      9.5435    147.5949
   466.7500      0.0000    676.3181      9.5120    137.7458
   467.0000      0.0000    676.3259      9.5197    129.4264
   467.2500      0.0000    676.2549      9.5866    124.5322
   467.5000      0.0000    676.1810      9.6943    123.0840
   467.7500      0.0000    676.1643      9.7971    124.6301
   468.0000      0.0000    676.1761      9.8595    129.0195
   468.2500      0.0000    676.1625      9.8667    135.3467
   468.5000      0.0000    676.1271      9.8254    141.2200
   468.7500      0.0000    676.0789      9.7567    144.1237
