~Version Information
VERS.                      2.0: CWLS Log ASCII Standard - VERSION 2.0
WRAP.                       NO: One line per depth step
~Well Information Block
STRT.FT                -7.0000: 
STOP.FT              1155.0000: 
STEP.FT                 0.2500: 
NULL.                -999.2500: 
COMP.          Pioneer Natural Resources: COMPANY
WELL.          Whitecoat 14-36: WELL
FLD.           Purgatorie River: FIELD
LOC.           606' FSL & 260' FWL--: LOCATION
PROV.                       CO: PROVINCE
CNTY.               Las Animas: COUNTRY
SRVC.          Patterson Wireline: SERVICE COMPANY
DATE.          Mon Dec 12 12:56:49 2005: LOG DATE
UWI.           08 071 08593 00: UNIQUE WELL ID
~Curve Information Block
DEPT.FT            0 000 00 00: Depth
CCL.                          : Casing Collar Locator
TT3.usec                      : CBL 3' Travel Time
AMP3.mV                       : CBL 3' Amplitude
GR.GAPI                       : Gamma Ray
~Parameter Information Block
~A  Depth       CCL         TT3         AMP3         GR     
    -7.0000   -999.2500   -999.2500   -999.2500    104.8724
    -6.7500   -999.2500   -999.2500   -999.2500    103.3860
    -6.5000   -999.2500   -999.2500   -999.2500    104.1580
    -6.2500   -999.2500   -999.2500   -999.2500    106.6651
    -6.0000   -999.2500   -999.2500   -999.2500    109.6864
    -5.7500   -999.2500   -999.2500   -999.2500    112.3305
    -5.5000   -999.2500   -999.2500   -999.2500    114.2884
    -5.2500   -999.2500   -999.2500   -999.2500    115.7957
    -5.0000   -999.2500   -999.2500   -999.2500    117.4665
    -4.7500   -999.2500   -999.2500   -999.2500    119.6406
    -4.5000   -999.2500   -999.2500   -999.2500    121.6757
    -4.2500   -999.2500   -999.2500   -999.2500    122.1825
    -4.0000   -999.2500   -999.2500   -999.2500    120.2168
    -3.7500   -999.2500   -999.2500   -999.2500    116.3673
    -3.5000   -999.2500   -999.2500   -999.2500    112.5586
    -3.2500   -999.2500   -999.2500   -999.2500    110.4805
    -3.0000   -999.2500   -999.2500   -999.2500    110.1505
    -2.7500   -999.2500   -999.2500   -999.2500    110.0938
    -2.5000   -999.2500   -999.2500   -999.2500    108.8101
    -2.2500   -999.2500   -999.2500   -999.2500    105.9905
    -2.0000   -999.2500   1167.0000     -0.2508    102.4032
    -1.7500   -999.2500   1167.0000     -0.2531     98.8526
    -1.5000   -999.2500   1167.0000     -0.2561     95.5478
    -1.2500   -999.2500   1167.0000     -0.2617     92.3980
    -1.0000   -999.2500   1167.0000     -0.2709     89.5100
    -0.7500   -999.2500   1167.0000     -0.2807     87.1666
    -0.5000   -999.2500   1167.0000     -0.2856     85.3353
    -0.2500   -999.2500   1167.0000     -0.2850     83.3221
     0.0000   -999.2500   1167.0000     -0.2852     80.2635
     0.2500   -999.2500   1167.0000     -0.2921     76.0677
     0.5000   -999.2500   1167.0000     -0.3105     66.2997
     0.7500   -999.2500   1167.0000     -0.3085     60.2461
     1.0000   -999.2500   1167.0000     -0.2995     52.9946
     1.2500   -999.2500   1167.0000     -0.2900     45.7495
     1.5000   -999.2500   1167.0000     -0.2851     40.2144
     1.7500   -999.2500   1167.0000     -0.2871     37.0193
     2.0000   -999.2500   1167.0000     -0.2953     35.3953
     2.2500   -999.2500   1167.0000     -0.3081     34.2075
     2.5000   -999.2500   1167.0000     -0.3233     33.0655
     2.7500   -999.2500   1167.0000     -0.3374     32.4591
     3.0000   -999.2500   1167.0000     -0.3462     32.9729
     3.2500      0.0000   1167.0000     -0.3464     34.6458
     3.5000      0.0000   1167.0000     -0.3385     37.2179
     3.7500      0.0000   1167.0000     -0.3267     40.7473
     4.0000      0.0000   1167.0000     -0.3158     45.7459
     4.2500      0.0000   1167.0000     -0.3089     52.6630
     4.5000      0.0000   1167.0000     -0.3056     61.1359
     4.7500      0.0000   1167.0000     -0.3047     69.7287
     5.0000     -2.0000   1167.0000     -0.3065     76.5910
     5.2500      0.0000   1167.0000     -0.3123     80.5060
     5.5000      0.0000   1167.0000     -0.3209     81.2461
     5.7500      0.0000   1167.0000     -0.3289     79.1869
     6.0000      0.0000   1167.0000     -0.3326     75.1331
     6.2500      0.0000   1167.0000     -0.3306     70.4734
     6.5000      0.0000   1166.9783     -0.3245     66.7432
     6.7500      0.0000   1166.7992     -0.3099     64.7302
     7.0000      0.0000   1165.8351     -0.2538     64.2933
     7.2500      0.0000   1161.7471     -0.0148     64.9606
     7.5000      0.0000   1148.0657      0.8398     66.2169
     7.7500      0.0000   1111.8911      3.2933     67.2844
     8.0000      0.0000   1036.2592      8.8871     67.2710
     8.2500      0.0000    911.1758     18.9275     65.8911
     8.5000      0.0000    747.5526     32.9774     63.8650
     8.7500      0.0000    578.3621     48.0870     62.4557
     9.0000      0.0000    440.2381     60.1670     62.5977
     9.2500      0.0000    351.4423     66.5380     64.3901
     9.5000      0.0000    306.9166     67.1282     67.2693
     9.7500      0.0000    290.4883     63.5501     70.5071
    10.0000      0.0000    288.3309     57.6059     73.4680
    10.2500      0.0000    293.6704     50.5952     75.6120
    10.5000      0.0000    304.9637     43.3613     76.6190
    10.7500      0.0000    323.1566     36.4736     76.7657
    11.0000      0.0000    350.1230     30.2812     77.1147
    11.2500      0.0000    387.7174     24.9170     79.0557
    11.5000      0.0000    437.0085     20.3578     83.2311
    11.7500      0.0000    497.4183     16.5429     88.8214
    12.0000      0.0000    565.0050     13.4500     94.1228
    12.2500      0.0000    631.1634     11.0853     97.6983
    12.5000      0.0000    685.4001      9.4325     98.7336
    12.7500      0.0000    721.4719      8.4118     96.9816
    13.0000      0.0000    740.5046      7.8767     93.2202
    13.2500      0.0000    748.1285      7.6494     89.3629
    13.5000      0.0000    749.7072      7.5737     87.1651
    13.7500      0.0000    748.1076      7.5469     86.7202
    14.0000      0.0000    744.1624      7.5155     86.6445
    14.2500      0.0000    737.7352      7.4538     85.8510
    14.5000      0.0000    728.1428      7.3453     84.9656
    14.7500      0.0000    714.4061      7.1846     85.7977
    15.0000      0.0000    696.5731      6.9986     89.4198
    15.2500      0.0000    677.8989      6.8514     94.9209
    15.5000      0.0000    665.5653      6.7955     99.8929
    15.7500      0.0000    667.8281      6.8124    101.8665
    16.0000      0.0000    688.2938      6.8281     99.5376
    16.2500      0.0000    721.7629      6.7883     93.2927
    16.5000      0.0000    756.5024      6.6979     84.9798
    16.7500      2.0000    782.0880      6.5961     77.0400
    17.0000      0.0000    795.5192      6.5216     71.3402
    17.2500      0.0000    800.3693      6.5005     68.4250
    17.5000      0.0000    801.4845      6.5550     67.8334
    17.7500      0.0000    800.7150      6.7131     68.9491
    18.0000      0.0000    796.2691      6.9888     71.2122
    18.2500      0.0000    785.3065      7.3294     73.7656
    18.5000      0.0000    767.5900      7.5995     75.5780
    18.7500      0.0000    746.9057      7.6715     76.2648
    19.0000      0.0000    728.6866      7.5420     76.6260
    19.2500      0.0000    716.2695      7.3267     78.0046
    19.5000      0.0000    709.5604      7.1426     80.9760
    19.7500      0.0000    706.5757      7.0246     84.8507
    20.0000      0.0000    705.4108      6.9491     88.4424
    20.2500      0.0000    704.9650      6.8939     90.9236
    20.5000      0.0000    704.7296      6.8597     91.8669
    20.7500      0.0000    704.5062      6.8503     91.0994
    21.0000      0.0000    704.2686      6.8561     89.0199
    21.2500      0.0000    704.0627      6.8619     86.8644
    21.5000      0.0000    703.9181      6.8635     86.1608
    21.7500      0.0000    703.8262      6.8663     87.5587
    22.0000      0.0000    703.7712      6.8718     90.1082
    22.2500      0.0000    703.7438      6.8729     91.9422
    22.5000      0.0000    703.7340      6.8620     92.0259
    22.7500      0.0000    703.7246      6.8402     91.2848
    23.0000      0.0000    703.6917      6.8159     91.7810
    23.2500      0.0000    703.6084      6.7968     94.6472
    23.5000      0.0000    703.4589      6.7848     98.8513
    23.7500      0.0000    703.2535      6.7796    102.1043
    24.0000      0.0000    703.0283      6.7834    103.0117
    24.2500      0.0000    702.8256      6.7991    102.1792
    24.5000      0.0000    702.6718      6.8229    101.1057
    24.7500      0.0000    702.5681      6.8451    100.3029
    25.0000      0.0000    702.5060      6.8581     98.8869
    25.2500      0.0000    702.4886      6.8644     95.9052
    25.5000      0.0000    702.5219      6.8747     91.4208
    25.7500      0.0000    702.5859      6.8993     86.2909
    26.0000      0.0000    702.6364      6.9402     81.8102
    26.2500      0.0000    702.6472      6.9877     79.7423
