~Version Information
VERS.                      2.0: CWLS Log ASCII Standard - VERSION 2.0
WRAP.                       NO: One line per depth step
~Well Information Block
STRT.FT               260.0000: 
STOP.FT               713.2500: 
STEP.FT                 0.2500: 
NULL.                -999.2500: 
COMP.          Pioneer Natural Resources: COMPANY
WELL.           Quintessa 23-7: WELL
FLD.           Purgatoire River: FIELD
LOC.           1964' FSL & 2589' FWL--: LOCATION
PROV.                 Colorado: PROVINCE
CNTY.               Las Animas: COUNTRY
SRVC.                Patterson: SERVICE COMPANY
DATE.          Fri Nov 18 16:07:34 2005: LOG DATE
UWI.           05 071 08558 00: UNIQUE WELL ID
~Curve Information Block
DEPT.FT            0 000 00 00: Depth
SN.Ohm-m                      : IEL Short Normal
SP.mV                         : IEL Spontaneous Potential
DIR.Ohm-m                     : IEL Induction Resistivity
GR.GAPI                       : Gamma Ray
~Parameter Information Block
~A  Depth        SN          SP         DIR          GR     
# ...
   561.5000     20.3865    111.3280     14.9712    130.8104
   561.7500     20.1914    111.3786     14.7083    131.7631
   562.0000     20.1255    111.1804     14.5252    131.0353
   562.2500     20.1680    110.7560     14.4048    129.2114
   562.5000     20.3080    110.1252     14.3395    125.5873
   562.7500     20.5431    109.3062     14.3338    123.4584
   563.0000     20.8775    108.3185     14.4020    121.5940
   563.2500     21.3145    107.1850     14.5617    120.9058
   563.5000     21.8463    105.9352     14.8286    118.7046
   563.7500     22.4527    104.6061     15.2157    115.1892
   564.0000     23.1177    103.2426     15.7349    106.0269
   564.2500     23.8551    101.8968     16.3980     97.8649
   564.5000     24.7164    100.6241     17.2150     84.6719
   564.7500     25.7662     99.4785     18.1891     76.7608
   565.0000     27.0311     98.5075     19.3083     68.1819
   565.2500     28.4530     97.7455     20.5352     64.7975
   565.5000     29.8771     97.2099     21.7962     61.8282
   565.7500     31.0922     96.8980     22.9778     60.3787
   566.0000     31.9079     96.7876     23.9352     58.9877
   566.2500     32.2304     96.8394     24.5223     59.4262
   566.5000     32.0929     97.0026     24.6443     63.6309
   566.7500     31.6283     97.2213     24.3076     68.9562
   567.0000     31.0082     97.4417     23.6311     79.2893
   567.2500     30.3825     97.6185     22.8010     86.1716
   567.5000     29.8438     97.7197     22.0027     93.5997
   567.7500     29.4232     97.7304     21.3740     95.3410
   568.0000     29.1119     97.6534     20.9906     92.0890
   568.2500     28.8914     97.5091     20.8725     86.1788
   568.5000     28.7554     97.3332     20.9954     73.5034
   568.7500     28.7210     97.1732     21.3055     64.2299
   569.0000     28.8328     97.0835     21.7399     51.9805
   569.2500     29.1493     97.1194     22.2459     45.9683
   569.5000     29.7027     97.3319     22.7900     40.6233
   569.7500     30.4478     97.7608     23.3479     39.2377
   570.0000     31.2452     98.4307     23.8815     39.7777
   570.2500     31.8991     99.3474     24.3208     41.7439
   570.5000     32.2221    100.4971     24.5640     47.4590
   570.7500     32.0840    101.8485     24.5048     53.3641
   571.0000     31.4323    103.3560     24.0747     64.9606
   571.2500     30.3041    104.9657     23.2776     73.5802
   571.5000     28.8267    106.6214     22.1940     85.5867
   571.7500     27.1868    108.2702     20.9523     91.9247
   572.0000     25.5746    109.8673     19.6872     98.6439
   572.2500     24.1308    111.3790     18.5051    101.9724
   572.5000     22.9214    112.7838     17.4684    106.6387
   572.7500     21.9420    114.0717     16.5975    109.7190
   573.0000     21.1413    115.2423     15.8797    113.5745
   573.2500     20.4511    116.3020     15.2800    115.2141
   573.5000     19.8099    117.2607     14.7511    116.2803
   573.7500     19.1774    118.1292     14.2444    116.3435
   574.0000     18.5389    118.9170     13.7219    115.6295
   574.2500     17.9023    119.6309     13.1664    114.3694
   574.5000     17.2872    120.2738     12.5833    111.2818
   574.7500     16.7134    120.8452     11.9954    109.3370
   575.0000     16.1929    121.3411     11.4310    109.2115
   575.2500     15.7304    121.7548     10.9132    111.9469
   575.5000     15.3245    122.0773     10.4540    119.5897
   575.7500     14.9686    122.2979     10.0540    125.6944
   576.0000     14.6509    122.4053      9.7059    133.9829
   576.2500     14.3624    122.3877      9.4014    137.9921
   576.5000     14.1083    122.2339      9.1361    141.1471
   576.7500     13.9125    121.9339      8.9142    141.6420
   577.0000     13.8099    121.4799      8.7483    141.2935
   577.2500     13.8319    120.8677      8.6579    141.0949
   577.5000     13.9952    120.0980      8.6648    141.2714
   577.7500     14.2960    119.1774      8.7890    141.3623
   578.0000     14.7116    118.1205      9.0435    140.3511
   578.2500     15.2103    116.9498      9.4318    138.1988
   578.5000     15.7685    115.6966      9.9476    131.7021
   578.7500     16.3883    114.3996     10.5793    124.9329
   579.0000     17.1013    113.1032     11.3168    111.9161
   579.2500     17.9539    111.8542     12.1551    102.5847
   579.5000     18.9756    110.6978     13.0902     90.2043
   579.7500     20.1489    109.6736     14.1043     84.0649
   580.0000     21.4000    108.8120     15.1509     78.5529
   580.2500     22.6164    108.1313     16.1522     77.2927
   580.5000     23.6770    107.6368     17.0174     78.8288
   580.7500     24.4780    107.3216     17.6745     81.7762
   581.0000     24.9519    107.1686     18.0937     87.8446
   581.2500     25.0874    107.1536     18.2898     92.2508
   581.5000     24.9411    107.2488     18.3062     98.6517
   581.7500     24.6206    107.4260     18.1970    102.4584
   582.0000     24.2427    107.6592     18.0122    106.6526
   582.2500     23.8916    107.9259     17.7909    107.9937
   582.5000     23.6080    108.2079     17.5613    107.6468
   582.7500     23.4027    108.4917     17.3481    105.9852
   583.0000     23.2765    108.7675     17.1787    101.8508
   583.2500     23.2290    109.0296     17.0809     98.7785
   583.5000     23.2560    109.2758     17.0757     96.0444
   583.7500     23.3444    109.5068     17.1683     96.6575
   584.0000     23.4712    109.7262     17.3447    101.2657
   584.2500     23.6082    109.9397     17.5782    105.6983
   584.5000     23.7267    110.1543     17.8414    112.2084
   584.7500     23.7981    110.3773     18.1145    115.5508
   585.0000     23.7912    110.6149     18.3839    117.6796
   585.2500     23.6756    110.8720     18.6314    116.3071
   585.5000     23.4311    111.1509     18.8281    109.7108
   585.7500     23.0596    111.4512     18.9389    103.4436
   586.0000     22.5958    111.7696     18.9352     94.7449
   586.2500     22.1067    112.1002     18.8048     91.2278
   586.5000     21.6728    112.4340     18.5527     90.9288
   586.7500     21.3525    112.7598     18.1946     94.0809
   587.0000     21.1532    113.0633     17.7494    102.6351
   587.2500     21.0318    113.3275     17.2380    109.6305
   587.5000     20.9243    113.5327     16.6871    119.7713
   587.7500     20.7824    113.6570     16.1324    125.3844
   588.0000     20.5888    113.6772     15.6157    131.5555
   588.2500     20.3497    113.5708     15.1770    134.2168
   588.5000     20.0803    113.3183     14.8470    135.9353
   588.7500     19.8019    112.9056     14.6428    135.1663
   589.0000     19.5445    112.3270     14.5688    130.4001
   589.2500     19.3477    111.5869     14.6206    125.0017
   589.5000     19.2618    110.7019     14.7927    115.3626
   589.7500     19.3529    109.6999     15.0837    109.1814
   590.0000     19.6981    108.6192     15.4969    101.3677
   590.2500     20.3568    107.5052     16.0358     97.0770
   590.5000     21.3293    106.4068     16.6972     91.9362
   590.7500     22.5328    105.3717     17.4650     89.7269
   591.0000     23.8185    104.4432     18.3062     88.8583
   591.2500     25.0192    103.6561     19.1690     89.6769
   591.5000     25.9972    103.0350     19.9844     91.4722
   591.7500     26.6708    102.5936     20.6762     91.9189
   592.0000     27.0259    102.3346     21.1823     90.1347
   592.2500     27.1152    102.2505     21.4795     87.3440
   592.5000     27.0387    102.3254     21.5948     82.2693
   592.7500     26.9036    102.5361     21.5890     79.4072
   593.0000     26.7798    102.8536     21.5252     76.8389
   593.2500     26.6747    103.2454     21.4425     76.1585
   593.5000     26.5477    103.6772     21.3522     76.2047
   593.7500     26.3525    104.1152     21.2517     76.9093
   594.0000     26.0764    104.5287     21.1411     79.2235
   594.2500     25.7482    104.8929     21.0309     81.5610
   594.5000     25.4170    105.1902     20.9381     85.3629
   594.7500     25.1251    105.4122     20.8788     87.2444
