~Version Information
VERS.                      2.0: CWLS Log ASCII Standard - VERSION 2.0
WRAP.                       NO: One line per depth step
~Well Information Block
STRT.FT                65.0000: 
STOP.FT               998.0000: 
STEP.FT                 0.2500: 
NULL.                -999.2500: 
COMP.          Pioneer Natural Resources: COMPANY
WELL.              Gough 14-29: WELL
FLD.           Purgatorie River: FIELD
LOC.           1199' FSL & 676' FWL: LOCATION
PROV.                 Colorado: PROVINCE
CNTY.               Las Animas: COUNTRY
SRVC.                Patterson: SERVICE COMPANY
DATE.          Wed Dec 28 08:38:26 2005: LOG DATE
UWI.                          : UNIQUE WELL ID
~Curve Information Block
DEPT.FT            0 000 00 00: Depth
CCL.                          : Casing Collar Locator
TT3.usec                      : CBL 3' Travel Time
AMP3.mV                       : CBL 3' Amplitude
GR.GAPI                       : Gamma Ray
~Parameter Information Block
~A  Depth       CCL         TT3         AMP3         GR     
    65.0000   -999.2500   -999.2500   -999.2500     79.3766
    65.2500   -999.2500   -999.2500   -999.2500     83.5847
    65.5000   -999.2500   -999.2500   -999.2500     86.1397
    65.7500   -999.2500   -999.2500   -999.2500     86.4761
    66.0000   -999.2500   -999.2500   -999.2500     85.1970
    66.2500   -999.2500   -999.2500   -999.2500     83.4818
    66.5000   -999.2500   -999.2500   -999.2500     82.4307
    66.7500   -999.2500   -999.2500   -999.2500     82.5990
    67.0000   -999.2500   -999.2500   -999.2500     83.6764
    67.2500   -999.2500   -999.2500   -999.2500     84.5493
    67.5000   -999.2500   -999.2500   -999.2500     83.9243
    67.7500   -999.2500   -999.2500   -999.2500     81.0318
    68.0000   -999.2500   -999.2500   -999.2500     75.8073
    68.2500   -999.2500   -999.2500   -999.2500     68.7060
    68.5000   -999.2500   -999.2500   -999.2500     60.5967
    68.7500   -999.2500   -999.2500   -999.2500     52.7279
    69.0000   -999.2500   -999.2500   -999.2500     46.4956
    69.2500   -999.2500   -999.2500   -999.2500     43.0542
    69.5000   -999.2500   -999.2500   -999.2500     42.9892
    69.7500   -999.2500    258.9557     83.9585     46.1653
    70.0000   -999.2500    258.9211     84.0687     51.8073
    70.2500   -999.2500    258.8950     84.1255     58.8184
    70.5000   -999.2500    258.8825     84.1304     66.2010
    70.7500   -999.2500    258.8807     84.1127     73.2191
    71.0000   -999.2500    258.8838     84.0873     79.2301
    71.2500   -999.2500    258.8909     84.0184     83.7018
    71.5000   -999.2500    258.9030     83.8856     86.6431
    71.7500   -999.2500    258.9207     83.7539     88.7780
    72.0000   -999.2500    258.9404     83.7199     90.9705
    72.2500   -999.2500    258.9509     83.7861     93.4949
    72.5000   -999.2500    258.9442     83.8739     95.8959
    72.7500   -999.2500    258.9289     83.9585     97.4656
    73.0000   -999.2500    258.9176     84.0518     97.8506
    73.2500   -999.2500    258.9122     84.1052     97.3563
    73.5000   -999.2500    258.9080     84.0755     96.6928
    73.7500   -999.2500    258.9005     84.0129     96.3428
    74.0000   -999.2500    258.8904     83.9997     96.1545
    74.2500   -999.2500    258.8799     84.0613     95.7547
    74.5000   -999.2500    258.8759     84.1306     95.3524
    74.7500   -999.2500    258.8912     84.1031     95.6602
    75.0000   -999.2500    258.9264     83.9861     96.8658
    75.2500   -999.2500    258.9599     83.9095     98.2014
    75.5000   -999.2500    258.9737     83.9351     98.8032
    75.7500      0.0000    258.9778     83.9540     98.7126
    76.0000      0.0000    258.9852     83.8835     98.8878
    76.2500      0.0000    258.9813     83.8442    100.2105
    76.5000      0.0000    258.9481     83.9542    102.2055
    76.7500      0.0000    258.8989     84.1337    102.9176
    77.0000      0.0000    258.8659     84.2392    100.6944
    77.2500      0.0000    258.8644     84.2173     96.0712
    77.5000      0.0000    258.8803     84.1174     91.4055
    77.7500      0.0000    258.8896     84.0290     88.8216
    78.0000      0.0000    258.8836     83.9848     88.7425
    78.2500      0.0000    258.8726     83.9542     90.1843
    78.5000      0.0000    258.8710     83.9210     92.2310
    78.7500      0.0000    258.8801     83.9144     95.0687
    79.0000      0.0000    258.8912     83.9695     99.3150
    79.2500      0.0000    258.9002     84.0679    104.5612
    79.5000      0.0000    258.9085     84.1343    109.2496
    79.7500      0.0000    258.9148     84.1257    112.0059
    80.0000      0.0000    258.9131     84.0941    112.4901
    80.2500      0.0000    258.9030     84.0870    111.0735
    80.5000      0.0000    258.8943     84.0808    108.4332
    80.7500      0.0000    258.8910     84.0699    105.3963
    81.0000      0.0000    258.8855     84.0707    102.3760
    81.2500      0.0000    258.8756     84.0616     98.9210
    81.5000      0.0000    258.8675     84.0464     94.3868
    81.7500      0.0000    258.8642     84.0611     88.7481
    82.0000      0.0000    258.8639     84.1002     82.1214
    82.2500      0.0000    258.8617     84.1495     74.1706
    82.5000      0.0000    258.8576     84.2215     64.8983
    82.7500      0.0000    258.8585     84.3094     55.5262
    83.0000      0.0000    258.8708     84.3527     47.7894
    83.2500      0.0000    258.8956     84.2713     42.7141
    83.5000      0.0000    258.9276     84.0789     40.5419
    83.7500      0.0000    258.9515     83.9229     41.2490
    84.0000      0.0000    258.9495     83.9293     44.5347
    84.2500      0.0000    258.9200     84.0605     49.7009
    84.5000      0.0000    258.8818     84.1890     56.1701
    84.7500      0.0000    258.8574     84.2289     63.9572
    85.0000      0.0000    258.8540     84.1690     73.0351
    85.2500      0.0000    258.8602     84.0778     82.0858
    85.5000      0.0000    258.8620     84.0513     88.4973
    85.7500      0.0000    258.8595     84.0787     90.1922
    86.0000      0.0000    258.8597     84.0714     87.3906
    86.2500      0.0000    258.8556     84.0638     82.4105
    86.5000      0.0000    258.8356     84.1646     77.9832
    86.7500      0.0000    258.8098     84.3271     75.7137
    87.0000      0.0000    258.7990     84.4197     75.5530
    87.2500      0.0000    258.8070     84.4096     76.3138
    87.5000      0.0000    258.8277     84.3053     76.7315
    87.7500      0.0000    258.8638     84.1113     76.3659
    88.0000      0.0000    258.9142     83.9121     75.7799
    88.2500      0.0000    258.9631     83.8141     75.9289
    88.5000      0.0000    258.9946     83.8122     77.3962
    88.7500      0.0000    258.9989     83.8498     80.0478
    89.0000      0.0000    258.9697     83.9422     83.0974
    89.2500      0.0000    258.9099     84.1310     85.5071
    89.5000      0.0000    258.8375     84.3724     86.6718
    89.7500      0.0000    258.7732     84.5658     86.6803
    90.0000      0.0000    258.7299     84.6696     85.7530
    90.2500      0.0000    258.7177     84.6955     83.7841
    90.5000      0.0000    258.7379     84.6472     80.7004
    90.7500      0.0000    258.7706     84.5484     76.8413
    91.0000      0.0000    258.7957     84.4442     72.7550
    91.2500      0.0000    258.8141     84.3457     69.0702
    91.5000      0.0000    258.8306     84.2526     66.6178
    91.7500      0.0000    258.8411     84.1905     65.9003
    92.0000      0.0000    258.8432     84.1666     66.0716
    92.2500      0.0000    258.8438     84.1444     65.1999
    92.5000      0.0000    258.8462     84.0961     62.1607
    92.7500      0.0000    258.8420     84.0524     57.8757
    93.0000      0.0000    258.8270     84.0681     54.3361
    93.2500      0.0000    258.8103     84.1426     52.8214
    93.5000      0.0000    258.8010     84.2031     53.3055
    93.7500      0.0000    258.7992     84.1988     55.0477
    94.0000      0.0000    258.7925     84.1915     57.2679
    94.2500      0.0000    258.7727     84.2526     59.5136
    94.5000      0.0000    258.7800     84.2461     61.9179
    94.7500      0.0000    258.9583     83.7632     65.1631
    95.0000      0.0000    259.5591     82.2643     69.8475
    95.2500      0.0000    260.7540     79.1857     75.7975
    95.5000      0.0000    262.3646     74.3208     82.1846
    95.7500      0.0000    263.9247     68.8363     88.0801
    96.0000      0.0000    265.0696     64.8365     92.4899
    96.2500      0.0000    265.7413     63.0624     94.3482
    96.5000      0.0000    266.0652     62.5871     93.4826
    96.7500     -2.0000    266.1842     62.5204     91.4421
    97.0000      2.0000    266.1984     62.5765     90.4450
    97.2500      0.0000    266.1547     62.6562     91.4535
    97.5000      0.0000    266.0272     62.8545     93.6858
    97.7500      0.0000    265.7169     63.6942     95.6458
    98.0000      0.0000    265.1119     65.6075     96.2642
    98.2500      0.0000    264.1708     68.1575     95.5432
