~Version Information
VERS.                      2.0: CWLS Log ASCII Standard - VERSION 2.0
WRAP.                       NO: One line per depth step
~Well Information Block
STRT.FT                -8.0000: 
STOP.FT              1661.0000: 
STEP.FT                 0.2500: 
NULL.                -999.2500: 
COMP.          Pioneer Natural Resources: COMPANY
WELL.          Rollerball 34-30: WELL
FLD.           Purgatorie River: FIELD
LOC.           893' FSL & 2408' FEL----: LOCATION
CNTY.               Las Animas: COUNTY
SRVC.          Patterson Wireline: SERVICE COMPANY
DATE.          Mon Feb 20 08:34:38 2006: LOG DATE
UWI.           05 071 08581 00: UNIQUE WELL ID
STAT.                       CO: STATE
~Curve Information Block
DEPT.FT            0 000 00 00: Depth
CCL.                          : Casing Collar Locator
TT3.usec                      : CBL 3' Travel Time
AMP3.mV                       : CBL 3' Amplitude
GR.GAPI                       : Gamma Ray
~Parameter Information Block
~A  Depth       CCL         TT3         AMP3         GR     
    -8.0000   -999.2500   -999.2500   -999.2500    106.9352
    -7.7500   -999.2500   -999.2500   -999.2500    108.8639
    -7.5000   -999.2500   -999.2500   -999.2500    109.4838
    -7.2500   -999.2500   -999.2500   -999.2500    109.1239
    -7.0000   -999.2500   -999.2500   -999.2500    108.2863
    -6.7500   -999.2500   -999.2500   -999.2500    107.3681
    -6.5000   -999.2500   -999.2500   -999.2500    106.7473
    -6.2500   -999.2500   -999.2500   -999.2500    106.6506
    -6.0000   -999.2500   -999.2500   -999.2500    107.0315
    -5.7500   -999.2500   -999.2500   -999.2500    107.8278
    -5.5000   -999.2500   -999.2500   -999.2500    109.2302
    -5.2500   -999.2500   -999.2500   -999.2500    111.4294
    -5.0000   -999.2500   -999.2500   -999.2500    114.1414
    -4.7500   -999.2500   -999.2500   -999.2500    116.5681
    -4.5000   -999.2500   -999.2500   -999.2500    117.9117
    -4.2500   -999.2500   -999.2500   -999.2500    117.8957
    -4.0000   -999.2500   -999.2500   -999.2500    116.8096
    -3.7500   -999.2500   -999.2500   -999.2500    115.1167
    -3.5000   -999.2500   -999.2500   -999.2500    113.1530
    -3.2500   -999.2500   1161.0000      0.9555    111.2773
    -3.0000   -999.2500   1161.0000      0.9417    110.0098
    -2.7500   -999.2500   1161.0000      0.9280    109.5088
    -2.5000   -999.2500   1161.0000      0.9162    109.0659
    -2.2500   -999.2500   1161.0000      0.9060    107.7445
    -2.0000   -999.2500   1161.0000      0.8972    105.3827
    -1.7500   -999.2500   1161.0000      0.8913    102.3421
    -1.5000   -999.2500   1161.0000      0.8904     98.4379
    -1.2500   -999.2500   1161.0000      0.8967     92.8196
    -1.0000   -999.2500   1161.0000      0.9103     85.1493
    -0.7500   -999.2500   1161.0000      0.9291     76.6231
    -0.5000   -999.2500   1161.0000      0.9491     69.4068
    -0.2500   -999.2500   1161.0000      0.9649     64.7924
     0.0000   -999.2500   1161.0000      0.9714     61.9615
     0.2500   -999.2500   1161.0000      0.9596     53.2889
     0.5000   -999.2500   1161.0000      0.9560     45.9850
     0.7500   -999.2500   1161.0000      0.9618     38.6310
     1.0000   -999.2500   1161.0000      0.9737     33.4122
     1.2500   -999.2500   1161.0000      0.9830     31.6256
     1.5000   -999.2500   1161.0000      0.9826     33.1482
     1.7500   -999.2500   1161.0000      0.9709     36.6782
     2.0000   -999.2500   1161.0000      0.9518     40.6200
     2.2500      0.0000   1161.0000      0.9307     44.0971
     2.5000      0.0000   1161.0000      0.9132     47.3025
     2.7500      0.0000   1161.0000      0.9037     50.8977
     3.0000      0.0000   1161.0000      0.9048     55.1416
     3.2500      0.0000   1161.0000      0.9149     59.6115
     3.5000      0.0000   1161.0000      0.9286     63.6650
     3.7500      0.0000   1161.0000      0.9388     67.0960
     4.0000      0.0000   1161.0000      0.9416     70.3147
     4.2500      0.0000   1161.0000      0.9385     73.8290
     4.5000      0.0000   1161.0000      0.9347     77.4912
     4.7500      0.0000   1161.0000      0.9351     80.3244
     5.0000      0.0000   1161.0000      0.9408     81.2635
     5.2500      0.0000   1160.9744      0.9493     80.1419
     5.5000      0.0000   1160.7726      0.9636     77.8951
     5.7500      0.0000   1159.6986      1.0061     75.6899
     6.0000      0.0000   1155.1991      1.1762     73.9028
     6.2500      0.0000   1140.3441      1.8025     72.0749
     6.5000      0.0000   1101.6426      3.6869     69.8020
     6.7500      0.0000   1021.9836      8.1719     67.4793
     7.0000      0.0000    892.3425     16.5270     66.1228
     7.2500      0.0000    725.4561     28.6676     66.5283
     7.5000      0.0000    555.5416     42.4147     68.6075
     7.7500      0.0000    418.7912     54.5451     71.3851
     8.0000      0.0000    331.8746     62.8930     73.5429
     8.2500      0.0000    288.3012     67.3869     74.1832
     8.5000      0.0000    271.0948     69.3203     73.3292
     8.7500      0.0000    265.7514     70.0971     71.7837
     9.0000      0.0000    264.4514     70.5958     70.3604
     9.2500      0.0000    264.2088     71.1603     69.0217
     9.5000      0.0000    264.1827     71.8078     66.8353
     9.7500      0.0000    264.1898     72.4432     63.0773
    10.0000      0.0000    264.1940     73.0110     58.2130
    10.2500      0.0000    264.1951     73.5292     53.4856
    10.5000      0.0000    264.1955     74.0382     49.9398
    10.7500      0.0000    264.1994     74.5308     48.2693
    11.0000      0.0000    264.2109     74.9322     49.2040
    11.2500      0.0000    264.2326     75.1515     53.3162
    11.5000      0.0000    264.2644     75.1579     60.1511
    11.7500      0.0000    264.3054     74.9953     67.7519
    12.0000      0.0000    264.3591     74.6993     73.6141
    12.2500      0.0000    264.4453     74.1816     76.5129
    12.5000      0.0000    264.6169     73.1932     77.3354
    12.7500      0.0000    264.9684     71.4882     77.9691
    13.0000      0.0000    265.6180     69.1155     79.4151
    13.2500      0.0000    266.6483     66.4683     80.9867
    13.5000      0.0000    268.0211     63.9049     81.1633
    13.7500      0.0000    269.5287     61.4501     79.0595
    14.0000      0.0000    270.8661     59.0497     75.1026
    14.2500      0.0000    271.8073     56.9212     70.4431
    14.5000      0.0000    272.3292     55.4104     65.8394
    14.7500      0.0000    272.5949     54.6300     61.2657
    15.0000      2.0000    272.8733     54.4271     56.6671
    15.2500      2.0000    273.4984     54.5960     52.8164
    15.5000      0.0000    274.7549     55.0690     51.1244
    15.7500      0.0000    276.5233     56.0094     52.6144
    16.0000      0.0000    277.9480     57.7558     57.1214
    16.2500      0.0000    277.7995     60.5337     63.3313
    16.5000      0.0000    275.5538     64.1684     69.5049
    16.7500      0.0000    272.0150     68.1517     74.1836
    17.0000      0.0000    268.6342     71.9043     76.5023
    17.2500      0.0000    266.3470     74.8886     76.3381
    17.5000      0.0000    265.1953     76.6244     74.3556
    17.7500      0.0000    264.7791     76.7430     71.5016
    18.0000      0.0000    264.7964     74.9972     68.1353
    18.2500      0.0000    265.2845     71.2699     63.8299
    18.5000      0.0000    266.6592     65.7001     58.2833
    18.7500      0.0000    269.6638     58.7933     52.3206
    19.0000      0.0000    275.1178     51.3129     47.6928
    19.2500      0.0000    283.8867     43.9960     45.7844
    19.5000      0.0000    297.9720     37.3319     46.6738
    19.7500      0.0000    323.0457     31.5038     49.4685
    20.0000      0.0000    369.5085     26.4749     53.1841
    20.2500      0.0000    447.1660     22.1337     57.1015
    20.5000      0.0000    554.4055     18.4100     60.6195
    20.7500      0.0000    673.0240     15.3028     63.2325
    21.0000      0.0000    777.8568     12.8283     64.8877
    21.2500      0.0000    853.1091     10.9636     66.2568
    21.5000      0.0000    898.6057      9.6394     68.2741
    21.7500      0.0000    922.7886      8.7650     71.1837
    22.0000      0.0000    933.2383      8.2428     74.2284
    22.2500      0.0000    933.3873      7.9696     76.3035
    22.5000      0.0000    925.3481      7.8461     76.6854
    22.7500      0.0000    913.8293      7.7952     75.1461
    23.0000      0.0000    905.6777      7.7726     71.8314
    23.2500      0.0000    904.4081      7.7617     67.3527
    23.5000      0.0000    905.8650      7.7598     62.7586
    23.7500      0.0000    900.9069      7.7663     59.0533
    24.0000      0.0000    882.7933      7.7782     56.6473
    24.2500      0.0000    852.5300      7.7937     55.3319
    24.5000      0.0000    818.2904      7.8164     54.7859
    24.7500      0.0000    789.7593      7.8507     55.0695
    25.0000      0.0000    771.8521      7.8914     56.4881
    25.2500      0.0000    762.9900      7.9199     59.0388
