~Version Information
 VERS.                                  2.0 : CWLS LAS VERSION
 WRAP.                                   NO : WRAPING MODE
 SWARE .                 MController 2.5.0N : SOFTWARE VERSION
~Well Information
 WELL.                    Hellzonfire 32-31 : WELL
 COMP.    Pioneer Natural Resources USA Inc : COMPANY
 FLD.                      Purgatoire River : FIELD
 LOC.                 SW/NE SEC31 T32S R66W : LOCATION
 DATE.                             09/01/05 : DATE(S) LOGGED
 SRVC.       Blanco Geological Services LLC : SERVICE COMPANY
 STAT.                             Colorado : STATE
 CNTY.                           Las Animas : COUNTY
 CTRY.                                  USA : COUNTRY
 API.                       05-071-08483-00 : API NUMBER
 STRT.FT                             356.00 : START DEPTH
 STOP.FT                            2480.00 : STOP DEPTH
 STEP.FT                               1.00 : DEPTH INCREMENT
 NULL.                                -9999 : NULL VALUE
~Curve information
 DEPTH.FT                                   :
 ROP.MIN/FT                                 :
 GAS.UNITS                                  :
~ASCII Log data
# ...
      2156.0         1.92        184.7 
      2157.0         0.33        215.5 
      2158.0         0.47        269.8 
      2159.0         0.37        289.1 
      2160.0         0.33        289.8 
      2161.0         0.33        282.1 
      2162.0         0.32        264.1 
      2163.0         0.33        242.6 
      2164.0         0.30        225.9 
      2165.0         0.27        225.2 
      2166.0         0.30        221.4 
      2167.0         0.30        230.1 
      2168.0         0.37        231.5 
      2169.0         0.30        234.1 
      2170.0         0.27        230.7 
      2171.0         0.30        230.3 
      2172.0         0.30        223.9 
      2173.0         0.32        220.5 
      2174.0         0.30        220.8 
      2175.0         0.27        220.7 
      2176.0         0.30        218.2 
      2177.0         0.27        215.0 
      2178.0         0.30        214.5 
      2179.0         0.23        217.3 
      2180.0         0.13        224.0 
      2181.0         0.17        224.0 
      2182.0         0.17        228.3 
      2183.0         0.27        220.9 
      2184.0         0.30        198.9 
      2185.0         0.27        195.4 
      2186.0         2.75        288.3 
      2187.0         0.40        340.4 
      2188.0         0.38        341.0 
      2189.0         0.37        320.2 
      2190.0         0.23        268.5 
      2191.0         0.13        255.1 
      2192.0         0.17        242.8 
      2193.0         0.30        234.8 
      2194.0         0.30        241.2 
      2195.0         0.27        247.4 
      2196.0         0.33        259.2 
      2197.0         0.20        260.7 
      2198.0         0.33        263.9 
      2199.0         0.33        262.2 
      2200.0         0.30        257.3 
      2201.0         0.35        248.2 
      2202.0         0.30        245.4 
      2203.0         0.37        235.4 
      2204.0         0.33        221.3 
      2205.0         0.33        215.4 
      2206.0         0.33        207.5 
      2207.0         0.37        207.8 
      2208.0         0.37        209.1 
      2209.0         0.37        217.8 
      2210.0         0.42        230.2 
      2211.0         0.40        235.3 
      2212.0         0.47        262.6 
      2213.0         0.50        285.6 
      2214.0         0.23        281.0 
      2215.0         0.30        259.0 
      2216.0         4.97        429.5 
      2217.0         0.17        372.7 
      2218.0         0.13        366.1 
      2219.0         0.17        381.1 
      2220.0         0.33        401.3 
      2221.0         0.47        425.4 
      2222.0         0.50        456.9 
      2223.0         0.33        457.6 
      2224.0         0.30        410.8 
      2225.0         0.30        396.6 
      2226.0         0.35        431.7 
      2227.0         0.27        481.0 
      2228.0         0.13       1055.9 
      2229.0         0.23       1110.7 
      2230.0         0.33       1186.1 
      2231.0         0.33       1272.5 
      2232.0         0.27       1285.7 
      2233.0         0.27       1283.1 
      2234.0         0.27       1279.2 
      2235.0         0.23       1259.9 
      2236.0         0.23       1266.7 
      2237.0         0.20       1296.0 
      2238.0         0.20       1296.0 
      2239.0         0.30       1368.2 
      2240.0         0.28       1402.3 
      2241.0         0.23       1392.3 
      2242.0         0.23       1356.2 
      2243.0         0.30       1291.8 
      2244.0         0.17       1257.3 
      2245.0         0.13       1172.9 
      2246.0         2.15       1471.9 
      2247.0         0.37       1627.3 
      2248.0         0.37       1703.7 
      2249.0         0.23       1759.4 
      2250.0         0.33       1773.9 
      2251.0         0.40       1705.9 
      2252.0         0.47       1607.0 
      2253.0         0.47       1463.9 
      2254.0         0.48       1335.3 
      2255.0         0.40       1331.4 
      2256.0         0.40       1391.7 
      2257.0         0.30       1395.6 
      2258.0         0.27       1383.0 
      2259.0         0.30       1372.7 
      2260.0         0.33       1327.6 
      2261.0         0.27       1301.8 
      2262.0         0.13       1295.7 
      2263.0         0.13       1289.9 
      2264.0         0.23       1292.8 
      2265.0         0.27       1299.2 
      2266.0         0.23       1297.6 
      2267.0         0.22       1293.1 
      2268.0         0.23       1291.5 
      2269.0         0.20       1310.2 
      2270.0         0.23       1330.5 
      2271.0         0.27       1327.9 
      2272.0         0.30       1301.8 
      2273.0         0.30       1265.7 
      2274.0         0.27       1247.0 
      2275.0         0.30       1177.1 
      2276.0         3.02       1477.1 
      2277.0         0.17       1519.6 
      2278.0         0.27       1566.0 
      2279.0         0.40       1656.3 
      2280.0         0.47       1724.9 
      2281.0         0.32       1640.2 
      2282.0         0.33       1590.2 
      2283.0         0.47       1440.4 
      2284.0         0.47       1279.2 
      2285.0         0.37       1279.9 
      2286.0         0.43       1299.2 
      2287.0         0.40       1299.2 
      2288.0         0.40       1292.4 
      2289.0         0.48       1297.9 
      2290.0         0.40       1284.4 
      2291.0         0.50       1280.8 
      2292.0         0.50       1271.5 
      2293.0         0.30       1254.1 
      2294.0         0.27       1251.2 
      2295.0         0.33       1227.3 
      2296.0         0.23       1221.5 
      2297.0         0.23       1214.5 
      2298.0         0.23       1215.4 
      2299.0         0.25       1237.7 
      2300.0         0.27       1249.9 
      2301.0         0.27       1224.8 
      2302.0         0.23       1224.8 
      2303.0         0.23       1199.3 
      2304.0         0.23       1181.3 
      2305.0         0.23       1134.2 
      2306.0         3.32       1541.9 
      2307.0         0.53       1549.3 
      2308.0         0.37       1628.2 
      2309.0         0.33       1651.1 
      2310.0         0.27       1646.3 
      2311.0         0.27       1500.6 
      2312.0         0.22       1486.1 
      2313.0         0.20       1406.2 
      2314.0         0.17       1355.0 
      2315.0         0.20       1354.6 
      2316.0         0.37       1374.6 
      2317.0         0.40       1477.7 
      2318.0         0.30       1510.3 
      2319.0         0.27       1553.8 
      2320.0         0.30       1575.4 
      2321.0         0.27       1592.5 
      2322.0         0.27       1591.2 
      2323.0         0.23       1588.6 
      2324.0         0.28       1576.4 
      2325.0         0.27       1585.7 
      2326.0         0.30       1584.4 
      2327.0         0.27       1576.7 
      2328.0         0.30       1570.2 
      2329.0         0.30       1572.5 
      2330.0         0.30       1605.7 
      2331.0         0.30       1626.6 
      2332.0         0.30       1627.0 
      2333.0         0.33       1585.7 
      2334.0         0.30       1562.5 
      2335.0         0.32       1500.0 
      2336.0         1.80       1576.4 
      2337.0         0.30       1766.5 
      2338.0         0.13       1795.8 
      2339.0         0.27       1957.9 
      2340.0         0.50       2025.9 
      2341.0         0.45       2064.3 
      2342.0         0.37       1960.5 
      2343.0         0.37       1927.0 
      2344.0         0.30       1772.9 
      2345.0         0.30       1650.5 
      2346.0         0.30       1593.1 
      2347.0         0.33       1525.1 
      2348.0         0.30       1489.7 
      2349.0         0.27       1497.1 
      2350.0         0.37       1523.2 
      2351.0         0.27       1521.9 
      2352.0         0.28       1538.0 
      2353.0         0.27       1538.7 
      2354.0         0.27       1537.7 
      2355.0         0.27       1533.8 
