~Version Information
VERS.                      2.0: CWLS Log ASCII Standard - VERSION 2.0
WRAP.                       NO: One line per depth step
~Well Information Block
STRT.FT                -6.5000: 
STOP.FT              1758.0000: 
STEP.FT                 0.2500: 
NULL.                -999.2500: 
COMP.          Pioneer Natural Resources: COMPANY
WELL.           Rolls 14-14 Tr: WELL
FLD.           Purgatorie River: FIELD
LOC.           473' FSL & 817' FWL--: LOCATION
PROV.                       CO: PROVINCE
CNTY.               Las Animas: COUNTRY
SRVC.          Patterson Wireline: SERVICE COMPANY
DATE.          Mon Aug 08 11:51:25 2005: LOG DATE
UWI.           05 071 08454 00: UNIQUE WELL ID
~Curve Information Block
DEPT.FT            0 000 00 00: Depth
CCL.                          : Casing Collar Locator
TT3.usec                      : CBL 3' Travel Time
AMP3.mV                       : CBL 3' Amplitude
GR.GAPI                       : Gamma Ray
~Parameter Information Block
~A  Depth       CCL         TT3         AMP3         GR     
    -6.5000   -999.2500   -999.2500   -999.2500     70.7362
    -6.2500   -999.2500   -999.2500   -999.2500     72.4637
    -6.0000   -999.2500   -999.2500   -999.2500     73.9520
    -5.7500   -999.2500   -999.2500   -999.2500     75.1528
    -5.5000   -999.2500   -999.2500   -999.2500     75.9720
    -5.2500   -999.2500   -999.2500   -999.2500     75.9783
    -5.0000   -999.2500   -999.2500   -999.2500     74.7598
    -4.7500   -999.2500   -999.2500   -999.2500     72.6181
    -4.5000   -999.2500   -999.2500   -999.2500     70.5833
    -4.2500   -999.2500   -999.2500   -999.2500     69.4089
    -4.0000   -999.2500   -999.2500   -999.2500     68.8475
    -3.7500   -999.2500   -999.2500   -999.2500     68.1253
    -3.5000   -999.2500   -999.2500   -999.2500     66.7451
    -3.2500   -999.2500   -999.2500   -999.2500     64.6862
    -3.0000   -999.2500   -999.2500   -999.2500     62.2723
    -2.7500   -999.2500   -999.2500   -999.2500     60.0119
    -2.5000   -999.2500   -999.2500   -999.2500     58.2601
    -2.2500   -999.2500   -999.2500   -999.2500     57.0100
    -2.0000   -999.2500   -999.2500   -999.2500     56.2807
    -1.7500   -999.2500   -999.2500   -999.2500     56.5054
    -1.5000   -999.2500   1170.0000      1.6101     58.0774
    -1.2500   -999.2500   1170.0000      1.6002     60.5672
    -1.0000   -999.2500   1170.0000      1.5979     62.8513
    -0.7500   -999.2500   1170.0000      1.6025     64.0672
    -0.5000   -999.2500   1170.0000      1.6106     64.0868
    -0.2500   -999.2500   1170.0000      1.6194     63.0735
     0.0000   -999.2500   1170.0000      1.6280     61.0138
     0.2500   -999.2500   1170.0000      1.6367     57.9650
     0.5000   -999.2500   1170.0000      1.6589     52.3089
     0.7500     -2.0000   1170.0000      1.6738     52.0420
     1.0000      2.0000   1170.0000      1.6877     53.3215
     1.2500      2.0000   1170.0000      1.6937     53.9858
     1.5000     -1.5851   1170.0000      1.6895     51.7167
     1.7500      0.0000   1170.0000      1.6828     46.0930
     2.0000      0.0000   1170.0000      1.6825     39.1875
     2.2500      0.0000   1170.0000      1.6873     34.0880
     2.5000      0.0000   1170.0000      1.6857     32.8482
     2.7500      0.0000   1170.0000      1.6698     35.5990
     3.0000      0.0000   1170.0000      1.6461     40.9765
     3.2500      0.0000   1170.0000      1.6294     47.0100
     3.5000      0.0000   1170.0000      1.6297     51.8821
     3.7500      0.0000   1170.0000      1.6430     54.5697
     4.0000      0.0000   1170.0000      1.6556     55.3604
     4.2500      0.0000   1170.0000      1.6573     55.6524
     4.5000      0.0000   1170.0000      1.6492     56.8099
     4.7500      0.0000   1170.0000      1.6404     59.0266
     5.0000      0.0000   1170.0000      1.6384     61.4430
     5.2500      0.0000   1170.0000      1.6440     63.3178
     5.5000      0.0000   1170.0000      1.6528     64.8938
     5.7500      0.0000   1170.0000      1.6633     67.0134
     6.0000      0.0000   1170.0000      1.6761     69.9183
     6.2500      0.0000   1170.0000      1.6873     72.6958
     6.5000      0.0000   1170.0000      1.6854     74.2206
     6.7500      0.0000   1170.0000      1.6621     74.4700
     7.0000      0.0000   1170.0000      1.6241     74.4759
     7.2500      0.0000   1170.0000      1.5908     75.0970
     7.5000      0.0000   1169.9395      1.5799     76.3272
     7.7500      0.0000   1169.5447      1.6020     77.8064
     8.0000      0.0000   1167.5403      1.6916     79.4584
     8.2500      0.0000   1159.6129      1.9902     81.2957
     8.5000      0.0000   1135.1970      2.8622     82.8407
     8.7500      0.0000   1076.6324      4.9172     83.1558
     9.0000      0.0000    967.2349      8.7268     81.6025
     9.2500      0.0000    808.0920     14.2491     78.4781
     9.5000      0.0000    627.8046     20.4968     74.8299
     9.7500      0.0000    468.7554     26.0076     71.6622
    10.0000      0.0000    359.4940     29.7917     69.3603
    10.2500      0.0000    301.0497     31.8087     67.7306
    10.5000      0.0000    276.7081     32.6409     66.3858
    10.7500      0.0000    268.8081     32.9173     65.2154
    11.0000      0.0000    266.7936     33.0189     64.6068
    11.2500      0.0000    266.3625     33.0913     64.9055
    11.5000      0.0000    266.2512     33.1591     65.6321
    11.7500      0.0000    266.1989     33.2163     65.7613
    12.0000      0.0000    266.1534     33.2637     64.9709
    12.2500      0.0000    266.1162     33.3070     64.3899
    12.5000      0.0000    266.0844     33.3493     66.0334
    12.7500      0.0000    266.0568     33.3912     71.3768
    13.0000      0.0000    266.0419     33.4336     80.0711
    13.2500      0.0000    266.0678     33.4761     89.9506
    13.5000      0.0000    266.2675     33.5011     98.5310
    13.7500      0.0000    267.0793     33.4411    104.3768
    14.0000      0.0000    269.5131     33.1324    106.8998
    14.2500      0.0000    275.0324     32.3174    105.6871
    14.5000      0.0000    284.4725     30.7793    100.9889
    14.7500      0.0000    296.4904     28.5679     94.4962
    15.0000      0.0000    307.5486     26.0880     88.6180
    15.2500      0.0000    314.3745     23.8904     84.8100
    15.5000      0.0000    316.4609     22.3560     82.9863
    15.7500      0.0000    315.7745     21.5563     82.4141
    16.0000      0.0000    314.5080     21.3209     82.7351
    16.2500      0.0000    313.6615     21.3850     83.9445
    16.5000     -2.0000    313.2171     21.5282     85.6067
    16.7500     -2.0000    312.7433     21.6645     86.5756
    17.0000      0.0000    311.6198     21.8789     85.8167
    17.2500      0.0000    309.0719     22.4263     83.3507
    17.5000      0.0000    304.5345     23.6260     80.1354
    17.7500      0.0000    298.2750     25.5887     77.2317
    18.0000      0.0000    291.5246     27.9663     75.4491
    18.2500      0.0000    285.6579     30.0766     75.5840
    18.5000      0.0000    281.4303     31.3502     78.2729
    18.7500      0.0000    279.3103     31.6051     83.4263
    19.0000      0.0000    280.0507     30.9153     90.0402
    19.2500      0.0000    284.1485     29.3966     96.3100
    19.5000      0.0000    291.2307     27.1869     99.8053
    19.7500      0.0000    301.3603     24.5135     98.4711
    20.0000      0.0000    318.0240     21.6676     92.3577
    20.2500      0.0000    349.4844     18.9061     83.9711
    20.5000      0.0000    404.7288     16.3908     76.4539
    20.7500      0.0000    484.9070     14.1972     71.7854
    21.0000      0.0000    578.4677     12.3463     70.6345
    21.2500      0.0000    667.8165     10.8193     72.7780
    21.5000      0.0000    742.3629      9.5622     77.0682
    21.7500      0.0000    803.2485      8.5051     81.7264
    22.0000      0.0000    855.3682      7.5960     85.2518
    22.2500      0.0000    899.0399      6.8220     86.8999
    22.5000      0.0000    932.2851      6.2023     86.4813
    22.7500      0.0000    957.4626      5.7583     84.3161
    23.0000      0.0000    980.3757      5.4855     81.4167
    23.2500      0.0000   1003.8232      5.3482     79.2055
    23.5000      0.0000   1025.7089      5.3018     78.7242
    23.7500      0.0000   1042.6758      5.3120     79.9556
    24.0000      0.0000   1053.1073      5.3548     81.8959
    24.2500      0.0000   1057.2782      5.4060     83.5394
    24.5000      0.0000   1056.8420      5.4405     84.8345
    24.7500      0.0000   1054.9888      5.4431     86.2903
    25.0000      0.0000   1056.2375      5.4173     87.7943
    25.2500      0.0000   1064.2234      5.3791     88.5253
    25.5000      0.0000   1078.1010      5.3445     87.9995
    25.7500      0.0000   1091.6797      5.3204     86.5340
    26.0000      0.0000   1098.2583      5.3077     84.6253
    26.2500      0.0000   1097.1642      5.3065     82.3460
    26.5000      0.0000   1094.7362      5.3160     79.4146
    26.7500      0.0000   1098.6202      5.3277     75.7128
