~Version Information
VERS.                      2.0: CWLS Log ASCII Standard - VERSION 2.0
WRAP.                       NO: One line per depth step
~Well Information Block
STRT.FT               -12.0000: 
STOP.FT              1266.5000: 
STEP.FT                 0.2500: 
NULL.                -999.2500: 
COMP.          Pioneer Natural Resources: COMPANY
WELL.          Hot Tomatoes 22-20: WELL
FLD.           Purgatorie River: FIELD
LOC.           2120' FNL & 2585' FWL: LOCATION
CNTY.               Las Animas: COUNTY
SRVC.                Patterson: SERVICE COMPANY
DATE.          Thu Mar 02 13:59:39 2006: LOG DATE
UWI.           05 071 08701 00: UNIQUE WELL ID
STAT.                       CO: STATE
~Curve Information Block
DEPT.FT            0 000 00 00: Depth
GR.GAPI                       : Gamma Ray
CCL.                          : Casing Collar Locator
TT3.usec                      : CBL 3' Travel Time
AMP3.mV                       : CBL 3' Amplitude
~Parameter Information Block
~A  Depth        GR         CCL         TT3         AMP3    
# ...
   490.5000     97.4448      0.0000    726.3002     11.9454
   490.7500    108.3783      0.0000    726.7745     11.4961
   491.0000    118.2520      0.0000    725.3115     11.0428
   491.2500    124.4965      0.0000    722.6771     10.5867
   491.5000    126.2335      0.0000    719.0906     10.1799
   491.7500    124.4070      0.0000    714.7541      9.8991
   492.0000    120.3736      0.0000    710.3888      9.7832
   492.2500    114.7763      0.0000    706.9022      9.8032
   492.5000    107.9307      0.0000    704.8447      9.8917
   492.7500    100.8495      0.0000    704.4800      9.9886
   493.0000     95.4266      0.0000    706.1173     10.0614
   493.2500     93.5662      0.0000    709.8264     10.0987
   493.5000     96.1725      0.0000    714.6118     10.0959
   493.7500    102.7951      0.0000    718.3224     10.0457
   494.0000    111.8896      0.0000    719.1741      9.9376
   494.2500    121.2812      0.0000    717.4485      9.7622
   494.5000    128.6488      0.0000    715.0814      9.5110
   494.7500    132.1760      0.0000    713.4404      9.1809
   495.0000    131.3251      0.0000    712.1520      8.7949
   495.2500    127.1747      0.0000    710.2454      8.4161
   495.5000    121.8294      0.0000    707.6563      8.1216
   495.7500    117.1770      0.0000    705.1732      7.9536
   496.0000    113.9167      0.0000    703.4429      7.8975
   496.2500    111.7007      0.0000    702.5179      7.9019
   496.5000    110.1837      0.0000    702.1315      7.9137
   496.7500    109.6657      0.0000    702.0425      7.9045
   497.0000    110.4923      0.0000    702.1234      7.8762
   497.2500    112.2114      0.0000    702.3024      7.8464
   497.5000    114.0011      0.0000    702.5193      7.8316
   497.7500    115.8752      0.0000    702.7205      7.8475
   498.0000    118.6000      0.0000    702.8839      7.9113
   498.2500    122.0659      0.0000    703.0283      8.0287
   498.5000    124.5109      0.0000    703.1818      8.1804
   498.7500    124.0650      0.0000    703.3275      8.3384
   499.0000    120.6950      0.0000    703.4013      8.5037
   499.2500    116.1399      0.0000    703.3585      8.7172
   499.5000    112.2574      0.0000    703.2277      9.0209
   499.7500    109.7571      0.0000    703.0848      9.4009
   500.0000    108.2181      0.0000    702.9882      9.7696
   500.2500    107.0211      0.0000    702.9611     10.0073
   500.5000    106.1494      0.0000    703.0219     10.0362
   500.7500    105.8786      0.0000    703.1807      9.8643
   501.0000    105.8356      0.0000    703.3897      9.5655
   501.2500    105.0189      0.0000    703.5347      9.2217
   501.5000    102.9767      0.0000    703.5125      8.8805
   501.7500    100.4496      0.0000    703.3105      8.5572
   502.0000     98.6150      0.0000    703.0071      8.2663
   502.2500     98.0596      0.0000    702.7098      8.0429
   502.5000     98.5864      0.0000    702.5008      7.9285
   502.7500     99.5314      0.0000    702.4509      7.9386
   503.0000    100.0175      0.0000    702.7250      8.0476
   503.2500     99.3294      0.0000    703.7534      8.2071
   503.5000     97.3459      0.0000    706.2546      8.3765
   503.7500     94.4332      0.0000    710.8141      8.5388
   504.0000     90.9044      0.0000    717.0658      8.6903
   504.2500     86.9672      0.0000    723.2913      8.8205
   504.5000     83.2439      0.0000    727.2568      8.9030
   504.7500     80.8397      0.0000    727.7191      8.9042
   505.0000     80.6604      0.0000    725.0300      8.8055
   505.2500     82.9253      0.0000    720.4354      8.6205
   505.5000     87.3254      0.0000    715.2440      8.3932
   505.7500     93.2221      0.0000    710.5746      8.1724
   506.0000     99.6960      0.0000    707.2117      7.9858
   506.2500    106.0294      0.0000    705.3499      7.8372
   506.5000    112.4771      0.0000    704.6426      7.7218
   506.7500    120.0654      0.0000    704.5886      7.6302
   507.0000    129.1667      0.0000    704.8042      7.5418
   507.2500    138.5795      0.0000    704.9797      7.4369
   507.5000    146.3441      0.0000    704.7471      7.3207
   507.7500    151.2628      0.0000    703.6854      7.2122
   508.0000    153.5668      0.0000    701.5098      7.1101
   508.2500    154.5563      0.0000    698.4673      6.9940
   508.5000    155.6145      0.0000    695.6533      6.8629
   508.7500    156.9281      0.0000    694.5784      6.7493
   509.0000    156.9394      0.0000    695.9498      6.6894
   509.2500    153.5892      0.0000    698.9487      6.6963
   509.5000    146.4711      0.0000    701.9601      6.7598
   509.7500    137.6152      0.0000    703.8143      6.8577
   510.0000    130.0553      0.0000    704.1353      6.9622
   510.2500    125.6506      0.0000    702.8162      7.0438
   510.5000    124.0589      0.0000    699.6279      7.0803
   510.7500    123.5574      0.0000    694.6212      7.0689
   511.0000    122.7584      0.0000    688.9828      7.0284
   511.2500    121.3835      0.0000    685.1012      6.9810
   511.5000    119.5952      0.0000    685.0605      6.9246
   511.7500    117.3990      0.0000    688.8237      6.8284
   512.0000    115.1087      0.0000    694.2850      6.6650
   512.2500    113.8595      0.0000    699.1483      6.4461
   512.5000    115.1629      0.0000    702.4064      6.2184
   512.7500    119.9515      0.0000    704.2067      6.0340
   513.0000    127.8745      0.0000    705.0081      5.9263
   513.2500    137.1890      0.0000    705.1572      5.9017
   513.5000    145.5269      0.0000    705.0094      5.9444
   513.7500    151.2386      0.0000    705.2136      6.0328
   514.0000    154.0874      0.0000    706.9420      6.1543
   514.2500    154.7227      0.0000    711.8185      6.3060
   514.5000    153.8291      0.0000    721.0886      6.4843
   514.7500    152.0204      0.0000    734.2366      6.6792
   515.0000    150.2176      0.0000    748.5778      6.8774
   515.2500    149.5682      0.0000    760.8732      7.0638
   515.5000    150.7571      0.0000    769.2930      7.2145
   515.7500    153.5393      0.0000    773.3020      7.2926
   516.0000    157.1002      0.0000    772.2041      7.2665
   516.2500    160.7206      0.0000    765.0806      7.1399
   516.5000    163.9369      0.0000    752.4792      6.9559
   516.7500    166.2241      0.0000    737.3786      6.7648
   517.0000    166.8828      0.0000    723.6909      6.5848
   517.2500    165.4682      0.0000    713.5669      6.3863
   517.5000    162.4437      0.0000    706.1844      6.1070
   517.7500    159.2176      0.0000    698.9827      5.6929
   518.0000    157.0991      0.0000    690.0722      5.1539
   518.2500    156.1246      0.0000    680.1067      4.6012
   518.5000    155.1365      0.0000    672.4532      4.2049
   518.7500    152.7925      0.0000    671.3850      4.0640
   519.0000    147.9825      0.0000    679.2660      4.1103
   519.2500    139.6950      0.0000    694.7074      4.1795
   519.5000    127.6623      0.0000    713.7613      4.1729
   519.7500    113.6391      0.0000    734.0918      4.1188
   520.0000    101.4225      0.0000    758.7389      4.1008
   520.2500     94.8197      1.0153    793.7484      4.1797
   520.5000     95.2381      0.0000    838.9478      4.3756
   520.7500    100.8982      0.0000    881.1609      4.6994
   521.0000    108.1953      0.0000    900.4291      5.1896
   521.2500    114.1958      0.0000    885.8695      5.8838
   521.5000    118.4229      0.0000    844.7245      6.7163
   521.7500    122.4515      0.0000    795.4105      7.4810
   522.0000    127.8041      0.0000    753.8494      7.9747
   522.2500    134.2281      0.0000    726.5172      8.1638
   522.5000    139.8739      0.0000    712.3447      8.1724
   522.7500    142.9129      0.0000    707.7728      8.1501
   523.0000    142.8285      0.0000    710.1557      8.1877
   523.2500    140.2119      0.0000    718.0562      8.2995
   523.5000    135.6668      0.0000    729.4568      8.4334
   523.7500    129.3461      0.0000    740.4522      8.5224
