~Version Information
VERS.                      2.0: CWLS Log ASCII Standard - VERSION 2.0
WRAP.                       NO: One line per depth step
~Well Information Block
STRT.FT               230.2000: 
STOP.FT              1518.7000: 
STEP.FT                 0.1000: 
NULL.                -999.2500: 
COMP.          Pioneer Natural Resources: COMPANY
WELL.          Mow 8-14-33-67 Tr: WELL
FLD.           Purgatoire River: FIELD
LOC.           2258' FNL & 929' FEL: LOCATION
PROV.                 Colorado: PROVINCE
CNTY.               Las Animas: COUNTRY
SRVC.                Patterson: SERVICE COMPANY
DATE.          Mon Jan 30 11:22:55 2006: LOG DATE
UWI.           05 071 08684 00: UNIQUE WELL ID
~Curve Information Block
DEPT.FT            0 000 00 00: Depth
DCAL.in                       : CDL Caliper
DPOR.pu                       : CDL Density Porosity
RHOB.g/cc                     : CDL Bulk Density
RHOC.g/cc                     : CDL Density Correction
GR.GAPI                       : Gamma Ray
~Parameter Information Block
~A  Depth       DCAL        DPOR        RHOB        RHOC         GR     
# ...
   678.2000      7.8830     10.3222      2.4797      0.0686     23.8610
   678.3000      7.8773      9.9268      2.4862      0.0783     21.1686
   678.4000      7.8773      8.5229      2.5094      0.0806     21.3915
   678.5000      7.8752      6.6925      2.5396      0.0905     23.2500
   678.6000      7.8752      4.7719      2.5713      0.0736     23.1423
   678.7000      7.8752      3.1166      2.5986      0.1472     19.0195
   678.8000      7.8738      2.6510      2.6063      0.1202     16.6374
   678.9000      7.8738      3.5180      2.5920      0.0620     20.6978
   679.0000      7.8738      4.8235      2.5704      0.1010     26.8526
   679.1000      7.8738      5.9309      2.5521      0.0890     29.5605
   679.2000      7.8738      6.5955      2.5412      0.0417     27.9900
   679.3000      7.8742      7.1154      2.5326      0.0642     24.5590
   679.4000      7.8742      8.0820      2.5166      0.0471     23.7960
   679.5000      7.8732      9.1423      2.4992      0.0228     27.5889
   679.6000      7.8732      9.4185      2.4946      0.0541     36.2239
   679.7000      7.8732      8.4520      2.5105      0.0370     48.4445
   679.8000      7.8691      6.9268      2.5357      0.1001     55.0736
   679.9000      7.8691      6.2491      2.5469      0.1195     51.7759
   680.0000      7.8598      6.3386      2.5454      0.1342     51.0722
   680.1000      7.8598      6.3438      2.5453      0.1887     64.0759
   680.2000      7.8598      6.5347      2.5422      0.1721     83.6294
   680.3000      7.8513      7.4803      2.5266      0.1408     98.0216
   680.4000      7.8513      8.6980      2.5065      0.0517    106.6924
   680.5000      7.8464      9.2619      2.4972      0.0740    115.0618
   680.6000      7.8464      9.3757      2.4953      0.1069    124.2025
   680.7000      7.8464      9.5395      2.4926      0.0947    126.4473
   680.8000      7.8390      9.6073      2.4915      0.1315    115.8414
   680.9000      7.8390      9.2561      2.4973      0.0944     98.7106
   681.0000      7.8245      8.0590      2.5170      0.0470     86.2737
   681.1000      7.8245      6.0034      2.5509      0.0670     82.9405
   681.2000      7.8245      3.8841      2.5859      0.1126     81.6909
   681.3000      7.8111      2.3146      2.6118      0.1270     76.5942
   681.4000      7.8111      1.2674      2.6291      0.1174     71.8923
   681.5000      7.7994      0.8340      2.6362      0.1229     68.4169
   681.6000      7.7994      1.0291      2.6330      0.0733     64.9131
   681.7000      7.7994      1.7890      2.6205      0.1179     66.3843
   681.8000      7.7856      3.1838      2.5975      0.1124     74.0382
   681.9000      7.7856      4.3030      2.5790      0.0624     84.9232
   682.0000      7.7738      4.0537      2.5831      0.0816     97.3726
   682.1000      7.7738      3.0786      2.5992      0.0625    105.4283
   682.2000      7.7738      2.4823      2.6090      0.0539    103.7937
   682.3000      7.7712      1.9642      2.6176      0.0777     93.7618
   682.4000      7.7712      0.9859      2.6337      0.0610     84.1517
   682.5000      7.7783      0.0084      2.6499      0.1396     82.9167
   682.6000      7.7783     -0.3628      2.6560      0.0823     87.7154
   682.7000      7.7783     -0.4294      2.6571      0.0857     93.1658
   682.8000      7.7922     -0.5556      2.6592      0.1120     94.7518
   682.9000      7.7922     -1.1571      2.6691      0.0946     89.2832
   683.0000      7.8068     -2.8328      2.6967      0.0957     83.1672
   683.1000      7.8068     -5.2297      2.7363      0.1477     83.4811
   683.2000      7.8068     -6.9154      2.7641      0.1589     86.9389
   683.3000      7.8185     -6.6015      2.7589      0.1894     89.2760
   683.4000      7.8185     -4.0556      2.7169      0.1926     92.3045
   683.5000      7.8320     -0.2499      2.6541      0.0711     96.3055
   683.6000      7.8320      3.1498      2.5980      0.0406     97.6786
   683.7000      7.8320      5.0179      2.5672     -0.0293     96.4156
   683.8000      7.8523      5.5349      2.5587      0.0393     91.8190
   683.9000      7.8523      5.4042      2.5608     -0.0051     84.8807
   684.0000      7.8675      4.6773      2.5728      0.0112     82.2636
   684.1000      7.8675      3.5551      2.5913      0.0037     86.7170
   684.2000      7.8675      3.1619      2.5978      0.0384     97.7263
   684.3000      7.8683      4.7310      2.5719      0.0956    108.9356
   684.4000      7.8683      7.6399      2.5239      0.0387    112.8682
   684.5000      7.8602      9.5136      2.4930      0.0192    117.5171
   684.6000      7.8602      9.5793      2.4919      0.0387    124.6078
   684.7000      7.8602      9.1924      2.4983      0.0406    122.1288
   684.8000      7.8548      9.0435      2.5008      0.0206    111.0686
   684.9000      7.8548      8.7764      2.5052      0.0116     99.7203
   685.0000      7.8531      8.6867      2.5067      0.0720     90.6868
   685.1000      7.8531      8.9860      2.5017      0.0576     87.8780
   685.2000      7.8531      9.1081      2.4997      0.0585     95.8479
   685.3000      7.8518      9.1000      2.4998      0.0661    110.7024
   685.4000      7.8518      9.1671      2.4987      0.0413    120.1470
   685.5000      7.8501      8.9848      2.5018      0.0518    116.2440
   685.6000      7.8501      8.6596      2.5071      0.0893    106.8698
   685.7000      7.8501      8.6794      2.5068      0.0487    104.5261
   685.8000      7.8491      9.0733      2.5003      0.0965    110.7378
   685.9000      7.8491      9.1815      2.4985      0.0214    116.3410
   686.0000      7.8504      7.8404      2.5206      0.0205    110.7117
   686.1000      7.8504      5.0815      2.5662      0.1053     96.9974
   686.2000      7.8504      2.5223      2.6084      0.1220     89.0845
   686.3000      7.8506      0.9986      2.6335      0.1151     93.5637
   686.4000      7.8506      0.0070      2.6499      0.1048    101.9057
   686.5000      7.8446     -0.4570      2.6575      0.1486    105.8263
   686.6000      7.8446     -0.0149      2.6502      0.1018    107.7127
   686.7000      7.8446      1.1278      2.6314      0.1197    109.6918
   686.8000      7.8355      2.5685      2.6076      0.0783    110.3819
   686.9000      7.8355      3.8354      2.5867      0.0980    111.5355
   687.0000      7.8294      5.1027      2.5658      0.0675    113.9993
   687.1000      7.8294      6.6517      2.5402      0.0539    108.7386
   687.2000      7.8294      7.7654      2.5219      0.0479     95.9881
   687.3000      7.8265      7.1864      2.5314     -0.0165     89.2884
   687.4000      7.8265      4.9186      2.5688      0.0993     90.7482
   687.5000      7.8249      2.7959      2.6039      0.1092     92.5479
   687.6000      7.8249      2.3536      2.6112      0.1279     95.0572
   687.7000      7.8249      3.6653      2.5895      0.0576    103.9266
   687.8000      7.8216      5.6996      2.5560      0.0188    115.1190
   687.9000      7.8216      6.9231      2.5358      0.0035    120.7052
   688.0000      7.8118      6.2830      2.5463      0.0266    119.4597
   688.1000      7.8118      4.4716      2.5762      0.1092    117.5368
   688.2000      7.8118      3.3991      2.5939      0.0817    119.9101
   688.3000      7.7998      3.8006      2.5873      0.0526    121.8776
   688.4000      7.7998      4.6242      2.5737     -0.0072    118.8511
   688.5000      7.7958      4.6951      2.5725      0.0060    116.4969
   688.6000      7.7958      4.4047      2.5773      0.0499    119.5098
   688.7000      7.7958      4.7810      2.5711      0.0166    118.2006
   688.8000      7.7995      5.1665      2.5648     -0.0396    107.9916
   688.9000      7.7995      4.3230      2.5787      0.0148    102.4753
   689.0000      7.8021      2.8030      2.6038      0.0737    107.2973
   689.1000      7.8021      1.8377      2.6197      0.0478    113.9352
   689.2000      7.8021      1.7294      2.6215      0.0892    120.7683
   689.3000      7.7961      2.0245      2.6166      0.0824    130.7420
