~Version Information
VERS.                      2.0: CWLS Log ASCII Standard - VERSION 2.0
WRAP.                       NO: One line per depth step
~Well Information Block
STRT.FT               310.0000: 
STOP.FT               815.0000: 
STEP.FT                 0.2500: 
NULL.                -999.2500: 
COMP.          Pioneer Natural Resources: COMPANY
WELL.           Weissach 32-32: WELL
FLD.           Purgatorie River: FIELD
LOC.           2193' FNL & 2256' FEL: LOCATION
STAT.                 Colorado: State
CNTY.               Las Animas: COUNTY
CTRY. USA : Country
SECT. 32 : Section
TOWN. 33S : Township
RANG. 65W : Range
SRVC.                Patterson: SERVICE COMPANY
DATE.          Mon Sep 26 09:20:51 2005: LOG DATE
API. 05-071-08523                         : UNIQUE WELL ID
~Curve Information Block
DEPT.FT            0 000 00 00: Depth
SN.Ohm-m                      : IEL Short Normal
SP.mV                         : IEL Spontaneous Potential
DIR.Ohm-m                     : IEL Induction Resistivity
GR.GAPI                       : Gamma Ray
~Parameter Information Block
~A  Depth        SN          SP         DIR          GR     
# ...
   745.5000     35.0122    176.2105     30.5763     72.4331
   745.7500     35.8819    175.7352     29.8931     64.2429
   746.0000     35.2882    175.6071     34.5482     65.4891
   746.2500     35.3371    174.7842     84.8950     73.3826
   746.5000     35.7057    174.5226     75.5585     71.7705
   746.7500     35.8228    175.0796     32.0987     80.3607
   747.0000     36.2806    175.2664     29.9424     70.3444
   747.2500     37.1049    174.9679     29.4053     70.2252
   747.5000     38.9879    175.5122     25.2495     64.9750
   747.7500     38.0952    176.0658     29.2042     55.9886
   748.0000     38.6621    176.5138     31.3562     69.7240
   748.2500     39.7198    177.2663     31.5663     61.2524
   748.5000     40.0933    177.2031     31.6707     56.0195
   748.7500     40.9573    177.4030     32.0640     56.5380
   749.0000     41.4615    177.5863     33.2305     87.3972
   749.2500     42.3846    177.8914     35.7240     94.4830
   749.5000     43.1927    177.3452     34.7621    101.0848
   749.7500     44.2842    176.8379     36.2992    111.0608
   750.0000     45.0384    176.1549     41.3875    109.1122
   750.2500     45.8922    175.5757     35.5979     96.5298
   750.5000     46.9986    174.9625     36.4904     90.9663
   750.7500     47.9041    174.4989     39.7812     93.3419
   751.0000     48.7768    173.9821     44.1813    104.0103
   751.2500     49.7398    173.6121     38.1344    106.6228
   751.5000     50.5248    173.4197     37.3888    105.3947
   751.7500     51.2130    173.5624     38.1666    110.3536
   752.0000     51.8495    173.7463     39.8441    120.0809
   752.2500     52.4933    173.7743     39.9477    139.3698
   752.5000     53.5021    173.8030     38.2983    144.7779
   752.7500     52.9112    174.3212     38.0888    154.9067
   753.0000     51.4627    175.1992     39.2382    128.2916
   753.2500     50.5581    175.4433     34.8691    120.5022
   753.5000     49.3444    175.6475     34.2860     80.1342
   753.7500     48.1735    176.0352     35.0555     65.7977
   754.0000     45.1955    176.4415     33.4311     66.3328
   754.2500     42.6969    176.9607     32.1016     68.6412
   754.5000     39.9440    177.6434     30.6000     50.2839
   754.7500     37.7795    178.4015     30.5063     52.4176
   755.0000     35.5743    179.2185     32.4783     57.0491
   755.2500     33.6769    179.9987     46.7204     54.8657
   755.5000     32.3171    180.7993     28.8346     59.7573
   755.7500     31.2900    182.0214     27.3499     49.6685
   756.0000     29.7924    182.4731     26.3241     61.2673
   756.2500     28.8583    183.0923     27.3737     62.4102
   756.5000     28.0723    183.7702     32.8566     67.3492
   756.7500     27.3797    184.5912     40.2669     70.3110
   757.0000     26.7720    184.9081     26.0999     80.9200
   757.2500     26.5185    185.4015     23.6992     76.2799
   757.5000     25.8610    186.0269     23.8217     60.0479
   757.7500     25.4661    186.6448     25.9119     59.8934
   758.0000     25.1892    186.8718     39.5027     50.6352
   758.2500     24.8724    186.8182     40.9429     51.5438
   758.5000     24.6665    186.6628     25.6980     60.0175
   758.7500     24.4865    186.4380     24.4859     59.8331
   759.0000     24.2879    185.5580     32.3431     58.4991
   759.2500     24.2509    185.0066     25.0265     66.7005
   759.5000     23.8875    184.3943     25.1748     55.2217
   759.7500     23.6204    183.7347     25.1030     56.8877
   760.0000     23.6802    183.1139     31.0981     55.8685
   760.2500     23.6220    182.4866     23.7465     58.3970
   760.5000     23.5770    182.0344     22.8537     68.4026
   760.7500     23.5602    182.0875     23.0544     62.5846
   761.0000     23.5848    182.2550     23.3695     78.1548
   761.2500     23.6002    181.8353     25.3642     77.4188
   761.5000     23.9607    181.9475     36.9783     68.5215
   761.7500     23.4086    182.1824     24.8281     59.1044
   762.0000     23.5003    182.7247     30.9879     58.5943
   762.2500     23.4566    183.8871     32.2126     46.1140
   762.5000     23.3587    184.2717     44.9732     45.9553
   762.7500     23.6936    184.0850     23.4776     53.9753
   763.0000     23.9047    184.0243     22.1187     61.2003
   763.2500     23.3309    183.9406     23.2259     77.1460
   763.5000     23.3431    184.0231     31.3504     79.1294
   763.7500     23.3414    184.4215     30.6375     73.5975
   764.0000     23.5577    184.2671     22.9466     74.1660
   764.2500     24.2119    183.7816     24.0661     66.9572
   764.5000     24.2111    183.9504     33.6706     60.0563
   764.7500     23.7088    184.3747     23.0734     59.4610
   765.0000     23.8690    183.9915     22.6921     79.7142
   765.2500     24.4297    183.9032     23.9715     87.0285
   765.5000     24.1725    183.9497     24.1600     62.9523
   765.7500     24.2632    184.2658     21.7991     68.8343
   766.0000     24.5212    183.9105     21.6765     60.8896
   766.2500     25.2070    184.0923     22.1068     59.4926
   766.5000     25.2659    184.5087     22.0355     67.5029
   766.7500     25.4234    184.8824     23.0101     64.4656
   767.0000     25.7171    185.4463     22.6927     57.9878
   767.2500     26.2376    185.8022     23.2512     61.3526
   767.5000     26.9723    185.9106     24.2507     77.0323
   767.7500     28.1617    186.3066     24.4452     76.1746
   768.0000     28.1644    185.8981     23.9506     67.8098
   768.2500     29.3096    184.7836     25.7094     54.7628
   768.5000     30.2761    183.3065     31.1876     66.1466
   768.7500     31.4029    182.0555     26.3022     75.5470
   769.0000     32.2537    181.2334     25.7178     78.6910
   769.2500     33.7588    180.7000     28.6125     69.1559
   769.5000     35.7029    179.5099     29.2308     63.1042
   769.7500     38.1693    177.8374     30.1562     68.7899
   770.0000     39.9344    176.8140     31.3027     60.5704
   770.2500     41.4833    175.5705     32.2976     63.5809
   770.5000     43.6138    174.2445     34.0959     64.9728
   770.7500     46.2941    173.4773     38.7896     68.2764
   771.0000     47.9279    172.9235     36.0914     71.2303
   771.2500     49.6561    172.0052     35.2592     64.1154
   771.5000     50.9686    171.5257     36.5641     69.2820
   771.7500     52.1132    171.0532     37.5253     61.2381
   772.0000     50.9702    170.5159     39.9224     61.6374
   772.2500     49.8588    169.7853     57.6466     62.4790
   772.5000     48.4672    169.1387     37.4644     59.4641
   772.7500     46.4581    168.1476     36.8273     61.2895
   773.0000     44.4030    167.2258     39.3496     83.2254
   773.2500     42.3706    166.7154     33.1573     75.4778
   773.5000     40.5047    165.8930     32.3221     85.1880
   773.7500     39.0212    165.3703     35.2095     82.2020
   774.0000     38.2571    164.9387     58.4753     76.3795
   774.2500     35.7893    164.6895     32.7024     75.7631
   774.5000     34.3187    164.0458     27.5418     54.2881
   774.7500     33.2887    163.9599     27.3265     66.3215
   775.0000     32.1235    164.1795     28.4049     66.4686
   775.2500     31.1637    164.3909     28.5318     50.4590
   775.5000     30.5817    164.6019     38.7700     70.4970
   775.7500     30.0590    164.9134     32.3043     73.6063
   776.0000     29.6272    165.2728     24.2835     59.8799
   776.2500     29.2982    166.1072     25.0215     63.5236
   776.5000     29.2512    167.0383     30.6415     49.1515
   776.7500     29.0845    167.2561     25.9881     66.2189
   777.0000     29.1703    167.3768     30.9256     61.8566
   777.2500     29.1586    167.0695     36.9204     52.9989
   777.5000     29.3631    166.5196     28.0261     54.4673
   777.7500     29.7280    166.3299     28.4711     50.6191
   778.0000     29.9965    166.1295     24.1565     57.6756
   778.2500     30.5872    165.0681     23.9465     57.0668
   778.5000     31.7320    164.5870     25.7166     64.1437
   778.7500     31.9401    164.4571     27.3955     68.4689
