~Version Information
VERS.                      2.0: CWLS Log ASCII Standard - VERSION 2.0
WRAP.                       NO: One line per depth step
~Well Information Block
STRT.FT                -8.7500: 
STOP.FT              1727.2500: 
STEP.FT                 0.2500: 
NULL.                -999.2500: 
COMP.          XTO Energy Inc.: COMPANY
WELL.          Apache Canyon 34-08: WELL
FLD.              Vermejo Coal: FIELD
LOC.           1668' FNL & 275' FEL: LOCATION
STAT.                       CO: State
CNTY.               Las Animas: COUNTY
CTRY. USA : Country
SECT. 34 : Section
TOWN. 33S : Township
RANG. 67W : Range
SRVC.          Patterson Wireline: SERVICE COMPANY
DATE.          Mon Jan 09 09:34:21 2006: LOG DATE
API.           05 071 08541 00: UNIQUE WELL ID
~Curve Information Block
DEPT.FT            0 000 00 00: Depth
CCL.                          : Casing Collar Locator
TT3.usec                      : CBL 3' Travel Time
AMP3.mV                       : CBL 3' Amplitude
GR.GAPI                       : Gamma Ray
~Parameter Information Block
~A  Depth       CCL         TT3         AMP3         GR     
# ...
  1599.2500      0.0000    397.9728      4.5457     62.1161
  1599.5000      0.0000    397.8741      4.5150     60.8207
  1599.7500      0.0000    397.9210      4.5059     60.1677
  1600.0000      0.0000    398.9918      4.5525     60.3870
  1600.2500      0.0000    403.3712      4.6666     61.2411
  1600.5000      0.0000    415.4395      4.8279     62.1630
  1600.7500      0.0000    440.8434      4.9993     62.2828
  1601.0000      0.0000    482.8933      5.1511     60.9886
  1601.2500      0.0000    538.1035      5.2714     58.8300
  1601.5000      0.0000    595.7997      5.3542     57.6571
  1601.7500      0.0000    643.7178      5.3865     59.5238
  1602.0000      0.0000    674.6940      5.3535     65.1779
  1602.2500      0.0000    688.3106      5.2648     73.4314
  1602.5000      0.0000    687.8300      5.1661     81.9293
  1602.7500      0.0000    677.8812      5.1126     88.4774
  1603.0000      0.0000    665.3209      5.1261     91.8744
  1603.2500      0.0000    658.9828      5.1799     92.1387
  1603.5000      0.0000    664.2521      5.2271     90.3218
  1603.7500      0.0000    676.9733      5.2406     87.7460
  1604.0000      0.0000    685.4418      5.2285     85.1276
  1604.2500      0.0000    679.5873      5.2144     82.5669
  1604.5000      0.0000    657.2145      5.2090     80.2452
  1604.7500      0.0000    622.9203      5.2027     78.5939
  1605.0000      0.0000    585.6954      5.1848     77.8132
  1605.2500      0.0000    558.7315      5.1620     77.7549
  1605.5000      0.0000    556.0137      5.1526     78.2593
  1605.7500      0.0000    583.0043      5.1667     78.9925
  1606.0000      0.0000    629.8510      5.1970     78.9545
  1606.2500      0.0000    676.6693      5.2272     76.9913
  1606.5000      0.0000    707.3459      5.2448     73.0916
  1606.7500      0.0000    718.3712      5.2458     68.4563
  1607.0000      0.0000    715.7195      5.2312     64.0309
  1607.2500      0.0000    706.2687      5.1976     59.7142
  1607.5000      0.0000    693.4520      5.1351     55.3204
  1607.7500      0.0000    678.9960      5.0365     51.6345
  1608.0000      0.0000    665.6573      4.9111     50.0461
  1608.2500      0.0000    656.8298      4.7835     51.2991
  1608.5000      0.0000    654.1898      4.6778     54.5062
  1608.7500      0.0000    656.2800      4.5999     57.2072
  1609.0000      0.0000    659.6007      4.5367     56.9574
  1609.2500      0.0000    661.5247      4.4723     53.4338
  1609.5000      0.0000    662.4147      4.4040     48.7307
  1609.7500      0.0000    664.9620      4.3403     45.3476
  1610.0000      0.0000    671.9775      4.2852     44.3091
  1610.2500      0.0000    684.3923      4.2327     45.2677
  1610.5000      0.0000    699.7352      4.1787     47.5201
  1610.7500      0.0000    712.8538      4.1312     50.3787
  1611.0000      0.0000    719.7203      4.1066     53.1429
  1611.2500      0.0000    720.1208      4.1171     55.3619
  1611.5000      0.0000    715.7579      4.1660     56.9904
  1611.7500      0.0000    707.0696      4.2515     57.9980
  1612.0000      0.0000    693.5765      4.3735     58.1057
  1612.2500      0.0000    677.0220      4.5399     57.2326
  1612.5000      0.0000    662.4150      4.7694     55.9830
  1612.7500      0.0000    654.7385      5.0836     55.3557
  1613.0000      0.0000    654.6716      5.4943     55.9463
  1613.2500      0.0000    658.5015      5.9940     57.4767
  1613.5000      0.0000    661.6898      6.5578     59.0998
  1613.7500      0.0000    661.2699      7.1535     60.1364
  1614.0000      0.0000    656.8845      7.7528     60.4353
  1614.2500      0.0000    652.6995      8.3398     60.1302
  1614.5000      0.0000    656.2131      8.9104     59.4802
  1614.7500      0.0000    671.0302      9.4611     59.0276
  1615.0000      0.0000    692.0735      9.9776     59.3581
  1615.2500      0.0000    711.0615     10.4339     60.3023
  1615.5000      0.0000    725.0278     10.8008     60.6228
  1615.7500      0.0000    736.4894     11.0589     59.0433
  1616.0000      0.0000    746.3145     11.2117     55.8261
  1616.2500      0.0000    748.5258     11.2929     52.9856
  1616.5000      0.0000    732.2934     11.3556     52.6054
  1616.7500      0.0000    689.8752     11.4493     55.1593
  1617.0000      0.0000    625.4171     11.5979     59.5916
  1617.2500      0.0000    558.0239     11.7906     64.3720
  1617.5000      0.0000    513.6854     11.9903     67.9683
  1617.7500      0.0000    509.4634     12.1535     69.0124
  1618.0000      0.0000    542.3942     12.2535     67.1220
  1618.2500      0.0000    593.1907     12.2968     63.5907
  1618.5000      0.0000    641.0117     12.3170     60.5616
  1618.7500      0.0000    675.0275     12.3469     59.2710
  1619.0000      0.0000    694.1918     12.4023     59.3150
  1619.2500      0.0000    700.8145     12.4968     59.5614
  1619.5000      0.0000    696.6127     12.6665     59.3852
  1619.7500      0.0000    683.1213     12.9488     58.8944
  1620.0000      0.0000    664.7042     13.3062     58.4104
  1620.2500      0.0000    650.9992     13.5723     58.1978
  1620.5000      0.0000    653.4459     13.5331     58.6114
  1620.7500      0.0000    675.6483     13.1093     60.0255
  1621.0000      0.0000    708.2935     12.4358     62.3363
  1621.2500      0.0000    736.8829     11.7381     64.7499
  1621.5000      0.0000    753.5308     11.1600     66.4617
  1621.7500      0.0000    759.6219     10.7198     67.4646
  1622.0000      0.0000    759.7425     10.3721     68.2353
  1622.2500      0.0000    756.6917     10.0680     68.6596
  1622.5000      0.0000    751.6926      9.7768     67.8395
  1622.7500      0.0000    746.1255      9.4915     65.2375
  1623.0000      0.0000    741.5069      9.2275     61.7386
  1623.2500      0.0000    738.6044      9.0094     59.2747
  1623.5000      0.0000    737.3180      8.8525     59.2632
  1623.7500      0.0000    737.4580      8.7514     61.2872
  1624.0000      0.0000    739.5936      8.6867     63.2429
  1624.2500      0.0000    745.1716      8.6381     62.9930
  1624.5000      0.0000    755.3810      8.5889     60.1200
  1624.7500      0.0000    769.2725      8.5219     56.1116
  1625.0000      0.0000    782.9516      8.4160     52.8631
  1625.2500      0.0000    791.1531      8.2516     51.1278
  1625.5000      0.0000    790.3358      8.0160     50.4706
  1625.7500      0.0000    780.8539      7.7056     50.4543
  1626.0000      0.0000    766.3300      7.3250     51.4695
  1626.2500      0.0000    750.9166      6.8884     54.3648
  1626.5000      0.0000    737.1722      6.4221     59.4808
  1626.7500      0.0000    726.0858      5.9626     66.0422
  1627.0000      0.0000    718.0171      5.5476     72.3820
  1627.2500      0.0000    713.1075      5.2060     76.9078
  1627.5000      0.0000    711.3665      4.9497     78.9971
  1627.7500      0.0000    713.0739      4.7721     78.9418
  1628.0000      0.0000    718.7488      4.6544     77.2787
  1628.2500      0.0000    727.7499      4.5752     74.6483
  1628.5000      0.0000    736.6959      4.5133     72.1293
  1628.7500      0.0000    740.6819      4.4482     71.0843
  1629.0000      0.0000    737.6061      4.3678     72.3713
  1629.2500      0.0000    731.0655      4.2791     75.8261
  1629.5000      0.0000    728.3419      4.2029     80.5322
  1629.7500      0.0000    735.6063      4.1507     85.4306
  1630.0000      0.0000    753.8553      4.1089     89.5863
  1630.2500      0.0000    777.0781      4.0510     92.1483
  1630.5000      0.0000    794.7877      3.9635     92.5490
  1630.7500      0.0000    799.8369      3.8540     90.9112
  1631.0000      0.0000    795.5263      3.7384     88.0980
  1631.2500      0.0000    793.0456      3.6293     85.2804
  1631.5000      0.0000    799.9122      3.5376     83.4329
  1631.7500      0.0000    811.7458      3.4786     83.0784
  1632.0000      0.0000    816.8466      3.4673     84.2363
  1632.2500      0.0000    807.5606      3.5092     86.4086
  1632.5000      0.0000    784.8469      3.5995     88.6642
