~Version Information
VERS.                      2.0: CWLS Log ASCII Standard - VERSION 2.0
WRAP.                       NO: One line per depth step
~Well Information Block
STRT.FT                -7.2500: 
STOP.FT              1196.2500: 
STEP.FT                 0.2500: 
NULL.                -999.2500: 
COMP.          Pioneer Natural Resources: COMPANY
WELL.             Mahalo 12-20: WELL
FLD.           Purgatorie River: FIELD
LOC.           1689' FNL & 479' FWL--: LOCATION
CNTY.               Las Animas: COUNTY
SRVC.          Patterson Wireline: SERVICE COMPANY
DATE.          Tue Mar 14 15:40:32 2006: LOG DATE
UWI.           05 071 08700 00: UNIQUE WELL ID
STAT.                       CO: STATE
~Curve Information Block
DEPT.FT            0 000 00 00: Depth
CCL.                          : Casing Collar Locator
TT3.usec                      : CBL 3' Travel Time
AMP3.mV                       : CBL 3' Amplitude
GR.GAPI                       : Gamma Ray
~Parameter Information Block
~A  Depth       CCL         TT3         AMP3         GR     
# ...
  1098.2500      0.0000    339.6911     13.4652     98.8474
  1098.5000      0.0000    339.4132     13.6533    100.3815
  1098.7500      0.0000    339.0849     13.9076    101.7725
  1099.0000      0.0000    338.7357     14.1929    102.1525
  1099.2500      0.0000    338.4372     14.4728     99.9423
  1099.5000      0.0000    338.2143     14.7361     94.3854
  1099.7500      0.0000    338.0410     14.9911     86.7694
  1100.0000      0.0000    337.8871     15.2366     79.5856
  1100.2500      0.0000    337.7484     15.4486     74.7439
  1100.5000      0.0000    337.6354     15.6007     72.7811
  1100.7500      0.0000    337.5514     15.6890     73.2598
  1101.0000      0.0000    337.4977     15.7277     75.4469
  1101.2500      0.0000    337.4896     15.7207     78.6757
  1101.5000      0.0000    337.5500     15.6496     82.3789
  1101.7500      0.0000    337.6852     15.4923     86.1412
  1102.0000      0.0000    337.9125     15.2415     89.9595
  1102.2500      0.0000    338.3310     14.9017     94.3315
  1102.5000      0.0000    339.4546     14.4835     99.8545
  1102.7500      0.0000    342.8236     14.0104    106.5378
  1103.0000      0.0000    351.6107     13.5180    113.3453
  1103.2500      0.0000    369.5007     13.0411    118.6410
  1103.5000      0.0000    396.6034     12.6107    121.4243
  1103.7500      0.0000    426.1209     12.2611    122.0178
  1104.0000      0.0000    449.6464     12.0187    121.3398
  1104.2500      0.0000    469.6605     11.8743    119.7656
  1104.5000      0.0000    502.6365     11.7704    116.8092
  1104.7500      0.0000    563.4852     11.6225    111.6486
  1105.0000      0.0000    648.5540     11.3600    104.1960
  1105.2500      0.0000    738.9089     10.9727     96.2492
  1105.5000      0.0000    818.3896     10.5352     91.2970
  1105.7500      0.0000    882.8615     10.1520     92.2113
  1106.0000      0.0000    932.7554      9.8384     98.6374
  1106.2500      0.0000    964.5293      9.4849    106.7060
  1106.5000      0.0000    974.7358      8.9869    111.4858
  1106.7500      0.0000    968.3889      8.3838    110.3039
  1107.0000      0.0000    956.5525      7.8197    104.6094
  1107.2500      0.0000    946.1356      7.3995     98.9781
  1107.5000     -2.0000    936.4442      7.1276     97.8046
  1107.7500      0.0000    923.9094      6.9533    102.2684
  1108.0000      0.0000    906.4117      6.8282    109.9961
  1108.2500      0.0000    884.7871      6.7285    117.4184
  1108.5000      0.0000    862.9172      6.6434    122.5848
  1108.7500      0.0000    844.8083      6.5494    126.0305
  1109.0000      0.0000    830.1534      6.4172    129.1607
  1109.2500      0.0000    814.5561      6.2658    132.0427
  1109.5000      0.0000    795.4153      6.1782    133.0142
  1109.7500      0.0000    776.3612      6.2280    130.4424
  1110.0000      0.0000    764.7529      6.4070    124.5973
  1110.2500      0.0000    764.9171      6.6496    117.6052
  1110.5000      0.0000    773.7916      6.8987    111.7743
  1110.7500      0.0000    781.9104      7.1270    108.1356
  1111.0000      0.0000    778.6255      7.3138    106.3274
  1111.2500      0.0000    759.6210      7.4251    105.3049
  1111.5000      0.0000    732.8615      7.4305    103.8392
  1111.7500      0.0000    715.5084      7.3365    100.7183
  1112.0000      0.0000    720.3889      7.1868     95.2820
  1112.2500      0.0000    745.1766      7.0131     88.0158
  1112.5000      0.0000    776.9954      6.8165     80.2122
  1112.7500      0.0000    805.8006      6.6260     72.9718
  1113.0000      0.0000    831.3743      6.5273     66.8118
  1113.2500     -2.0000    860.7602      6.5535     62.1054
  1113.5000      0.0000    901.3708      6.5688     59.4096
  1113.7500      0.0000    952.0409      6.3528     59.0528
  1114.0000     -2.0000    997.4321      5.8455     60.3334
  1114.2500      2.0000   1015.1340      5.2836     61.2791
  1114.5000      2.0000    992.8124      5.0621     59.6345
  1114.7500      0.0000    937.4007      5.4646     54.4639
  1115.0000      0.0000    865.5717      6.5282     46.9280
  1115.2500     -2.0000    786.8475      8.1829     39.4711
  1115.5000      0.0000    699.6744     10.4665     34.1914
  1115.7500      0.0000    603.3587     13.5027     31.7822
  1116.0000      0.0000    507.9940     17.2322     31.6320
  1116.2500      0.0000    429.1666     21.2944     32.6645
  1116.5000      0.0000    375.3915     25.3411     34.1628
  1116.7500      0.0000    343.1283     29.4978     36.0086
  1117.0000      0.0000    322.3671     34.3846     38.2720
  1117.2500      0.0000    305.1223     40.5039     40.7476
  1117.5000      0.0000    289.3069     47.5707     43.0644
  1117.7500      0.0000    276.5966     54.5661     45.1301
  1118.0000      0.0000    268.4315     60.4521     47.1978
  1118.2500      0.0000    264.3145     64.7064     49.4649
  1118.5000      0.0000    262.7491     67.1963     51.6978
  1118.7500      0.0000    262.5892     67.8180     53.2626
  1119.0000      0.0000    263.6231     66.4183     53.5560
  1119.2500      0.0000    266.5822     62.9273     52.5119
  1119.5000      0.0000    273.0572     57.3845     50.6912
  1119.7500      0.0000    285.4033     49.9580     48.8554
  1120.0000      0.0000    306.5532     41.1641     47.6311
  1120.2500      0.0000    339.2728     32.0084     47.7597
  1120.5000      0.0000    384.6483     23.6528     50.4634
  1120.7500      0.0000    440.6984     16.8779     57.0243
  1121.0000      0.0000    502.5302     11.8721     67.5995
  1121.2500      0.0000    563.8369      8.4091     80.4602
  1121.5000      0.0000    618.4203      6.1186     92.7339
  1121.7500      0.0000    661.4272      4.6504    102.2475
  1122.0000      0.0000    690.6343      3.7276    108.7895
  1122.2500      0.0000    706.9901      3.1623    113.4618
  1122.5000     -2.0000    713.3865      2.8418    116.7793
  1122.7500      2.0000    712.2623      2.6929    117.8049
  1123.0000      0.0000    704.3738      2.6448    115.5156
  1123.2500      0.0000    690.2491      2.6355    110.7263
  1123.5000      0.0000    672.5481      2.6381    106.0174
  1123.7500      0.0000    655.9776      2.6550    103.6192
  1124.0000      0.0000    644.4396      2.6835    103.7037
  1124.2500      0.0000    638.6837      2.7007    104.8663
  1124.5000      0.0000    636.8892      2.6841    105.8705
  1124.7500      0.0000    636.9203      2.6347    106.5669
  1125.0000      0.0000    637.8165      2.5724    107.5236
  1125.2500      0.0000    639.6345      2.5148    109.3863
  1125.5000      0.0000    642.3651      2.4679    112.4442
  1125.7500      0.0000    645.0585      2.4345    116.2364
  1126.0000      0.0000    646.1685      2.4217    119.6834
  1126.2500      0.0000    644.9139      2.4361    122.0328
  1126.5000      0.0000    642.0814      2.4756    123.4957
  1126.7500      0.0000    639.2136      2.5302    124.7057
  1127.0000      0.0000    637.1023      2.5903    125.9793
  1127.2500      0.0000    634.9232      2.6495    127.5795
  1127.5000      0.0000    630.0580      2.7023    130.2668
  1127.7500      0.0000    618.4846      2.7439    134.7577
  1128.0000      0.0000    596.6110      2.7708    140.6456
  1128.2500      0.0000    564.6049      2.7807    146.6461
  1128.5000      0.0000    528.2543      2.7724    152.1771
  1128.7500      0.0000    496.1881      2.7479    158.0406
  1129.0000      0.0000    474.5164      2.7136    164.9456
  1129.2500      0.0000    464.5408      2.6787    171.6562
  1129.5000      0.0000    465.1918      2.6517    175.3498
  1129.7500      0.0000    475.8884      2.6384    174.0152
  1130.0000      0.0000    495.6871      2.6420    168.1504
  1130.2500      0.0000    520.1392      2.6627    160.1147
  1130.5000      0.0000    541.5400      2.6972    152.3480
  1130.7500      0.0000    554.8689      2.7388    146.0859
  1131.0000      0.0000    563.0222      2.7796    140.8533
  1131.2500      0.0000    573.6833      2.8126    134.9658
  1131.5000      0.0000    591.0204      2.8329    127.1762
