~Version Information
VERS.                      2.0: CWLS Log ASCII Standard - VERSION 2.0
WRAP.                       NO: One line per depth step
~Well Information Block
STRT.FT               575.0000: 
STOP.FT              1557.5000: 
STEP.FT                 0.1000: 
NULL.                -999.2500: 
COMP.          Pioneer Natural Resources: COMPANY
WELL.          McClaren 13-34 Tr: WELL
FLD.           Purgatoire River: FIELD
LOC.           1934' FSL & 826' FWL: LOCATION
PROV.                 Colorado: PROVINCE
CNTY.               Las Animas: COUNTRY
SRVC.                Patterson: SERVICE COMPANY
DATE.          Tue Jul 12 07:15:27 2005: LOG DATE
UWI.           05 071 08437 00: UNIQUE WELL ID
~Curve Information Block
DEPT.FT            0 000 00 00: Depth
DCAL.in                       : CDL Caliper
RHOB.g/cc                     : CDL Bulk Density
RHOC.g/cc                     : CDL Density Correction
DPOR.pu                       : CDL Density Porosity
GR.GAPI                       : Gamma Ray
NPOR.pu                       : Neutron Porosity
~Parameter Information Block
~A  Depth       DCAL        RHOB        RHOC        DPOR         GR         NPOR    
# ...
  1218.2000      7.9553      2.5693      0.0564      4.8926    137.3222     26.3663
  1218.3000      7.9553      2.5666      0.0447      5.0516    141.4757     26.4110
  1218.4000      7.9553      2.5739      0.0627      4.6121    143.4634     26.5714
  1218.5000      7.9552      2.5808      0.0780      4.1920    147.7423     26.4956
  1218.6000      7.9552      2.5778      0.0789      4.3746    152.3839     26.1475
  1218.7000      7.9552      2.5609      0.0758      5.4015    151.4525     26.1829
  1218.8000      7.9556      2.5299      0.0502      7.2792    145.7615     26.4859
  1218.9000      7.9556      2.4985      0.0228      9.1825    138.4357     26.0598
  1219.0000      7.9564      2.4838      0.0324     10.0730    132.7047     25.8441
  1219.1000      7.9564      2.4891      0.0131      9.7543    131.4920     27.0180
  1219.2000      7.9564      2.5119      0.0330      8.3672    131.2001     28.3569
  1219.3000      7.9564      2.5539      0.0285      5.8261    127.8914     28.2469
  1219.4000      7.9564      2.6136      0.0991      2.2057    123.4243     26.5546
  1219.5000      7.9527      2.6671      0.1941     -1.0376    117.3606     24.6495
  1219.6000      7.9527      2.6848      0.1875     -2.1087    109.5225     23.4597
  1219.7000      7.9527      2.6770      0.1598     -1.6380    103.9544     22.6834
  1219.8000      7.9492      2.6742      0.1540     -1.4688     99.5766     21.9893
  1219.9000      7.9492      2.6849      0.0968     -2.1154     91.5694     21.2990
  1220.0000      7.9518      2.7106      0.0170     -3.6709     79.6693     20.7299
  1220.1000      7.9518      2.7537      0.0581     -6.2862     69.1140     20.5271
  1220.2000      7.9518      2.8098      0.0580     -9.6819     64.0090     20.5839
  1220.3000      7.9546      2.8758      0.1635    -13.6852     63.0983     20.4638
  1220.4000      7.9546      2.9354      0.2856    -17.2961     62.3428     20.4226
  1220.5000      7.9551      2.9596      0.2940    -18.7639     59.5942     21.0910
  1220.6000      7.9551      2.9429      0.2907    -17.7502     55.5684     21.8079
  1220.7000      7.9551      2.9026      0.2374    -15.3084     51.1945     21.6000
  1220.8000      7.9554      2.8622      0.1868    -12.8584     47.5672     21.4702
  1220.9000      7.9554      2.8446      0.2016    -11.7912     46.1262     22.4425
  1221.0000      7.9557      2.8622      0.1311    -12.8627     47.9041     23.2411
  1221.1000      7.9557      2.9150      0.1841    -16.0618     52.6346     22.3222
  1221.2000      7.9557      2.9809      0.2245    -20.0551     57.5636     20.8800
  1221.3000      7.9553      3.0244      0.2134    -22.6930     60.0272     20.8819
  1221.4000      7.9553      3.0268      0.2667    -22.8361     61.3821     21.8761
  1221.5000      7.9544      2.9998      0.2047    -21.1982     61.7265     21.9894
  1221.6000      7.9544      2.9669      0.2199    -19.2067     59.0961     20.7912
  1221.7000      7.9544      2.9331      0.1808    -17.1563     56.5681     19.4629
  1221.8000      7.9537      2.8981      0.0843    -15.0345     57.6866     19.0703
  1221.9000      7.9537      2.8693      0.0613    -13.2895     58.6532     19.5447
  1222.0000      7.9530      2.8448      0.0527    -11.8079     54.0073     19.9610
  1222.1000      7.9530      2.8196      0.0473    -10.2815     46.6566     19.9518
  1222.2000      7.9530      2.7988      0.0181     -9.0192     44.6624     19.8587
  1222.3000      7.9531      2.7937      0.0350     -8.7078     49.2378     19.6991
  1222.4000      7.9531      2.8108      0.0261     -9.7427     55.0138     19.7877
  1222.5000      7.9539      2.8388      0.0929    -11.4446     57.9545     20.3530
  1222.6000      7.9539      2.8491      0.0994    -12.0662     57.3990     20.2217
  1222.7000      7.9539      2.8239      0.0764    -10.5371     57.5203     18.9254
  1222.8000      7.9551      2.7610      0.1106     -6.7291     60.0651     18.1859
  1222.9000      7.9551      2.6621      0.0455     -0.7349     61.4021     19.2046
  1223.0000      7.9562      2.5484     -0.0331      6.1602     61.0957     21.0189
  1223.1000      7.9562      2.4400     -0.0091     12.7283     60.5113     22.0075
  1223.2000      7.9562      2.3287     -0.0687     19.4710     57.2765     21.9916
  1223.3000      7.9578      2.2189     -0.1120     26.1254     50.7590     21.7346
  1223.4000      7.9578      2.1346     -0.1220     31.2365     45.8238     21.8194
  1223.5000      7.9595      2.0734     -0.0787     34.9466     44.2048     22.3484
  1223.6000      7.9595      2.0143     -0.0713     38.5244     43.2642     22.6015
  1223.7000      7.9595      1.9638     -0.0864     41.5863     42.8473     22.1235
  1223.8000      7.9601      1.9417     -0.0139     42.9274     44.8603     22.0187
  1223.9000      7.9601      1.9428      0.0579     42.8619     47.2918     23.0604
  1224.0000      7.9609      1.9566      0.0852     42.0249     46.3047     24.5604
  1224.1000      7.9609      1.9831      0.1048     40.4166     43.8295     25.9018
  1224.2000      7.9609      2.0093      0.1664     38.8288     45.1233     27.0481
  1224.3000      7.9619      2.0241      0.1138     37.9353     50.9579     27.8656
  1224.4000      7.9619      2.0411      0.1117     36.9024     56.5861     27.8721
  1224.5000      7.9628      2.0662      0.1465     35.3816     58.9221     27.7551
  1224.6000      7.9628      2.1014      0.0435     33.2503     58.6143     28.5508
  1224.7000      7.9628      2.1701      0.0933     29.0861     58.3747     29.3524
  1224.8000      7.9652      2.2700      0.1526     23.0318     63.6235     28.9750
  1224.9000      7.9652      2.3644      0.1697     17.3120     77.0408     27.8562
  1225.0000      7.9676      2.4351      0.1356     13.0237     95.9974     26.9459
  1225.1000      7.9676      2.4878      0.1894      9.8305    113.7706     26.3637
  1225.2000      7.9676      2.5217      0.1590      7.7728    125.1265     25.8913
  1225.3000      7.9682      2.5366      0.0974      6.8702    131.5354     25.7208
  1225.4000      7.9682      2.5469      0.0825      6.2504    135.4799     26.0382
  1225.5000      7.9676      2.5640      0.0771      5.2151    134.6370     26.6868
  1225.6000      7.9676      2.5842      0.0863      3.9877    125.9030     27.0997
  1225.7000      7.9676      2.6032      0.0788      2.8385    114.1754     27.1876
  1225.8000      7.9662      2.6230      0.0978      1.6347    108.6056     27.4005
  1225.9000      7.9662      2.6394      0.1262      0.6394    107.7191     27.9029
  1226.0000      7.9661      2.6473      0.0992      0.1654    105.3263     28.5158
  1226.1000      7.9661      2.6539      0.0868     -0.2364    103.1819     28.8437
  1226.2000      7.9661      2.6648      0.1187     -0.8981    105.1893     28.5592
  1226.3000      7.9697      2.6752      0.0994     -1.5257    111.1464     27.9939
  1226.4000      7.9697      2.6845      0.0888     -2.0920    115.3606     28.0921
  1226.5000      7.9744      2.6936      0.0802     -2.6436    113.2555     28.9542
  1226.6000      7.9744      2.6974      0.1331     -2.8724    107.8697     29.2712
  1226.7000      7.9744      2.6924      0.0947     -2.5711    103.7890     28.4465
  1226.8000      7.9784      2.6721      0.1174     -1.3366    103.8206     27.6546
  1226.9000      7.9784      2.6298      0.0542      1.2263    107.8120     27.7216
  1227.0000      7.9811      2.5841     -0.0149      3.9946    111.4609     27.9026
  1227.1000      7.9811      2.5621     -0.0294      5.3279    112.2798     27.5323
  1227.2000      7.9811      2.5629     -0.0245      5.2811    112.1633     26.9014
  1227.3000      7.9811      2.5665     -0.0301      5.0619    112.3924     26.6159
  1227.4000      7.9811      2.5566     -0.0009      5.6577    111.4313     26.9209
  1227.5000      7.9797      2.5279      0.0204      7.4001    109.8027     27.4297
  1227.6000      7.9797      2.4915      0.0317      9.6084    110.2294     27.9665
  1227.7000      7.9797      2.4687      0.0311     10.9869    114.5409     28.3243
