~Version Information
VERS.                      2.0: CWLS Log ASCII Standard - VERSION 2.0
WRAP.                       NO: One line per depth step
~Well Information Block
STRT.FT                -7.5000: 
STOP.FT              1517.5000: 
STEP.FT                 0.2500: 
NULL.                -999.2500: 
COMP.          Pioneer Natural Resources: COMPANY
WELL.          McClaren 13-34 Tr: WELL
FLD.           Purgatorie River: FIELD
LOC.           1934' FSL & 826' WL--: LOCATION
PROV.                       CO: PROVINCE
CNTY.               Las Animas: COUNTRY
SRVC.          Patterson Wireline: SERVICE COMPANY
DATE.          Fri Jul 15 13:10:35 2005: LOG DATE
UWI.           05 071 08437 00: UNIQUE WELL ID
~Curve Information Block
DEPT.FT            0 000 00 00: Depth
CCL.                          : Casing Collar Locator
TT3.usec                      : CBL 3' Travel Time
AMP3.mV                       : CBL 3' Amplitude
GR.GAPI                       : Gamma Ray
~Parameter Information Block
~A  Depth       CCL         TT3         AMP3         GR     
# ...
   897.0000      0.0000    696.2968     11.5931     88.6596
   897.2500      0.0000    696.6398     11.7496     75.2704
   897.5000      0.0000    697.0096     11.8934     64.8221
   897.7500      0.0000    697.3740     11.9743     58.8179
   898.0000      0.0000    697.8790     12.0004     57.0283
   898.2500      0.0000    698.9057     12.0157     57.9096
   898.5000      0.0000    700.9871     12.0651     59.6212
   898.7500      0.0000    704.5469     12.1617     60.5664
   899.0000      0.0000    709.5936     12.2746     59.5436
   899.2500      0.0000    715.7743     12.3571     56.2259
   899.5000      0.0000    722.7979     12.3876     51.6411
   899.7500      0.0000    730.7467     12.3841     47.7130
   900.0000      0.0000    739.4732     12.3911     45.9934
   900.2500      0.0000    746.9931     12.4535     46.7622
   900.5000      0.0000    747.7559     12.5794     49.1396
   900.7500      0.0000    734.0427     12.7111     51.8085
   901.0000      0.0000    702.3835     12.7429     53.7271
   901.2500      0.0000    660.6021     12.5797     54.6224
   901.5000      0.0000    627.3016     12.1825     55.0185
   901.7500      0.0000    621.5298     11.5701     55.6183
   902.0000      0.0000    649.5052     10.8103     56.6374
   902.2500      0.0000    698.3882     10.0284     57.9105
   902.5000      0.0000    743.6727      9.3839     59.5444
   902.7500      0.0000    766.7469      8.9932     62.2414
   903.0000      0.0000    767.2075      8.8742     66.8660
   903.2500      2.0000    758.1632      8.9638     73.6102
   903.5000      2.0000    751.5099      9.1709     81.5208
   903.7500      0.0000    749.2283      9.4236     88.7854
   904.0000      0.0000    745.3079      9.7081     93.4355
   904.2500      0.0000    732.0547     10.0796     94.1793
   904.5000      0.0000    705.8851     10.6097     91.1523
   904.7500      0.0000    670.0980     11.2948     85.8333
   905.0000      0.0000    630.6108     12.0286     79.7830
   905.2500      0.0000    588.5723     12.6754     73.6244
   905.5000      0.0000    542.3345     13.1539     67.6174
   905.7500      0.0000    498.9442     13.4565     62.8124
   906.0000      0.0000    476.7529     13.6276     60.7327
   906.2500      0.0000    490.8770     13.7308     61.7401
   906.5000      0.0000    537.8024     13.8114     64.4457
   906.7500      0.0000    596.3528     13.8814     67.1406
   907.0000      0.0000    642.1109     13.9330     69.2286
   907.2500      0.0000    661.2840     13.9561     70.8487
   907.5000      0.0000    655.7855     13.9410     71.7473
   907.7500      0.0000    640.1332     13.8780     71.3746
   908.0000      0.0000    632.1470     13.7618     69.9680
   908.2500      0.0000    641.4225     13.5981     68.8530
   908.5000      0.0000    664.3522     13.4118     69.2810
   908.7500      0.0000    690.2247     13.2441     71.1034
   909.0000      0.0000    710.7672     13.1271     72.8968
   909.2500      0.0000    723.7126     13.0505     73.4173
   909.5000      0.0000    730.5510     12.9572     72.5923
   909.7500      0.0000    733.5918     12.7787     71.1219
   910.0000      0.0000    734.6160     12.4765     69.6870
   910.2500      0.0000    734.6778     12.0503     68.7928
   910.5000      0.0000    734.2980     11.5219     68.8763
   910.7500      0.0000    733.7588     10.9235     70.0758
   911.0000      0.0000    733.2183     10.3008     72.0524
   911.2500      0.0000    732.6619      9.7148     74.4390
   911.5000      0.0000    731.7399      9.2289     77.4000
   911.7500      0.0000    729.8065      8.8853     81.4885
   912.0000      0.0000    726.4858      8.6918     87.0753
   912.2500      0.0000    722.5145      8.6296     94.0946
   912.5000      0.0000    719.8228      8.6793    102.1086
   912.7500      0.0000    720.1868      8.8412    110.5236
   913.0000      0.0000    723.6207      9.1331    118.9417
   913.2500      0.0000    728.4156      9.5691    127.2217
   913.5000      0.0000    732.7991     10.1330    134.9275
   913.7500      0.0000    736.2019     10.7652    140.8920
   914.0000      0.0000    738.9046     11.3759    143.7944
   914.2500      0.0000    740.9437     11.8784    143.3978
   914.5000      0.0000    741.8096     12.2316    140.8615
   914.7500      0.0000    741.2108     12.4672    137.4029
   915.0000      0.0000    739.4518     12.6668    132.9399
   915.2500      0.0000    736.1114     12.8969    126.8346
   915.5000      0.0000    727.7195     13.1672    119.8148
   915.7500      0.0000    707.5546     13.4474    113.9925
   916.0000      0.0000    671.4344     13.7030    110.7333
   916.2500      0.0000    627.4795     13.9018    109.5392
   916.5000      0.0000    597.7043     14.0095    109.3543
   916.7500      0.0000    602.4460     13.9974    110.0209
   917.0000      0.0000    640.9762     13.8536    111.8759
   917.2500      0.0000    691.6736     13.5911    114.5195
   917.5000      0.0000    731.5649     13.2582    116.8453
   917.7500      0.0000    752.0415     12.9391    118.3994
   918.0000      0.0000    757.9000     12.7257    120.0354
   918.2500      0.0000    757.9929     12.6609    122.7274
   918.5000      0.0000    758.4475     12.7005    126.0758
   918.7500      0.0000    760.8781     12.7402    128.3513
   919.0000      0.0000    763.7006     12.6954    127.7425
   919.2500      0.0000    764.2153     12.5638    123.4678
   919.5000      0.0000    759.7263     12.4174    116.1822
   919.7500      0.0000    747.1633     12.3389    107.7265
   920.0000      0.0000    722.7919     12.3723    100.2755
   920.2500      0.0000    683.7367     12.5267     95.3230
   920.5000      0.0000    630.7116     12.7989     93.3593
   920.7500      0.0000    568.5374     13.1602     94.2895
   921.0000      0.0000    503.7382     13.5278     97.5937
   921.2500      0.0000    443.1948     13.7886    101.9498
   921.5000      0.0000    394.6820     13.8751    105.3035
   921.7500      0.0000    365.2491     13.8205    105.8279
   922.0000      0.0000    358.5582     13.7270    102.9875
   922.2500      0.0000    375.9426     13.6724     97.8275
   922.5000      0.0000    418.5406     13.6527     92.2833
   922.7500      0.0000    484.3039     13.6076     87.9797
   923.0000      0.0000    562.9746     13.4782     85.4416
   923.2500      0.0000    638.0981     13.2383     84.2980
   923.5000      0.0000    696.0803     12.9093     84.0525
   923.7500      0.0000    732.4127     12.5726     84.4781
   924.0000      0.0000    750.3987     12.3507     85.3371
   924.2500      0.0000    756.5330     12.3396     86.1574
   924.5000      0.0000    757.0787     12.5403     86.7411
   924.7500      0.0000    756.4105     12.8549     87.8569
   925.0000      0.0000    756.8759     13.1553     90.8977
   925.2500      0.0000    759.7454     13.3654     96.5677
   925.5000      0.0000    765.7358     13.4879    104.1634
   925.7500      0.0000    774.4207     13.5650    112.1197
   926.0000      0.0000    783.8642     13.6213    118.6379
   926.2500      0.0000    791.1846     13.6434    121.6907
   926.5000      0.0000    793.5150     13.6004    119.4487
   926.7500      0.0000    789.0363     13.4705    111.7788
   927.0000      0.0000    777.9597     13.2594    101.2820
   927.2500      0.0000    762.7200     13.0175     92.0620
   927.5000      0.0000    746.8849     12.8333     86.8826
   927.7500      0.0000    733.6051     12.7761     85.4850
   928.0000      0.0000    724.6292     12.8273     85.6910
   928.2500      0.0000    719.7668     12.8854     85.9334
   928.5000      0.0000    716.9285     12.8488     86.4727
   928.7500      0.0000    713.5850     12.6896     88.2671
   929.0000      0.0000    708.9373     12.4585     91.2120
   929.2500      0.0000    704.5105     12.2466     93.8765
   929.5000      0.0000    702.6205     12.1382     94.6243
   929.7500      0.0000    704.6838     12.1689     92.5412
   930.0000      0.0000    710.9443     12.3031     87.6834
   930.2500      0.0000    721.1587     12.4496     81.1186
