~Version Information
VERS.                      2.0: CWLS Log ASCII Standard - VERSION 2.0
WRAP.                       NO: One line per depth step
~Well Information Block
STRT.FT                -9.2500: 
STOP.FT              1854.7500: 
STEP.FT                 0.2500: 
NULL.                -999.2500: 
COMP.          Pioneer Natural Resources: COMPANY
WELL.          State Wildlife 32-16 Tr: WELL
FLD.           Purgatoire River: FIELD
LOC.           1838' FNL & 1850' FEL--: LOCATION
STAT.                       CO: State
CNTY.               Las Animas: COUNTY
CTRY. USA : Country
SECT. 16 : Section
TOWN. 32S : Township
RANG. 66W : Range
SRVC.          Patterson Wireline: SERVICE COMPANY
DATE.          Tue Nov 22 10:17:13 2005: LOG DATE
API.           05 071 08568 00: UNIQUE WELL ID
~Curve Information Block
DEPT.FT            0 000 00 00: Depth
CCL.                          : Casing Collar Locator
TT3.usec                      : CBL 3' Travel Time
AMP3.mV                       : CBL 3' Amplitude
GR.GAPI                       : Gamma Ray
~Parameter Information Block
~A  Depth       CCL         TT3         AMP3         GR     
# ...
   962.2500      0.0000    768.8356      9.3355     91.3785
   962.5000      0.0000    772.6268      9.7943     98.4786
   962.7500      0.0000    778.4022     10.2569    109.1923
   963.0000      0.0000    783.1323     10.6401    121.2058
   963.2500      0.0000    785.3674     10.9041    131.3910
   963.5000      0.0000    784.2714     11.0596    137.6491
   963.7500      0.0000    777.9632     11.1283    140.1332
   964.0000      0.0000    763.9080     11.1242    140.6373
   964.2500      0.0000    742.6686     11.0631    140.6418
   964.5000      0.0000    721.7415     10.9734    140.0535
   964.7500      0.0000    712.6637     10.8903    137.9470
   965.0000      0.0000    720.9095     10.8381    134.0856
   965.2500      0.0000    739.2986     10.8222    129.4399
   965.5000      0.0000    752.5574     10.8343    125.6535
   965.7500      0.0000    746.3470     10.8661    124.1296
   966.0000      0.0000    712.2826     10.9215    125.0449
   966.2500      0.0000    650.4429     11.0161    126.9381
   966.5000      0.0000    571.8882     11.1603    127.6479
   966.7500      0.0000    496.7654     11.3406    126.0263
   967.0000      0.0000    446.0266     11.5194    122.8990
   967.2500      0.0000    433.1352     11.6562    120.6320
   967.5000      0.0000    460.5651     11.7287    121.6247
   967.7500      0.0000    518.7105     11.7358    126.3767
   968.0000      0.0000    586.9370     11.6871    132.6700
   968.2500      0.0000    641.8369     11.5947    137.1200
   968.5000      0.0000    671.2964     11.4715    137.8290
   968.7500      0.0000    682.0064     11.3325    135.4283
   969.0000      0.0000    691.2198     11.1891    131.7541
   969.2500      0.0000    710.0624     11.0471    127.8930
   969.5000      0.0000    735.3786     10.9150    123.5037
   969.7500      0.0000    756.7198     10.8180    117.7712
   970.0000      0.0000    767.7674     10.7909    110.7861
   970.2500      0.0000    769.9580     10.8465    103.9420
   970.5000      0.0000    768.2281     10.9547     99.1555
   970.7500      0.0000    765.9365     11.0635     97.7192
   971.0000      0.0000    763.7420     11.1405     99.6170
   971.2500      0.0000    761.6210     11.1878    103.6465
   971.5000      0.0000    760.2975     11.2155    108.1326
   971.7500      0.0000    760.3970     11.2147    111.6856
   972.0000      0.0000    761.1984     11.1643    113.8222
   972.2500      0.0000    761.0931     11.0602    115.3280
   972.5000      0.0000    759.0328     10.9293    117.6283
   972.7500      0.0000    755.3279     10.8138    121.2198
   973.0000      0.0000    751.2819     10.7426    125.1252
   973.2500      0.0000    748.2648     10.7154    128.3807
   973.5000      0.0000    747.0994     10.7089    131.2619
   973.7500      0.0000    748.0701     10.6975    134.2933
   974.0000      0.0000    751.0417     10.6726    136.8558
   974.2500      0.0000    755.2823     10.6430    137.6010
   974.5000      0.0000    759.2999     10.6162    135.6461
   974.7500      0.0000    761.0988     10.5837    130.7776
   975.0000      0.0000    758.9900     10.5291    123.0845
   975.2500      0.0000    752.5637     10.4526    113.0924
   975.5000      0.0000    742.5405     10.3778    102.1283
   975.7500      0.0000    728.1069     10.3344     92.1247
   976.0000      0.0000    703.8964     10.3377     84.8446
   976.2500      0.0000    662.0293     10.3841     81.1324
   976.5000      0.0000    600.3797     10.4604     80.9577
   976.7500      0.0000    529.2832     10.5516     84.1763
   977.0000      0.0000    468.2576     10.6401     90.5897
   977.2500      0.0000    435.3851     10.6995     98.8159
   977.5000      0.0000    439.4257     10.6997    105.9445
   977.7500      0.0000    478.1506     10.6254    109.3402
   978.0000      0.0000    539.3553     10.4936    108.6861
   978.2500      0.0000    604.0538     10.3457    105.8586
   978.5000      0.0000    654.3504     10.2201    103.0484
   978.7500      0.0000    682.6279     10.1305    101.2039
   979.0000      0.0000    693.9958     10.0664     99.7725
   979.2500      0.0000    699.4695     10.0086     97.4264
   979.5000      0.0000    706.2668      9.9461     93.4291
   979.7500      0.0000    713.3069      9.8828     88.9830
   980.0000      0.0000    713.3004      9.8326     87.0853
   980.2500      0.0000    697.3395      9.8101     90.2275
   980.5000      0.0000    659.9286      9.8219     97.8834
   980.7500      0.0000    604.2139      9.8587    106.5844
   981.0000      0.0000    543.6122      9.8934    112.5569
   981.2500      0.0000    495.8901      9.8958    114.0036
   981.5000      0.0000    473.9437      9.8562    111.2771
   981.7500      0.0000    481.7589      9.7962    106.0163
   982.0000      0.0000    516.4144      9.7517    100.4528
   982.2500      0.0000    569.8522      9.7478     96.5028
   982.5000      0.0000    629.1626      9.7924     94.7264
   982.7500      0.0000    680.2938      9.8874     94.2427
   983.0000      0.0000    715.0731     10.0360     93.6771
   983.2500      0.0000    734.3411     10.2321     92.2349
   983.5000      0.0000    743.7505     10.4475     90.4483
   983.7500      0.0000    747.1752     10.6344     90.1360
   984.0000      0.0000    743.0422     10.7485     93.0694
   984.2500      0.0000    724.6850     10.7715     99.2530
   984.5000      0.0000    684.8146     10.7178    106.7893
   984.7500      0.0000    623.6224     10.6214    113.5075
   985.0000      0.0000    554.3159     10.5180    118.3964
   985.2500      0.0000    497.9789     10.4327    121.9254
   985.5000      0.0000    471.0206     10.3792    125.8642
   985.7500      0.0000    477.9637     10.3632    132.2316
   986.0000      0.0000    513.5344     10.3833    141.1536
   986.2500      0.0000    565.9427     10.4272    149.9521
   986.5000      0.0000    617.5761     10.4673    155.4049
   986.7500      0.0000    649.2263     10.4618    156.7238
   987.0000      0.0000    650.6367     10.3630    155.5425
   987.2500      0.0000    629.4009     10.1252    153.4385
   987.5000      0.0000    608.0076      9.7125    150.7447
   987.7500      0.0000    608.0642      9.1265    147.6080
   988.0000      0.0000    634.3123      8.4475    144.6023
   988.2500      0.0000    674.0464      7.8191    141.7359
   988.5000      0.0000    710.9325      7.3458    137.9462
   988.7500      0.0000    736.7849      7.0024    132.2000
   989.0000      0.0000    751.8944      6.6696    124.5457
   989.2500      0.0000    759.4298      6.2595    115.8465
   989.5000      0.0000    761.9930      5.7916    106.9946
   989.7500      0.0000    761.8375      5.3587     98.4990
   990.0000      0.0000    762.3748      5.0351     90.4378
   990.2500      0.0000    768.2358      4.8148     82.7902
   990.5000      0.0000    782.8469      4.6319     75.9232
   990.7500      0.0000    805.1716      4.4349     70.4034
   991.0000      0.0000    828.8732      4.2279     66.1791
   991.2500      0.0000    845.6270      4.0378     62.4680
   991.5000      0.0000    850.8192      3.8735     58.8268
   991.7500      0.0000    846.5619      3.7413     55.7772
   992.0000      0.0000    837.8926      3.6842     53.8970
   992.2500      0.0000    824.9041      3.7743     52.8737
   992.5000      0.0000    801.4252      4.0607     52.1869
   992.7500      0.0000    764.4201      4.5238     52.2955
   993.0000      0.0000    721.5029      5.0793     54.3170
   993.2500      0.0000    684.4855      5.6265     58.7561
   993.5000      0.0000    658.1172      6.0938     65.2684
   993.7500      0.0000    640.8424      6.4455     73.4957
   994.0000      0.0000    634.4673      6.6722     83.3285
   994.2500      0.0000    644.4908      6.8066     94.2798
   994.5000      0.0000    669.1077      6.9398    105.2674
   994.7500      0.0000    693.3421      7.1881    115.3473
   995.0000      0.0000    696.5961      7.6318    124.3498
   995.2500      0.0000    665.5105      8.2775    132.5406
   995.5000      0.0000    602.5009      9.0507    139.6755
