~Version Information
VERS.                      2.0: CWLS Log ASCII Standard - VERSION 2.0
WRAP.                       NO: One line per depth step
~Well Information Block
STRT.FT               547.0000: 
STOP.FT              1685.5000: 
STEP.FT                 0.1000: 
NULL.                -999.2500: 
COMP.          Pioneer Natural Resources: COMPANY
WELL.           Pedri 42-33 Tr: WELL
FLD.           Purgatorie River: FIELD
LOC.           1933' FNL & 662' FEL: LOCATION
PROV.                 Colorado: PROVINCE
CNTY.               Las Animas: COUNTRY
SRVC.                Patterson: SERVICE COMPANY
DATE.          Mon Dec 19 13:36:44 2005: LOG DATE
UWI.                          : UNIQUE WELL ID
~Curve Information Block
DEPT.FT            0 000 00 00: Depth
DCAL.in                       : CDL Caliper
RHOB.g/cc                     : CDL Bulk Density
RHOC.g/cc                     : CDL Density Correction
DPOR.pu                       : CDL Density Porosity
GR.GAPI                       : Gamma Ray
~Parameter Information Block
~A  Depth       DCAL        RHOB        RHOC        DPOR         GR     
# ...
  1140.6000      8.0197      2.6716      0.1058     -1.3095    119.3294
  1140.7000      8.0197      2.6923      0.1117     -2.5642    119.3289
  1140.8000      8.0121      2.6877      0.1393     -2.2875    119.7926
  1140.9000      8.0121      2.6637      0.1338     -0.8292    119.6891
  1141.0000      8.0114      2.6428      0.0784      0.4345    120.5535
  1141.1000      8.0114      2.6380      0.0644      0.7266    122.6477
  1141.2000      8.0114      2.6314      0.1280      1.1245    124.3464
  1141.3000      8.0178      2.6088      0.0421      2.4979    124.3273
  1141.4000      8.0178      2.5877      0.0454      3.7785    121.9033
  1141.5000      8.0377      2.5803      0.0414      4.2237    118.9594
  1141.6000      8.0377      2.5763      0.0733      4.4671    118.6584
  1141.7000      8.0377      2.5676      0.0250      4.9933    120.6655
  1141.8000      8.0453      2.5595      0.0038      5.4856    122.3005
  1141.9000      8.0453      2.5587      0.0237      5.5346    122.7621
  1142.0000      8.0458      2.5634      0.0304      5.2476    121.8708
  1142.1000      8.0458      2.5671      0.0389      5.0260    121.5345
  1142.2000      8.0458      2.5706      0.0104      4.8147    124.1352
  1142.3000      8.0585      2.5789      0.0601      4.3062    127.5326
  1142.4000      8.0585      2.5934      0.0268      3.4321    127.9756
  1142.5000      8.0972      2.6166      0.0504      2.0235    125.1490
  1142.6000      8.0972      2.6412      0.0656      0.5342    120.8328
  1142.7000      8.0972      2.6550      0.0422     -0.3022    116.5590
  1142.8000      8.1101      2.6643      0.0618     -0.8642    112.6483
  1142.9000      8.1101      2.6787      0.0979     -1.7393    108.7183
  1143.0000      8.0702      2.6939      0.0693     -2.6577    106.4235
  1143.1000      8.0702      2.7031      0.0679     -3.2177    106.3148
  1143.2000      8.0702      2.7029      0.0732     -3.2044    105.8317
  1143.3000      8.0436      2.6874      0.0856     -2.2660    103.7591
  1143.4000      8.0436      2.6581      0.0469     -0.4889    101.9581
  1143.5000      8.0648      2.6290     -0.0004      1.2717    100.7385
  1143.6000      8.0648      2.6075      0.0633      2.5741     99.8570
  1143.7000      8.0648      2.5967      0.0185      3.2288    101.2370
  1143.8000      8.1036      2.6056      0.0068      2.6918    102.9295
  1143.9000      8.1036      2.6224      0.0783      1.6700    101.9943
  1144.0000      8.0520      2.6268     -0.0006      1.4083    100.4738
  1144.1000      8.0520      2.6265      0.0160      1.4259     99.9956
  1144.2000      8.0520      2.6344      0.1333      0.9457     99.0121
  1144.3000      8.0270      2.6419      0.1341      0.4884     97.3436
  1144.4000      8.0270      2.6345      0.1806      0.9396     96.3292
  1144.5000      7.9816      2.6156      0.1414      2.0833     95.0922
  1144.6000      7.9816      2.6080      0.1273      2.5450     92.1234
  1144.7000      7.9816      2.6176      0.1558      1.9662     88.7816
  1144.8000      7.8895      2.6257      0.1715      1.4722     87.9570
  1144.9000      7.8895      2.6223      0.1232      1.6775     89.7712
  1145.0000      7.9451      2.6146      0.1105      2.1435     90.0947
  1145.1000      7.9451      2.6075      0.1244      2.5759     86.5611
  1145.2000      7.9451      2.5953      0.1303      3.3142     81.0362
  1145.3000      7.9747      2.5774      0.0603      4.4008     76.1943
  1145.4000      7.9747      2.5594      0.0886      5.4931     73.5984
  1145.5000      7.9989      2.5447      0.0338      6.3806     71.9350
  1145.6000      7.9989      2.5440      0.0284      6.4261     69.3527
  1145.7000      7.9989      2.5566      0.0838      5.6582     67.9137
  1145.8000      7.9796      2.5612      0.1037      5.3792     69.7282
  1145.9000      7.9796      2.5565      0.0481      5.6683     73.8501
  1146.0000      7.9959      2.5652      0.0735      5.1404     78.3761
  1146.1000      7.9959      2.5839      0.1047      4.0030     81.3830
  1146.2000      7.9959      2.5863      0.0978      3.8579     80.9621
  1146.3000      8.0040      2.5684      0.0501      4.9444     77.8806
  1146.4000      8.0040      2.5480      0.0295      6.1811     75.6145
  1146.5000      7.9889      2.5348      0.0461      6.9813     75.8950
  1146.6000      7.9889      2.5248      0.0063      7.5898     76.8348
  1146.7000      7.9889      2.5066      0.0637      8.6915     75.0565
  1146.8000      7.9927      2.4730      0.0178     10.7264     70.9048
  1146.9000      7.9927      2.4404      0.0129     12.7017     67.6072
  1147.0000      7.9834      2.4315      0.0040     13.2448     66.4323
  1147.1000      7.9834      2.4475      0.0414     12.2714     66.2854
  1147.2000      7.9834      2.4694      0.0811     10.9435     65.7114
  1147.3000      8.0077      2.4773      0.0914     10.4647     64.6629
  1147.4000      8.0077      2.4687      0.0735     10.9859     63.5513
  1147.5000      8.0425      2.4503      0.0822     12.1017     62.2939
  1147.6000      8.0425      2.4289      0.0874     13.3970     61.2066
  1147.7000      8.0425      2.4169      0.0664     14.1267     60.9631
  1147.8000      8.0134      2.4237      0.0815     13.7173     59.5377
  1147.9000      8.0134      2.4463      0.0718     12.3427     54.7224
  1148.0000      7.9716      2.4721      0.1498     10.7793     49.3086
  1148.1000      7.9716      2.4886      0.1448      9.7822     46.9333
  1148.2000      7.9716      2.5013      0.1237      9.0111     46.6392
  1148.3000      7.9422      2.5209      0.1510      7.8263     46.8556
  1148.4000      7.9422      2.5421      0.1640      6.5366     48.4392
  1148.5000      7.9429      2.5598      0.1221      5.4684     51.5971
  1148.6000      7.9429      2.5721      0.1476      4.7187     54.4596
  1148.7000      7.9429      2.5662      0.1564      5.0797     55.5089
  1148.8000      7.9495      2.5328      0.1476      7.1061     55.6188
  1148.9000      7.9495      2.4890      0.0875      9.7572     55.0941
  1149.0000      7.9840      2.4633      0.0662     11.3128     53.2166
  1149.1000      7.9840      2.4607      0.0864     11.4739     52.1185
  1149.2000      7.9840      2.4633      0.0834     11.3176     55.2900
  1149.3000      7.9854      2.4648      0.0235     11.2266     61.8389
  1149.4000      7.9854      2.4712      0.0383     10.8339     67.8299
  1149.5000      7.9762      2.4757      0.0610     10.5652     71.8801
  1149.6000      7.9762      2.4705      0.0409     10.8776     74.2465
  1149.7000      7.9762      2.4673      0.0331     11.0703     75.0489
  1149.8000      8.0162      2.4753      0.0393     10.5865     75.5732
  1149.9000      8.0162      2.4857      0.0764      9.9555     76.9895
  1150.0000      8.0259      2.4885      0.0661      9.7858     77.8623
  1150.1000      8.0259      2.4848      0.0235     10.0138     75.9344
  1150.2000      8.0259      2.4821      0.0251     10.1760     72.1319
  1150.3000      8.0111      2.4876      0.0634      9.8404     70.2497
  1150.4000      8.0111      2.5064      0.0473      8.7050     69.6175
  1150.5000      8.0287      2.5396      0.1330      6.6921     66.9108
  1150.6000      8.0287      2.5770      0.1303      4.4240     63.4567
  1150.7000      8.0287      2.5995      0.2315      3.0628     61.8011
  1150.8000      8.0053      2.5972      0.2019      3.1978     61.4255
  1150.9000      8.0053      2.5772      0.1700      4.4149     61.0172
  1151.0000      7.8760      2.5400      0.1889      6.6641     60.3797
  1151.1000      7.8760      2.4876      0.0807      9.8408     60.1930
  1151.2000      7.8760      2.4449      0.0394     12.4321     60.4649
  1151.3000      7.9132      2.4342     -0.0132     13.0796     60.6122
  1151.4000      7.9132      2.4478      0.0078     12.2521     60.3381
  1151.5000      7.9505      2.4575      0.0355     11.6658     59.3774
  1151.6000      7.9505      2.4447      0.0538     12.4439     58.4204
  1151.7000      7.9505      2.4261     -0.0288     13.5669     59.6091
