~Version Information
VERS.                      2.0: CWLS Log ASCII Standard - VERSION 2.0
WRAP.                       NO: One line per depth step
~Well Information Block
STRT.FT               530.0000: 
STOP.FT              1298.0000: 
STEP.FT                 0.1000: 
NULL.                -999.2500: 
COMP.          Pioneer Natural Resources: COMPANY
WELL.            Keiko 14-6 Tr: WELL
FLD.           Purgatoire River: FIELD
LOC.           462' FSL & 1202' FWL: LOCATION
PROV.                 Colorado: PROVINCE
CNTY.               Las Animas: COUNTRY
SRVC.                Patterson: SERVICE COMPANY
DATE.          Fri Dec 30 07:26:03 2005: LOG DATE
UWI.           05 071 08629 00: UNIQUE WELL ID
~Curve Information Block
DEPT.FT            0 000 00 00: Depth
DCAL.in                       : CDL Caliper
RHOB.g/cc                     : CDL Bulk Density
RHOC.g/cc                     : CDL Density Correction
DPOR.pu                       : CDL Density Porosity
GR.GAPI                       : Gamma Ray
~Parameter Information Block
~A  Depth       DCAL        RHOB        RHOC        DPOR         GR     
# ...
   888.4000      8.0152      2.8561      0.0328    -12.4884     47.3978
   888.5000      8.0183      2.8432      0.0604    -11.7105     51.5821
   888.6000      8.0183      2.8253      0.0057    -10.6270     52.7867
   888.7000      8.0183      2.8301      0.0105    -10.9148     48.6299
   888.8000      8.0300      2.8522      0.0251    -12.2571     43.2659
   888.9000      8.0300      2.8640      0.0310    -12.9692     39.2966
   889.0000      8.0393      2.8577      0.0149    -12.5871     37.0352
   889.1000      8.0393      2.8428      0.0181    -11.6876     36.4799
   889.2000      8.0393      2.8220      0.0068    -10.4259     35.2351
   889.3000      8.0397      2.7979     -0.0660     -8.9630     32.2844
   889.4000      8.0397      2.7836     -0.0517     -8.0963     31.5965
   889.5000      8.0451      2.7881     -0.0436     -8.3712     35.7346
   889.6000      8.0451      2.8086     -0.0191     -9.6143     41.5818
   889.7000      8.0451      2.8322      0.0190    -11.0404     44.0396
   889.8000      8.0458      2.8438     -0.0095    -11.7480     41.5054
   889.9000      8.0458      2.8406     -0.0459    -11.5517     37.9281
   890.0000      8.0470      2.8269     -0.0119    -10.7240     35.8874
   890.1000      8.0470      2.8143     -0.0450     -9.9571     33.9504
   890.2000      8.0470      2.8167     -0.0495    -10.1016     32.6669
   890.3000      8.0476      2.8289      0.0061    -10.8421     34.4280
   890.4000      8.0476      2.8372     -0.0144    -11.3480     39.6356
   890.5000      8.0442      2.8320      0.0086    -11.0318     45.3912
   890.6000      8.0442      2.8081     -0.0464     -9.5789     47.3183
   890.7000      8.0442      2.7797     -0.0572     -7.8595     45.9732
   890.8000      8.0410      2.7655     -0.0455     -6.9996     44.8935
   890.9000      8.0410      2.7644     -0.0691     -6.9318     43.8878
   891.0000      8.0324      2.7556     -0.0095     -6.4026     40.1422
   891.1000      8.0324      2.7159     -0.0192     -3.9923     35.3941
   891.2000      8.0324      2.6496     -0.0267      0.0258     36.7651
   891.3000      8.0263      2.5825     -0.0600      4.0904     46.9174
   891.4000      8.0263      2.5297     -0.0687      7.2897     59.1383
   891.5000      8.0231      2.4854     -0.0970      9.9786     66.6925
   891.6000      8.0231      2.4416     -0.0667     12.6317     73.2522
   891.7000      8.0231      2.4054     -0.0908     14.8217     84.5525
   891.8000      8.0336      2.3886     -0.0566     15.8404     96.6412
   891.9000      8.0336      2.3917     -0.0280     15.6566    105.3183
   892.0000      8.0478      2.4068      0.0083     14.7409    113.2204
   892.1000      8.0478      2.4237      0.0767     13.7123    121.5983
   892.2000      8.0478      2.4409      0.0469     12.6747    126.5491
   892.3000      8.0440      2.4679      0.1003     11.0386    128.0362
   892.4000      8.0440      2.5034      0.1333      8.8854    132.7897
   892.5000      8.0256      2.5356      0.1511      6.9309    141.5475
   892.6000      8.0256      2.5567      0.1892      5.6573    146.6342
   892.7000      8.0256      2.5615      0.1933      5.3666    146.0290
   892.8000      8.0231      2.5530      0.1772      5.8767    144.3133
   892.9000      8.0231      2.5348      0.1729      6.9846    142.0323
   893.0000      8.0297      2.5059      0.1075      8.7361    136.8197
   893.1000      8.0297      2.4810      0.0575     10.2429    131.7588
   893.2000      8.0297      2.4773      0.0682     10.4653    134.7585
   893.3000      8.0496      2.4848      0.0962     10.0124    141.4952
   893.4000      8.0496      2.4815      0.1255     10.2127    144.2734
   893.5000      8.0558      2.4623      0.1007     11.3744    148.8911
   893.6000      8.0558      2.4359      0.1317     12.9756    158.8983
   893.7000      8.0558      2.4008      0.0902     15.1023    164.7419
   893.8000      8.0551      2.3575      0.0425     17.7266    160.2601
   893.9000      8.0551      2.3268      0.0162     19.5891    152.1618
   894.0000      8.0545      2.3166      0.0991     20.2072    148.0769
   894.1000      8.0545      2.3020      0.0765     21.0931    144.3307
   894.2000      8.0545      2.2640      0.0578     23.3951    136.9893
   894.3000      8.0550      2.2024      0.0705     27.1281    129.9508
   894.4000      8.0550      2.1218      0.0636     32.0110    122.5506
   894.5000      8.0534      2.0385      0.0239     37.0592    112.4919
   894.6000      8.0534      1.9716      0.0050     41.1161    103.4354
   894.7000      8.0534      1.9235     -0.0209     44.0324     96.0199
   894.8000      8.0531      1.8822     -0.0232     46.5348     89.4617
   894.9000      8.0531      1.8387     -0.0469     49.1704     86.5084
   895.0000      8.0510      1.8053     -0.0593     51.1953     87.1982
   895.1000      8.0510      1.8050      0.0377     51.2131     86.1112
   895.2000      8.0510      1.8434      0.0399     48.8859     79.4155
   895.3000      8.0516      1.9082      0.0845     44.9602     70.1348
   895.4000      8.0516      1.9787      0.1537     40.6825     64.3873
   895.5000      8.0469      2.0358      0.1834     37.2250     63.8984
   895.6000      8.0469      2.0764      0.1296     34.7664     65.2603
   895.7000      8.0469      2.1185      0.1131     32.2127     64.0572
   895.8000      8.0410      2.1802      0.1369     28.4750     61.8078
   895.9000      8.0410      2.2607      0.1777     23.5949     64.3505
   896.0000      8.0436      2.3477      0.2166     18.3229     70.2389
   896.1000      8.0436      2.4206      0.2077     13.9025     71.5386
   896.2000      8.0436      2.4566      0.1781     11.7219     68.7068
   896.3000      8.0461      2.4457      0.1756     12.3816     67.9015
   896.4000      8.0461      2.3928      0.1338     15.5856     70.7015
   896.5000      8.0430      2.3172      0.0431     20.1710     72.9036
   896.6000      8.0430      2.2369      0.0320     25.0383     69.5365
   896.7000      8.0430      2.1495     -0.0154     30.3346     64.7677
   896.8000      8.0306      2.0584     -0.1345     35.8534     64.5214
   896.9000      8.0306      1.9773     -0.1095     40.7686     66.6191
   897.0000      8.0276      1.8991     -0.1030     45.5082     67.9803
   897.1000      8.0276      1.8111     -0.1315     50.8416     68.0750
   897.2000      8.0276      1.7188     -0.1715     56.4371     66.4371
   897.3000      8.0330      1.6398     -0.1343     61.2215     67.0531
   897.4000      8.0330      1.5838     -0.0584     64.6195     72.2773
   897.5000      8.0363      1.5559     -0.0946     66.3089     77.1652
   897.6000      8.0363      1.5683     -0.0205     65.5585     77.9620
   897.7000      8.0363      1.6293     -0.0258     61.8601     77.6452
   897.8000      8.0374      1.7414      0.0590     55.0654     79.6671
   897.9000      8.0374      1.8874      0.1906     46.2172     82.5996
   898.0000      8.0346      2.0374      0.2609     37.1243     86.2998
   898.1000      8.0346      2.1782      0.3006     28.5935     92.6023
   898.2000      8.0346      2.3081      0.3347     20.7235    101.2141
   898.3000      8.0516      2.4229      0.3506     13.7661    108.2810
   898.4000      8.0516      2.5117      0.3199      8.3805    109.2312
   898.5000      8.0583      2.5587      0.1827      5.5316    107.9245
   898.6000      8.0583      2.5681      0.0795      4.9660    114.7103
   898.7000      8.0583      2.5646      0.0410      5.1782    125.6825
   898.8000      8.0491      2.5589      0.0694      5.5209    132.0921
   898.9000      8.0491      2.5471      0.0390      6.2346    135.9276
   899.0000      8.0443      2.5283      0.0464      7.3732    136.4577
   899.1000      8.0443      2.5059     -0.0192      8.7348    132.5147
   899.2000      8.0443      2.4872      0.0005      9.8693    129.0893
   899.3000      8.0416      2.4798     -0.0612     10.3126    130.1468
   899.4000      8.0416      2.4909     -0.0155      9.6442    135.4359
   899.5000      8.0358      2.5187     -0.0108      7.9605    138.5464
