~Version Information
VERS.                      2.0: CWLS Log ASCII Standard - VERSION 2.0
WRAP.                       NO: One line per depth step
~Well Information Block
STRT.FT               309.8000: 
STOP.FT              2184.7000: 
STEP.FT                 0.1000: 
NULL.                -999.2500: 
COMP.          Pioneer Natural Resources: COMPANY
WELL.             AMX 13-13 Tr: WELL
FLD.           Purgatoire River: FIELD
LOC.           2401' FSL & 895' FWL--: LOCATION
PROV.                 Colorado: PROVINCE
CNTY.               Las Animas: COUNTRY
SRVC.                Patterson: SERVICE COMPANY
DATE.          Thu Dec 22 15:57:57 2005: LOG DATE
UWI.           05 071 08631 00: UNIQUE WELL ID
~Curve Information Block
DEPT.FT            0 000 00 00: Depth
DCAL.in                       : CDL Caliper
RHOB.g/cc                     : CDL Bulk Density
RHOC.g/cc                     : CDL Density Correction
DPOR.pu                       : CDL Density Porosity
GR.GAPI                       : Gamma Ray
~Parameter Information Block
~A  Depth       DCAL        RHOB        RHOC        DPOR         GR     
# ...
  1541.8000      8.0162      2.5866      0.2091      3.8452    116.2730
  1541.9000      8.0162      2.5758      0.0358      4.4976    107.1837
  1542.0000      8.0044      2.5612      0.0470      5.3816     99.3194
  1542.1000      8.0044      2.5566      0.0377      5.6623     95.8552
  1542.2000      8.0044      2.5611      0.0123      5.3904     95.6539
  1542.3000      7.9965      2.5744      0.0367      4.5827     96.3636
  1542.4000      7.9965      2.5961      0.0112      3.2637    101.0961
  1542.5000      7.9937      2.6226      0.0499      1.6628    110.8734
  1542.6000      7.9937      2.6452      0.0471      0.2907    117.8522
  1542.7000      7.9937      2.6604      0.0821     -0.6297    116.3236
  1542.8000      7.9900      2.6649      0.0655     -0.9053    110.0139
  1542.9000      7.9900      2.6521      0.0491     -0.1244    104.3481
  1543.0000      7.9857      2.6307      0.0187      1.1709    100.4713
  1543.1000      7.9857      2.6277      0.0011      1.3517    100.4611
  1543.2000      7.9857      2.6480      0.0561      0.1234    105.5088
  1543.3000      7.9842      2.6661      0.0699     -0.9759    111.2548
  1543.4000      7.9842      2.6639      0.0742     -0.8400    114.4033
  1543.5000      7.9852      2.6413      0.0627      0.5297    114.5337
  1543.6000      7.9852      2.6205     -0.0012      1.7850    113.0627
  1543.7000      7.9852      2.6282      0.0633      1.3192    113.0382
  1543.8000      7.9850      2.6468      0.1509      0.1963    113.2454
  1543.9000      7.9850      2.6373      0.0948      0.7700    112.4111
  1544.0000      7.9825      2.6025      0.0442      2.8793    111.6801
  1544.1000      7.9825      2.5821     -0.0346      4.1166    108.4771
  1544.2000      7.9825      2.5963     -0.0012      3.2533    101.3428
  1544.3000      7.9788      2.6199      0.0357      1.8238     95.5731
  1544.4000      7.9788      2.6224      0.0220      1.6717     95.5432
  1544.5000      7.9742      2.6019      0.0200      2.9179     97.9619
  1544.6000      7.9742      2.5731     -0.0096      4.6583     97.9092
  1544.7000      7.9742      2.5514     -0.0133      5.9735     93.1659
  1544.8000      7.9678      2.5358      0.0329      6.9188     87.9375
  1544.9000      7.9678      2.5119      0.0744      8.3706     89.1412
  1545.0000      7.9570      2.4887     -0.0471      9.7768     97.4021
  1545.1000      7.9570      2.4908      0.0216      9.6494    105.9648
  1545.2000      7.9570      2.5145      0.0345      8.2138    108.8483
  1545.3000      7.9502      2.5445      0.0583      6.3961    108.6569
  1545.4000      7.9502      2.5757      0.0607      4.5020    107.9210
  1545.5000      7.9648      2.6100      0.0256      2.4227    105.7508
  1545.6000      7.9648      2.6445      0.1164      0.3319    104.1065
  1545.7000      7.9648      2.6668      0.0776     -1.0153    103.6608
  1545.8000      8.0115      2.6790      0.0747     -1.7564    101.7916
  1545.9000      8.0115      2.6862      0.1083     -2.1959     96.4543
  1546.0000      8.0727      2.6773      0.1024     -1.6557     90.0771
  1546.1000      8.0727      2.6474      0.0814      0.1606     87.4468
  1546.2000      8.0727      2.6070      0.0453      2.6038     85.7837
  1546.3000      8.1129      2.5701      0.0391      4.8452     82.6972
  1546.4000      8.1129      2.5467     -0.0120      6.2633     81.2860
  1546.5000      8.1271      2.5444      0.0049      6.4025     83.0390
  1546.6000      8.1271      2.5637     -0.0070      5.2277     87.0632
  1546.7000      8.1271      2.6019     -0.0424      2.9123     92.3266
  1546.8000      8.1309      2.6470      0.0693      0.1840     97.4455
  1546.9000      8.1309      2.6765      0.0651     -1.6068    101.0006
  1547.0000      8.1322      2.6768      0.0583     -1.6241    101.5838
  1547.1000      8.1322      2.6449      0.0785      0.3107    100.8593
  1547.2000      8.1322      2.6015     -0.0454      2.9388    101.3173
  1547.3000      8.1323      2.5874     -0.0213      3.7965    102.1545
  1547.4000      8.1323      2.6144      0.0148      2.1606    104.1131
  1547.5000      8.1320      2.6569      0.0684     -0.4207    107.7230
  1547.6000      8.1320      2.6889      0.0482     -2.3556    109.5891
  1547.7000      8.1320      2.7011      0.0973     -3.0960    109.4868
  1547.8000      8.1327      2.6918      0.0312     -2.5341    110.5677
  1547.9000      8.1327      2.6627      0.0618     -0.7703    111.0140
  1548.0000      8.1331      2.6250     -0.0401      1.5130    106.7128
  1548.1000      8.1331      2.6017     -0.0089      2.9290     99.7542
  1548.2000      8.1331      2.6021     -0.0394      2.9021     97.0250
  1548.3000      8.1336      2.6184     -0.0226      1.9172    100.7926
  1548.4000      8.1336      2.6410      0.0242      0.5443    106.3272
  1548.5000      8.1341      2.6612      0.0499     -0.6777    105.7624
  1548.6000      8.1341      2.6716      0.0711     -1.3064     99.6378
  1548.7000      8.1341      2.6696      0.0575     -1.1903     99.0440
  1548.8000      8.1347      2.6673      0.0109     -1.0460    106.9742
  1548.9000      8.1347      2.6827      0.0619     -1.9836    114.6744
  1549.0000      8.1343      2.7113      0.0532     -3.7156    118.0698
  1549.1000      8.1343      2.7252      0.0949     -4.5552    119.2778
  1549.2000      8.1343      2.7147      0.0181     -3.9224    117.0365
  1549.3000      8.1325      2.7051      0.0243     -3.3369    109.7170
  1549.4000      8.1325      2.7058      0.0600     -3.3837    101.1993
  1549.5000      8.1310      2.7067      0.0056     -3.4389     95.1781
  1549.6000      8.1310      2.7079      0.0066     -3.5078     90.9515
  1549.7000      8.1310      2.7020      0.0388     -3.1537     88.2949
  1549.8000      8.1308      2.6844     -0.0134     -2.0837     90.0391
  1549.9000      8.1308      2.6733     -0.0205     -1.4133     96.4621
  1550.0000      8.1316      2.6756     -0.0504     -1.5502    101.3062
  1550.1000      8.1316      2.6760     -0.0150     -1.5731    100.8460
  1550.2000      8.1316      2.6690     -0.0124     -1.1529    101.9928
  1550.3000      8.1335      2.6638     -0.0019     -0.8389    109.2874
  1550.4000      8.1335      2.6583      0.0665     -0.5011    114.8203
  1550.5000      8.1350      2.6494      0.0381      0.0337    111.8609
  1550.6000      8.1350      2.6536      0.0315     -0.2161    105.1301
  1550.7000      8.1350      2.6755      0.0739     -1.5467     99.3404
  1550.8000      8.1338      2.6942      0.0851     -2.6813     95.0430
  1550.9000      8.1338      2.6882      0.0574     -2.3180     92.4112
  1551.0000      8.1325      2.6553      0.0183     -0.3189     91.1862
  1551.1000      8.1325      2.6164      0.0129      2.0362     92.7783
  1551.2000      8.1325      2.5983     -0.0172      3.1314     95.8120
  1551.3000      8.1341      2.6057      0.0111      2.6835     96.3554
  1551.4000      8.1341      2.6244      0.0460      1.5499     95.3919
  1551.5000      8.1357      2.6402      0.0653      0.5919     96.0382
  1551.6000      8.1357      2.6413      0.0770      0.5263     98.4208
  1551.7000      8.1357      2.6228      0.0342      1.6495    103.2882
  1551.8000      8.1349      2.5983     -0.0058      3.1327    111.4632
  1551.9000      8.1349      2.5884      0.0323      3.7307    118.9282
  1552.0000      8.1336      2.6056     -0.0194      2.6883    119.9251
  1552.1000      8.1336      2.6459      0.0341      0.2483    115.3283
  1552.2000      8.1336      2.6799      0.0947     -1.8106    109.8332
  1552.3000      8.1332      2.6855      0.0709     -2.1528    105.1876
  1552.4000      8.1332      2.6713      0.0707     -1.2903    103.9565
  1552.5000      8.1338      2.6520      0.0805     -0.1229    108.5062
  1552.6000      8.1338      2.6387      0.0162      0.6820    115.0665
  1552.7000      8.1338      2.6435      0.0352      0.3960    119.0420
  1552.8000      8.1349      2.6541      0.0666     -0.2472    121.4533
  1552.9000      8.1349      2.6450      0.0378      0.3031    125.3750
