~Version Information
VERS.                      2.0: CWLS Log ASCII Standard - VERSION 2.0
WRAP.                       NO: One line per depth step
~Well Information Block
STRT.FT                 2.0000: 
STOP.FT               698.7500: 
STEP.FT                 0.2500: 
NULL.                -999.2500: 
COMP.          XTO Energy Inc.: COMPANY
WELL.          Golden Eagle 20-14: WELL
FLD.           Purgatrorie River: FIELD
LOC.           587' FSL & 2478' FWL--: LOCATION
STAT.                       CO: State
CNTY.               Las Animas: COUNTY
CTRY. USA : Country
SECT. 20 : Section
TOWN. 33S : Township
RANG. 67W : Range
SRVC.          Patterson Wireline: SERVICE COMPANY
DATE.          Sat Dec 10 16:49:08 2005: LOG DATE
API.           05 071 08614 00: UNIQUE WELL ID
~Curve Information Block
DEPT.FT            0 000 00 00: Depth
MINMK.                        : Magnetic Mark Ticks
TEMP.degF                     : Downhole Temperature
DTMP.degF                     : Delta Temperature
~Parameter Information Block
~A  Depth      MINMK        TEMP        DTMP    
# ...
   586.5000      1.0000     68.8092     -0.0107
   586.7500      1.0000     68.8067     -0.0103
   587.0000      0.0000     68.8042     -0.0098
   587.2500      0.0000     68.8018     -0.0092
   587.5000      0.0000     68.7995     -0.0081
   587.7500      0.0000     68.7974     -0.0069
   588.0000      0.0000     68.7956     -0.0056
   588.2500      0.0000     68.7941     -0.0040
   588.5000      0.0000     68.7931     -0.0022
   588.7500      0.0000     68.7928     -0.0002
   589.0000      0.0000     68.7930      0.0019
   589.2500      0.0000     68.7938      0.0040
   589.5000      0.0000     68.7951      0.0062
   589.7500      0.0000     68.7970      0.0081
   590.0000      0.0000     68.7993      0.0101
   590.2500      0.0000     68.8022      0.0118
   590.5000      0.0000     68.8054      0.0135
   590.7500      0.0000     68.8091      0.0158
   591.0000      0.0000     68.8131      0.0173
   591.2500      0.0000     68.8175      0.0180
   591.5000      0.0000     68.8222      0.0200
   591.7500      0.0000     68.8286      0.0212
   592.0000      0.0000     68.8339      0.0223
   592.2500      0.0000     68.8381      0.0234
   592.5000      0.0000     68.8454      0.0252
   592.7500      0.0000     68.8515      0.0254
   593.0000      0.0000     68.8578      0.0261
   593.2500      0.0000     68.8642      0.0276
   593.5000      0.0000     68.8725      0.0275
   593.7500      0.0000     68.8793      0.0280
   594.0000      0.0000     68.8862      0.0285
   594.2500      0.0000     68.8932      0.0291
   594.5000      0.0000     68.9004      0.0288
   594.7500      0.0000     68.9076      0.0296
   595.0000      0.0000     68.9149      0.0304
   595.2500      0.0000     68.9224      0.0315
   595.5000      0.0000     68.9302      0.0327
   595.7500      0.0000     68.9384      0.0355
   596.0000      0.0000     68.9470      0.0372
   596.2500      0.0000     68.9561      0.0390
   596.5000      0.0000     68.9658      0.0409
   596.7500      0.0000     68.9785      0.0427
   597.0000      0.0000     68.9892      0.0446
   597.2500      0.0000     69.0004      0.0462
   597.5000      0.0000     69.0120      0.0478
   597.7500      0.0000     69.0239      0.0479
   598.0000      0.0000     69.0361      0.0490
   598.2500      0.0000     69.0486      0.0514
   598.5000      0.0000     69.0613      0.0520
   598.7500      0.0000     69.0743      0.0524
   599.0000      0.0000     69.0871      0.0527
   599.2500      0.0000     69.1032      0.0527
   599.5000      0.0000     69.1161      0.0525
   599.7500      0.0000     69.1288      0.0521
   600.0000      0.0000     69.1415      0.0517
   600.2500      0.0000     69.1540      0.0495
   600.5000      0.0000     69.1663      0.0489
   600.7500      0.0000     69.1785      0.0482
   601.0000      0.0000     69.1904      0.0474
   601.2500      0.0000     69.2023      0.0479
   601.5000      0.0000     69.2138      0.0471
   601.7500      0.0000     69.2251      0.0463
   602.0000      0.0000     69.2363      0.0456
   602.2500      0.0000     69.2499      0.0448
   602.5000      0.0000     69.2606      0.0441
   602.7500      0.0000     69.2712      0.0434
   603.0000      0.0000     69.2816      0.0428
   603.2500      0.0000     69.2918      0.0409
   603.5000      0.0000     69.3020      0.0404
   603.7500      0.0000     69.3120      0.0411
   604.0000      0.0000     69.3219      0.0406
   604.2500      0.0000     69.3317      0.0401
   604.5000      0.0000     69.3414      0.0397
   604.7500      0.0000     69.3533      0.0392
   605.0000      0.0000     69.3628      0.0388
   605.2500      0.0000     69.3721      0.0384
   605.5000      0.0000     69.3813      0.0382
   605.7500      0.0000     69.3905      0.0368
   606.0000      0.0000     69.3995      0.0369
   606.2500      0.0000     69.4085      0.0385
   606.5000      0.0000     69.4177      0.0391
   606.7500      0.0000     69.4270      0.0398
   607.0000      0.0000     69.4367      0.0407
   607.2500      0.0000     69.4491      0.0418
   607.5000      0.0000     69.4595      0.0429
   607.7500      0.0000     69.4701      0.0441
   608.0000      0.0000     69.4809      0.0453
   608.2500      0.0000     69.4921      0.0450
   608.5000      0.0000     69.5036      0.0460
   608.7500      0.0000     69.5152      0.0468
   609.0000      0.0000     69.5272      0.0475
   609.2500      0.0000     69.5392      0.0496
   609.5000      0.0000     69.5514      0.0500
   609.7500      0.0000     69.5636      0.0503
   610.0000      0.0000     69.5759      0.0505
   610.2500      0.0000     69.5913      0.0520
   610.5000      0.0000     69.6036      0.0520
   610.7500      0.0000     69.6159      0.0519
   611.0000      0.0000     69.6282      0.0518
   611.2500      0.0000     69.6433      0.0501
   611.5000      0.0000     69.6554      0.0501
   611.7500      0.0000     69.6674      0.0502
   612.0000      0.0000     69.6795      0.0505
   612.2500      0.0000     69.6916      0.0494
   612.5000      0.0000     69.7038      0.0501
   612.7500      0.0000     69.7164      0.0509
   613.0000      0.0000     69.7292      0.0518
   613.2500      0.0000     69.7422      0.0529
   613.5000      0.0000     69.7555      0.0542
   613.7500      0.0000     69.7692      0.0557
   614.0000      0.0000     69.7831      0.0577
   614.2500      0.0000     69.7974      0.0603
   614.5000      0.0000     69.8122      0.0633
   614.7500      0.0000     69.8279      0.0668
   615.0000      0.0000     69.8447      0.0737
   615.2500      0.0000     69.8627      0.0782
   615.5000      0.0000     69.8820      0.0829
   615.7500      0.0000     69.9028      0.0877
   616.0000      0.0000     69.9306      0.0921
   616.2500      0.0000     69.9538      0.0963
   616.5000      0.0000     69.9781      0.1034
   616.7500      0.0000     70.0032      0.1065
   617.0000      0.0000     70.0290      0.1063
   617.2500      0.0000     70.0553      0.1083
   617.5000      0.0000     70.0888      0.1098
   617.7500      0.0000     70.1159      0.1108
   618.0000      0.0000     70.1431      0.1114
   618.2500      0.0000     70.1704      0.1117
   618.5000      0.0000     70.1976      0.1082
   618.7500      0.0000     70.2248      0.1079
   619.0000      0.0000     70.2518      0.1078
   619.2500      0.0000     70.2786      0.1078
   619.5000      0.0000     70.3052      0.1121
   619.7500      0.0000     70.3318      0.1136
   620.0000      0.0000     70.3587      0.1118
   620.2500      0.0000     70.3861      0.1192
   620.5000      0.0000     70.4219      0.1237
   620.7500      0.0000     70.4520      0.1296
   621.0000      0.0000     70.4754      0.1363
   621.2500      0.0000     70.5170      0.1442
   621.5000      0.0000     70.5527      0.1490
   621.7500      0.0000     70.5909      0.1575
   622.0000      0.0000     70.6314      0.1765
   622.2500      0.0000     70.6744      0.1808
   622.5000      0.0000     70.7199      0.1885
   622.7500      0.0000     70.7670      0.1951
   623.0000      0.0000     70.8285      0.2009
   623.2500      0.0000     70.8785      0.2055
   623.5000      0.0000     70.9297      0.2089
   623.7500      0.0000     70.9812      0.2177
   624.0000      0.0000     71.0332      0.2134
   624.2500      0.0000     71.0854      0.2148
   624.5000      0.0000     71.1377      0.2159
   624.7500      0.0000     71.2024      0.2171
   625.0000      0.0000     71.2552      0.2117
   625.2500      0.0000     71.3080      0.2137
   625.5000      0.0000     71.3616      0.4486
   625.7500      0.0000     71.4154      0.5930
   626.0000      0.0000     71.4566      0.7171
   626.2500      0.0000     71.5128      0.8188
   626.5000      0.0000     72.0349      0.9022
   626.7500      0.0000     72.3883      0.9703
   627.0000      0.0000     72.6895      1.0331
   627.2500      0.0000     72.9456      1.0785
   627.5000      0.0000     73.1660      0.8840
   627.7500      0.0000     73.3561      0.7674
   628.0000      0.0000     73.5228      0.9153
