~Version Information
VERS.                      2.0: CWLS Log ASCII Standard - VERSION 2.0
WRAP.                       NO: One line per depth step
~Well Information Block
STRT.FT               239.2000: 
STOP.FT              1618.0000: 
STEP.FT                 0.1000: 
NULL.                -999.2500: 
COMP.          Pioneer Natural Resources: COMPANY
WELL.          Daytona 31-14 Tr: WELL
FLD.           Purgatoire River: FIELD
LOC.           683' FNL & 1943' FEL: LOCATION
CNTY.               Las Animas: COUNTY
SRVC.                         : SERVICE COMPANY
DATE.          Fri Jan 27 14:32:28 2006: LOG DATE
UWI.           05 071 08681 00: UNIQUE WELL ID
STAT.                 Colorado: STATE
~Curve Information Block
DEPT.FT            0 000 00 00: Depth
DCAL.in                       : CDL Caliper
RHOB.g/cc                     : CDL Bulk Density
RHOC.g/cc                     : CDL Density Correction
DPOR.pu                       : CDL Density Porosity
GR.GAPI                       : Gamma Ray
~Parameter Information Block
~A  Depth       DCAL        RHOB        RHOC        DPOR         GR     
# ...
   698.4000      8.1525      1.8139     -0.0514     50.6742    109.0883
   698.5000      8.2364      1.7008     -0.0435     57.5263     97.1307
   698.6000      8.2364      1.5907     -0.0003     64.1981     88.0676
   698.7000      8.2364      1.4851     -0.0417     70.5986     82.6120
   698.8000      8.2436      1.3971     -0.0237     75.9345     75.7023
   698.9000      8.2436      1.3350     -0.0123     79.6950     65.3369
   699.0000      8.2558      1.2922      0.0126     82.2924     55.2892
   699.1000      8.2558      1.2615     -0.0450     84.1501     47.7718
   699.2000      8.2558      1.2475     -0.0097     84.9983     43.4415
   699.3000      8.2609      1.2537      0.0239     84.6223     43.9549
   699.4000      8.2609      1.2830      0.0133     82.8495     48.5297
   699.5000      8.2650      1.3418      0.0484     79.2833     54.1494
   699.6000      8.2650      1.4270      0.1045     74.1209     59.6600
   699.7000      8.2650      1.5242      0.1701     68.2299     64.4499
   699.8000      8.2631      1.6184      0.2543     62.5219     67.9505
   699.9000      8.2631      1.6958      0.3182     57.8288     69.8967
   700.0000      8.2562      1.7476      0.3562     54.6892     70.1285
   700.1000      8.2562      1.7794      0.3607     52.7652     72.7315
   700.2000      8.2562      1.8098      0.2824     50.9212     80.7773
   700.3000      8.2175      1.8456      0.2580     48.7541     90.0325
   700.4000      8.2175      1.8768      0.1619     46.8607     96.8046
   700.5000      8.2054      1.9104      0.0958     44.8235    101.0775
   700.6000      8.2054      1.9651      0.0742     41.5112    103.7483
   700.7000      8.2054      2.0416      0.1226     36.8753    108.7082
   700.8000      8.2005      2.1261      0.1716     31.7539    118.6789
   700.9000      8.2005      2.2015      0.2046     27.1821    128.1626
   701.0000      8.1978      2.2558      0.1473     23.8917    131.9742
   701.1000      8.1978      2.2910      0.1216     21.7604    133.9480
   701.2000      8.1978      2.3237      0.0281     19.7730    137.5986
   701.3000      8.1969      2.3688      0.0832     17.0400    142.5211
   701.4000      8.1969      2.4102      0.1260     14.5307    146.3566
   701.5000      8.1969      2.4242      0.1314     13.6828    146.5731
   701.6000      8.1969      2.4238      0.0954     13.7089    144.1834
   701.7000      8.1969      2.4359      0.1629     12.9739    142.2076
   701.8000      8.1945      2.4545      0.2123     11.8498    141.1312
   701.9000      8.1945      2.4597      0.1386     11.5346    140.4245
   702.0000      8.1882      2.4574      0.1104     11.6730    141.1071
   702.1000      8.1882      2.4559      0.1490     11.7607    144.3363
   702.2000      8.1882      2.4470      0.1016     12.3057    147.4789
   702.3000      8.1947      2.4281      0.0831     13.4478    147.5577
   702.4000      8.1947      2.4042      0.0452     14.8984    146.4313
   702.5000      8.1921      2.3777      0.0859     16.5015    145.4690
   702.6000      8.1921      2.3497      0.0815     18.1979    142.0279
   702.7000      8.1921      2.3224      0.0672     19.8521    137.7998
   702.8000      8.1960      2.3038      0.0489     20.9816    139.5930
   702.9000      8.1960      2.3068      0.0613     20.8006    145.0331
   703.0000      8.1981      2.3309      0.1395     19.3402    144.9619
   703.1000      8.1981      2.3580      0.1355     17.6942    140.5595
   703.2000      8.1981      2.3826      0.1570     16.2067    138.9596
   703.3000      8.1977      2.4197      0.1658     13.9601    142.4276
   703.4000      8.1977      2.4750      0.2771     10.6038    148.9354
   703.5000      8.1978      2.5211      0.3340      7.8151    153.8227
   703.6000      8.1978      2.5329      0.2713      7.0988    154.3630
   703.7000      8.1978      2.5240      0.2329      7.6375    153.4220
   703.8000      8.2009      2.5051      0.2401      8.7828    153.2543
   703.9000      8.2009      2.4584      0.2326     11.6094    150.7314
   704.0000      8.2100      2.3823      0.1455     16.2235    144.3953
   704.1000      8.2100      2.3026      0.0982     21.0538    138.7306
   704.2000      8.2100      2.2344      0.0633     25.1869    135.9138
   704.3000      8.1915      2.1816      0.0037     28.3861    134.7679
   704.4000      8.1915      2.1515     -0.0026     30.2130    137.8890
   704.5000      8.1892      2.1397      0.0011     30.9284    143.9894
   704.6000      8.1892      2.1212      0.0878     32.0492    144.0983
   704.7000      8.1892      2.0745      0.1115     34.8801    137.2135
   704.8000      8.1638      2.0091      0.0529     38.8433    131.1804
   704.9000      8.1638      1.9430      0.1210     42.8487    129.1983
   705.0000      8.1627      1.8768      0.0260     46.8606    126.2231
   705.1000      8.1627      1.8164     -0.0068     50.5235    119.5891
   705.2000      8.1627      1.7765     -0.0299     52.9396    111.9966
   705.3000      8.1654      1.7690      0.0009     53.3924    107.7447
   705.4000      8.1654      1.7997      0.0679     51.5335    109.4914
   705.5000      8.1652      1.8657      0.1198     47.5343    113.7300
   705.6000      8.1652      1.9544      0.2207     42.1586    116.4011
   705.7000      8.1652      2.0472      0.2223     36.5358    118.6535
   705.8000      8.1637      2.1272      0.2521     31.6861    121.5408
   705.9000      8.1637      2.1841      0.2120     28.2344    122.4138
   706.0000      8.1636      2.2186      0.1810     26.1481    122.2248
   706.1000      8.1636      2.2436      0.1431     24.6294    124.9202
   706.2000      8.1636      2.2726      0.1466     22.8735    127.8466
   706.3000      8.1625      2.3021      0.1129     21.0836    127.0611
   706.4000      8.1625      2.3262      0.0940     19.6253    124.6328
   706.5000      8.1628      2.3486      0.0970     18.2675    124.1112
   706.6000      8.1628      2.3671      0.1342     17.1456    124.5779
   706.7000      8.1628      2.3729      0.1014     16.7911    122.8131
   706.8000      8.1613      2.3632      0.1313     17.3793    121.4075
   706.9000      8.1613      2.3456      0.0836     18.4462    126.7368
   707.0000      8.1614      2.3361      0.0959     19.0253    135.9650
   707.1000      8.1614      2.3432      0.0858     18.5932    141.1271
   707.2000      8.1614      2.3669      0.0640     17.1594    139.1470
   707.3000      8.1634      2.4009      0.1177     15.0950    132.5833
   707.4000      8.1634      2.4317      0.1530     13.2290    127.9259
   707.5000      8.1628      2.4500      0.1817     12.1240    129.2328
   707.6000      8.1628      2.4586      0.2136     11.5976    136.7647
   707.7000      8.1628      2.4660      0.2386     11.1522    146.4788
   707.8000      8.1629      2.4722      0.2749     10.7743    149.1458
   707.9000      8.1629      2.4659      0.2765     11.1599    146.0924
   708.0000      8.1618      2.4437      0.2084     12.5032    148.2134
   708.1000      8.1618      2.4231      0.1399     13.7535    154.6754
   708.2000      8.1618      2.4232      0.1136     13.7477    157.0230
   708.3000      8.1600      2.4423      0.1984     12.5870    152.5721
   708.4000      8.1600      2.4624      0.1598     11.3714    147.6542
   708.5000      8.1559      2.4632      0.2168     11.3240    147.3219
   708.6000      8.1559      2.4377      0.1393     12.8646    145.9964
   708.7000      8.1559      2.4095      0.1096     14.5754    140.0369
   708.8000      8.1542      2.4038      0.1577     14.9201    132.1741
   708.9000      8.1542      2.4186      0.1784     14.0270    127.2412
   709.0000      8.1566      2.4456      0.1345     12.3850    128.6257
   709.1000      8.1566      2.4877      0.1848      9.8360    133.4156
   709.2000      8.1566      2.5332      0.2332      7.0781    138.1609
   709.3000      8.1575      2.5576      0.2251      5.6020    140.0562
   709.4000      8.1575      2.5579      0.2273      5.5846    138.4951
   709.5000      8.1548      2.5473      0.2214      6.2237    137.5404
