~Version Information
VERS.                      2.0: CWLS Log ASCII Standard - VERSION 2.0
WRAP.                       NO: One line per depth step
~Well Information Block
STRT.FT                -8.7500: 
STOP.FT              1727.2500: 
STEP.FT                 0.2500: 
NULL.                -999.2500: 
COMP.          XTO Energy Inc.: COMPANY
WELL.          Apache Canyon 34-08: WELL
FLD.              Vermejo Coal: FIELD
LOC.           1668' FNL & 275' FEL: LOCATION
STAT.                       CO: State
CNTY.               Las Animas: COUNTY
CTRY. USA : Country
SECT. 34 : Section
TOWN. 33S : Township
RANG. 67W : Range
SRVC.          Patterson Wireline: SERVICE COMPANY
DATE.          Mon Jan 09 09:34:21 2006: LOG DATE
API.           05 071 08541 00: UNIQUE WELL ID
~Curve Information Block
DEPT.FT            0 000 00 00: Depth
CCL.                          : Casing Collar Locator
TT3.usec                      : CBL 3' Travel Time
AMP3.mV                       : CBL 3' Amplitude
GR.GAPI                       : Gamma Ray
~Parameter Information Block
~A  Depth       CCL         TT3         AMP3         GR     
# ...
  1699.7500      0.0000    713.6876      2.8188     93.6378
  1700.0000      0.0000    717.5776      2.8179     93.1110
  1700.2500      0.0000    716.1927      2.8162     94.2351
  1700.5000      0.0000    709.8094      2.8228     96.8482
  1700.7500      0.0000    703.1346      2.8396     99.8629
  1701.0000      0.0000    699.9993      2.8585    102.2414
  1701.2500      0.0000    699.3310      2.8692    103.6910
  1701.5000      0.0000    697.3726      2.8679    104.4507
  1701.7500      0.0000    692.5011      2.8569    104.8158
  1702.0000      0.0000    686.7213      2.8404    105.1483
  1702.2500      0.0000    683.2898      2.8222    105.9914
  1702.5000      0.0000    683.8574      2.8057    107.6327
  1702.7500      0.0000    687.5563      2.7930    109.5170
  1703.0000      0.0000    691.9229      2.7837    110.3799
  1703.2500      0.0000    694.5377      2.7774    109.2580
  1703.5000      0.0000    694.3405      2.7755    106.6290
  1703.7500      0.0000    691.9663      2.7805    104.4456
  1704.0000      0.0000    688.9932      2.7923    104.5799
  1704.2500      0.0000    686.8828      2.8062    107.1621
  1704.5000      0.0000    686.3491      2.8158    110.6442
  1704.7500      0.0000    687.0136      2.8185    113.2251
  1705.0000      0.0000    687.3112      2.8170    113.9035
  1705.2500      0.0000    685.3928      2.8166    112.6378
  1705.5000      0.0000    681.0526      2.8212    110.1557
  1705.7500      0.0000    676.6780      2.8306    107.5888
  1706.0000      0.0000    675.6157      2.8416    105.9973
  1706.2500      0.0000    679.5428      2.8501    106.0428
  1706.5000      0.0000    687.5992      2.8534    107.7215
  1706.7500      0.0000    697.4210      2.8531    110.1200
  1707.0000      0.0000    706.4222      2.8555    111.9301
  1707.2500      0.0000    712.7678      2.8674    112.6710
  1707.5000      0.0000    716.1118      2.8884    113.0159
  1707.7500      0.0000    717.4569      2.9108    113.5762
  1708.0000      0.0000    718.1243      2.9276    113.9142
  1708.2500      0.0000    719.3665      2.9392    113.1698
  1708.5000      0.0000    723.0754      2.9512    111.1578
  1708.7500      0.0000    731.4617      2.9657    108.3142
  1709.0000      0.0000    744.4753      2.9778    104.9967
  1709.2500      0.0000    758.0442      2.9811    101.6364
  1709.5000      0.0000    766.3386      2.9776     99.2705
  1709.7500      0.0000    765.1119      2.9778     98.8375
  1710.0000      0.0000    751.4284      2.9904     99.8428
  1710.2500      0.0000    722.3975      3.0101    100.4967
  1710.5000      0.0000    678.5710      3.0206     99.2692
  1710.7500      0.0000    628.7395      3.0086     95.7935
  1711.0000      0.0000    588.0487      2.9755     90.5611
  1711.2500      0.0000    569.7164      2.9374     84.6317
  1711.5000      0.0000    577.9157      2.9185     79.5990
  1711.7500      0.0000    606.4802      2.9403     76.8498
  1712.0000      0.0000    643.5469      3.0092     76.3813
  1712.2500      0.0000    679.2948      3.1069     76.5633
  1712.5000      0.0000    710.1812      3.1944     75.0281
  1712.7500      0.0000    735.5488      3.2311     69.6846
  1713.0000      0.0000    752.3411      3.1981     59.4965
  1713.2500      0.0000    756.0335      3.1081     45.2547
  1713.5000      0.0000    746.1017      2.9977     29.7508
  1713.7500      0.0000    728.2831      2.9083     16.4653
  1714.0000      0.0000    711.0110      2.8663      7.5124
  1714.2500      0.0000    700.0084      2.8720      2.7817
  1714.5000      0.0000    695.8634      2.9029      0.8263
  1714.7500      0.0000    695.7263      2.9335      0.1949
  1715.0000      0.0000    696.5775      2.9542      0.0359
  1715.2500      0.0000    697.0063      2.9736      0.0048
  1715.5000      0.0000    696.9597      3.0008      0.0000
  1715.7500      0.0000    696.7910      3.0291   -999.2500
  1716.0000      0.0000    696.7158      3.0410   -999.2500
  1716.2500      0.0000    696.7412      3.0272   -999.2500
  1716.5000      0.0000    696.7584      2.9960   -999.2500
  1716.7500      0.0000    696.6027      2.9644   -999.2500
  1717.0000      0.0000    696.0607      2.9426   -999.2500
  1717.2500      0.0000    694.8659      2.9263   -999.2500
  1717.5000      0.0000    692.2275      2.9019   -999.2500
  1717.7500      0.0000    685.1853      2.8574   -999.2500
  1718.0000      0.0000    665.7488      2.7849   -999.2500
  1718.2500      0.0000    620.0278      2.6756   -999.2500
  1718.5000      0.0000    534.9274      2.5190   -999.2500
  1718.7500      0.0000    411.7117      2.3173   -999.2500
  1719.0000      0.0000    273.1589      2.0992   -999.2500
  1719.2500      0.0000    152.0033      1.9093   -999.2500
  1719.5000      0.0000     69.5115      1.7788   -999.2500
  1719.7500      0.0000     25.7425      1.7087   -999.2500
  1720.0000      0.0000      7.6382      1.6793   -999.2500
  1720.2500      0.0000      1.7995      1.6697   -999.2500
  1720.5000      0.0000      0.3315      1.6672   -999.2500
  1720.7500      0.0000      0.0434      1.6667   -999.2500
  1721.0000      0.0000   -999.2500   -999.2500   -999.2500
  1721.2500      0.0000   -999.2500   -999.2500   -999.2500
  1721.5000      0.0000   -999.2500   -999.2500   -999.2500
  1721.7500      0.0000   -999.2500   -999.2500   -999.2500
  1722.0000      0.0000   -999.2500   -999.2500   -999.2500
  1722.2500      0.0000   -999.2500   -999.2500   -999.2500
  1722.5000      0.0000   -999.2500   -999.2500   -999.2500
  1722.7500      0.0000   -999.2500   -999.2500   -999.2500
  1723.0000      0.0000   -999.2500   -999.2500   -999.2500
  1723.2500      0.0000   -999.2500   -999.2500   -999.2500
  1723.5000      0.0000   -999.2500   -999.2500   -999.2500
  1723.7500      0.0000   -999.2500   -999.2500   -999.2500
  1724.0000      0.0000   -999.2500   -999.2500   -999.2500
  1724.2500      0.0000   -999.2500   -999.2500   -999.2500
  1724.5000      0.0000   -999.2500   -999.2500   -999.2500
  1724.7500      0.0000   -999.2500   -999.2500   -999.2500
  1725.0000      0.0000   -999.2500   -999.2500   -999.2500
  1725.2500      0.0000   -999.2500   -999.2500   -999.2500
  1725.5000      0.0000   -999.2500   -999.2500   -999.2500
  1725.7500      0.0000   -999.2500   -999.2500   -999.2500
  1726.0000      0.0000   -999.2500   -999.2500   -999.2500
  1726.2500      2.0000   -999.2500   -999.2500   -999.2500
  1726.5000      0.0000   -999.2500   -999.2500   -999.2500
  1726.7500   -999.2500   -999.2500   -999.2500   -999.2500
  1727.0000   -999.2500   -999.2500   -999.2500   -999.2500
  1727.2500   -999.2500   -999.2500   -999.2500   -999.2500
