~Version Information
VERS.                      2.0: CWLS Log ASCII Standard - VERSION 2.0
WRAP.                       NO: One line per depth step
~Well Information Block
STRT.FT                10.0000: 
STOP.FT              1485.0000: 
STEP.FT                 0.1000: 
NULL.                -999.2500: 
COMP.          Pioneer Natural Resources: COMPANY
WELL.          Old Faithful 21-2: WELL
FLD.           Purgatorie River: FIELD
LOC.           806' FNL & 2509' FWL: LOCATION
PROV.                 Colorado: PROVINCE
CNTY.               Las Animas: COUNTRY
SRVC.                Patterson: SERVICE COMPANY
DATE.          Wed Dec 07 13:17:12 2005: LOG DATE
UWI.                          : UNIQUE WELL ID
~Curve Information Block
DEPT.FT            0 000 00 00: Depth
DCAL.in                       : CDL Caliper
RHOB.g/cc                     : CDL Bulk Density
RHOC.g/cc                     : CDL Density Correction
DPOR.pu                       : CDL Density Porosity
GR.GAPI                       : Gamma Ray
NPOR.pu                       : Neutron Porosity
~Parameter Information Block
~A  Depth       DCAL        RHOB        RHOC        DPOR         GR         NPOR    
# ...
   595.6000      8.2810      2.6750      0.0472     -1.5153    127.2569     23.6274
   595.7000      8.2810      2.6546      0.0267     -0.2768    129.9302     23.6818
   595.8000      8.2766      2.6343      0.0020      0.9545    128.4054     23.6105
   595.9000      8.2766      2.6221     -0.0057      1.6903    124.3203     23.4333
   596.0000      8.2687      2.6136      0.0139      2.2044    119.5964     23.4611
   596.1000      8.2687      2.6066      0.0024      2.6318    115.2216     23.7712
   596.2000      8.2687      2.6077      0.0158      2.5664    112.2125     24.0663
   596.3000      8.2815      2.6097      0.0239      2.4434    110.1018     24.0475
   596.4000      8.2815      2.6005      0.0275      3.0013    109.0550     23.7698
   596.5000      8.2906      2.5930     -0.0422      3.4518    109.9451     23.4715
   596.6000      8.2906      2.5991      0.0460      3.0834    112.1548     23.3319
   596.7000      8.2906      2.5994      0.0430      3.0665    114.0748     23.3623
   596.8000      8.3064      2.5834     -0.0208      4.0383    115.8245     23.5396
   596.9000      8.3064      2.5630     -0.0083      5.2741    118.7882     23.7156
   597.0000      8.3093      2.5468     -0.0279      6.2525    121.9823     23.7173
   597.1000      8.3093      2.5419     -0.0098      6.5522    123.0091     23.5813
   597.2000      8.3093      2.5474      0.0268      6.2205    122.0456     23.4548
   597.3000      8.2882      2.5521     -0.0153      5.9306    121.5062     23.3624
   597.4000      8.2882      2.5533     -0.0085      5.8577    122.6845     23.2836
   597.5000      8.2947      2.5516      0.0294      5.9638    123.5185     23.3751
   597.6000      8.2947      2.5493     -0.0415      6.1057    122.6673     23.4785
   597.7000      8.2947      2.5527     -0.0049      5.8966    122.5757     23.2478
   597.8000      8.3134      2.5608     -0.0085      5.4076    124.2746     22.8989
   597.9000      8.3134      2.5680      0.0136      4.9707    127.2812     22.6757
   598.0000      8.2937      2.5744     -0.0426      4.5810    131.4989     22.5249
   598.1000      8.2937      2.5892      0.0064      3.6872    133.4214     22.5625
   598.2000      8.2937      2.6130      0.0196      2.2451    129.9849     22.7678
   598.3000      8.3090      2.6376      0.0437      0.7514    123.9229     22.8446
   598.4000      8.3090      2.6594      0.0451     -0.5682    119.0973     22.8146
   598.5000      8.3036      2.6762      0.0325     -1.5858    117.2658     22.8772
   598.6000      8.3036      2.6796      0.0589     -1.7961    118.2056     22.9720
   598.7000      8.3036      2.6606      0.0678     -0.6413    119.6762     23.0643
   598.8000      8.3118      2.6286     -0.0309      1.2993    120.0804     23.1575
   598.9000      8.3118      2.6055      0.0064      2.6969    120.2374     23.1331
   599.0000      8.3135      2.5972      0.0278      3.2014    121.0932     23.0468
   599.1000      8.3135      2.5971      0.0242      3.2081    122.2748     23.0438
   599.2000      8.3135      2.6060     -0.0015      2.6686    124.8471     23.2034
   599.3000      8.3083      2.6299      0.0114      1.2152    128.5013     23.5289
   599.4000      8.3083      2.6581      0.0847     -0.4908    129.9794     23.8568
   599.5000      8.3169      2.6643      0.0919     -0.8651    128.2312     24.0322
   599.6000      8.3169      2.6465      0.0517      0.2121    126.2760     24.0375
   599.7000      8.3169      2.6260      0.0413      1.4519    127.1238     23.8848
   599.8000      8.3188      2.6096      0.0793      2.4459    129.2930     23.6749
   599.9000      8.3188      2.5916      0.0206      3.5384    129.9194     23.5870
   600.0000      8.3145      2.5736      0.0197      4.6282    129.3382     23.5254
   600.1000      8.3145      2.5618      0.0161      5.3432    127.6737     23.3324
   600.2000      8.3145      2.5611      0.0526      5.3878    125.5976     23.0744
   600.3000      8.3201      2.5640      0.0240      5.2113    125.3751     22.7350
   600.4000      8.3201      2.5623      0.0783      5.3142    126.1556     22.3977
   600.5000      8.3182      2.5658      0.0220      5.1011    125.9462     22.2239
   600.6000      8.3182      2.5797      0.0990      4.2607    126.5097     22.0607
   600.7000      8.3182      2.5832      0.0754      4.0493    128.6270     21.7205
   600.8000      8.3179      2.5708      0.0496      4.8019    130.3554     21.4941
   600.9000      8.3179      2.5667      0.0382      5.0461    131.6981     21.5935
   601.0000      8.3264      2.5810      0.0711      4.1840    132.8776     21.7147
   601.1000      8.3264      2.5881      0.1209      3.7493    133.8694     21.5580
   601.2000      8.3264      2.5700      0.0578      4.8474    134.8214     21.2916
   601.3000      8.3148      2.5461      0.0354      6.2956    134.1493     21.2825
   601.4000      8.3148      2.5408     -0.0015      6.6160    132.1282     21.5300
   601.5000      8.3227      2.5569      0.0184      5.6430    131.6684     21.8194
   601.6000      8.3227      2.5792      0.0210      4.2891    131.8861     22.0370
   601.7000      8.3227      2.5874      0.0751      3.7968    130.3829     22.1500
   601.8000      8.3100      2.5792      0.0246      4.2883    129.2334     22.3533
   601.9000      8.3100      2.5845      0.0016      3.9716    130.9315     22.7244
   602.0000      8.3176      2.6256      0.0742      1.4779    134.0996     22.9043
   602.1000      8.3176      2.6796      0.1225     -1.7922    134.5894     22.8383
   602.2000      8.3176      2.7180      0.0492     -4.1216    130.4970     22.9361
   602.3000      8.3033      2.7497      0.0609     -6.0417    125.5984     23.3527
   602.4000      8.3033      2.7925      0.0717     -8.6392    121.7995     23.8911
   602.5000      8.3009      2.8450      0.1116    -11.8165    119.1195     24.3104
   602.6000      8.3009      2.8992      0.1045    -15.1012    120.4759     24.4826
   602.7000      8.3009      2.9530      0.0910    -18.3618    125.6237     24.5028
   602.8000      8.3007      2.9880      0.1518    -20.4840    128.7599     24.5331
   602.9000      8.3007      2.9788      0.1208    -19.9279    127.1017     24.5609
   603.0000      8.3052      2.9363      0.0812    -17.3487    123.5689     24.6045
   603.1000      8.3052      2.8931     -0.0127    -14.7360    122.3151     24.7382
   603.2000      8.3052      2.8609      0.0059    -12.7799    123.3386     24.8360
   603.3000      8.2824      2.8254     -0.0174    -10.6321    123.5192     24.6743
   603.4000      8.2824      2.7810     -0.0525     -7.9416    122.4502     24.3273
   603.5000      8.2819      2.7395     -0.0644     -5.4217    120.8572     24.0718
   603.6000      8.2819      2.7047     -0.0055     -3.3167    118.5520     23.9603
   603.7000      8.2819      2.6705     -0.0069     -1.2444    117.3453     24.0673
   603.8000      8.3009      2.6417     -0.0172      0.5023    119.3719     24.4512
   603.9000      8.3009      2.6292     -0.0160      1.2632    124.1549     24.7545
   604.0000      8.2986      2.6318     -0.0100      1.1055    127.4071     24.6493
   604.1000      8.2986      2.6410     -0.0358      0.5428    125.5670     24.2210
   604.2000      8.2986      2.6475      0.0396      0.1545    122.5516     23.8176
   604.3000      8.3120      2.6380      0.0177      0.7299    123.3336     23.7216
   604.4000      8.3120      2.6165      0.0162      2.0319    126.0589     23.6144
   604.5000      8.3310      2.5957      0.0548      3.2897    125.8562     23.2043
   604.6000      8.3310      2.5808     -0.0122      4.1935    122.4735     22.7853
   604.7000      8.3310      2.5785     -0.0015      4.3349    120.7236     22.6751
   604.8000      8.3365      2.5873      0.0377      3.7980    122.5090     22.8276
   604.9000      8.3365      2.5929      0.0253      3.4623    125.3036     22.9626
   605.0000      8.3496      2.5863      0.0395      3.8627    127.6899     23.1001
   605.1000      8.3496      2.5705      0.0370      4.8202    129.2461     23.3245
