~Version Information
VERS.                      2.0: CWLS Log ASCII Standard - VERSION 2.0
WRAP.                       NO: One line per depth step
~Well Information Block
STRT.FT                -8.2500: 
STOP.FT              1580.5000: 
STEP.FT                 0.2500: 
NULL.                -999.2500: 
COMP.          Pioneer Natural Resources: COMPANY
WELL.          Daytona 31-14 Tr: WELL
FLD.           Purgatorie River: FIELD
LOC.           683' FNL & 1943' FEL--: LOCATION
CNTY.               Las Animas: COUNTY
SRVC.          Patterson Wireline: SERVICE COMPANY
DATE.          Thu Feb 02 08:47:22 2006: LOG DATE
UWI.           05 071 08681 00: UNIQUE WELL ID
STAT.                       CO: STATE
~Curve Information Block
DEPT.FT            0 000 00 00: Depth
CCL.                          : Casing Collar Locator
TT3.usec                      : CBL 3' Travel Time
AMP3.mV                       : CBL 3' Amplitude
GR.GAPI                       : Gamma Ray
~Parameter Information Block
~A  Depth       CCL         TT3         AMP3         GR     
# ...
  1030.2500      0.0000    678.5763      5.5953    102.5022
  1030.5000      0.0000    678.9558      5.6282    103.9954
  1030.7500      0.0000    680.5953      5.6669    102.3699
  1031.0000      0.0000    684.6335      5.7018     97.6888
  1031.2500      0.0000    691.6009      5.7232     91.6451
  1031.5000      0.0000    700.0746      5.7256     86.6470
  1031.7500      0.0000    706.7178      5.7086     84.2167
  1032.0000      0.0000    708.9943      5.6769     83.9448
  1032.2500      0.0000    708.2517      5.6357     83.9796
  1032.5000      0.0000    709.0985      5.5882     82.7520
  1032.7500      0.0000    715.0627      5.5352     80.2918
  1033.0000      0.0000    725.2968      5.4783     77.8559
  1033.2500      0.0000    735.6307      5.4192     76.4931
  1033.5000      0.0000    741.9096      5.3578     76.1270
  1033.7500      0.0000    741.8994      5.2934     75.8762
  1034.0000      0.0000    735.2557      5.2295     74.9899
  1034.2500      0.0000    723.3725      5.1740     73.4007
  1034.5000      0.0000    709.3859      5.1331     71.5315
  1034.7500      0.0000    697.0429      5.1071     69.7972
  1035.0000      0.0000    688.6701      5.0926     68.3859
  1035.2500      0.0000    684.2367      5.0855     67.3683
  1035.5000      0.0000    682.2994      5.0817     66.7819
  1035.7500      0.0000    681.4578      5.0763     66.4748
  1036.0000      0.0000    680.9868      5.0646     66.0247
  1036.2500      0.0000    680.6595      5.0440     65.0509
  1036.5000      0.0000    680.4166      5.0153     63.6031
  1036.7500      0.0000    680.2206      4.9818     62.1135
  1037.0000      0.0000    680.0527      4.9476     61.0234
  1037.2500      0.0000    679.9322      4.9159     60.5948
  1037.5000      0.0000    679.8943      4.8880     60.9950
  1037.7500      0.0000    679.9474      4.8629     62.3506
  1038.0000      0.0000    679.9984      4.8400     64.5637
  1038.2500      0.0000    679.7382      4.8202     66.9552
  1038.5000      0.0000    678.5172      4.8039     68.3060
  1038.7500      0.0000    675.4140      4.7886     67.9259
  1039.0000      0.0000    669.8143      4.7739     66.7430
  1039.2500      0.0000    662.4468      4.7667     66.6383
  1039.5000      0.0000    655.8886      4.7797     68.5076
  1039.7500      0.0000    653.3659      4.8201     71.4270
  1040.0000      0.0000    656.3599      4.8805     73.6916
  1040.2500      0.0000    663.3704      4.9422     74.2293
  1040.5000      0.0000    671.2941      4.9877     73.0544
  1040.7500      0.0000    678.0301      5.0106     70.8391
  1041.0000      0.0000    683.7493      5.0126     68.3009
  1041.2500      0.0000    689.9451      4.9969     66.0682
  1041.5000      0.0000    697.4780      4.9657     64.8893
  1041.7500      0.0000    705.4279      4.9255     65.4867
  1042.0000      0.0000    711.4045      4.8898     67.9684
  1042.2500      0.0000    712.4039      4.8740     71.5460
  1042.5000      0.0000    704.8413      4.8863     75.0113
  1042.7500      0.0000    684.2104      4.9255     77.5265
  1043.0000      0.0000    646.6785      4.9833     78.8355
  1043.2500      0.0000    593.2528      5.0481     78.7659
  1043.5000      0.0000    532.4366      5.1084     76.9250
  1043.7500      0.0000    476.6465      5.1545     73.2812
  1044.0000      0.0000    434.7297      5.1810     68.9140
  1044.2500      0.0000    408.1374      5.1885     65.7148
  1044.5000      0.0000    393.2808      5.1841     65.0341
  1044.7500      0.0000    385.6671      5.1790     66.6852
  1045.0000      0.0000    382.0002      5.1832     69.3145
  1045.2500      0.0000    380.4096      5.2015     71.5286
  1045.5000      0.0000    380.3150      5.2321     72.5587
  1045.7500      0.0000    382.7259      5.2677     72.2452
  1046.0000      0.0000    391.0612      5.2973     70.7814
  1046.2500      0.0000    411.3496      5.3095     68.6669
  1046.5000      0.0000    449.3405      5.2934     66.8826
  1046.7500      0.0000    504.3791      5.2414     66.5437
  1047.0000      0.0000    565.6190      5.1583     67.7286
  1047.2500      0.0000    616.9218      5.0671     68.9059
  1047.5000      0.0000    647.5670      4.9998     68.1737
  1047.7500      0.0000    658.1875      4.9763     65.1090
  1048.0000      0.0000    657.0013      4.9935     61.1707
  1048.2500      0.0000    652.0516      5.0320     58.4474
  1048.5000      0.0000    647.1212      5.0711     58.0633
  1048.7500      0.0000    642.8923      5.0948     59.4538
  1049.0000      0.0000    639.6824      5.0881     60.9564
  1049.2500      0.0000    638.3385      5.0310     61.1554
  1049.5000      0.0000    639.3698      4.9041     59.7771
  1049.7500      0.0000    642.3884      4.7124     57.5331
  1050.0000      0.0000    647.0615      4.5087     55.4258
  1050.2500      0.0000    654.6099      4.3750     54.1387
  1050.5000      0.0000    667.6872      4.3503     53.6240
  1050.7500      0.0000    687.7947      4.3850     53.0361
  1051.0000      0.0000    712.3047      4.3981     51.3482
  1051.2500      0.0000    734.6567      4.3674     48.2753
  1051.5000      0.0000    748.6455      4.3348     44.5504
  1051.7500      0.0000    752.3777      4.3374     41.3875
  1052.0000     -2.0000    747.3775      4.3671     39.8301
  1052.2500      2.0000    735.8993      4.3926     40.4274
  1052.5000      0.0000    721.9336      4.4050     43.1897
  1052.7500      0.0000    712.3712      4.4390     47.7451
  1053.0000      0.0000    712.3586      4.5406     53.5754
  1053.2500      0.0000    719.7518      4.7017     60.1849
  1053.5000      0.0000    726.9406      4.8478     67.4391
  1053.7500      0.0000    727.6577      4.9186     75.9616
  1054.0000      0.0000    720.8711      4.9425     86.7488
  1054.2500      0.0000    709.5217      5.0030     99.8555
  1054.5000      0.0000    697.0693      5.1470    113.6265
  1054.7500      0.0000    684.6451      5.3476    125.6669
  1055.0000      0.0000    670.1323      5.5407    134.5958
  1055.2500      0.0000    649.8845      5.6730    140.5997
  1055.5000      0.0000    622.6282      5.7206    144.2794
  1055.7500      0.0000    592.3304      5.6869    145.3260
  1056.0000      0.0000    566.1558      5.5986    142.7406
  1056.2500      0.0000    548.8080      5.4985    136.4350
  1056.5000      0.0000    539.6074      5.4267    128.2299
  1056.7500      0.0000    535.1621      5.4024    120.9938
  1057.0000      0.0000    533.6733      5.4215    116.8785
  1057.2500      0.0000    536.3332      5.4658    116.2757
  1057.5000      0.0000    545.6841      5.5143    117.9134
  1057.7500      0.0000    563.1324      5.5523    119.5974
  1058.0000      0.0000    587.3048      5.5758    119.3314
  1058.2500      0.0000    614.0696      5.5901    116.3762
  1058.5000      0.0000    638.1168      5.6027    111.4468
  1058.7500      0.0000    654.8708      5.6155    105.7879
  1059.0000      0.0000    661.3757      5.6232     99.9889
  1059.2500      0.0000    656.1857      5.6182     93.7411
  1059.5000      0.0000    640.2507      5.5997     86.7139
  1059.7500      0.0000    619.3960      5.5785     79.4432
  1060.0000      0.0000    604.2764      5.5688     73.1681
  1060.2500      0.0000    603.9579      5.5767     68.9205
  1060.5000      0.0000    617.9810      5.5965     67.0447
  1060.7500      0.0000    636.4263      5.6182     67.4645
  1061.0000      0.0000    648.3012      5.6346     69.8701
  1061.2500      0.0000    649.0639      5.6432     73.4346
  1061.5000      0.0000    641.7153      5.6436     76.7063
  1061.7500      0.0000    633.4536      5.6330     78.3189
  1062.0000      0.0000    630.7175      5.6051     78.0730
  1062.2500      0.0000    634.2308      5.5570     77.1842
  1062.5000      0.0000    637.8738      5.4980     77.1428
  1062.7500      0.0000    633.6802      5.4498     78.1901
  1063.0000      0.0000    618.2521      5.4354     79.0293
  1063.2500      0.0000    594.0310      5.4654     78.0852
  1063.5000      0.0000    565.8595      5.5307     75.1153
