~Version Information
VERS.                      2.0: CWLS Log ASCII Standard - VERSION 2.0
WRAP.                       NO: One line per depth step
~Well Information Block
STRT.FT               580.0000: 
STOP.FT              1029.0000: 
STEP.FT                 0.1000: 
NULL.                -999.2500: 
COMP.          Pioneer Natural Resources: COMPANY
WELL.             Quartz 13-22: WELL
FLD.           Purgatoire River: FIELD
LOC.           1933' FSL & 675' FWL: LOCATION
PROV.                 Colorado: PROVINCE
CNTY.               Las Animas: COUNTRY
SRVC.                Patterson: SERVICE COMPANY
DATE.          Fri Dec 16 10:30:09 2005: LOG DATE
UWI.           05 071 08638 00: UNIQUE WELL ID
~Curve Information Block
DEPT.FT            0 000 00 00: Depth
DCAL.in                       : CDL Caliper
RHOB.g/cc                     : CDL Bulk Density
RHOC.g/cc                     : CDL Density Correction
DPOR.pu                       : CDL Density Porosity
GR.GAPI                       : Gamma Ray
NPOR.pu                       : Neutron Porosity
~Parameter Information Block
~A  Depth       DCAL        RHOB        RHOC        DPOR         GR         NPOR    
# ...
   954.4000      7.9404      2.4925      0.0695      9.5470    101.7563     21.5981
   954.5000      7.9437      2.4714      0.0356     10.8266    103.5298     21.5181
   954.6000      7.9437      2.4467      0.0187     12.3185    102.2605     21.5036
   954.7000      7.9437      2.4307     -0.0165     13.2921     97.8208     21.4837
   954.8000      7.9378      2.4293      0.0158     13.3765     94.0212     21.4717
   954.9000      7.9378      2.4339     -0.0226     13.0957     95.6186     21.6804
   955.0000      7.9388      2.4409     -0.0242     12.6697    102.0923     22.0983
   955.1000      7.9388      2.4463      0.0077     12.3461    105.1666     22.5398
   955.2000      7.9388      2.4459      0.0040     12.3722    101.3987     22.8894
   955.3000      7.9396      2.4477     -0.0176     12.2621     99.9355     23.0024
   955.4000      7.9396      2.4589      0.0499     11.5824    108.0662     22.7825
   955.5000      7.9472      2.4713      0.0307     10.8305    116.8099     22.4225
   955.6000      7.9472      2.4735      0.0642     10.6991    114.5652     22.1189
   955.7000      7.9472      2.4706      0.0254     10.8702    104.0217     21.8825
   955.8000      7.9438      2.4803      0.0431     10.2832     93.6837     21.8570
   955.9000      7.9438      2.5010      0.0702      9.0281     87.6657     22.1766
   956.0000      7.9398      2.5115      0.0554      8.3956     85.6819     22.6158
   956.1000      7.9398      2.5030      0.0543      8.9097     85.0605     22.9839
   956.2000      7.9398      2.4863      0.0565      9.9204     84.5280     23.3297
   956.3000      7.9471      2.4796      0.0030     10.3286     85.4491     23.5200
   956.4000      7.9471      2.4920     -0.0075      9.5745     87.5699     23.3780
   956.5000      7.9415      2.5040      0.0753      8.8479     91.2754     23.0812
   956.6000      7.9415      2.4976      0.0196      9.2341     96.9407     22.8703
   956.7000      7.9415      2.4827     -0.0015     10.1367    102.5622     22.8540
   956.8000      7.9494      2.4720     -0.0017     10.7850    104.3821     22.9954
   956.9000      7.9494      2.4684     -0.0168     11.0040    101.7553     23.0818
   957.0000      7.9448      2.4672      0.0144     11.0759    103.3121     22.7839
   957.1000      7.9448      2.4629      0.0014     11.3371    111.0747     22.2232
   957.2000      7.9448      2.4611      0.0170     11.4473    113.5461     21.7949
   957.3000      7.9544      2.4689     -0.0034     10.9772    108.7387     21.4449
   957.4000      7.9544      2.4824      0.0072     10.1591    106.7967     21.1008
   957.5000      7.9470      2.4906      0.0364      9.6603    107.5094     20.9694
   957.6000      7.9470      2.4892      0.0142      9.7469    102.8545     21.1480
   957.7000      7.9470      2.4874      0.0134      9.8556     94.7419     21.3161
   957.8000      7.9490      2.4915      0.0581      9.6068     91.4095     21.2256
   957.9000      7.9490      2.5003      0.0083      9.0740     93.6934     21.2048
   958.0000      7.9476      2.5110      0.0544      8.4215     96.6998     21.6852
   958.1000      7.9476      2.5133      0.0487      8.2870     99.7870     22.3925
   958.2000      7.9476      2.4981      0.0676      9.2043    104.5984     22.6374
   958.3000      7.9614      2.4678      0.0208     11.0407    109.1092     22.3325
   958.4000      7.9614      2.4342     -0.0053     13.0818    109.1201     21.9346
   958.5000      7.9641      2.4176     -0.0458     14.0855    100.3310     21.6926
   958.6000      7.9641      2.4356     -0.0066     12.9933     85.9654     21.5369
   958.7000      7.9641      2.4707      0.0702     10.8683     76.9198     21.4651
   958.8000      7.9642      2.4864      0.0321      9.9152     76.1760     21.5794
   958.9000      7.9642      2.4727      0.0473     10.7464     80.4839     21.7090
   959.0000      7.9512      2.4477     -0.0029     12.2615     86.3699     21.7686
   959.1000      7.9512      2.4339      0.0023     13.0951     90.9474     21.8861
   959.2000      7.9512      2.4391      0.0120     12.7840     94.3199     22.0801
   959.3000      7.9526      2.4501      0.0492     12.1142     97.4878     22.3076
   959.4000      7.9526      2.4475      0.0243     12.2717    100.1453     22.5439
   959.5000      7.9500      2.4330     -0.0168     13.1520    102.3363     22.7321
   959.6000      7.9500      2.4228     -0.0327     13.7699    104.6357     22.9474
   959.7000      7.9500      2.4214     -0.0373     13.8520    104.9415     23.1027
   959.8000      7.9552      2.4231      0.0009     13.7499    100.4307     22.9593
   959.9000      7.9552      2.4259      0.0339     13.5791     93.9759     22.6184
   960.0000      7.9601      2.4328     -0.0172     13.1640     90.9287     22.3637
   960.1000      7.9601      2.4408     -0.0335     12.6810     88.0692     22.2213
   960.2000      7.9601      2.4383     -0.0158     12.8290     80.8746     22.1245
   960.3000      7.9654      2.4263     -0.0374     13.5567     74.1337     22.1070
   960.4000      7.9654      2.4164      0.0321     14.1556     73.2590     22.2022
   960.5000      7.9525      2.4123     -0.0357     14.4051     75.6071     22.4241
   960.6000      7.9525      2.4185     -0.0256     14.0306     75.7022     22.5266
   960.7000      7.9525      2.4305      0.0137     13.3012     74.6670     22.1982
   960.8000      7.9500      2.4334      0.0091     13.1259     76.2800     21.5718
   960.9000      7.9500      2.4295     -0.0099     13.3660     80.6821     21.1395
   961.0000      7.9442      2.4314      0.0339     13.2470     88.0390     21.0384
   961.1000      7.9442      2.4402      0.0488     12.7135     97.6898     21.0698
   961.2000      7.9442      2.4499      0.0326     12.1266    105.3098     21.2845
   961.3000      7.9377      2.4569      0.0455     11.7020    106.9807     21.6100
   961.4000      7.9377      2.4572      0.0253     11.6852    100.3749     21.7907
   961.5000      7.9488      2.4437      0.0408     12.5042     88.1297     21.7462
   961.6000      7.9488      2.4228     -0.0520     13.7706     79.3620     21.3855
   961.7000      7.9488      2.4118     -0.0339     14.4363     79.6360     20.7759
   961.8000      7.9413      2.4103     -0.0082     14.5275     84.5332     20.2845
   961.9000      7.9413      2.4108     -0.0132     14.4952     88.8700     20.2667
   962.0000      7.9384      2.4137     -0.0173     14.3239     91.4240     20.6114
   962.1000      7.9384      2.4171      0.0400     14.1126     91.4968     21.0469
   962.2000      7.9384      2.4237     -0.0064     13.7148     87.8705     21.4441
   962.3000      7.9380      2.4379      0.0382     12.8572     82.3592     21.5630
   962.4000      7.9380      2.4424      0.0415     12.5798     82.1269     21.3491
   962.5000      7.9229      2.4226      0.0298     13.7817     89.3005     20.9968
   962.6000      7.9229      2.4005     -0.0751     15.1211     95.6329     20.7015
   962.7000      7.9229      2.3981     -0.0037     15.2675     94.4468     20.5964
   962.8000      7.9213      2.3977      0.0344     15.2924     89.7619     20.7822
   962.9000      7.9213      2.3875      0.0348     15.9112     88.1457     21.1384
   963.0000      7.9318      2.3871     -0.0124     15.9341     90.7575     21.3624
   963.1000      7.9318      2.3988      0.0498     15.2214     96.8100     21.2828
   963.2000      7.9318      2.4029      0.0328     14.9771    104.7891     21.0006
   963.3000      7.9300      2.4012      0.0162     15.0811    111.8724     20.8051
   963.4000      7.9300      2.4082      0.0110     14.6531    115.5863     20.8553
   963.5000      7.9268      2.4267      0.0478     13.5308    114.0600     21.1567
   963.6000      7.9268      2.4461      0.0537     12.3590    109.1632     21.5321
   963.7000      7.9268      2.4480      0.0648     12.2454    107.2788     21.7426
   963.8000      7.9275      2.4322     -0.0140     13.1974    110.6942     21.9780
   963.9000      7.9275      2.4270      0.0022     13.5132    114.8682     22.3295
