~Version Information
VERS.                      2.0: CWLS Log ASCII Standard - VERSION 2.0
WRAP.                       NO: One line per depth step
~Well Information Block
STRT.FT                -6.7500: 
STOP.FT              1250.5000: 
STEP.FT                 0.2500: 
NULL.                -999.2500: 
COMP.          Pioneer Natural Resources: COMPANY
WELL.          Irish Eyes 33-21: WELL
FLD.           Purgatorie River: FIELD
LOC.           1379' FSL & 2544' FEL--: LOCATION
PROV.                       CO: PROVINCE
CNTY.               Las Animas: COUNTRY
SRVC.          Patterson Wireline: SERVICE COMPANY
DATE.          Mon Jan 23 11:57:23 2006: LOG DATE
UWI.           05 071 08658 00: UNIQUE WELL ID
~Curve Information Block
DEPT.FT            0 000 00 00: Depth
CCL.                          : Casing Collar Locator
TT3.usec                      : CBL 3' Travel Time
AMP3.mV                       : CBL 3' Amplitude
GR.GAPI                       : Gamma Ray
~Parameter Information Block
~A  Depth       CCL         TT3         AMP3         GR     
# ...
   830.7500      0.0000    769.6729     14.6174     80.9122
   831.0000      0.0000    767.5013     14.5218     77.1204
   831.2500      0.0000    766.2944     14.4157     72.2763
   831.5000      0.0000    766.3069     14.2981     68.2208
   831.7500      0.0000    767.5105     14.1685     66.0916
   832.0000      0.0000    769.6176     14.0188     65.8329
   832.2500      0.0000    771.7205     13.8370     66.5796
   832.5000      0.0000    772.5190     13.6207     67.5155
   832.7500      0.0000    771.3682     13.3843     68.5857
   833.0000      0.0000    768.9184     13.1532     70.5886
   833.2500      0.0000    766.4621     12.9541     74.5713
   833.5000      0.0000    764.8328     12.8074     80.9343
   833.7500      0.0000    764.0834     12.7203     88.8721
   834.0000      0.0000    763.8898     12.6812     96.5682
   834.2500      0.0000    763.9511     12.6661    101.9637
   834.5000      0.0000    764.1045     12.6500    103.7675
   834.7500      0.0000    764.2973     12.6157    102.5666
   835.0000      0.0000    764.5331     12.5553    101.2216
   835.2500      0.0000    764.7959     12.4714    103.2976
   835.5000      0.0000    765.0082     12.3769    110.3498
   835.7500      0.0000    765.0737     12.2919    120.7617
   836.0000      0.0000    764.9695     12.2335    131.0912
   836.2500      0.0000    764.8222     12.2011    138.1386
   836.5000      0.0000    764.9011     12.1581    140.2458
   836.7500      0.0000    765.7378     12.0281    137.8100
   837.0000      0.0000    768.5231     11.7132    132.8181
   837.2500      0.0000    775.9107     11.1283    127.2645
   837.5000      0.0000    792.6197     10.2440    121.8644
   837.7500      0.0000    823.9778      9.1367    116.2807
   838.0000      0.0000    871.2620      8.0083    109.8927
   838.2500      0.0000    927.6457      7.1202    102.0528
   838.5000      0.0000    981.0847      6.6624     92.4276
   838.7500      0.0000   1022.8285      6.6562     81.6391
   839.0000      0.0000   1051.7396      6.9591     71.2782
   839.2500      2.0000   1069.9421      7.3534     63.1012
   839.5000      0.0000   1076.3685      7.6496     58.3674
   839.7500      0.0000   1065.4430      7.7555     57.8806
   840.0000      0.0000   1031.6003      7.7284     62.2660
   840.2500      0.0000    975.9951      7.7964     71.6897
   840.5000      0.0000    909.1935      8.2353     84.9846
   840.7500      0.0000    844.5745      9.1047     99.3857
   841.0000      0.0000    787.3777     10.1269    111.9419
   841.2500      0.0000    732.9849     10.9208    121.4562
   841.5000      0.0000    678.2534     11.3300    128.4285
   841.7500      0.0000    631.9023     11.4618    133.0928
   842.0000      0.0000    609.3091     11.4789    134.6095
   842.2500      0.0000    616.1448     11.4577    132.4702
   842.5000      0.0000    639.1001     11.4119    127.5994
   842.7500      0.0000    653.8766     11.3590    121.5161
   843.0000      0.0000    642.0600     11.3376    114.9659
   843.2500      0.0000    601.7583     11.3926    107.7934
   843.5000      0.0000    545.5543     11.5599     99.9818
   843.7500      0.0000    490.1997     11.8552     92.3635
   844.0000      0.0000    446.8448     12.2673     85.9782
   844.2500      0.0000    418.0959     12.7599     81.0316
   844.5000      0.0000    401.2588     13.2869     76.9618
   844.7500      0.0000    392.4678     13.8107     73.1350
   845.0000      0.0000    388.6669     14.3066     68.8964
   845.2500      0.0000    388.0993     14.7529     63.5188
   845.5000      0.0000    390.5504     15.1251     56.8907
   845.7500      0.0000    397.4298     15.4089     49.9759
   846.0000      0.0000    411.0644     15.6182     44.0396
   846.2500      0.0000    433.1931     15.7910     39.5696
   846.5000      0.0000    463.3673     15.9611     36.2640
   846.7500      0.0000    498.1250     16.1297     33.8834
   847.0000      0.0000    531.7912     16.2602     32.6336
   847.2500      0.0000    559.6493     16.2986     32.5525
   847.5000      0.0000    581.0206     16.2031     32.9678
   847.7500      0.0000    597.1248     15.9621     33.1434
   848.0000      0.0000    606.1002     15.5953     33.4077
   848.2500      0.0000    604.5436     15.1439     35.0531
   848.5000      0.0000    594.5248     14.6597     39.0828
   848.7500      0.0000    584.6166     14.1924     45.6513
   849.0000      0.0000    583.8873     13.7747     54.7714
   849.2500      0.0000    597.9400     13.4149     66.6145
   849.5000      0.0000    627.8662     13.1098     80.4603
   849.7500      0.0000    668.1732     12.8666     93.8389
   850.0000      0.0000    707.5959     12.7063    103.5508
   850.2500      0.0000    735.8743     12.6390    107.9109
   850.5000      0.0000    749.5519     12.6415    108.0279
   850.7500      0.0000    750.9409     12.6648    106.8975
   851.0000      0.0000    743.5110     12.6633    107.0761
   851.2500      0.0000    728.7031     12.6161    108.9054
   851.5000      0.0000    705.5839     12.5237    110.7871
   851.7500      0.0000    673.9388     12.3921    110.8393
   852.0000      0.0000    639.7742     12.2279    107.8854
   852.2500      0.0000    616.5269     12.0489    101.3242
   852.5000      0.0000    616.3202     11.8914     91.3195
   852.7500      0.0000    638.6289     11.7951     79.5803
   853.0000      0.0000    670.2617     11.7737     69.1392
   853.2500      0.0000    697.0218     11.7986     62.4851
   853.5000      0.0000    713.2969     11.8146     59.8104
   853.7500      0.0000    721.5446     11.7788     59.2291
   854.0000      0.0000    726.6577     11.6927     58.6430
   854.2500      0.0000    731.8598     11.6000     57.5084
   854.5000      0.0000    737.2963     11.5530     57.0932
   854.7500      0.0000    740.1045     11.5817     59.0271
   855.0000      0.0000    736.3730     11.6931     63.5154
   855.2500      0.0000    725.3015     11.8841     69.0964
   855.5000      0.0000    712.4769     12.1470     74.0791
   855.7500      0.0000    707.2021     12.4690     77.9393
   856.0000      0.0000    714.4409     12.8358     81.3011
   856.2500      0.0000    730.2061     13.2332     84.9030
   856.5000      0.0000    746.0099     13.6457     88.7549
   856.7500      0.0000    756.2935     14.0622     92.1500
   857.0000      0.0000    760.3483     14.4816     94.5210
   857.2500      0.0000    758.7733     14.9003     96.3007
   857.5000      0.0000    749.6823     15.2931     98.5661
   857.7500      0.0000    728.4875     15.6218    101.6947
   858.0000      0.0000    692.9708     15.8651    104.7905
   858.2500      0.0000    651.0081     16.0264    106.7693
   858.5000      0.0000    621.4404     16.1105    107.8602
   858.7500      0.0000    621.3343     16.1092    109.7612
   859.0000      0.0000    650.1436     16.0182    114.2313
   859.2500      0.0000    688.9443     15.8554    121.3411
   859.5000      0.0000    715.0032     15.6592    128.9367
   859.7500      0.0000    714.9787     15.4686    133.9837
   860.0000      0.0000    688.9072     15.2988    134.6916
   860.2500      0.0000    650.1989     15.1271    131.6597
   860.5000      0.0000    621.6205     14.9080    127.1784
   860.7500      0.0000    622.0477     14.6170    123.3461
   861.0000      0.0000    651.9012     14.2834    120.7550
   861.2500      0.0000    693.9906     13.9770    118.8856
   861.5000      0.0000    729.4468     13.7620    117.3245
   861.7500      0.0000    750.4933     13.6648    116.1981
   862.0000      0.0000    759.7322     13.6771    115.6483
   862.2500      0.0000    762.7747     13.7763    115.6444
   862.5000      0.0000    763.5300     13.9358    116.6685
   862.7500      0.0000    763.6892     14.1212    119.8854
   863.0000      0.0000    763.7033     14.2892    125.7108
   863.2500      0.0000    763.5549     14.4018    132.4772
   863.5000      0.0000    762.8333     14.4500    137.5303
   863.7500      0.0000    760.2927     14.4626    139.6772
   864.0000      0.0000    753.3669     14.4866    139.9201
