~Version Information
VERS.                      2.0: CWLS Log ASCII Standard - VERSION 2.0
WRAP.                       NO: One line per depth step
~Well Information Block
STRT.FT                -7.2500: 
STOP.FT              1273.5000: 
STEP.FT                 0.2500: 
NULL.                -999.2500: 
COMP.          Pioneer Natural Resources: COMPANY
WELL.            Keiko 14-6 Tr: WELL
FLD.           Purgatorie River: FIELD
LOC.           462' FSL & 1202' FWL--: LOCATION
PROV.                       CO: PROVINCE
CNTY.               Las Animas: COUNTRY
SRVC.          Patterson Wireline: SERVICE COMPANY
DATE.          Wed Jan 04 09:22:19 2006: LOG DATE
UWI.           05 071 08629 00: UNIQUE WELL ID
~Curve Information Block
DEPT.FT            0 000 00 00: Depth
CCL.                          : Casing Collar Locator
TT3.usec                      : CBL 3' Travel Time
AMP3.mV                       : CBL 3' Amplitude
GR.GAPI                       : Gamma Ray
~Parameter Information Block
~A  Depth       CCL         TT3         AMP3         GR     
# ...
   997.7500      0.0000    743.4009      8.9666    100.9688
   998.0000      0.0000    680.8286      9.3596    108.7113
   998.2500      0.0000    619.8459      9.8601    120.7980
   998.5000      0.0000    571.7180     10.3510    132.9835
   998.7500      0.0000    535.8487     10.7765    141.3285
   999.0000      0.0000    502.6989     11.2432    144.1841
   999.2500      0.0000    464.6366     11.8750    142.1355
   999.5000      0.0000    423.8964     12.6255    136.5102
   999.7500      0.0000    389.1900     13.2987    128.2792
  1000.0000      0.0000    366.9975     13.7159    118.1816
  1000.2500      0.0000    358.3367     13.8230    107.2664
  1000.5000      0.0000    361.8607     13.6812     96.7930
  1000.7500      0.0000    376.4252     13.4041     87.6195
  1001.0000      0.0000    398.7772     13.1018     80.0503
  1001.2500      0.0000    420.0791     12.8484     74.3785
  1001.5000      0.0000    428.5139     12.6743     71.3439
  1001.7500      0.0000    418.4665     12.5722     71.8889
  1002.0000      0.0000    396.0215     12.5105     76.3006
  1002.2500      0.0000    373.6387     12.4532     83.3911
  1002.5000      0.0000    361.0700     12.3763     90.6316
  1002.7500      0.0000    362.5072     12.2712     95.5489
  1003.0000      0.0000    378.4828     12.1377     97.3399
  1003.2500      0.0000    405.2536     11.9819     97.1689
  1003.5000      0.0000    432.2891     11.8182     96.9947
  1003.7500      0.0000    446.1376     11.6656     98.0920
  1004.0000      0.0000    441.2455     11.5361    100.3918
  1004.2500      0.0000    424.8101     11.4297    103.0423
  1004.5000      0.0000    408.0593     11.3423    105.7271
  1004.7500      0.0000    395.3277     11.2723    109.3330
  1005.0000      0.0000    384.3001     11.2164    114.9281
  1005.2500      0.0000    373.4795     11.1627    122.1875
  1005.5000      0.0000    365.2887     11.0911    129.4359
  1005.7500      0.0000    362.9217     10.9837    135.3398
  1006.0000      0.0000    366.9969     10.8349    139.8415
  1006.2500      0.0000    375.5427     10.6564    143.0791
  1006.5000      0.0000    385.7558     10.4719    144.1737
  1006.7500      0.0000    394.9582     10.3078    141.9544
  1007.0000      0.0000    400.1915     10.1874    136.7913
  1007.2500      0.0000    398.6255     10.1248    131.0445
  1007.5000      0.0000    389.8832     10.1173    127.5529
  1007.7500      0.0000    377.6191     10.1436    127.7214
  1008.0000      0.0000    367.5291     10.1726    130.8180
  1008.2500      0.0000    363.5230     10.1789    134.8209
  1008.5000      0.0000    365.7756     10.1514    138.0162
  1008.7500      0.0000    371.6431     10.0932    139.9038
  1009.0000      0.0000    377.8867     10.0152    140.7991
  1009.2500      0.0000    382.5388      9.9309    140.8856
  1009.5000      0.0000    385.5003      9.8580    139.8734
  1009.7500      0.0000    387.9706      9.8247    137.6325
  1010.0000      0.0000    391.2621      9.8671    134.9911
  1010.2500      0.0000    395.4924     10.0187    133.3792
  1010.5000      0.0000    398.9203     10.2974    133.3183
  1010.7500      0.0000    399.3795     10.6950    133.5634
  1011.0000      0.0000    397.0980     11.1739    132.1068
  1011.2500      0.0000    395.0008     11.6828    127.7643
  1011.5000      0.0000    395.0532     12.1841    120.6356
  1011.7500      0.0000    395.8886     12.6673    111.5365
  1012.0000      0.0000    396.1829     13.1291    101.5098
  1012.2500      0.0000    399.9521     13.5463     91.6803
  1012.5000      0.0000    416.9852     13.8742     83.1407
  1012.7500      0.0000    456.8737     14.0755     76.8038
  1013.0000      0.0000    520.5690     14.1503     73.1847
  1013.2500      0.0000    596.2748     14.1323     72.1008
  1013.5000      0.0000    664.8304     14.0568     72.5974
  1013.7500      0.0000    710.3475     13.9401     73.2564
  1014.0000      0.0000    726.5356     13.7918     72.7818
  1014.2500      0.0000    716.9366     13.6253     70.6423
  1014.5000      0.0000    693.6529     13.4443     67.4750
  1014.7500      0.0000    673.4905     13.2286     64.8966
  1015.0000      0.0000    668.4637     12.9504     64.6968
  1015.2500      0.0000    678.0283     12.6055     67.9078
  1015.5000      0.0000    692.3869     12.2248     74.3476
  1015.7500      0.0000    702.5327     11.8584     82.8016
  1016.0000      0.0000    705.8693     11.5480     91.7185
  1016.2500      0.0000    704.9367     11.3103    100.0461
  1016.5000      0.0000    703.9361     11.1382    107.5197
  1016.7500      0.0000    705.8062     11.0124    114.1410
  1017.0000      0.0000    710.0639     10.9089    119.5823
  1017.2500      0.0000    712.0957     10.8068    123.3725
  1017.5000      0.0000    705.6506     10.6978    125.6143
  1017.7500      0.0000    688.6002     10.5858    127.3920
  1018.0000      0.0000    667.7131     10.4742    130.3732
  1018.2500      0.0000    655.5035     10.3567    135.6223
  1018.5000      0.0000    659.7618     10.2280    142.3115
  1018.7500      0.0000    677.0878     10.0957    147.6993
  1019.0000      0.0000    697.7615      9.9763    149.0738
  1019.2500      0.0000    714.6805      9.8820    146.0731
  1019.5000      0.0000    726.4030      9.8144    140.7470
  1019.7500      0.0000    734.4130      9.7679    135.1000
  1020.0000      0.0000    740.0136      9.7299    128.9776
  1020.2500      0.0000    743.4382      9.6802    120.6717
  1020.5000      0.0000    744.6974      9.5966    109.4412
  1020.7500      0.0000    744.6505      9.4656     97.2139
  1021.0000      0.0000    744.9049      9.2935     87.8483
  1021.2500      0.0000    746.4689      9.1138     84.7772
  1021.5000      0.0000    748.8615      8.9787     88.9482
  1021.7500      0.0000    750.8488      8.9316     98.3134
  1022.0000      0.0000    752.0768      8.9825    109.0346
  1022.2500      0.0000    753.8807      9.1107    117.6043
  1022.5000      0.0000    757.9952      9.2896    122.5272
  1022.7500      0.0000    763.7987      9.5118    124.4865
  1023.0000      0.0000    766.6360      9.7970    124.9493
  1023.2500      0.0000    760.2159     10.1739    124.5849
  1023.5000      0.0000    742.8837     10.6460    123.1547
  1023.7500      0.0000    722.2224     11.1714    120.7785
  1024.0000      0.0000    710.3862     11.6783    118.8218
  1024.2500      0.0000    711.5840     12.1041    119.2763
  1024.5000      0.0000    715.1024     12.4223    123.2560
  1024.7500      0.0000    702.8857     12.6406    130.0019
  1025.0000      0.0000    663.5579     12.7810    137.3078
  1025.2500      0.0000    600.0305     12.8655    143.0797
  1025.5000      0.0000    527.2508     12.9178    146.5971
  1025.7500      0.0000    463.6140     12.9676    148.2919
  1026.0000      0.0000    422.3600     13.0334    148.6092
  1026.2500      0.0000    409.4307     13.0783    147.4486
  1026.5000      0.0000    426.7497     12.9925    144.6046
  1026.7500      0.0000    472.9550     12.6615    140.3802
  1027.0000      0.0000    539.4409     12.0708    135.8228
  1027.2500      0.0000    609.7115     11.3310    132.5277
  1027.5000      0.0000    666.7341     10.5922    131.9085
  1027.7500      0.0000    701.6436      9.9512    134.1150
  1028.0000      0.0000    715.4532      9.4355    137.4967
  1028.2500      0.0000    714.8505      9.0394    139.5534
  1028.5000      0.0000    707.9130      8.7485    138.9176
  1028.7500      0.0000    701.6566      8.5423    136.2647
  1029.0000      0.0000    700.2822      8.3989    132.8787
  1029.2500      0.0000    704.4630      8.3077    128.7728
  1029.5000      0.0000    712.3089      8.2755    123.0707
  1029.7500      0.0000    720.7784      8.3166    115.9998
  1030.0000      0.0000    726.4737      8.4332    109.5582
  1030.2500      0.0000    726.7138      8.6049    106.1641
  1030.5000      0.0000    721.4116      8.8011    107.4597
  1030.7500      0.0000    713.8141      9.0057    114.3692
  1031.0000      0.0000    708.3000      9.2249    126.7831
