~Version Information
VERS.                      2.0: CWLS Log ASCII Standard - VERSION 2.0
WRAP.                       NO: One line per depth step
~Well Information Block
STRT.FT               710.0000: 
STOP.FT              1983.0000: 
STEP.FT                 0.1000: 
NULL.                -999.2500: 
COMP.          Petrogulf Corporation: COMPANY
WELL.           State 16-23R-X: WELL
FLD.           Purgatorie River: FIELD
LOC.           2381' FSL & 2072' FWL: LOCATION
PROV.                 Colorado: PROVINCE
CNTY.               Las Animas: COUNTRY
SRVC.                Patterson: SERVICE COMPANY
DATE.          Mon Aug 08 07:36:34 2005: LOG DATE
UWI.                          : UNIQUE WELL ID
~Curve Information Block
DEPT.FT            0 000 00 00: Depth
DCAL.in                       : CDL Caliper
RHOB.g/cc                     : CDL Bulk Density
RHOC.g/cc                     : CDL Density Correction
DPOR.pu                       : CDL Density Porosity
GR.GAPI                       : Gamma Ray
NPOR.pu                       : Neutron Porosity
~Parameter Information Block
~A  Depth       DCAL        RHOB        RHOC        DPOR         GR         NPOR    
# ...
  1948.4000      7.8116      2.5934      0.0799      3.4309     81.1707   -999.2500
  1948.5000      7.8293      2.5867      0.0613      3.8373     82.6623   -999.2500
  1948.6000      7.8293      2.5866      0.0599      3.8452     81.8281   -999.2500
  1948.7000      7.8293      2.5886      0.0876      3.7223     80.5782   -999.2500
  1948.8000      7.8054      2.5813      0.0661      4.1640     80.6142   -999.2500
  1948.9000      7.8054      2.5669      0.0590      5.0367     80.0299   -999.2500
  1949.0000      7.8093      2.5564      0.0378      5.6726     77.2393   -999.2500
  1949.1000      7.8093      2.5569      0.0525      5.6427     69.3209   -999.2500
  1949.2000      7.8093      2.5670      0.0381      5.0297     51.2607   -999.2500
  1949.3000      7.8616      2.5758      0.0846      4.4992     26.6447   -999.2500
  1949.4000      7.8616      2.5701      0.0959      4.8425      8.5728   -999.2500
  1949.5000      7.8528      2.5542      0.0436      5.8061      1.5815   -999.2500
  1949.6000      7.8528      2.5452      0.0210      6.3516      0.1604   -999.2500
  1949.7000      7.8528      2.5445      0.0595      6.3919      0.0086   -999.2500
  1949.8000      7.8811      2.5401      0.0641      6.6586      0.0000   -999.2500
  1949.9000      7.8811      2.5351      0.0190      6.9624   -999.2500   -999.2500
  1950.0000      7.8473      2.5395      0.0439      6.6962   -999.2500   -999.2500
  1950.1000      7.8473      2.5448      0.0667      6.3752   -999.2500   -999.2500
  1950.2000      7.8473      2.5405      0.0564      6.6383   -999.2500   -999.2500
  1950.3000      7.7915      2.5369      0.0438      6.8572   -999.2500   -999.2500
  1950.4000      7.7915      2.5542      0.0491      5.8082   -999.2500   -999.2500
  1950.5000      7.7903      2.5924      0.1204      3.4928   -999.2500   -999.2500
  1950.6000      7.7903      2.6278      0.1354      1.3475   -999.2500   -999.2500
  1950.7000      7.7903      2.6416      0.1761      0.5068   -999.2500   -999.2500
  1950.8000      7.7846      2.6333      0.1531      1.0151   -999.2500   -999.2500
  1950.9000      7.7846      2.6158      0.0939      2.0729   -999.2500   -999.2500
  1951.0000      7.7730      2.5998      0.1097      3.0395   -999.2500   -999.2500
  1951.1000      7.7730      2.5863      0.0615      3.8628   -999.2500   -999.2500
  1951.2000      7.7730      2.5773      0.0765      4.4033   -999.2500   -999.2500
  1951.3000      7.7691      2.5800      0.0243      4.2447   -999.2500   -999.2500
  1951.4000      7.7691      2.5960      0.0817      3.2716   -999.2500   -999.2500
  1951.5000      7.8449      2.6080      0.0782      2.5441   -999.2500   -999.2500
  1951.6000      7.8449      2.5988      0.0814      3.1047   -999.2500   -999.2500
  1951.7000      7.8449      2.5740      0.0714      4.6056   -999.2500   -999.2500
  1951.8000      7.8540      2.5479      0.0356      6.1890   -999.2500   -999.2500
  1951.9000      7.8540      2.5314      0.0058      7.1851   -999.2500   -999.2500
  1952.0000      7.8351      2.5307      0.0316      7.2322   -999.2500   -999.2500
  1952.1000      7.8351      2.5422      0.0413      6.5304   -999.2500   -999.2500
  1952.2000      7.8351      2.5606      0.0498      5.4177   -999.2500   -999.2500
  1952.3000      7.8367      2.5809      0.0905      4.1872   -999.2500   -999.2500
  1952.4000      7.8367      2.5928      0.1069      3.4658   -999.2500   -999.2500
  1952.5000      7.8284      2.5879      0.1197      3.7624   -999.2500   -999.2500
  1952.6000      7.8284      2.5726      0.0806      4.6898   -999.2500   -999.2500
  1952.7000      7.8284      2.5636      0.0931      5.2371   -999.2500   -999.2500
  1952.8000      7.7406      2.5690      0.0858      4.9086   -999.2500   -999.2500
  1952.9000      7.7406      2.5853      0.1177      3.9185   -999.2500   -999.2500
  1953.0000      7.7046      2.6025      0.1226      2.8774   -999.2500   -999.2500
  1953.1000      7.7046      2.6163      0.0926      2.0447   -999.2500   -999.2500
  1953.2000      7.7046      2.6332      0.1324      1.0178   -999.2500   -999.2500
  1953.3000      7.7535      2.6528      0.1476     -0.1705   -999.2500   -999.2500
  1953.4000      7.7535      2.6634      0.1544     -0.8147   -999.2500   -999.2500
  1953.5000      7.7839      2.6536      0.1264     -0.2157   -999.2500   -999.2500
  1953.6000      7.7839      2.6262      0.0849      1.4454   -999.2500   -999.2500
  1953.7000      7.7839      2.5994      0.0654      3.0654   -999.2500   -999.2500
  1953.8000      7.7779      2.5859      0.0521      3.8836   -999.2500   -999.2500
  1953.9000      7.7779      2.5757      0.1089      4.5045   -999.2500   -999.2500
  1954.0000      7.7745      2.5512      0.0579      5.9868   -999.2500   -999.2500
  1954.1000      7.7745      2.5215      0.0236      7.7894   -999.2500   -999.2500
  1954.2000      7.7745      2.5125      0.0247      8.3325   -999.2500   -999.2500
  1954.3000      7.7749      2.5305      0.0373      7.2437   -999.2500   -999.2500
  1954.4000      7.7749      2.5597      0.0668      5.4709   -999.2500   -999.2500
  1954.5000      7.8280      2.5833      0.0958      4.0400   -999.2500   -999.2500
  1954.6000      7.8280      2.5961      0.0948      3.2657   -999.2500   -999.2500
  1954.7000      7.8280      2.6024      0.0433      2.8876   -999.2500   -999.2500
  1954.8000      7.8352      2.5989      0.1257      3.0963   -999.2500   -999.2500
  1954.9000      7.8352      2.5786      0.0927      4.3246   -999.2500   -999.2500
  1955.0000      7.7577      2.5549      0.0397      5.7666   -999.2500   -999.2500
  1955.1000      7.7577      2.5459      0.0410      6.3088   -999.2500   -999.2500
  1955.2000      7.7577      2.5573      0.0406      5.6194   -999.2500   -999.2500
  1955.3000      7.8064      2.5864      0.0570      3.8557   -999.2500   -999.2500
  1955.4000      7.8064      2.6194      0.1172      1.8569   -999.2500   -999.2500
  1955.5000      7.8374      2.6374      0.1216      0.7639   -999.2500   -999.2500
  1955.6000      7.8374      2.6367      0.1131      0.8064   -999.2500   -999.2500
  1955.7000      7.8374      2.6271      0.0948      1.3871   -999.2500   -999.2500
  1955.8000      7.7308      2.6138      0.1053      2.1963   -999.2500   -999.2500
  1955.9000      7.7308      2.5957      0.1162      3.2918   -999.2500   -999.2500
  1956.0000      7.7506      2.5781      0.0757      4.3559   -999.2500   -999.2500
  1956.1000      7.7506      2.5720      0.0652      4.7256   -999.2500   -999.2500
  1956.2000      7.7506      2.5772      0.0499      4.4128   -999.2500   -999.2500
  1956.3000      7.7677      2.5810      0.0915      4.1810   -999.2500   -999.2500
  1956.4000      7.7677      2.5778      0.0773      4.3786   -999.2500   -999.2500
  1956.5000      7.8456      2.5789      0.0442      4.3068   -999.2500   -999.2500
  1956.6000      7.8456      2.5951      0.0915      3.3243   -999.2500   -999.2500
  1956.7000      7.8456      2.6190      0.1050      1.8797   -999.2500   -999.2500
  1956.8000      7.8215      2.6356      0.1410      0.8708   -999.2500   -999.2500
  1956.9000      7.8215      2.6384      0.1178      0.7017   -999.2500   -999.2500
  1957.0000      7.7476      2.6276      0.1293      1.3583   -999.2500   -999.2500
  1957.1000      7.7476      2.6040      0.1240      2.7858   -999.2500   -999.2500
  1957.2000      7.7476      2.5794      0.0775      4.2771   -999.2500   -999.2500
  1957.3000      7.7031      2.5661      0.0561      5.0838   -999.2500   -999.2500
  1957.4000      7.7031      2.5540      0.0893      5.8170   -999.2500   -999.2500
  1957.5000      7.6661      2.5279      0.0507      7.3988   -999.2500   -999.2500
  1957.6000      7.6661      2.5177      0.0376      8.0194   -999.2500   -999.2500
  1957.7000      7.6661      2.6869      0.0181     -2.2364   -999.2500   -999.2500
  1957.8000      7.3792      3.3172     -0.0198    -40.4378   -999.2500   -999.2500
  1957.9000      7.3792      4.1790      0.4453    -92.6687   -999.2500   -999.2500
