~Version Information
VERS.                      2.0: CWLS Log ASCII Standard - VERSION 2.0
WRAP.                       NO: One line per depth step
~Well Information Block
STRT.FT               673.2000: 
STOP.FT              1510.5000: 
STEP.FT                 0.1000: 
NULL.                -999.2500: 
COMP.          Pioneer Natural Resources: COMPANY
WELL.          Hammerhead 24-24 Tr: WELL
FLD.           Purgatoire River: FIELD
LOC.           953' FSL & 1922' FWL: LOCATION
PROV.                 Colorado: PROVINCE
CNTY.               Las Animas: COUNTRY
SRVC.                Patterson: SERVICE COMPANY
DATE.          Mon Jan 30 07:27:57 2006: LOG DATE
UWI.           05 071 08669 00: UNIQUE WELL ID
~Curve Information Block
DEPT.FT            0 000 00 00: Depth
DCAL.in                       : CDL Caliper
RHOB.g/cc                     : CDL Bulk Density
RHOC.g/cc                     : CDL Density Correction
DPOR.pu                       : CDL Density Porosity
GR.GAPI                       : Gamma Ray
~Parameter Information Block
~A  Depth       DCAL        RHOB        RHOC        DPOR         GR     
# ...
   796.4000      7.8830      2.7414      0.0210     -5.5410     71.0954
   796.5000      7.8809      2.7025     -0.0097     -3.1817     73.3217
   796.6000      7.8809      2.6571     -0.0267     -0.4331     78.1081
   796.7000      7.8809      2.6274     -0.0031      1.3704     83.0551
   796.8000      7.8798      2.6194     -0.0253      1.8568     85.3173
   796.9000      7.8798      2.6282      0.0054      1.3197     83.8851
   797.0000      7.8831      2.6417      0.0456      0.5006     79.7099
   797.1000      7.8831      2.6459      0.0404      0.2515     75.3308
   797.2000      7.8831      2.6385      0.0309      0.6970     72.5919
   797.3000      7.8867      2.6312      0.0099      1.1412     73.6664
   797.4000      7.8867      2.6282      0.0381      1.3195     76.2680
   797.5000      7.8870      2.6249      0.0128      1.5203     76.5145
   797.6000      7.8870      2.6203      0.0250      1.7975     76.1435
   797.7000      7.8870      2.6117      0.0619      2.3237     77.2843
   797.8000      7.8858      2.6053     -0.0009      2.7110     81.9101
   797.9000      7.8858      2.6207      0.0323      1.7733     90.6662
   798.0000      7.8864      2.6566      0.0713     -0.3992    100.4765
   798.1000      7.8864      2.6803      0.0772     -1.8386    106.7206
   798.2000      7.8864      2.6598      0.0609     -0.5942    106.8885
   798.3000      7.8889      2.5973      0.0384      3.1969    103.7236
   798.4000      7.8889      2.5353     -0.0549      6.9530    101.2728
   798.5000      7.8906      2.5077     -0.0069      8.6235     99.6801
   798.6000      7.8906      2.4991     -0.0074      9.1450     98.3190
   798.7000      7.8906      2.4926     -0.0929      9.5405     99.7053
   798.8000      7.8902      2.5016     -0.0503      8.9959    103.9932
   798.9000      7.8902      2.5272     -0.0125      7.4425    105.1477
   799.0000      7.8895      2.5493      0.0235      6.1047    102.0142
   799.1000      7.8895      2.5589      0.0259      5.5201    100.0631
   799.2000      7.8895      2.5669      0.0346      5.0359    101.7434
   799.3000      7.8889      2.5810      0.0330      4.1805    104.4781
   799.4000      7.8889      2.5939      0.0875      3.4000    105.3662
   799.5000      7.8881      2.6025      0.0977      2.8814    105.8000
   799.6000      7.8881      2.6148      0.0639      2.1363    107.0711
   799.7000      7.8881      2.6197      0.1073      1.8378    107.7580
   799.8000      7.8872      2.5982      0.0639      3.1403    108.1918
   799.9000      7.8872      2.5700      0.0178      4.8467    109.3505
   800.0000      7.8860      2.5634      0.0448      5.2493    109.1893
   800.1000      7.8860      2.5680      0.0627      4.9690    104.5495
   800.2000      7.8860      2.5703      0.0144      4.8294     96.6357
   800.3000      7.8853      2.5778      0.0101      4.3741     91.4641
   800.4000      7.8853      2.5877      0.0459      3.7728     88.9170
   800.5000      7.8848      2.5842      0.0696      3.9862     87.0846
   800.6000      7.8848      2.5666      0.0382      5.0524     89.5870
   800.7000      7.8848      2.5460      0.0576      6.3060     98.1331
   800.8000      7.8834      2.5278      0.0202      7.4031    107.3742
   800.9000      7.8834      2.5134      0.0401      8.2796    110.8484
   801.0000      7.8821      2.5034      0.0207      8.8877    110.5415
   801.1000      7.8821      2.5008      0.0200      9.0398    109.9220
   801.2000      7.8821      2.5074      0.0165      8.6421    107.6171
   801.3000      7.8809      2.5233      0.0406      7.6815    104.0293
   801.4000      7.8809      2.5446      0.0527      6.3890    101.9279
   801.5000      7.8796      2.5573      0.0752      5.6158    101.6723
   801.6000      7.8796      2.5511      0.0720      5.9934    100.1780
   801.7000      7.8796      2.5331      0.0169      7.0821     95.9944
   801.8000      7.8791      2.5117      0.0460      8.3835     93.0031
   801.9000      7.8791      2.4857      0.0062      9.9591     94.2596
   802.0000      7.8797      2.4601     -0.0215     11.5117     97.2313
   802.1000      7.8797      2.4418     -0.0246     12.6189     97.8546
   802.2000      7.8797      2.4328     -0.0172     13.1642     93.2445
   802.3000      7.8796      2.4378     -0.0212     12.8582     84.7696
   802.4000      7.8796      2.4549      0.0520     11.8268     77.9170
   802.5000      7.8780      2.4670      0.0585     11.0912     76.5990
   802.6000      7.8780      2.4729      0.0142     10.7364     79.2574
   802.7000      7.8780      2.4937      0.0297      9.4721     81.7481
   802.8000      7.8770      2.5248      0.0888      7.5909     82.1134
   802.9000      7.8770      2.5235      0.1140      7.6674     81.1215
   803.0000      7.8784      2.4762      0.0396     10.5318     80.6165
   803.1000      7.8784      2.4264     -0.0183     13.5544     81.3612
   803.2000      7.8784      2.4136     -0.0276     14.3282     82.8637
   803.3000      7.8799      2.4325      0.0476     13.1815     82.4891
   803.4000      7.8799      2.4554      0.0252     11.7927     80.4300
   803.5000      7.8778      2.4670      0.0159     11.0907     81.1079
   803.6000      7.8778      2.4685      0.0367     11.0005     85.3483
   803.7000      7.8778      2.4709      0.0150     10.8517     87.8673
   803.8000      7.8717      2.4905      0.0485      9.6662     86.9263
   803.9000      7.8717      2.5334      0.0581      7.0687     86.8776
   804.0000      7.8665      2.5865      0.0867      3.8473     88.1584
   804.1000      7.8665      2.6316      0.1455      1.1180     89.1609
   804.2000      7.8665      2.6689      0.1138     -1.1462     91.7762
   804.3000      7.8637      2.7029      0.1604     -3.2080     96.6087
   804.4000      7.8637      2.7143      0.1854     -3.8964     99.0168
   804.5000      7.8624      2.6879      0.1345     -2.2953     97.2030
   804.6000      7.8624      2.6381      0.0451      0.7193     94.6066
   804.7000      7.8624      2.5881      0.0274      3.7512     93.9598
   804.8000      7.8650      2.5505      0.0118      6.0291     97.8316
   804.9000      7.8650      2.5329     -0.0172      7.0949    105.5551
   805.0000      7.8743      2.5387      0.0079      6.7483    109.3555
   805.1000      7.8743      2.5605      0.0030      5.4244    105.4257
   805.2000      7.8743      2.5864      0.0644      3.8536    101.0162
   805.3000      7.8848      2.6006      0.0793      2.9960     99.7900
   805.4000      7.8848      2.5917      0.0910      3.5320     96.5279
   805.5000      7.8900      2.5683      0.0102      4.9526     87.9633
   805.6000      7.8900      2.5463      0.0371      6.2845     77.6375
   805.7000      7.8900      2.5321      0.0435      7.1435     71.0115
   805.8000      7.8897      2.5296      0.0198      7.2959     67.9114
   805.9000      7.8897      2.5365      0.0260      6.8801     64.5335
   806.0000      7.8852      2.5423      0.0435      6.5269     60.6952
   806.1000      7.8852      2.5406      0.0139      6.6332     58.6254
   806.2000      7.8852      2.5307      0.0102      7.2290     57.7619
   806.3000      7.8815      2.5194     -0.0120      7.9168     57.1990
   806.4000      7.8815      2.5188      0.0338      7.9545     58.0663
   806.5000      7.8804      2.5281      0.0707      7.3849     60.1817
   806.6000      7.8804      2.5341      0.0667      7.0228     61.0634
   806.7000      7.8804      2.5338      0.0522      7.0448     60.4494
   806.8000      7.8792      2.5318      0.0736      7.1650     62.0180
   806.9000      7.8792      2.5237      0.0722      7.6527     69.0737
   807.0000      7.8794      2.4943      0.0652      9.4359     81.1209
   807.1000      7.8794      2.4373      0.0365     12.8897     92.8515
   807.2000      7.8794      2.3762     -0.0097     16.5966     99.7642
   807.3000      7.8841      2.3423     -0.0000     18.6493    102.5266
   807.4000      7.8841      2.3371      0.0213     18.9632    104.4336
   807.5000      7.8993      2.3375      0.0525     18.9387    109.6145
