~Version Information
VERS.                      2.0: CWLS Log ASCII Standard - VERSION 2.0
WRAP.                       NO: One line per depth step
~Well Information Block
STRT.FT                -8.7500: 
STOP.FT              1727.2500: 
STEP.FT                 0.2500: 
NULL.                -999.2500: 
COMP.          XTO Energy Inc.: COMPANY
WELL.          Apache Canyon 34-08: WELL
FLD.              Vermejo Coal: FIELD
LOC.           1668' FNL & 275' FEL: LOCATION
STAT.                       CO: State
CNTY.               Las Animas: COUNTY
CTRY. USA : Country
SECT. 34 : Section
TOWN. 33S : Township
RANG. 67W : Range
SRVC.          Patterson Wireline: SERVICE COMPANY
DATE.          Mon Jan 09 09:34:21 2006: LOG DATE
API.           05 071 08541 00: UNIQUE WELL ID
~Curve Information Block
DEPT.FT            0 000 00 00: Depth
CCL.                          : Casing Collar Locator
TT3.usec                      : CBL 3' Travel Time
AMP3.mV                       : CBL 3' Amplitude
GR.GAPI                       : Gamma Ray
~Parameter Information Block
~A  Depth       CCL         TT3         AMP3         GR     
# ...
   895.7500      0.0000    710.3868      3.5873     68.9323
   896.0000      0.0000    713.9255      3.5521     70.0379
   896.2500      0.0000    717.8003      3.4890     71.9876
   896.5000      0.0000    721.2779      3.4061     73.7208
   896.7500      0.0000    723.8392      3.3205     74.0846
   897.0000      0.0000    725.5144      3.2446     73.0609
   897.2500      0.0000    727.0451      3.1801     71.7574
   897.5000      0.0000    729.3138      3.1206     71.2994
   897.7500      0.0000    732.1122      3.0603     72.0557
   898.0000      0.0000    733.8469      3.0001     73.7030
   898.2500      0.0000    733.0272      2.9470     75.6049
   898.5000      0.0000    729.7555      2.9082     77.1421
   898.7500      0.0000    725.3386      2.8868     77.9343
   899.0000      0.0000    720.8875      2.8834     77.8725
   899.2500      0.0000    716.9298      2.9001     77.0101
   899.5000      0.0000    714.1989      2.9371     75.4347
   899.7500      0.0000    714.1172      2.9858     73.1370
   900.0000      0.0000    718.0095      3.0295     70.1416
   900.2500      0.0000    725.8094      3.0564     66.9564
   900.5000      0.0000    735.8609      3.0713     64.5363
   900.7500      0.0000    746.4504      3.0906     63.2808
   901.0000      2.0000    757.4638      3.1256     62.4110
   901.2500      2.0000    769.5554      3.1718     61.0509
   901.5000      0.0000    781.1520      3.2123     59.7517
   901.7500      0.0000    787.3834      3.2299     60.1901
   902.0000      0.0000    783.2862      3.2207     63.1404
   902.2500      0.0000    768.2820      3.1954     67.1992
   902.5000      0.0000    747.3422      3.1662     69.9049
   902.7500      0.0000    727.7012      3.1366     70.0569
   903.0000      0.0000    714.2521      3.1073     68.6266
   903.2500      0.0000    707.6192      3.0871     67.3641
   903.5000      0.0000    705.6492      3.0875     67.0126
   903.7500      0.0000    705.8542      3.1110     67.1943
   904.0000      0.0000    706.6399      3.1482     67.6212
   904.2500      0.0000    707.2961      3.1853     68.6414
   904.5000      0.0000    707.6579      3.2133     70.3465
   904.7500      0.0000    707.9420      3.2315     71.7926
   905.0000      0.0000    708.7371      3.2463     71.8634
   905.2500      0.0000    710.9325      3.2681     70.7841
   905.5000      0.0000    715.1863      3.3052     70.1708
   905.7500      0.0000    720.9611      3.3589     71.3755
   906.0000      0.0000    726.1633      3.4215     74.0588
   906.2500      0.0000    728.5997      3.4797     76.4888
   906.5000      0.0000    728.1448      3.5216     77.0106
   906.7500      0.0000    726.6797      3.5434     75.1797
   907.0000      0.0000    725.5121      3.5512     71.9322
   907.2500      0.0000    723.8801      3.5561     68.9410
   907.5000      0.0000    720.5945      3.5658     67.5019
   907.7500      0.0000    716.0828      3.5795     67.6842
   908.0000      0.0000    711.9540      3.5915     68.5362
   908.2500      0.0000    709.2662      3.5995     69.0811
   908.5000      0.0000    707.9769      3.6079     68.9979
   908.7500      0.0000    707.7076      3.6212     68.5096
   909.0000      0.0000    708.4969      3.6386     67.9762
   909.2500      0.0000    710.9033      3.6562     67.7156
   909.5000      0.0000    715.4232      3.6729     68.0659
   909.7500      0.0000    721.4935      3.6929     69.3248
   910.0000      0.0000    727.0804      3.7208     71.4422
   910.2500      0.0000    729.9589      3.7581     73.8120
   910.5000      0.0000    729.6625      3.8012     75.6854
   910.7500      0.0000    727.5591      3.8438     77.0648
   911.0000      0.0000    724.9135      3.8805     79.0456
   911.2500      0.0000    721.7966      3.9096     82.8305
   911.5000      0.0000    718.0635      3.9317     88.1958
   911.7500      0.0000    714.3179      3.9477     93.1377
   912.0000      0.0000    711.3932      3.9579     95.2937
   912.2500      0.0000    709.4859      3.9637     93.6918
   912.5000      0.0000    708.1929      3.9643     89.1565
   912.7500      0.0000    707.0903      3.9535     83.5318
   913.0000      0.0000    706.0355      3.9251     78.7391
   913.2500      0.0000    705.1000      3.8827     76.0092
   913.5000      0.0000    704.4172      3.8396     75.5193
   913.7500      0.0000    704.0801      3.8071     76.7479
   914.0000      0.0000    704.0793      3.7854     79.1037
   914.2500      0.0000    704.2979      3.7673     82.0776
   914.5000      0.0000    704.5676      3.7491     84.9443
   914.7500      0.0000    704.7380      3.7338     86.6060
   915.0000      0.0000    704.7130      3.7254     86.0011
   915.2500      0.0000    704.4432      3.7224     82.9703
   915.5000      0.0000    703.9109      3.7188     78.5649
   915.7500      0.0000    703.1459      3.7085     74.1986
   916.0000      0.0000    702.2531      3.6892     70.6917
   916.2500      0.0000    701.3893      3.6614     68.4253
   916.5000      0.0000    700.7004      3.6262     67.9853
   916.7500      0.0000    700.2886      3.5820     69.9437
   917.0000      0.0000    700.2148      3.5255     73.8712
   917.2500      0.0000    700.4727      3.4555     77.9261
   917.5000      0.0000    701.0337      3.3767     79.8038
   917.7500      0.0000    702.0866      3.2988     78.3806
   918.0000      0.0000    704.3491      3.2287     74.6576
   918.2500      0.0000    708.8146      3.1655     71.0675
   918.5000      0.0000    715.4848      3.1053     69.5678
   918.7500      0.0000    722.1260      3.0485     70.2537
   919.0000      0.0000    725.1917      3.0019     71.7359
   919.2500      0.0000    722.9891      2.9721     72.6171
   919.5000      0.0000    717.7000      2.9596     72.4610
   919.7500      0.0000    713.8711      2.9604     71.7043
   920.0000      0.0000    715.3258      2.9711     70.9724
   920.2500      0.0000    723.2231      2.9902     70.5166
   920.5000      0.0000    735.6224      3.0155     70.2138
   920.7500      0.0000    748.6235      3.0423     69.9851
   921.0000      0.0000    759.1236      3.0669     70.0776
   921.2500      0.0000    766.7245      3.0894     70.8275
   921.5000      0.0000    772.3853      3.1132     72.0178
   921.7500      0.0000    775.9722      3.1415     72.6371
   922.0000      0.0000    776.4086      3.1776     71.7731
   922.2500      0.0000    773.7144      3.2238     69.8428
   922.5000      0.0000    769.6903      3.2781     68.4331
   922.7500      0.0000    766.4282      3.3325     68.6774
   923.0000      0.0000    764.5929      3.3752     70.0882
   923.2500      0.0000    763.3900      3.3979     71.2241
   923.5000      0.0000    762.0042      3.4013     71.2091
   923.7500      0.0000    760.5388      3.3927     70.2613
   924.0000      0.0000    759.4129      3.3778     68.9227
   924.2500      0.0000    758.4730      3.3562     67.3004
   924.5000      0.0000    756.9597      3.3242     65.1573
   924.7500      0.0000    753.9192      3.2820     62.4524
   925.0000      0.0000    748.7375      3.2373     59.7521
   925.2500      0.0000    741.7479      3.2028     58.1353
   925.5000      0.0000    734.0438      3.1889     58.4277
   925.7500      0.0000    726.1393      3.1993     60.3345
   926.0000      0.0000    717.2047      3.2323     62.5170
   926.2500      0.0000    706.3635      3.2827     63.7646
   926.5000      0.0000    694.8006      3.3430     64.1709
   926.7500      0.0000    685.9156      3.4059     65.0399
   927.0000      0.0000    683.0019      3.4658     67.3903
   927.2500      0.0000    687.0280      3.5183     70.6151
   927.5000      0.0000    696.6801      3.5585     72.9699
   927.7500      0.0000    710.0555      3.5819     73.3887
   928.0000      0.0000    726.0994      3.5884     72.4126
   928.2500      0.0000    744.5801      3.5830     71.3334
   928.5000      0.0000    764.6542      3.5721     70.7971
   928.7500      0.0000    783.8090      3.5584     70.3748
   929.0000      0.0000    799.0507      3.5395     69.2888
