~Version Information
VERS.                      2.0: CWLS Log ASCII Standard - VERSION 2.0
WRAP.                       NO: One line per depth step
~Well Information Block
STRT.FT               239.2000: 
STOP.FT              1618.0000: 
STEP.FT                 0.1000: 
NULL.                -999.2500: 
COMP.          Pioneer Natural Resources: COMPANY
WELL.          Daytona 31-14 Tr: WELL
FLD.           Purgatoire River: FIELD
LOC.           683' FNL & 1943' FEL: LOCATION
CNTY.               Las Animas: COUNTY
SRVC.                         : SERVICE COMPANY
DATE.          Fri Jan 27 14:32:28 2006: LOG DATE
UWI.           05 071 08681 00: UNIQUE WELL ID
STAT.                 Colorado: STATE
~Curve Information Block
DEPT.FT            0 000 00 00: Depth
DCAL.in                       : CDL Caliper
RHOB.g/cc                     : CDL Bulk Density
RHOC.g/cc                     : CDL Density Correction
DPOR.pu                       : CDL Density Porosity
GR.GAPI                       : Gamma Ray
~Parameter Information Block
~A  Depth       DCAL        RHOB        RHOC        DPOR         GR     
# ...
  1247.2000      8.1403      2.5166      0.2553      8.0833    140.1828
  1247.3000      8.1415      2.5210      0.2198      7.8180    137.4932
  1247.4000      8.1415      2.5123      0.2402      8.3442    134.9304
  1247.5000      8.1447      2.4961      0.2309      9.3271    134.1996
  1247.6000      8.1447      2.4778      0.1919     10.4354    138.4736
  1247.7000      8.1447      2.4653      0.1649     11.1924    147.1610
  1247.8000      8.1442      2.4629      0.1390     11.3406    152.8297
  1247.9000      8.1442      2.4685      0.1385     10.9994    151.2184
  1248.0000      8.1485      2.4745      0.1537     10.6368    145.3032
  1248.1000      8.1485      2.4694      0.2016     10.9428    137.7555
  1248.2000      8.1485      2.4512      0.1695     12.0503    131.2204
  1248.3000      8.1306      2.4361      0.1424     12.9645    130.0963
  1248.4000      8.1306      2.4387      0.1461     12.8060    133.7944
  1248.5000      8.0876      2.4586      0.1391     11.6016    135.6437
  1248.6000      8.0876      2.4916      0.1904      9.6024    133.0579
  1248.7000      8.0876      2.5270      0.2061      7.4521    130.5611
  1248.8000      8.0284      2.5520      0.2142      5.9388    130.2641
  1248.9000      8.0284      2.5663      0.1982      5.0750    131.0600
  1249.0000      8.0081      2.5739      0.2449      4.6130    132.2604
  1249.1000      8.0081      2.5767      0.1980      4.4433    130.9988
  1249.2000      8.0081      2.5764      0.2322      4.4608    128.2091
  1249.3000      8.0086      2.5691      0.1915      4.9027    127.9629
  1249.4000      8.0086      2.5582      0.1568      5.5665    128.0004
  1249.5000      8.0048      2.5510      0.1497      5.9978    124.9645
  1249.6000      8.0048      2.5427      0.1777      6.5044    119.3936
  1249.7000      8.0048      2.5267      0.1295      7.4752    114.1199
  1249.8000      8.0114      2.5100      0.1023      8.4844    114.7850
  1249.9000      8.0114      2.5073      0.0789      8.6501    123.0146
  1250.0000      8.0094      2.5242      0.1066      7.6258    130.0753
  1250.1000      8.0094      2.5462      0.1374      6.2902    127.5406
  1250.2000      8.0094      2.5580      0.1013      5.5770    119.4081
  1250.3000      8.0094      2.5663      0.1081      5.0704    114.7513
  1250.4000      8.0094      2.5826      0.1418      4.0861    115.3440
  1250.5000      8.0078      2.6040      0.1494      2.7904    114.7152
  1250.6000      8.0078      2.6158      0.1805      2.0719    106.7970
  1250.7000      8.0078      2.6065      0.1150      2.6361     94.7542
  1250.8000      8.0064      2.5842      0.1022      3.9849     87.4655
  1250.9000      8.0064      2.5679      0.0749      4.9746     88.5390
  1251.0000      8.0066      2.5669      0.1109      5.0379     91.5483
  1251.1000      8.0066      2.5781      0.0904      4.3602     90.8357
  1251.2000      8.0066      2.5993      0.0850      3.0727     88.2020
  1251.3000      8.0070      2.6256      0.1123      1.4809     86.8263
  1251.4000      8.0070      2.6443      0.1058      0.3434     87.7671
  1251.5000      8.0078      2.6448      0.1206      0.3122     89.5130
  1251.6000      8.0078      2.6247      0.0883      1.5344     88.2832
  1251.7000      8.0078      2.5983      0.0456      3.1336     85.7351
  1251.8000      8.0087      2.5893      0.0639      3.6813     88.8817
  1251.9000      8.0087      2.6102      0.0361      2.4126     96.0134
  1252.0000      8.0080      2.6509      0.0837     -0.0531     99.6413
  1252.1000      8.0080      2.6889      0.1011     -2.3606     99.4638
  1252.2000      8.0080      2.7101      0.1295     -3.6417    100.8143
  1252.3000      8.0081      2.7101      0.0753     -3.6423    105.8156
  1252.4000      8.0081      2.6937      0.0935     -2.6506    111.8800
  1252.5000      8.0065      2.6669      0.0630     -1.0269    117.3884
  1252.6000      8.0065      2.6339      0.0350      0.9785    122.1452
  1252.7000      8.0065      2.5986     -0.0106      3.1176    126.2583
  1252.8000      8.0114      2.5602     -0.0023      5.4415    131.0163
  1252.9000      8.0114      2.5167     -0.0408      8.0776    136.8954
  1253.0000      8.0099      2.4751     -0.0597     10.6027    141.0936
  1253.1000      8.0099      2.4396     -0.0019     12.7539    141.7563
  1253.2000      8.0099      2.4094     -0.0412     14.5821    139.1703
  1253.3000      8.0109      2.3896      0.0074     15.7828    134.8507
  1253.4000      8.0109      2.3848      0.0318     16.0748    133.7580
  1253.5000      8.0077      2.3960      0.0503     15.3931    136.6504
  1253.6000      8.0077      2.4133      0.1000     14.3465    140.7293
  1253.7000      8.0077      2.4174      0.1161     14.0984    144.3446
  1253.8000      8.0091      2.4028      0.0883     14.9831    143.9926
  1253.9000      8.0091      2.3792      0.1013     16.4138    139.1505
  1254.0000      8.0096      2.3520      0.0937     18.0588    134.4951
  1254.1000      8.0096      2.3210      0.0875     19.9414    129.2196
  1254.2000      8.0096      2.2909      0.0913     21.7611    122.2015
  1254.3000      8.0099      2.2705      0.0957     23.0023    120.6475
  1254.4000      8.0099      2.2572      0.0891     23.8049    125.8398
  1254.5000      7.9958      2.2488      0.0659     24.3144    132.6237
  1254.6000      7.9958      2.2575      0.0847     23.7892    139.4342
  1254.7000      7.9958      2.2862      0.1425     22.0477    144.4041
  1254.8000      7.9929      2.3233      0.1388     19.7998    147.0529
  1254.9000      7.9929      2.3647      0.1571     17.2889    150.3636
  1255.0000      7.9950      2.4096      0.1705     14.5695    153.3503
  1255.1000      7.9950      2.4458      0.2148     12.3728    152.4949
  1255.2000      7.9950      2.4588      0.2148     11.5854    150.0476
  1255.3000      7.9948      2.4562      0.1587     11.7455    149.6673
  1255.4000      7.9948      2.4548      0.1526     11.8276    149.2131
  1255.5000      7.9849      2.4433      0.1895     12.5244    146.6715
  1255.6000      7.9849      2.4004      0.1175     15.1285    143.5717
  1255.7000      7.9849      2.3356      0.0132     19.0539    137.2586
  1255.8000      7.9915      2.2719      0.0954     22.9142    129.9891
  1255.9000      7.9915      2.2152      0.0460     26.3534    129.6848
  1256.0000      7.9916      2.1710      0.0181     29.0323    135.1511
  1256.1000      7.9916      2.1480      0.0042     30.4228    139.6593
  1256.2000      7.9916      2.1430     -0.0020     30.7246    138.8115
  1256.3000      7.9778      2.1451      0.0005     30.6025    136.0237
  1256.4000      7.9778      2.1430      0.0621     30.7281    137.2875
  1256.5000      7.9748      2.1362      0.0176     31.1387    141.6965
  1256.6000      7.9748      2.1481      0.0362     30.4200    145.2916
  1256.7000      7.9748      2.1952      0.1298     27.5656    142.9104
  1256.8000      7.9706      2.2582      0.1170     23.7484    134.7078
  1256.9000      7.9706      2.3064      0.0648     20.8258    133.1667
  1257.0000      7.9667      2.3285      0.0411     19.4879    143.6951
  1257.1000      7.9667      2.3381      0.0694     18.9022    155.7001
  1257.2000      7.9667      2.3560      0.0590     17.8172    161.4758
  1257.3000      7.9638      2.3897      0.0982     15.7741    161.6669
  1257.4000      7.9638      2.4274      0.1885     13.4902    158.4263
  1257.5000      7.9641      2.4579      0.1290     11.6415    155.4087
  1257.6000      7.9641      2.4882      0.1259      9.8054    154.5307
  1257.7000      7.9641      2.5180      0.1950      7.9997    153.2357
  1257.8000      7.9662      2.5390      0.1657      6.7257    149.7608
  1257.9000      7.9662      2.5603      0.1373      5.4338    142.8997
  1258.0000      7.9653      2.5864      0.2106      3.8528    137.3450
  1258.1000      7.9653      2.5993      0.1815      3.0747    141.1111
  1258.2000      7.9653      2.5928      0.1519      3.4656    149.9783
  1258.3000      7.9631      2.5846      0.1240      3.9610    154.3428
