~Version Information
VERS.                      2.0: CWLS Log ASCII Standard - VERSION 2.0
WRAP.                       NO: One line per depth step
~Well Information Block
STRT.FT               680.0000: 
STOP.FT              1585.5000: 
STEP.FT                 0.1000: 
NULL.                -999.2500: 
COMP.          Pioneer Natural Resources: COMPANY
WELL.          Screamin' 12-29: WELL
FLD.           Purgatoire River: FIELD
LOC.           2038' FNL & 612' FWL: LOCATION
CNTY.               Las Animas: COUNTY
SRVC.                Patterson: SERVICE COMPANY
DATE.          Wed Mar 29 10:01:18 2006: LOG DATE
UWI.           05 071 08661 00: UNIQUE WELL ID
STAT.                 Colorado: STATE
~Curve Information Block
DEPT.FT            0 000 00 00: Depth
DCAL.in                       : CDL Caliper
RHOB.g/cc                     : CDL Bulk Density
RHOC.g/cc                     : CDL Density Correction
DPOR.pu                       : CDL Density Porosity
GR.GAPI                       : Gamma Ray
NPOR.pu                       : Neutron Porosity
~Parameter Information Block
~A  Depth       DCAL        RHOB        RHOC        DPOR         GR         NPOR    
# ...
   977.6000      7.8557      2.6227      0.0483      1.6530     68.7373     23.8184
   977.7000      7.8557      2.6051     -0.0002      2.7242     69.8403     23.6146
   977.8000      7.8647      2.5922     -0.0363      3.5002     69.8450     22.7180
   977.9000      7.8647      2.5958      0.0249      3.2862     68.3608     21.7806
   978.0000      7.8643      2.6058      0.0057      2.6786     68.6306     21.6766
   978.1000      7.8643      2.6072      0.0450      2.5938     71.9896     22.0217
   978.2000      7.8643      2.5912      0.0131      3.5663     76.1808     22.2122
   978.3000      7.8519      2.5586      0.0154      5.5386     80.0481     22.1496
   978.4000      7.8519      2.5107      0.0089      8.4446     83.0166     21.8303
   978.5000      7.8488      2.4570     -0.0785     11.6978     86.2513     21.8581
   978.6000      7.8488      2.4190     -0.0564     13.9990     90.4595     22.5123
   978.7000      7.8488      2.4029     -0.0555     14.9758     92.8385     23.0885
   978.8000      7.8631      2.3946     -0.0043     15.4770     95.3678     23.2502
   978.9000      7.8631      2.3799     -0.0078     16.3676    104.0956     23.1183
   979.0000      7.8891      2.3609     -0.0043     17.5231    117.7465     22.7264
   979.1000      7.8891      2.3515      0.0118     18.0910    130.0917     22.3818
   979.2000      7.8891      2.3567      0.0820     17.7741    140.3954     22.5926
   979.3000      7.9115      2.3705      0.0851     16.9382    150.8651     23.3259
   979.4000      7.9115      2.3953      0.1312     15.4338    157.5008     24.1563
   979.5000      7.9274      2.4359      0.1807     12.9771    157.6758     24.7624
   979.6000      7.9274      2.4815      0.2635     10.2122    157.3189     24.9453
   979.7000      7.9274      2.5214      0.2483      7.7927    160.3142     24.8153
   979.8000      7.9615      2.5557      0.2994      5.7169    162.6968     24.8062
   979.9000      7.9615      2.5789      0.2911      4.3119    164.0523     24.9062
   980.0000      8.0014      2.5828      0.2657      4.0748    167.4284     24.8764
   980.1000      8.0014      2.5639      0.2638      5.2177    170.8445     24.6642
   980.2000      8.0014      2.5218      0.2423      7.7709    170.5535     24.3020
   980.3000      8.0202      2.4670      0.1730     11.0902    166.1069     24.1670
   980.4000      8.0202      2.4272      0.1105     13.5017    159.8840     24.4745
   980.5000      8.0254      2.4263      0.0774     13.5601    155.9587     24.6512
   980.6000      8.0254      2.4548      0.1257     11.8303    157.4140     24.3262
   980.7000      8.0254      2.4847      0.1273     10.0169    163.5985     24.1422
   980.8000      8.0353      2.5099      0.1202      8.4914    166.8343     24.6478
   980.9000      8.0353      2.5349      0.1805      6.9730    163.7752     25.5584
   981.0000      8.0496      2.5477      0.2334      6.2027    159.7652     26.5740
   981.1000      8.0496      2.5376      0.2200      6.8128    158.0242     27.5908
   981.2000      8.0496      2.5135      0.2110      8.2750    158.5727     28.3149
   981.3000      8.0406      2.4874      0.1260      9.8527    158.2858     28.6774
   981.4000      8.0406      2.4682      0.1094     11.0208    154.1922     29.0272
   981.5000      8.0018      2.4637      0.0889     11.2914    150.1500     29.7368
   981.6000      8.0018      2.4787      0.0749     10.3842    152.2822     31.1296
   981.7000      8.0018      2.5122      0.0810      8.3488    157.5248     32.7860
   981.8000      7.9654      2.5564      0.1163      5.6725    157.3786     34.0190
   981.9000      7.9654      2.5910      0.1629      3.5767    150.9683     34.7924
   982.0000      7.9489      2.6039      0.1055      2.7931    144.8309     34.9562
   982.1000      7.9489      2.6186      0.0126      1.9042    143.3833     34.0366
   982.2000      7.9489      2.6556      0.0490     -0.3369    143.2131     32.4035
   982.3000      7.9387      2.6934      0.0873     -2.6298    140.0420     31.1007
   982.4000      7.9387      2.6993      0.0961     -2.9882    134.9155     30.2286
   982.5000      7.9225      2.6719     -0.0277     -1.3272    130.1462     29.3843
   982.6000      7.9225      2.6327     -0.0313      1.0456    126.2781     28.7300
   982.7000      7.9225      2.5830     -0.0438      4.0602    121.5210     28.0580
   982.8000      7.9067      2.5125     -0.0664      8.3339    116.5437     26.6820
   982.9000      7.9067      2.4355     -0.0878     13.0008    115.5928     25.2748
   983.0000      7.9053      2.3840     -0.0996     16.1220    119.7168     24.7964
   983.1000      7.9053      2.3762      0.0433     16.5958    129.4811     24.8442
   983.2000      7.9053      2.3994      0.0968     15.1853    144.1270     25.0354
   983.3000      7.9151      2.4262      0.1216     13.5628    157.4134     25.2908
   983.4000      7.9151      2.4419      0.1094     12.6149    163.1530     25.3732
   983.5000      7.9190      2.4511      0.1050     12.0559    157.8445     25.4556
   983.6000      7.9190      2.4600      0.1380     11.5168    147.3207     25.8712
   983.7000      7.9190      2.4683      0.1575     11.0140    144.1523     26.5603
   983.8000      7.9176      2.4795      0.1408     10.3359    148.8040     26.9671
   983.9000      7.9176      2.4931      0.1810      9.5063    152.7000     26.7632
   984.0000      7.9196      2.4950      0.1633      9.3970    152.8118     26.4136
   984.1000      7.9196      2.4791      0.1262     10.3550    152.1372     26.6175
   984.2000      7.9196      2.4619      0.0161     11.4017    154.3537     27.2196
   984.3000      7.9227      2.4634      0.0353     11.3097    159.2807     27.6098
   984.4000      7.9227      2.4883      0.0388      9.7998    164.1745     27.5631
   984.5000      7.9249      2.5231      0.1079      7.6916    166.6664     27.0841
   984.6000      7.9249      2.5487      0.1329      6.1402    167.2006     26.2964
   984.7000      7.9249      2.5579      0.1503      5.5803    168.0876     25.5615
   984.8000      7.9258      2.5503      0.1836      6.0411    167.8346     25.2230
   984.9000      7.9258      2.5279      0.1429      7.3974    165.9126     25.4205
   985.0000      7.9264      2.4999      0.1316      9.0962    163.5726     25.8253
   985.1000      7.9264      2.4708      0.1044     10.8605    157.7996     25.7015
   985.2000      7.9264      2.4383      0.0710     12.8305    148.8751     25.0571
   985.3000      7.9272      2.4070      0.0445     14.7285    145.7818     24.7815
   985.4000      7.9272      2.3961      0.0068     15.3859    151.7308     25.3190
   985.5000      7.9267      2.4254      0.0737     13.6093    158.0641     25.9416
   985.6000      7.9267      2.4843      0.1985     10.0444    157.8582     25.9161
   985.7000      7.9267      2.5433      0.2250      6.4673    153.5117     25.5114
   985.8000      7.9241      2.5919      0.2342      3.5242    149.0384     25.1905
   985.9000      7.9241      2.6283      0.2990      1.3166    144.5770     24.9887
   986.0000      7.9210      2.6429      0.2908      0.4329    142.0268     24.7565
   986.1000      7.9210      2.6323      0.2433      1.0712    143.5711     24.5880
   986.2000      7.9210      2.6071      0.2043      2.5998    145.2226     24.6319
   986.3000      7.9194      2.5768      0.1799      4.4337    141.4979     24.6704
   986.4000      7.9194      2.5456      0.0929      6.3270    130.7660     24.5788
   986.5000      7.9199      2.5260      0.0337      7.5150    119.4901     24.5898
   986.6000      7.9199      2.5328      0.0061      7.1018    114.1373     24.7235
   986.7000      7.9199      2.5564      0.0671      5.6719    113.3752     24.9273
   986.8000      7.9231      2.5679      0.0816      4.9777    113.9333     25.2430
   986.9000      7.9231      2.5557      0.0503      5.7145    115.1199     25.3474
   987.0000      7.9240      2.5293      0.0731      7.3172    117.9777     24.9968
   987.1000      7.9240      2.4947      0.0527      9.4146    123.6243     24.6241
