~Version Information
 VERS.                                  2.0 : CWLS LAS VERSION
 WRAP.                                   NO : WRAPING MODE
 SWARE .                 MController 2.5.0N : SOFTWARE VERSION
~Well Information
 WELL.                       Beringer 33-18 : WELL
 COMP.       Pioneer Natural Resources, USA : COMPANY
 FLD.                       Purgatory River : FIELD
 LOC.                 NW/SE Sec18 T34S R34W : LOCATION
 DATE.                              3/26/06 : DATE(S) LOGGED
 SRVC.      Blanco Geological Services, LLC : SERVICE COMPANY
 STAT.                             Colorado : STATE
 CNTY.                           Las Animas : COUNTY
 CTRY.                                  USA : COUNTRY
 API.                       05-071-08725-00 : API NUMBER
 STRT.FT                             178.00 : START DEPTH
 STOP.FT                             850.00 : STOP DEPTH
 STEP.FT                               1.00 : DEPTH INCREMENT
 NULL.                                -9999 : NULL VALUE
~Curve information
 DEPTH.FT                                   :
 ROP.MIN/FT                                 :
 GAS.UNITS                                  :
~ASCII Log data
       178.0     -9999.00          6.7 
       179.0        69.85          7.3 
       180.0         0.13          1.7 
       181.0         0.13          1.5 
       182.0         0.17          1.6 
       183.0         0.13          1.9 
       184.0         0.13          1.7 
       185.0         0.33          2.0 
       186.0         0.13          1.8 
       187.0         0.17          1.8 
       188.0         0.17          1.9 
       189.0         0.13          1.7 
       190.0         0.17          1.5 
       191.0         0.17          1.8 
       192.0         0.17          1.6 
       193.0         0.17          1.8 
       194.0         0.17          1.8 
       195.0         0.17          1.6 
       196.0         0.17          1.9 
       197.0         0.20          1.9 
       198.0         0.22          2.1 
       199.0         0.17          1.9 
       200.0         0.17          1.7 
       201.0         0.20          2.0 
       202.0         2.85          2.0 
       203.0         0.13          1.9 
       204.0         0.20          1.5 
       205.0         0.13          1.7 
       206.0         0.17          1.8 
       207.0         0.17          1.7 
       208.0         0.13          1.6 
       209.0         0.17          1.6 
       210.0         0.17          1.5 
       211.0         0.17          1.6 
       212.0         0.17          1.6 
       213.0         0.17          1.5 
       214.0         0.17          1.8 
       215.0         0.23          1.8 
       216.0         0.17          1.6 
       217.0         0.17          1.9 
       218.0         0.20          1.6 
       219.0         0.17          1.6 
       220.0         0.17          1.7 
       221.0         0.18          1.3 
       222.0         0.20          1.3 
       223.0         0.17          1.4 
       224.0         0.17          1.9 
       225.0         0.20          1.5 
       226.0         0.17          1.4 
       227.0         0.17          1.3 
       228.0         0.20          1.9 
       229.0         0.17          1.3 
       230.0         0.20          1.6 
       231.0         0.20          1.5 
       232.0         3.05          1.7 
       233.0         0.27          1.5 
       234.0         0.30          1.6 
       235.0         0.30          1.6 
       236.0         0.27          1.5 
       237.0         0.30          1.3 
       238.0         0.23          1.5 
       239.0         0.18          1.5 
       240.0         0.20          1.6 
       241.0         0.17          1.2 
       242.0         0.13          1.3 
       243.0         0.20          1.1 
       244.0         0.17          1.1 
       245.0         0.17          1.4 
       246.0         0.17          1.1 
       247.0         0.13          0.8 
       248.0         0.17          0.7 
       249.0         0.17          0.2 
       250.0         0.17          0
       251.0         0.17          0 
       252.0         0.13          0 
       253.0         0.17          0 
       254.0         0.17          0
       255.0         0.17          0
       256.0         0.17          0 
       260.0         0.17          0 
       261.0         0.20          0 
       262.0         2.27          0
       263.0         0.13          0 
       264.0         0.17          0 
       265.0         0.20          0 
       266.0         0.18          0 
       267.0         0.17          2.5 
       268.0         0.17          1.8 
       269.0         0.13          1.8 
       270.0         0.17          1.2 
       271.0         0.17          0.9 
       272.0         0.13          0.8 
       273.0         0.13          1.5 
       274.0         0.70          1.5 
       275.0         0.43          1.5 
       276.0         0.37          1.7 
       277.0         0.37          2.3 
       278.0         0.35          2.4 
       279.0         0.33          2.2 
       280.0         0.33          2.1 
       281.0         0.27          1.8 
       282.0         0.30          1.6 
       283.0         0.30          1.5 
       284.0         0.23          1.8 
       285.0         0.27          1.5 
       286.0         0.23          1.6 
       287.0         0.27          1.7 
       288.0         0.20          1.8 
       289.0         0.20          1.8 
       290.0         0.23          1.6 
       291.0         0.25          1.9 
       292.0         3.32          2.6 
       293.0         0.27          2.5 
       294.0         0.23          2.8 
       295.0         0.27          2.3 
       296.0         0.27          2.6 
       297.0         0.20          2.8 
       298.0         0.27          2.7 
       299.0         0.23          2.8 
       300.0         0.23          2.9 
       301.0         0.23          2.9 
       302.0         0.23          2.9 
       303.0         0.23          3.1 
       304.0         0.27          2.8 
       305.0         0.30          3.2 
       306.0         0.32          3.0 
       307.0         0.30          3.1 
       308.0         0.23          3.5 
       309.0         0.27        125.3 
       310.0         0.30        223.8 
       311.0         0.23        193.6 
       312.0         0.20        131.6 
       313.0         0.27         85.2 
       314.0         0.23         41.6 
       315.0         0.27         21.9 
       316.0         0.27         12.8 
       317.0         0.23          8.3 
       318.0         0.23          6.2 
       319.0         0.28          4.9 
       320.0         0.23          3.7 
       321.0         0.27          3.7 
       322.0         2.62          3.3 
       323.0         0.27          3.9 
       324.0         0.33          4.0 
       325.0         0.27          3.6 
       326.0         0.23          3.2 
       327.0         0.27          3.2 
       328.0         0.30          2.7 
       329.0         0.27          3.0 
       330.0         0.23          3.2 
       331.0         0.20          2.8 
       332.0         0.23          2.8 
       333.0         0.23          3.1 
       334.0         0.30          3.0 
       335.0         0.32          3.2 
       336.0         0.17          2.9 
       337.0         0.23          3.1 
       338.0         0.20          3.2 
       339.0         0.23          3.3 
       340.0         0.23          3.2 
       341.0         0.20          3.0 
       342.0         0.20          3.0 
       343.0         0.20          3.1 
       344.0         0.20          3.5 
       345.0         0.27          3.5 
       346.0         0.30          3.3 
       347.0         0.23          3.5 
       348.0         0.20          3.3 
       349.0         0.20          3.3 
       350.0         0.22          3.1 
       351.0         0.20          3.1 
       352.0        10.08          5.5 
       353.0         0.13          4.1 
       354.0         0.17          4.3 
       355.0         0.33          4.1 
       356.0         0.33          4.6 
       357.0         0.30          4.3 
       358.0         0.37          4.2 
       359.0         0.30          4.3 
       360.0         0.30          4.3 
       361.0         0.23          4.4 
       362.0         0.27          4.3 
       363.0         0.25          4.4 
       364.0         0.23          4.3 
       365.0         0.23          4.4 
       366.0         0.27          4.6 
       367.0         0.30          4.2 
       368.0         0.33          4.2 
       369.0         0.33          4.3 
       370.0         0.27          4.6 
       371.0         0.30          4.5 
       372.0         0.30          4.8 
       373.0         0.43          4.5 
       374.0         0.32          4.4 
       375.0         0.27          4.2 
       376.0         0.23          4.3 
       377.0         0.30          4.4 
       378.0         0.33          4.2 
       379.0         0.43          4.3 
       380.0         0.43          4.2 
       381.0         0.40          4.2 
