~Version Information
VERS.                      2.0: CWLS Log ASCII Standard - VERSION 2.0
WRAP.                       NO: One line per depth step
~Well Information Block
STRT.FT                -7.5000: 
STOP.FT              1350.7500: 
STEP.FT                 0.2500: 
NULL.                -999.2500: 
COMP.          Pioneer Natural Resources: COMPANY
WELL.            Gamma 13-3 Tr: WELL
FLD.           Purgatorie River: FIELD
LOC.           2127' FSL & 738' FWL: LOCATION
STAT.                       CO: State
CNTY.               Las Animas: COUNTY
CTRY.                      USA: Country
SECT.                        3: Section
TOWN.                      33S: Township
RANG.                      67W: Range
SRVC.          Patterson Wireline: SERVICE COMPANY
DATE.          Fri Sep 23 13:24:40 2005: LOG DATE
API.           05 071 08524 00: API
~Curve Information Block
DEPT.FT            0 000 00 00: Depth
CCL.                          : Casing Collar Locator
TT3.usec                      : CBL 3' Travel Time
AMP3.mV                       : CBL 3' Amplitude
GR.GAPI                       : Gamma Ray
~Parameter Information Block
~A  Depth       CCL         TT3         AMP3         GR     
# ...
  1232.0000      0.0000    716.5799      8.1029    100.8597
  1232.2500      0.0000    716.7740      8.4459    107.5267
  1232.5000      0.0000    713.4115      8.6669    114.6518
  1232.7500      0.0000    706.6083      8.7197    120.9480
  1233.0000      0.0000    696.1725      8.6715    125.0577
  1233.2500      0.0000    682.6335      8.6185    126.1416
  1233.5000      0.0000    666.3672      8.5903    124.4212
  1233.7500      0.0000    646.8097      8.5631    121.2254
  1234.0000      0.0000    623.8906      8.5256    118.2579
  1234.2500      0.0000    600.0001      8.4964    116.6316
  1234.5000      0.0000    579.4576      8.4941    116.5592
  1234.7500      0.0000    565.8947      8.5125    117.6774
  1235.0000      0.0000    560.7137      8.5244    119.3735
  1235.2500      0.0000    563.6236      8.4994    120.9007
  1235.5000      0.0000    573.3807      8.4221    121.4267
  1235.7500      0.0000    587.7806      8.3030    120.3344
  1236.0000      0.0000    604.0873      8.1786    118.0306
  1236.2500      0.0000    620.1628      8.0926    116.4860
  1236.5000      0.0000    634.8186      8.0682    118.1556
  1236.7500      0.0000    647.1112      8.0931    123.7604
  1237.0000      0.0000    656.1255      8.1322    131.2580
  1237.2500      0.0000    661.6356      8.1550    137.1576
  1237.5000      0.0000    664.4039      8.1517    139.0498
  1237.7500      0.0000    665.5953      8.1292    137.4713
  1238.0000      0.0000    666.0873      8.0979    135.6080
  1238.2500      0.0000    666.2941      8.0619    136.9012
  1238.5000      0.0000    666.3557      8.0205    142.5877
  1238.7500      0.0000    666.3259      7.9749    151.1945
  1239.0000      0.0000    666.2382      7.9305    159.9304
  1239.2500      0.0000    666.1085      7.8924    166.3166
  1239.5000      0.0000    665.9533      7.8620    169.0061
  1239.7500      0.0000    665.8018      7.8391    168.1346
  1240.0000      0.0000    665.6794      7.8214    165.4434
  1240.2500      0.0000    665.5889      7.8023    163.3802
  1240.5000      0.0000    665.5115      7.7727    163.1696
  1240.7500      0.0000    665.4221      7.7296    163.8663
  1241.0000      0.0000    665.2778      7.6780    163.7664
  1241.2500      0.0000    664.9828      7.6261    162.3745
  1241.5000      0.0000    664.3460      7.5831    160.3619
  1241.7500      0.0000    663.1202      7.5634    157.9287
  1242.0000      0.0000    661.1945      7.5852    154.0027
  1242.2500      0.0000    658.8627      7.6578    147.1194
  1242.5000      0.0000    656.8683      7.7677    136.6493
  1242.7500      0.0000    656.0455      7.8804    123.2577
  1243.0000      0.0000    656.7755      7.9604    108.6213
  1243.2500      0.0000    658.6734      7.9925     94.8200
  1243.5000      0.0000    660.7469      7.9847     83.7172
  1243.7500      0.0000    661.8918      7.9536     76.2636
  1244.0000      0.0000    661.3179      7.9114     71.9647
  1244.2500      0.0000    658.7283      7.8673     69.3393
  1244.5000      0.0000    654.4558      7.8345     67.2930
  1244.7500      0.0000    649.5100      7.8288     65.8309
  1245.0000      0.0000    645.1786      7.8593     65.4901
  1245.2500      0.0000    642.3347      7.9187     66.6585
  1245.5000      0.0000    641.1415      7.9840     69.3677
  1245.7500      0.0000    641.4230      8.0294     73.0521
  1246.0000      0.0000    643.1442      8.0444     76.5023
  1246.2500      0.0000    646.4052      8.0397     78.6200
  1246.5000      0.0000    650.9753      8.0320     79.2944
  1246.7500      0.0000    655.9673      8.0258     79.4308
  1247.0000      0.0000    660.1597      8.0133     80.2275
  1247.2500      0.0000    662.6844      7.9916     82.2248
  1247.5000      0.0000    663.3988      7.9720     84.5536
  1247.7500      0.0000    662.7787      7.9685     85.1310
  1248.0000      0.0000    661.6320      7.9827     82.1756
  1248.2500      0.0000    660.6605      8.0046     75.8838
  1248.5000      0.0000    659.9313      8.0260     68.6202
  1248.7500      0.0000    658.9181      8.0502     63.3738
  1249.0000      0.0000    657.3867      8.0869     61.7542
  1249.2500      0.0000    656.0208      8.1395     63.0301
  1249.5000      0.0000    655.6745      8.1970     64.9516
  1249.7500      0.0000    656.0768      8.2377     65.6349
  1250.0000      0.0000    655.8060      8.2422     64.7441
  1250.2500      0.0000    653.7229      8.2082     63.0630
  1250.5000      0.0000    650.1339      8.1539     61.2996
  1250.7500      0.0000    646.4313      8.1075     59.5749
  1251.0000      0.0000    643.9017      8.0890     57.9839
  1251.2500      0.0000    643.0966      8.0998     57.1964
  1251.5000      0.0000    644.0945      8.1271     58.0843
  1251.7500      0.0000    646.8508      8.1555     60.7945
  1252.0000      0.0000    651.0501      8.1754     64.3218
  1252.2500      0.0000    655.8309      8.1853     66.8642
  1252.5000      0.0000    660.0138      8.1885     66.7604
  1252.7500      0.0000    662.6946      8.1892     63.6425
  1253.0000      0.0000    663.4677      8.1876     59.0309
  1253.2500      0.0000    662.1176      8.1799     55.6306
  1253.5000      0.0000    658.4614      8.1625     55.6549
  1253.7500      0.0000    652.8311      8.1358     59.4825
  1254.0000      0.0000    646.5886      8.1024     65.7193
  1254.2500      0.0000    641.6461      8.0625     72.2827
  1254.5000      0.0000    639.1418      8.0131     77.2362
  1254.7500      0.0000    638.6782      7.9548     79.1149
  1255.0000      0.0000    638.8371      7.8975     77.4964
  1255.2500      0.0000    638.0892      7.8568     73.5742
  1255.5000      0.0000    635.1752      7.8425     69.5243
  1255.7500      0.0000    629.3614      7.8496     66.8541
  1256.0000      0.0000    621.1965      7.8612     65.5255
  1256.2500      0.0000    613.1982      7.8601     64.6790
  1256.5000      0.0000    609.1235      7.8393     63.8457
  1256.7500      0.0000    611.6655      7.8060     63.3683
  1257.0000      0.0000    620.1325      7.7759     63.8569
  1257.2500      0.0000    630.2281      7.7631     65.3024
  1257.5000      0.0000    636.6265      7.7715     66.8527
  1257.7500      0.0000    636.3687      7.7938     67.6255
  1258.0000      0.0000    630.0204      7.8176     67.5769
  1258.2500      0.0000    620.1344      7.8327     67.3888
  1258.5000      0.0000    609.4240      7.8340     67.6675
  1258.7500      0.0000    600.0785      7.8220     68.4159
  1259.0000      0.0000    593.4515      7.8010     69.0784
  1259.2500      0.0000    589.7191      7.7783     68.8204
  1259.5000      0.0000    588.0986      7.7610     66.8348
  1259.7500      0.0000    587.5894      7.7538     62.6777
  1260.0000      0.0000    587.5234      7.7573     56.6874
  1260.2500      0.0000    587.7057      7.7694     50.2699
  1260.5000      0.0000    588.3549      7.7877     45.3949
  1260.7500      0.0000    590.0269      7.8111     43.2640
  1261.0000      0.0000    593.2971      7.8366     43.4698
  1261.2500      0.0000    598.0036      7.8590     44.7834
  1261.5000      0.0000    602.5628      7.8731     46.5534
  1261.7500      0.0000    604.6108      7.8787     48.9111
  1262.0000      0.0000    602.9753      7.8794     51.8417
  1262.2500      0.0000    598.8168      7.8771     54.6483
  1262.5000      0.0000    594.4376      7.8701     56.3887
  1262.7500      0.0000    591.2819      7.8580     56.5402
  1263.0000      0.0000    589.3161      7.8431     55.2443
  1263.2500      0.0000    587.8151      7.8248     53.1490
  1263.5000      0.0000    586.4052      7.7941     51.0614
  1263.7500      0.0000    585.8871      7.7361     49.6460
  1264.0000      0.0000    588.5172      7.6411     49.3788
  1264.2500      0.0000    596.8736      7.5200     50.6452
  1264.5000      0.0000    611.3943      7.4102     53.7350
  1264.7500      0.0000    629.0145      7.3566     58.6482
  1265.0000      0.0000    644.9510      7.3800     64.8977
  1265.2500      0.0000    656.0032      7.4642     71.7824
