~Version Information
VERS.                      2.0: CWLS Log ASCII Standard - VERSION 2.0
WRAP.                       NO: One line per depth step
~Well Information Block
STRT.FT               410.0000: 
STOP.FT              1253.0000: 
STEP.FT                 0.1000: 
NULL.                -999.2500: 
COMP.          Petrogulf Corporation: COMPANY
WELL.           Parsons 15-23R: WELL
FLD.           Purgatorie River: FIELD
LOC.           2244' FSL & 1932' FWL: LOCATION
PROV.                 Colorado: PROVINCE
CNTY.               Las Animas: COUNTRY
SRVC.                Patterson: SERVICE COMPANY
DATE.          Mon Sep 12 10:28:25 2005: LOG DATE
UWI.                          : UNIQUE WELL ID
~Curve Information Block
DEPT.FT            0 000 00 00: Depth
DCAL.in                       : CDL Caliper
RHOB.g/cc                     : CDL Bulk Density
RHOC.g/cc                     : CDL Density Correction
DPOR.pu                       : CDL Density Porosity
GR.GAPI                       : Gamma Ray
NPOR.pu                       : Neutron Porosity
~Parameter Information Block
~A  Depth       DCAL        RHOB        RHOC        DPOR         GR         NPOR    
# ...
   688.4000      7.8456      2.6871      0.0334     -2.2514     80.9769     16.2964
   688.5000      7.7974      2.7322      0.1272     -4.9807     78.2050     16.2425
   688.6000      7.7974      2.7866      0.1370     -8.2768     78.1428     16.8286
   688.7000      7.7974      2.8413      0.1225    -11.5959     81.4465     17.8197
   688.8000      7.7712      2.8929      0.1840    -14.7233     84.9351     18.9261
   688.9000      7.7712      2.9241      0.1688    -16.6120     87.4024     19.5605
   689.0000      7.7880      2.9221      0.1729    -16.4934     89.5488     19.5352
   689.1000      7.7880      2.8842      0.1679    -14.1948     92.9779     19.5970
   689.2000      7.7880      2.8122      0.0911     -9.8288     97.7703     20.5166
   689.3000      7.8000      2.7127      0.0389     -3.8000    101.4582     22.1831
   689.4000      7.8000      2.6054     -0.0456      2.7058    103.8120     23.8541
   689.5000      7.8175      2.5195     -0.0461      7.9096    108.3911     24.9633
   689.6000      7.8175      2.4677     -0.0279     11.0474    117.8554     25.4691
   689.7000      7.8175      2.4483     -0.0293     12.2233    130.0139     25.5156
   689.8000      7.9321      2.4579     -0.0047     11.6433    139.7939     25.4389
   689.9000      7.9321      2.4829      0.0667     10.1266    144.2043     25.7220
   690.0000      7.9582      2.5081      0.0925      8.6004    142.8972     26.3443
   690.1000      7.9582      2.5265      0.0785      7.4845    138.4266     26.8488
   690.2000      7.9582      2.5307      0.0867      7.2278    135.9084     27.0615
   690.3000      7.9489      2.5169      0.0618      8.0678    136.9236     27.1535
   690.4000      7.9489      2.4977      0.0253      9.2293    137.1470     27.1032
   690.5000      7.9498      2.4949      0.0042      9.3998    135.0782     26.8581
   690.6000      7.9498      2.5131      0.0476      8.2955    132.8440     26.5606
   690.7000      7.9498      2.5310      0.0399      7.2093    130.9476     26.3032
   690.8000      7.9516      2.5323      0.0346      7.1306    131.6143     26.2041
   690.9000      7.9516      2.5239      0.0133      7.6449    135.9184     26.2987
   691.0000      7.9394      2.5151      0.0551      8.1782    139.7828     26.2783
   691.1000      7.9394      2.5087     -0.0022      8.5610    140.6616     26.1183
   691.2000      7.9394      2.5155      0.0246      8.1505    140.5529     26.1130
   691.3000      7.9296      2.5452      0.0229      6.3491    142.3012     26.3841
   691.4000      7.9296      2.5955      0.0788      3.3051    144.4005     26.8460
   691.5000      7.9344      2.6646      0.0365     -0.8865    142.0236     27.2388
   691.6000      7.9344      2.7465      0.0936     -5.8463    136.5709     27.2506
   691.7000      7.9344      2.8132      0.1713     -9.8883    133.4404     26.9462
   691.8000      7.9207      2.8530      0.1839    -12.3033    132.8101     26.6718
   691.9000      7.9207      2.8835      0.1689    -14.1526    131.8800     26.5349
   692.0000      7.8728      2.8991      0.1957    -15.0952    130.9862     26.5417
   692.1000      7.8728      2.8737      0.1349    -13.5590    132.0156     26.7623
   692.2000      7.8728      2.8108      0.0353     -9.7470    132.7475     27.0313
   692.3000      7.8800      2.7343      0.0209     -5.1093    131.1706     27.1362
   692.4000      7.8800      2.6654     -0.0434     -0.9352    129.8800     27.0354
   692.5000      7.9378      2.6230     -0.0305      1.6383    130.5828     26.7460
   692.6000      7.9378      2.6067     -0.0036      2.6230    132.4945     26.2966
   692.7000      7.9378      2.5968      0.0322      3.2264    135.2648     26.0101
   692.8000      7.9611      2.5835      0.0014      4.0302    139.5205     26.1272
   692.9000      7.9611      2.5779      0.0136      4.3700    144.7085     26.2009
   693.0000      7.9680      2.5861      0.0411      3.8713    148.4777     26.0707
   693.1000      7.9680      2.5956      0.0532      3.2942    148.4140     26.2436
   693.2000      7.9680      2.5908      0.0398      3.5894    145.2190     26.7351
   693.3000      7.9776      2.5651      0.0204      5.1440    142.9789     26.8062
   693.4000      7.9776      2.5270     -0.0171      7.4529    144.2535     26.1664
   693.5000      7.9547      2.4993     -0.0374      9.1341    146.1000     25.4723
   693.6000      7.9547      2.5018     -0.0114      8.9821    144.5791     25.4408
   693.7000      7.9547      2.5308      0.0583      7.2231    142.2042     26.0444
   693.8000      7.9436      2.5610      0.0953      5.3944    141.6299     26.6073
   693.9000      7.9436      2.5729      0.1258      4.6728    139.0819     26.6199
   694.0000      7.9307      2.5728      0.1261      4.6759    135.8065     26.2457
   694.1000      7.9307      2.5758      0.1119      4.4987    137.1591     25.6908
   694.2000      7.9307      2.5835      0.1418      4.0275    138.9530     25.0127
   694.3000      7.9341      2.5969      0.1032      3.2186    135.3234     24.6260
   694.4000      7.9341      2.6173      0.1517      1.9790    129.5913     24.8869
   694.5000      7.9497      2.6246      0.1480      1.5410    128.6037     25.6083
   694.6000      7.9497      2.5978      0.1472      3.1614    133.0744     26.4293
   694.7000      7.9497      2.5520      0.0635      5.9400    135.7054     27.0078
   694.8000      7.9571      2.5184      0.0852      7.9745    132.8777     26.9689
   694.9000      7.9571      2.5102      0.0510      8.4700    130.7489     26.4317
   695.0000      7.9628      2.5256      0.0375      7.5365    132.5307     25.9341
   695.1000      7.9628      2.5458      0.0945      6.3130    132.5603     25.6524
   695.2000      7.9628      2.5496      0.0650      6.0834    129.0338     25.4910
   695.3000      7.9791      2.5497      0.0583      6.0786    126.2749     25.4462
   695.4000      7.9791      2.5659      0.1039      5.0985    126.4524     25.5062
   695.5000      7.9405      2.5851      0.1295      3.9329    128.2518     25.5396
   695.6000      7.9405      2.5865      0.1074      3.8507    129.6318     25.7235
   695.7000      7.9405      2.5720      0.1237      4.7273    130.0575     26.1434
   695.8000      7.9425      2.5586      0.1047      5.5365    131.2263     26.3972
   695.9000      7.9425      2.5613      0.0889      5.3763    134.1247     26.4212
   696.0000      7.9579      2.5783      0.0995      4.3464    134.9280     26.4357
   696.1000      7.9579      2.5934      0.1158      3.4286    131.0303     26.4821
   696.2000      7.9579      2.5930      0.1335      3.4571    128.2970     26.5047
   696.3000      7.9831      2.5748      0.0975      4.5550    131.5215     26.4221
   696.4000      7.9831      2.5537      0.0363      5.8371    135.6327     26.2479
   696.5000      7.9824      2.5490      0.0246      6.1241    135.8894     26.0345
   696.6000      7.9824      2.5585      0.0724      5.5434    132.2203     25.6509
   696.7000      7.9824      2.5642      0.0458      5.1977    126.2014     24.9080
   696.8000      7.9595      2.5625      0.0605      5.3007    121.4663     24.0266
   696.9000      7.9595      2.5636      0.0895      5.2365    119.7255     23.5812
   697.0000      7.9509      2.5700      0.0712      4.8479    119.5997     23.8635
   697.1000      7.9509      2.5718      0.0709      4.7396    122.1083     24.6064
   697.2000      7.9509      2.5659      0.0242      5.0977    128.2087     25.2887
   697.3000      7.9658      2.5647      0.0246      5.1718    135.1717     25.6287
   697.4000      7.9658      2.5702      0.0459      4.8391    141.2198     25.7201
   697.5000      8.0018      2.5614      0.1133      5.3698    146.8259     25.7645
   697.6000      8.0018      2.5297      0.0121      7.2935    152.7931     25.8333
   697.7000      8.0018      2.5004     -0.0053      9.0651    156.9065     25.8561
   697.8000      8.0217      2.4894      0.0585      9.7304    156.3546     25.9478
   697.9000      8.0217      2.4861      0.0482      9.9338    153.8973     26.3950
