~Version Information
VERS.                      2.0: CWLS Log ASCII Standard - VERSION 2.0
WRAP.                       NO: One line per depth step
~Well Information Block
STRT.FT               550.0000: 
STOP.FT              1979.0000: 
STEP.FT                 0.1000: 
NULL.                -999.2500: 
COMP.          Pioneer Natural Resources: COMPANY
WELL.          Flying Horse 12-11 Tr: WELL
FLD.           Purgatoire River: FIELD
LOC.           2459' FNL & 410' FWL: LOCATION
STAT.                 Colorado: PROVINCE
CNTY.               Las Animas: COUNTY
CTRY. USA : Country
SECT. 11 : Section
TOWN. 32S : Township
RANG. 66W : Range
SRVC.                Patterson: SERVICE COMPANY
DATE.          Tue Sep 06 07:09:24 2005: LOG DATE
API.           05 071 08485 00: UNIQUE WELL ID
~Curve Information Block
DEPT.FT            0 000 00 00: Depth
DCAL.in                       : CDL Caliper
RHOB.g/cc                     : CDL Bulk Density
RHOC.g/cc                     : CDL Density Correction
DPOR.pu                       : CDL Density Porosity
GR.GAPI                       : Gamma Ray
NPOR.pu                       : Neutron Porosity
~Parameter Information Block
~A  Depth       DCAL        RHOB        RHOC        DPOR         GR         NPOR    
# ...
  1020.4000      8.0706      2.5001      0.0688      9.0845     94.6182     20.8153
  1020.5000      8.0847      2.4984      0.0884      9.1865     91.6062     20.6238
  1020.6000      8.0847      2.4914      0.0557      9.6134     88.0019     20.5115
  1020.7000      8.0847      2.4836      0.0455     10.0831     86.0602     20.2368
  1020.8000      8.0872      2.4810      0.0179     10.2426     84.7249     19.9367
  1020.9000      8.0872      2.4806      0.0376     10.2692     83.1361     19.9715
  1021.0000      8.1034      2.4786      0.0297     10.3854     81.5616     20.2809
  1021.1000      8.1034      2.4848      0.0324     10.0150     77.0924     20.5846
  1021.2000      8.1034      2.5081      0.0414      8.5970     70.4755     20.7800
  1021.3000      8.0929      2.5351      0.0826      6.9655     66.4898     20.9572
  1021.4000      8.0929      2.5410      0.0724      6.6048     65.4401     20.9354
  1021.5000      8.0925      2.5254      0.0739      7.5527     67.2416     20.4000
  1021.6000      8.0925      2.5049      0.0549      8.7920     69.4015     19.7972
  1021.7000      8.0925      2.4884      0.0444      9.7958     67.2327     19.7912
  1021.8000      8.0968      2.4730      0.0705     10.7248     64.1665     20.1850
  1021.9000      8.0968      2.4588      0.0128     11.5855     62.5407     20.4040
  1022.0000      8.1069      2.4495      0.0087     12.1531     58.9524     20.2637
  1022.1000      8.1069      2.4376      0.0820     12.8717     56.4891     19.9513
  1022.2000      8.1069      2.4231      0.0037     13.7527     60.8325     19.8471
  1022.3000      8.1041      2.4300      0.0037     13.3350     68.6523     20.0956
  1022.4000      8.1041      2.4587      0.0913     11.5960     74.0447     20.4383
  1022.5000      8.1065      2.4756      0.0848     10.5679     77.2125     20.7466
  1022.6000      8.1065      2.4677      0.0475     11.0455     78.2125     20.9229
  1022.7000      8.1065      2.4512      0.0523     12.0462     75.6213     20.9431
  1022.8000      8.0969      2.4429      0.0567     12.5526     71.9855     21.0354
  1022.9000      8.0969      2.4489      0.0527     12.1886     71.9019     21.4597
  1023.0000      8.0861      2.4716      0.0214     10.8148     74.8406     22.2321
  1023.1000      8.0861      2.5083      0.0694      8.5854     77.1033     23.0372
  1023.2000      8.0861      2.5405      0.1094      6.6365     79.6411     23.5754
  1023.3000      8.0830      2.5492      0.1408      6.1118     82.3210     23.7641
  1023.4000      8.0830      2.5431      0.0591      6.4804     80.6613     23.7328
  1023.5000      8.0848      2.5437      0.0823      6.4405     74.4120     23.5560
  1023.6000      8.0848      2.5586      0.0840      5.5420     66.8571     23.3907
  1023.7000      8.0848      2.5888      0.0802      3.7081     59.6444     23.5022
  1023.8000      8.0894      2.6286      0.1132      1.2950     54.7499     23.8102
  1023.9000      8.0894      2.6612      0.1271     -0.6769     54.9269     23.9037
  1024.0000      8.0627      2.6746      0.1600     -1.4904     59.9512     23.4680
  1024.1000      8.0627      2.6710      0.1492     -1.2731     66.3408     22.7783
  1024.2000      8.0627      2.6616      0.1344     -0.7022     69.1078     22.4324
  1024.3000      8.0455      2.6551      0.1126     -0.3066     67.2563     22.4773
  1024.4000      8.0455      2.6492      0.1387      0.0495     65.8073     22.3382
  1024.5000      8.0434      2.6353      0.1016      0.8895     65.8495     21.6622
  1024.6000      8.0434      2.6103      0.0824      2.4054     66.2330     20.7492
  1024.7000      8.0434      2.5765      0.0436      4.4565     67.3216     19.9561
  1024.8000      8.0024      2.5356      0.0084      6.9357     66.9811     19.4240
  1024.9000      8.0024      2.4890      0.0105      9.7602     63.8208     19.2877
  1025.0000      8.0323      2.4418      0.0044     12.6156     62.2812     19.4553
  1025.1000      8.0323      2.4036     -0.0342     14.9347     67.1066     19.7063
  1025.2000      8.0323      2.3748     -0.0564     16.6789     76.4288     20.0781
  1025.3000      8.0798      2.3539     -0.0904     17.9440     84.8575     20.7488
  1025.4000      8.0798      2.3483     -0.0464     18.2875     89.7811     21.6003
  1025.5000      8.1291      2.3560     -0.0222     17.8161     94.1950     22.4998
  1025.6000      8.1291      2.3701      0.0071     16.9609    100.9397     23.3054
  1025.7000      8.1291      2.3896      0.0459     15.7839    109.8996     23.9359
  1025.8000      8.1405      2.4150      0.0689     14.2426    117.5413     24.5203
  1025.9000      8.1405      2.4514      0.1043     12.0340    120.3621     24.9591
  1026.0000      8.1326      2.4987      0.0939      9.1689    122.6757     25.2178
  1026.1000      8.1326      2.5286      0.2136      7.3585    131.9144     25.4528
  1026.2000      8.1326      2.5012      0.1383      9.0182    147.9033     25.6677
  1026.3000      8.1709      2.4245      0.0136     13.6654    160.3924     25.7737
  1026.4000      8.1709      2.3487     -0.0211     18.2606    166.0285     25.7714
  1026.5000      8.1685      2.3059     -0.0338     20.8521    169.3419     25.6613
  1026.6000      8.1685      2.2919     -0.0095     21.7033    169.4022     25.3719
  1026.7000      8.1685      2.2903     -0.0045     21.8016    167.6004     24.9457
  1026.8000      8.1871      2.3037      0.0010     20.9890    166.4546     24.7839
  1026.9000      8.1871      2.3434      0.0611     18.5802    164.6817     25.3226
  1027.0000      8.1659      2.3934      0.1583     15.5529    163.6229     26.2337
  1027.1000      8.1659      2.4318      0.1558     13.2224    164.6431     26.7628
  1027.2000      8.1659      2.4608      0.1890     11.4695    164.6166     26.9742
  1027.3000      8.1654      2.4858      0.2783      9.9504    163.7360     27.2515
  1027.4000      8.1654      2.5160      0.1903      8.1186    167.9063     27.3482
  1027.5000      8.1586      2.5572      0.2451      5.6228    173.1786     26.9784
  1027.6000      8.1586      2.5825      0.2531      4.0932    168.8802     26.5744
  1027.7000      8.1586      2.5699      0.2152      4.8562    162.5108     26.6032
  1027.8000      8.1430      2.5400      0.1131      6.6661    167.4785     26.8207
  1027.9000      8.1430      2.5181      0.1144      7.9961    175.5672     27.0367
  1028.0000      8.0756      2.5045      0.0900      8.8210    173.4663     27.3026
  1028.1000      8.0756      2.4943      0.0430      9.4375    164.4156     27.5575
  1028.2000      8.0756      2.4874      0.0251      9.8569    158.6010     27.6349
  1028.3000      8.1277      2.4806      0.0400     10.2661    157.1631     27.4753
  1028.4000      8.1277      2.4742      0.0305     10.6518    157.2009     27.1572
  1028.5000      8.1663      2.4755      0.0401     10.5761    161.5426     26.6510
  1028.6000      8.1663      2.4933      0.0759      9.4987    169.5282     25.8463
  1028.7000      8.1663      2.5187      0.1375      7.9568    174.2953     24.9300
  1028.8000      8.1782      2.5177      0.1545      8.0189    174.6533     24.3414
  1028.9000      8.1782      2.4717      0.1320     10.8073    172.3079     23.8271
  1029.0000      8.1707      2.3943      0.0969     15.4948    167.5830     22.7829
  1029.1000      8.1707      2.2949      0.1051     21.5196    162.6814     21.4604
  1029.2000      8.1707      2.1612      0.0594     29.6261    161.1863     20.1862
  1029.3000      8.1586      1.9974     -0.0334     39.5515    163.2806     18.7359
  1029.4000      8.1586      1.8418     -0.0343     48.9797    163.4985     17.2871
  1029.5000      8.1448      1.7189     -0.0685     56.4300    160.2114     16.4847
  1029.6000      8.1448      1.6161     -0.0460     62.6626    158.2409     16.6404
  1029.7000      8.1448      1.5329     -0.0710     67.7060    156.6749     17.7313
  1029.8000      8.1705      1.5115     -0.0368     69.0004    150.6807     19.3839
  1029.9000      8.1705      1.5923      0.0136     64.1008    139.6567     20.7905
