~Version Information
VERS.                      2.0: CWLS Log ASCII Standard - VERSION 2.0
WRAP.                       NO: One line per depth step
~Well Information Block
STRT.FT               -12.0000: 
STOP.FT              1266.5000: 
STEP.FT                 0.2500: 
NULL.                -999.2500: 
COMP.          Pioneer Natural Resources: COMPANY
WELL.          Hot Tomatoes 22-20: WELL
FLD.           Purgatorie River: FIELD
LOC.           2120' FNL & 2585' FWL: LOCATION
CNTY.               Las Animas: COUNTY
SRVC.                Patterson: SERVICE COMPANY
DATE.          Thu Mar 02 13:59:39 2006: LOG DATE
UWI.           05 071 08701 00: UNIQUE WELL ID
STAT.                       CO: STATE
~Curve Information Block
DEPT.FT            0 000 00 00: Depth
GR.GAPI                       : Gamma Ray
CCL.                          : Casing Collar Locator
TT3.usec                      : CBL 3' Travel Time
AMP3.mV                       : CBL 3' Amplitude
~Parameter Information Block
~A  Depth        GR         CCL         TT3         AMP3    
# ...
   323.0000     69.1636      0.0000    743.5959      9.3060
   323.2500     73.1622      0.0000    728.2605      9.6172
   323.5000     76.3905      0.0000    720.4957      9.6023
   323.7500     78.9687      0.0000    717.2878      9.3007
   324.0000     80.9359      0.0000    715.6482      8.8753
   324.2500     82.0170      0.0000    713.4390      8.5173
   324.5000     81.6341      0.0000    710.3412      8.3471
   324.7500     79.2488      0.0000    707.3310      8.3667
   325.0000     75.0305      0.0000    705.2694      8.4861
   325.2500     70.3857      0.0000    704.2266      8.5930
   325.5000     67.4658      0.0000    703.8204      8.6094
   325.7500     67.6166      0.0000    703.7174      8.5074
   326.0000     70.3278      0.0000    703.7935      8.3053
   326.2500     73.9991      0.0000    704.0450      8.0549
   326.5000     77.5336      0.0000    704.4753      7.8226
   326.7500     80.7563      0.0000    705.0446      7.6667
   327.0000     83.5869      0.0000    705.6902      7.6177
   327.2500     85.5724      0.0000    706.3654      7.6652
   327.5000     86.2998      0.0000    707.0445      7.7621
   327.7500     85.8560      0.0000    707.6837      7.8507
   328.0000     84.8093      0.0000    708.2355      7.8944
   328.2500     83.8045      0.0000    708.8132      7.8910
   328.5000     83.0771      0.0000    709.9000      7.8638
   328.7500     82.4004      0.0000    712.2609      7.8448
   329.0000     81.5876      0.0000    716.2704      7.8571
   329.2500     81.0087      0.0000    721.0004      7.9027
   329.5000     81.5760      0.0000    724.2139      7.9619
   329.7500     84.0918      0.0000    723.9314      8.0076
   330.0000     88.3507      0.0000    720.2315      8.0306
   330.2500     92.7870      0.0000    715.1746      8.0504
   330.5000     95.3135      0.0000    710.9521      8.0957
   330.7500     94.8390      0.0000    708.4366      8.1666
   331.0000     91.9583      0.0000    707.3052      8.2290
   331.2500     88.1086      0.0000    706.9034      8.2562
   331.5000     84.3437      0.0000    706.7766      8.2652
   331.7500     81.1126      0.0000    706.7236      8.2990
   332.0000     78.8313      0.0000    706.6516      8.3750
   332.2500     78.0997      0.0000    706.3681      8.4575
   332.5000     79.1567      0.0000    705.3633      8.4851
   332.7500     81.2682      0.0000    702.7807      8.4309
   333.0000     82.8696      0.0000    697.8444      8.3255
   333.2500     82.6038      0.0000    690.6763      8.2062
   333.5000     80.4487      0.0000    682.7905      8.0542
   333.7500     77.8200      0.0000    676.5803      7.8072
   334.0000     76.4457      0.0000    674.1086      7.4387
   334.2500     77.1203      0.0000    676.1540      7.0076
   334.5000     79.4395      0.0000    681.9264      6.6213
   334.7500     82.3469      0.0000    689.3915      6.3597
   335.0000     84.7400      0.0000    696.2229      6.2325
   335.2500     85.9063      0.0000    700.9775      6.1983
   335.5000     85.8485      0.0000    703.5607      6.2141
   335.7500     85.3471      0.0000    704.6948      6.2649
   336.0000     85.6724      0.0000    705.1321      6.3494
   336.2500     87.9953      0.0000    705.3146      6.4479
   336.5000     92.6514      0.0000    705.4404      6.5154
   336.7500     98.7356      0.0000    705.5777      6.5102
   337.0000    104.5361      0.0000    705.6938      6.4238
   337.2500    108.5818      0.0000    705.7022      6.2844
   337.5000    110.4690      0.0000    705.5663      6.1383
   337.7500    110.8318      0.0000    705.3553      6.0278
   338.0000    110.5893      0.0000    705.1812      5.9754
   338.2500    110.3563      0.0000    705.1072      5.9795
   338.5000    110.4659      0.0000    705.1243      6.0294
   338.7500    111.0181      0.0000    705.1818      6.1251
   339.0000    111.6373      0.0000    705.2437      6.2757
   339.2500    111.5766      0.0000    705.3997      6.4757
   339.5000    110.2708      0.0000    706.0720      6.6843
   339.7500    107.5745      0.0000    708.1280      6.8355
   340.0000    103.5792      0.0000    712.4968      6.8795
   340.2500     98.5380      0.0000    719.2711      6.8206
   340.5000     92.9580      0.0000    727.1486      6.7111
   340.7500     87.5253      0.0000    734.0999      6.6049
   341.0000     82.7816      0.0000    738.7858      6.5204
   341.2500     78.8068      0.0000    741.3295      6.4444
   341.5000     75.3151      0.0000    742.9401      6.3587
   341.7500     72.1336      0.0000    745.0840      6.2584
   342.0000     69.4465      0.0000    748.7162      6.1571
   342.2500     67.5424      0.0000    753.6184      6.0880
   342.5000     66.5606      0.0000    758.3690      6.0954
   342.7500     66.5997      0.0000    761.4905      6.2150
   343.0000     67.9020      0.0000    762.6760      6.4543
   343.2500     70.7751      0.0000    762.3017      6.7948
   343.5000     75.2135      0.0000    759.8959      7.2139
   343.7500     80.5902      0.0000    754.1288      7.7010
   344.0000     85.9539      0.0000    744.5993      8.2469
   344.2500     90.7518      0.0000    732.8538      8.8281
   344.5000     95.0710      0.0000    721.2443      9.4092
   344.7500     99.0620      0.0000    711.1393      9.9518
   345.0000    102.3500      0.0000    702.5805     10.4125
   345.2500    104.1814      0.0000    695.5544     10.7483
   345.5000    104.0756      0.0000    691.0159     10.9403
   345.7500    102.3217      0.0000    689.8699     11.0142
   346.0000     99.8747      0.0000    690.7115     11.0357
   346.2500     97.6548      0.0000    688.7810     11.0836
   346.5000     95.8490      0.0000    677.6054     11.2166
   346.7500     94.0022      0.0000    653.2121     11.4552
   347.0000     91.8312      0.0000    619.4327     11.7907
   347.2500     89.7514      0.0000    589.6495     12.2025
   347.5000     88.5665      0.0000    580.0799     12.6551
   347.7500     88.8508      0.0000    597.8074     13.0827
   348.0000     90.6825      0.0000    634.7697     13.4016
   348.2500     93.6736      0.0000    673.9739     13.5529
   348.5000     97.1528      0.0000    701.5374     13.5438
   348.7500    100.5548      0.0000    713.7179     13.4475
   349.0000    103.6033      0.0000    715.0785     13.3509
   349.2500    105.8929      0.0000    712.2343     13.2748
   349.5000    106.4570      0.0000    709.3721     13.1301
   349.7500    104.1364      0.0000    707.7078     12.7709
   350.0000     98.6897      0.0000    707.0888     12.1307
   350.2500     91.7476      0.0000    707.4744     11.3173
   350.5000     86.3378      0.0000    709.6387     10.5563
   350.7500     84.7358      0.0000    715.0662     10.0307
   351.0000     86.7012      0.0000    724.7202      9.7832
   351.2500     90.2220      0.0000    737.0919      9.7525
   351.5000     93.7453      0.0000    747.5996      9.8648
   351.7500     97.1001      0.0000    750.8365     10.0784
   352.0000    100.4566      0.0000    743.9960     10.3606
   352.2500    103.1766      0.0000    728.5486     10.6598
   352.5000    104.1825      0.0000    709.5134     10.9265
   352.7500    103.3363      0.0000    693.3465     11.1572
   353.0000    101.9191      0.0000    685.1919     11.3869
   353.2500    101.3865      0.0000    686.5526     11.6297
   353.5000    101.7801      0.0000    694.5731     11.8432
   353.7500    101.6064      0.0000    703.3512     11.9564
   354.0000     99.3094      0.0000    706.9811     11.9117
   354.2500     94.8777      0.0000    702.7394     11.6710
   354.5000     90.0035      0.0000    692.0982     11.2011
   354.7500     86.6573      0.0000    678.5667     10.5090
   355.0000     85.6656      0.0000    664.8945      9.7247
   355.2500     86.6855      0.0000    653.3555      9.0913
   355.5000     89.0306      0.0000    648.3329      8.7844
   355.7500     91.9633      0.0000    655.5645      8.7588
   356.0000     94.3307      0.0000    676.3879      8.8559
   356.2500     94.6210      0.0000    704.0687      9.0141
