~Version Information
VERS.                      2.0: CWLS Log ASCII Standard - VERSION 2.0
WRAP.                       NO: One line per depth step
~Well Information Block
STRT.FT               230.2000: 
STOP.FT              1518.7000: 
STEP.FT                 0.1000: 
NULL.                -999.2500: 
COMP.          Pioneer Natural Resources: COMPANY
WELL.          Mow 8-14-33-67 Tr: WELL
FLD.           Purgatoire River: FIELD
LOC.           2258' FNL & 929' FEL: LOCATION
PROV.                 Colorado: PROVINCE
CNTY.               Las Animas: COUNTRY
SRVC.                Patterson: SERVICE COMPANY
DATE.          Mon Jan 30 11:22:55 2006: LOG DATE
UWI.           05 071 08684 00: UNIQUE WELL ID
~Curve Information Block
DEPT.FT            0 000 00 00: Depth
DCAL.in                       : CDL Caliper
DPOR.pu                       : CDL Density Porosity
RHOB.g/cc                     : CDL Bulk Density
RHOC.g/cc                     : CDL Density Correction
GR.GAPI                       : Gamma Ray
~Parameter Information Block
~A  Depth       DCAL        DPOR        RHOB        RHOC         GR     
# ...
  1092.6000      7.9231      9.1248      2.4994      0.0767    105.4565
  1092.7000      7.9231      9.7625      2.4889     -0.0090    141.9947
  1092.8000      7.9305      9.0992      2.4999      0.0400    177.7270
  1092.9000      7.9305      7.9236      2.5193      0.0785    187.5929
  1093.0000      7.9269      7.3601      2.5286      0.0698    180.5411
  1093.1000      7.9269      7.4854      2.5265      0.0763    169.8579
  1093.2000      7.9269      8.0659      2.5169      0.0633    160.1736
  1093.3000      7.9172      8.9046      2.5031      0.0488    166.4305
  1093.4000      7.9172      9.7968      2.4884      0.0804    188.3891
  1093.5000      7.9126     10.9015      2.4701      0.0797    203.5157
  1093.6000      7.9126     12.2118      2.4485      0.0129    200.7448
  1093.7000      7.9126     13.4057      2.4288      0.0620    183.2509
  1093.8000      7.9118     14.3581      2.4131      0.0662    156.2280
  1093.9000      7.9118     14.7276      2.4070      0.0398    131.0215
  1094.0000      7.9088     14.3407      2.4134      0.0281    121.6288
  1094.1000      7.9088     13.9730      2.4194      0.0532    132.5999
  1094.2000      7.9088     14.7560      2.4065      0.0507    148.8898
  1094.3000      7.9021     17.2926      2.3647      0.1113    155.3470
  1094.4000      7.9021     21.0685      2.3024      0.0521    157.0665
  1094.5000      7.8938     24.4540      2.2465      0.0464    157.9207
  1094.6000      7.8938     26.3391      2.2154      0.0531    154.0815
  1094.7000      7.8938     27.0802      2.2032      0.1079    156.7447
  1094.8000      7.9001     27.2948      2.1996      0.0937    179.0536
  1094.9000      7.9001     26.7723      2.2083      0.0767    202.9126
  1095.0000      7.9139     25.5720      2.2281      0.1178    197.8379
  1095.1000      7.9139     24.2749      2.2495      0.1121    164.8472
  1095.2000      7.9139     22.6408      2.2764      0.1259    132.9750
  1095.3000      7.9062     20.1444      2.3176      0.1661    124.1005
  1095.4000      7.9062     17.0233      2.3691      0.1749    133.0695
  1095.5000      7.8861     14.2239      2.4153      0.1361    138.4740
  1095.6000      7.8861     12.9403      2.4365      0.1255    128.1346
  1095.7000      7.8861     13.3981      2.4289      0.0564    108.5021
  1095.8000      7.8722     14.4098      2.4122      0.0375    101.9897
  1095.9000      7.8722     14.8550      2.4049      0.0290    118.1968
  1096.0000      7.8639     14.5492      2.4099      0.0180    138.8236
  1096.1000      7.8639     14.1185      2.4170      0.0415    147.3460
  1096.2000      7.8639     14.8619      2.4048      0.1041    152.1925
  1096.3000      7.8658     16.9244      2.3707      0.0279    164.5556
  1096.4000      7.8658     18.2796      2.3484     -0.0162    174.4973
  1096.5000      7.8783     18.0277      2.3525      0.0868    167.3767
  1096.6000      7.8783     17.5828      2.3599      0.0754    146.5317
  1096.7000      7.8783     17.4981      2.3613      0.0620    125.5947
  1096.8000      7.8960     16.9819      2.3698      0.0830    111.9308
  1096.9000      7.8960     15.7564      2.3900      0.1043    106.3715
  1097.0000      7.9108     14.0335      2.4184      0.1126    110.8306
  1097.1000      7.9108     12.1755      2.4491      0.1384    122.1627
  1097.2000      7.9108     10.6656      2.4740      0.1157    134.0420
  1097.3000      7.9150      9.3921      2.4950      0.0774    140.7367
  1097.4000      7.9150      7.6403      2.5239      0.0431    136.6575
  1097.5000      7.9055      5.6944      2.5560      0.1055    126.0603
  1097.6000      7.9055      4.5982      2.5741      0.0561    118.1734
  1097.7000      7.9055      4.4623      2.5764      0.0921    118.5722
  1097.8000      7.8931      4.9633      2.5681      0.0829    128.5085
  1097.9000      7.8931      5.8589      2.5533      0.0499    138.6843
  1098.0000      7.8902      6.8269      2.5374      0.0299    135.9272
  1098.1000      7.8902      7.6998      2.5230      0.0469    125.1237
  1098.2000      7.8902      8.3810      2.5117      0.0462    129.4724
  1098.3000      7.8968      8.6946      2.5065      0.0737    150.3806
  1098.4000      7.8968      8.7203      2.5061      0.0393    161.5550
  1098.5000      7.9031      9.0673      2.5004      0.0770    153.5351
  1098.6000      7.9031     10.4381      2.4778      0.0689    144.4306
  1098.7000      7.9031     12.5342      2.4432      0.0382    144.1299
  1098.8000      7.9057     14.3177      2.4138      0.0325    144.9594
  1098.9000      7.9057     15.3568      2.3966      0.0510    140.2645
  1099.0000      7.9085     15.8280      2.3888      0.0340    137.5661
  1099.1000      7.9085     15.9421      2.3870      0.0327    140.9221
  1099.2000      7.9085     16.3500      2.3802      0.1096    144.0025
  1099.3000      7.9157     17.7134      2.3577      0.0974    149.1447
  1099.4000      7.9157     19.2359      2.3326      0.0412    153.8601
  1099.5000      7.9214     19.4118      2.3297      0.0400    146.8938
  1099.6000      7.9214     17.9625      2.3536      0.0492    134.8049
  1099.7000      7.9214     15.9269      2.3872      0.1156    126.2418
  1099.8000      7.9190     14.3782      2.4128      0.0956    116.6893
  1099.9000      7.9190     13.6387      2.4250      0.1410    111.1819
  1100.0000      7.9209     13.4813      2.4276      0.1013    118.0494
  1100.1000      7.9209     13.2808      2.4309      0.1110    125.6967
  1100.2000      7.9209     12.7653      2.4394      0.1169    125.6788
  1100.3000      7.9314     12.4622      2.4444      0.1639    122.7371
  1100.4000      7.9314     12.5091      2.4436      0.0977    119.0308
  1100.5000      7.9325     12.1145      2.4501      0.1141    121.7295
  1100.6000      7.9325     11.3241      2.4632      0.0910    136.1270
  1100.7000      7.9325     10.9711      2.4690      0.0690    146.3139
  1100.8000      7.9130     10.9920      2.4686      0.0571    136.8551
  1100.9000      7.9130     10.5758      2.4755      0.0322    119.1901
  1101.0000      7.8887      9.3649      2.4955      0.0800    114.7832
  1101.1000      7.8887      7.9548      2.5187      0.0895    124.2725
  1101.2000      7.8887      7.0700      2.5333      0.0864    135.4338
  1101.3000      7.8690      6.5320      2.5422      0.0604    138.8342
  1101.4000      7.8690      5.6688      2.5565      0.0872    128.2454
  1101.5000      7.8501      4.4507      2.5766      0.0949    110.3902
  1101.6000      7.8501      3.0196      2.6002      0.0934     99.7484
  1101.7000      7.8501      1.3798      2.6272      0.1347     98.2868
  1101.8000      7.8347     -0.0114      2.6502      0.1520    100.1670
  1101.9000      7.8347      0.0366      2.6494      0.1549    103.5878
  1102.0000      7.8264      2.1860      2.6139      0.1051    107.8876
  1102.1000      7.8264      5.0574      2.5666      0.0044    111.7640
  1102.2000      7.8264      6.7570      2.5385      0.0148    119.1070
  1102.3000      7.8301      7.0500      2.5337      0.0413    127.3288
  1102.4000      7.8301      6.6626      2.5401      0.0382    125.4486
  1102.5000      7.8414      5.6086      2.5575      0.0362    110.8192
  1102.6000      7.8414      2.9080      2.6020      0.0260     96.4354
  1102.7000      7.8414     -1.8670      2.6808      0.0845     94.8613
  1102.8000      7.8424     -7.0319      2.7660      0.1814    101.6980
  1102.9000      7.8424    -10.3669      2.8211      0.2018    108.4263
  1103.0000      7.8262    -11.4943      2.8397      0.1979    114.1499
  1103.1000      7.8262    -10.9332      2.8304      0.2044    117.7347
  1103.2000      7.8262     -9.0939      2.8000      0.1245    116.3539
  1103.3000      7.8036     -7.3960      2.7720      0.0524    112.9178
  1103.4000      7.8036     -7.8366      2.7793      0.0292    110.6868
  1103.5000      7.7956    -10.4942      2.8232      0.0546    109.2864
  1103.6000      7.7956    -13.5232      2.8731      0.0000    108.3113
  1103.7000      7.7956    -15.9762      2.9136      0.0231    108.7526
