~Version Information
VERS.                      2.0: CWLS Log ASCII Standard - VERSION 2.0
WRAP.                       NO: One line per depth step
~Well Information Block
STRT.FT               260.0000: 
STOP.FT              1229.5000: 
STEP.FT                 0.1000: 
NULL.                -999.2500: 
COMP.          Pioneer Natural Resources: COMPANY
WELL.             Mahalo 12-20: WELL
FLD.           Purgatoire River: FIELD
LOC.           1689' FNL & 479' FWL: LOCATION
CNTY.               Las Animas: COUNTY
SRVC.                Patterson: SERVICE COMPANY
DATE.          Mon Feb 27 07:00:19 2006: LOG DATE
UWI.           05 071 08700 00: UNIQUE WELL ID
STAT.                 Colorado: STATE
~Curve Information Block
DEPT.FT            0 000 00 00: Depth
DCAL.in                       : CDL Caliper
RHOB.g/cc                     : CDL Bulk Density
RHOC.g/cc                     : CDL Density Correction
DPOR.pu                       : CDL Density Porosity
GR.GAPI                       : Gamma Ray
NPOR.pu                       : Neutron Porosity
~Parameter Information Block
~A  Depth       DCAL        RHOB        RHOC        DPOR         GR         NPOR    
# ...
  1220.0000      7.8730      2.4590      0.0237     11.5770   -999.2500   -999.2500
  1220.1000      7.8730      2.4524      0.0369     11.9735   -999.2500   -999.2500
  1220.2000      7.8730      2.4540      0.0608     11.8790   -999.2500   -999.2500
  1220.3000      7.8442      2.4535      0.0431     11.9089   -999.2500   -999.2500
  1220.4000      7.8442      2.4501      0.0406     12.1173   -999.2500   -999.2500
  1220.5000      7.8265      2.4495      0.0509     12.1518   -999.2500   -999.2500
  1220.6000      7.8265      2.4545      0.0499     11.8506   -999.2500   -999.2500
  1220.7000      7.8265      2.4643      0.0631     11.2545   -999.2500   -999.2500
  1220.8000      7.8246      2.4722      0.0587     10.7734   -999.2500   -999.2500
  1220.9000      7.8246      2.4697      0.0815     10.9267   -999.2500   -999.2500
  1221.0000      7.8332      2.4623      0.0451     11.3768   -999.2500   -999.2500
  1221.1000      7.8332      2.4674      0.0535     11.0666   -999.2500   -999.2500
  1221.2000      7.8332      2.4936      0.0515      9.4759   -999.2500   -999.2500
  1221.3000      7.8438      2.5343      0.0862      7.0117   -999.2500   -999.2500
  1221.4000      7.8438      2.5665      0.1112      5.0583   -999.2500   -999.2500
  1221.5000      7.8336      2.5679      0.0922      4.9762   -999.2500   -999.2500
  1221.6000      7.8336      2.5434      0.0495      6.4613   -999.2500   -999.2500
  1221.7000      7.8336      2.5246      0.0056      7.6022   -999.2500   -999.2500
  1221.8000      7.8307      2.5329      0.0352      7.0980   -999.2500   -999.2500
  1221.9000      7.8307      2.5516      0.0706      5.9662   -999.2500   -999.2500
  1222.0000      7.8309      2.5549      0.0904      5.7615   -999.2500   -999.2500
  1222.1000      7.8309      2.5483      0.0454      6.1613   -999.2500   -999.2500
  1222.2000      7.8309      2.5483      0.0732      6.1608   -999.2500   -999.2500
  1222.3000      7.8440      2.5502      0.0732      6.0496   -999.2500   -999.2500
  1222.4000      7.8440      2.5502      0.0247      6.0475   -999.2500   -999.2500
  1222.5000      7.8654      2.5603      0.0521      5.4346   -999.2500   -999.2500
  1222.6000      7.8654      2.5799      0.1217      4.2461   -999.2500   -999.2500
  1222.7000      7.8654      2.5922      0.0955      3.5024   -999.2500   -999.2500
  1222.8000      7.8138      2.5929      0.0999      3.4601   -999.2500   -999.2500
  1222.9000      7.8138      2.5956      0.0802      3.2990   -999.2500   -999.2500
  1223.0000      7.7728      2.6088      0.0956      2.4986   -999.2500   -999.2500
  1223.1000      7.7728      2.6135      0.1663      2.2119   -999.2500   -999.2500
  1223.2000      7.7728      2.5863      0.0896      3.8613   -999.2500   -999.2500
  1223.3000      7.8812      2.5449      0.0283      6.3689   -999.2500   -999.2500
  1223.4000      7.8812      2.5237      0.0047      7.6523   -999.2500   -999.2500
  1223.5000      7.8684      2.5265      0.0488      7.4864   -999.2500   -999.2500
  1223.6000      7.8684      2.5414      0.0190      6.5798   -999.2500   -999.2500
  1223.7000      7.8684      2.5636      0.0607      5.2337   -999.2500   -999.2500
  1223.8000      7.8797      2.5776      0.0443      4.3850   -999.2500   -999.2500
  1223.9000      7.8797      2.5716      0.0345      4.7521   -999.2500   -999.2500
  1224.0000      7.8469      2.5618      0.0399      5.3479   -999.2500   -999.2500
  1224.1000      7.8469      2.5610      0.0481      5.3929   -999.2500   -999.2500
  1224.2000      7.8469      2.5541      0.0846      5.8119   -999.2500   -999.2500
  1224.3000      7.8277      2.5374      0.0166      6.8244   -999.2500   -999.2500
  1224.4000      7.8277      2.5263      0.0240      7.4943   -999.2500   -999.2500
  1224.5000      7.7737      2.5177      0.0152      8.0209   -999.2500   -999.2500
  1224.6000      7.7737      2.4964      0.0264      9.3092   -999.2500   -999.2500
  1224.7000      7.7737      2.4698     -0.0141     10.9227   -999.2500   -999.2500
  1224.8000      7.7432      2.4629      0.0133     11.3390   -999.2500   -999.2500
  1224.9000      7.7432      2.4822      0.0261     10.1726   -999.2500   -999.2500
  1225.0000      7.7267      2.5058      0.1050      8.7365   -999.2500   -999.2500
  1225.1000      7.7267      2.5110      0.1072      8.4244   -999.2500   -999.2500
  1225.2000      7.7267      2.5033      0.0837      8.8929   -999.2500   -999.2500
  1225.3000      7.7372      2.5032      0.0593      8.8960   -999.2500   -999.2500
  1225.4000      7.7372      2.5083      0.1540      8.5872   -999.2500   -999.2500
  1225.5000      7.7395      2.5042      0.1075      8.8370   -999.2500   -999.2500
  1225.6000      7.7395      2.5001      0.0809      9.0831   -999.2500   -999.2500
  1225.7000      7.7395      2.5084      0.1026      8.5822   -999.2500   -999.2500
  1225.8000      7.7306      2.5197      0.1122      7.8989   -999.2500   -999.2500
  1225.9000      7.7306      2.5253      0.0314      7.5570   -999.2500   -999.2500
  1226.0000      7.7031      2.5260      0.0837      7.5163   -999.2500   -999.2500
  1226.1000      7.7031      2.5208      0.0664      7.8328   -999.2500   -999.2500
  1226.2000      7.7031      2.5145      0.0726      8.2106   -999.2500   -999.2500
  1226.3000      7.7398      2.5115      0.0930      8.3966   -999.2500   -999.2500
  1226.4000      7.7398      2.5155      0.0316      8.1489   -999.2500   -999.2500
  1226.5000      7.7323      2.5497      0.0867      6.0768   -999.2500   -999.2500
  1226.6000      7.7323      2.6460      0.0450      0.2451   -999.2500   -999.2500
  1226.7000      7.7323      2.6810      0.1228     -1.8796   -999.2500   -999.2500
  1226.8000      7.6847      2.2400      0.5021     24.8462   -999.2500   -999.2500
  1226.9000      7.6847      1.2692      0.0000     83.6860   -999.2500   -999.2500
  1227.0000      7.1081      0.4296      0.0000    134.5693   -999.2500   -999.2500
  1227.1000      7.1081      0.0815   -999.2500    155.6676   -999.2500   -999.2500
  1227.2000      7.1081      0.0084   -999.2500    160.0974   -999.2500   -999.2500
  1227.3000      3.1490      0.0005   -999.2500    160.5785   -999.2500   -999.2500
  1227.4000      3.1490      0.0000   -999.2500    160.6061   -999.2500   -999.2500
  1227.5000      2.6139      0.0000   -999.2500    160.6061   -999.2500   -999.2500
  1227.6000      2.6139   -999.2500   -999.2500   -999.2500   -999.2500   -999.2500
  1227.7000      2.6139   -999.2500   -999.2500   -999.2500   -999.2500   -999.2500
  1227.8000   -999.2500   -999.2500   -999.2500   -999.2500   -999.2500   -999.2500
  1227.9000   -999.2500   -999.2500   -999.2500   -999.2500   -999.2500   -999.2500
  1228.0000   -999.2500   -999.2500   -999.2500   -999.2500   -999.2500   -999.2500
  1228.1000   -999.2500   -999.2500   -999.2500   -999.2500   -999.2500   -999.2500
  1228.2000   -999.2500   -999.2500   -999.2500   -999.2500   -999.2500   -999.2500
  1228.3000   -999.2500   -999.2500   -999.2500   -999.2500   -999.2500   -999.2500
  1228.4000   -999.2500   -999.2500   -999.2500   -999.2500   -999.2500   -999.2500
  1228.5000   -999.2500   -999.2500   -999.2500   -999.2500   -999.2500   -999.2500
  1228.6000   -999.2500   -999.2500   -999.2500   -999.2500   -999.2500   -999.2500
  1228.7000   -999.2500   -999.2500   -999.2500   -999.2500   -999.2500   -999.2500
  1228.8000   -999.2500   -999.2500   -999.2500   -999.2500   -999.2500   -999.2500
  1228.9000   -999.2500   -999.2500   -999.2500   -999.2500   -999.2500   -999.2500
  1229.0000   -999.2500   -999.2500   -999.2500   -999.2500   -999.2500   -999.2500
  1229.1000   -999.2500   -999.2500   -999.2500   -999.2500   -999.2500   -999.2500
  1229.2000   -999.2500   -999.2500   -999.2500   -999.2500   -999.2500   -999.2500
  1229.3000   -999.2500   -999.2500   -999.2500   -999.2500   -999.2500   -999.2500
  1229.4000   -999.2500   -999.2500   -999.2500   -999.2500   -999.2500   -999.2500
  1229.5000   -999.2500   -999.2500   -999.2500   -999.2500   -999.2500   -999.2500
