~Version Information
 VERS.                                  2.0 : CWLS LAS VERSION
 WRAP.                                   NO : WRAPING MODE
 SWARE .                 MController 2.5.0J : SOFTWARE VERSION
~Well Information
 WELL.                         Norton 9-14R : WELL
 COMP.                Petrogulf Corporation : COMPANY
 FLD.                       Purgatoire River: FIELD
 LOC.                SW/SW Sec 9 T33S R67W  : LOCATION
 DATE.                            10/5-6/05 : DATE(S) LOGGED
 SRVC.       BLANCO Geological Services LLC : SERVICE COMPANY
 STAT.                                   CO : STATE
 CNTY.                           Las Animas : COUNTY
 CTRY.                                  USA : COUNTRY
 API.                       05-071-08444-00 : API NUMBER
 STRT.FT                              56.00 : START DEPTH
 STOP.FT                            1880.00 : STOP DEPTH
 STEP.FT                               1.00 : DEPTH INCREMENT
 NULL.                                -9999 : NULL VALUE
~Curve information
 DEPTH.FT                                   :
 ROP.MIN/FT                                 :
 GAS.UNITS                                  :
~ASCII Log data
# ...
      1456.0         0.27         12.3 
      1457.0         0.23         11.3 
      1458.0         0.25         11.0 
      1459.0         0.30         10.9 
      1460.0         0.27         12.2 
      1461.0         0.27         12.9 
      1462.0         0.23         13.0 
      1463.0         0.27         12.2 
      1464.0         0.27         12.6 
      1465.0         0.27         12.3 
      1466.0         2.55         42.0 
      1467.0         0.37         29.1 
      1468.0         0.40         23.3 
      1469.0         0.33         19.1 
      1470.0         0.37         16.3 
      1471.0         0.35         15.3 
      1472.0         0.30         15.0 
      1473.0         0.33         15.5 
      1474.0         0.33         15.0 
      1475.0         0.30         13.7 
      1476.0         0.30         13.2 
      1477.0         0.33         12.2 
      1478.0         0.40         10.7 
      1479.0         0.23         10.0 
      1480.0         0.32          9.5 
      1481.0         0.27          9.6 
      1482.0         0.27          9.2 
      1483.0         0.27          9.4 
      1484.0         0.27          9.0 
      1485.0         0.27          9.1 
      1486.0         0.27          9.4 
      1487.0         0.23          8.6 
      1488.0         0.23          8.8 
      1489.0         0.30          9.4 
      1490.0         0.27          9.5 
      1491.0         0.27          9.6 
      1492.0         0.25          9.1 
      1493.0         0.30          9.4 
      1494.0         0.23          9.4 
      1495.0         0.27          9.3 
      1496.0         3.08         46.3 
      1497.0         0.73         16.0 
      1498.0         0.40         16.7 
      1499.0         0.40         14.8 
      1500.0         0.40         12.7 
      1501.0         0.30         11.1 
      1502.0         0.27         10.2 
      1503.0         0.28         10.0 
      1504.0         0.27          9.3 
      1505.0         0.30          9.7 
      1506.0         0.30          9.4 
      1507.0         0.23          9.3 
      1508.0         0.23          9.6 
      1509.0         0.27          9.6 
      1510.0         0.17          9.5 
      1511.0         0.20          9.2 
      1512.0         0.47          9.7 
      1513.0         0.27          9.5 
      1514.0         0.27          9.8 
      1515.0         0.28          9.6 
      1516.0         0.33          9.9 
      1517.0         0.27          9.4 
      1518.0         0.23          9.2 
      1519.0         0.33          9.5 
      1520.0         0.40          9.7 
      1521.0         0.37          9.4 
      1522.0         0.30          9.8 
      1523.0         0.23         10.0 
      1524.0         0.33          9.4 
      1525.0         0.35          9.6 
      1526.0         5.02         85.1 
      1527.0         0.50         20.6 
      1528.0         0.33         14.8 
      1529.0         0.45         13.0 
      1530.0         0.43         12.0 
      1531.0         0.33         12.5 
      1532.0         0.47         11.9 
      1533.0         0.50         11.1 
      1534.0         0.43         10.7 
      1535.0         0.40         10.0 
      1536.0         0.47          9.5 
      1537.0         0.42          8.7 
      1538.0         0.50          8.4 
      1539.0         0.57          8.9 
      1540.0         0.53          9.0 
      1541.0         0.43          8.6 
      1542.0         0.40          8.5 
      1543.0         0.37          8.5 
      1544.0         0.38          8.8 
      1545.0         0.37          9.0 
      1546.0         0.40          8.5 
      1547.0         0.37          9.1 
      1548.0         0.40          9.1 
      1549.0         0.33          9.1 
      1550.0         0.30          8.9 
      1551.0         0.33          9.0 
      1552.0         0.30          8.7 
      1553.0         0.32          8.8 
      1554.0         0.30          8.7 
      1555.0         0.33          8.5 
      1556.0         4.22         49.5 
      1557.0         0.43         15.4 
      1558.0         0.40         17.0 
      1559.0         0.40         17.1 
      1560.0         0.42         15.0 
      1561.0         0.37         13.0 
      1562.0         0.30         12.3 
      1563.0         0.30         11.5 
      1564.0         0.33         10.3 
      1565.0         0.30         10.0 
      1566.0         0.30          9.8 
      1567.0         0.27          9.5 
      1568.0         0.30          9.6 
      1569.0         0.27          9.7 
      1570.0         0.32         10.0 
      1571.0         0.27          9.6 
      1572.0         0.27         10.1 
      1573.0         0.27         10.0 
      1574.0         0.27         10.2 
      1575.0         0.27         10.6 
      1576.0         0.23         11.0 
      1577.0         0.30         10.5 
      1578.0         0.27         11.0 
      1579.0         0.23         10.6 
      1580.0         0.27         10.9 
      1581.0         0.28         10.8 
      1582.0         0.27         10.8 
      1583.0         0.23         10.9 
      1584.0         0.23         11.0 
      1585.0         0.23         11.8 
      1586.0         3.35         20.9 
      1587.0         0.37         20.0 
      1588.0         0.37         19.4 
      1589.0         0.30         17.0 
      1590.0         0.30         14.9 
      1591.0         0.38         13.6 
      1592.0         0.30         14.3 
      1593.0         0.30         13.4 
      1594.0         0.27         13.4 
      1595.0         0.23         12.3 
      1596.0         0.33         11.4 
      1597.0         0.27         10.8 
      1598.0         0.27         10.5 
      1599.0         0.27         10.3 
      1600.0         0.30         10.4 
      1601.0         0.30         10.1 
      1602.0         0.25          9.8 
      1603.0         0.27          9.9 
      1604.0         0.23          9.6 
      1605.0         0.27          9.3 
      1606.0         0.23          9.6 
      1607.0         0.23          9.9 
      1608.0         0.37          9.3 
      1609.0         0.40          9.7 
      1610.0         0.30          9.3 
      1611.0         0.27          9.4 
      1612.0         0.23         10.0 
      1613.0         0.30         10.2 
      1614.0         0.25         10.0 
      1615.0         3.12         20.7 
      1616.0         0.30         16.6 
      1617.0         0.30         17.8 
      1618.0         0.33         17.5 
      1619.0         0.60         17.0 
      1620.0         0.67         14.2 
      1621.0         0.52         11.4 
      1622.0         0.47         10.0 
      1623.0         0.47         10.2 
      1624.0         0.50         10.0 
      1625.0         0.37          9.8 
      1626.0         0.45         10.1 
      1627.0         0.43         10.1 
      1628.0         0.43         10.0 
      1629.0         0.43          9.4 
      1630.0         0.47          9.2 
      1631.0         0.47          9.0 
      1632.0         0.52          9.2 
      1633.0         0.50          9.4 
      1634.0         0.47          9.3 
      1635.0         0.40          9.6 
      1636.0         0.40          9.4 
      1637.0         0.40         14.7 
      1638.0         0.43         16.0 
      1639.0         0.43         13.2 
      1640.0         0.42         10.3 
      1641.0         0.37          9.3 
      1642.0         0.40          9.0 
      1643.0         0.40          8.9 
      1644.0         0.40          9.4 
      1645.0         0.33         10.0 
      1646.0         6.92         54.9 
      1647.0         0.20         13.5 
      1648.0         0.27         16.6 
      1649.0         0.30         22.6 
      1650.0         0.30         23.5 
      1651.0         0.33         22.4 
      1652.0         0.33         18.0 
      1653.0         0.25         15.8 
      1654.0         0.27         16.1 
      1655.0         0.27         15.5 
