~Version Information
VERS.                      2.0: CWLS Log ASCII Standard - VERSION 2.0
WRAP.                       NO: One line per depth step
~Well Information Block
STRT.FT               555.0000: 
STOP.FT              2322.2000: 
STEP.FT                 0.1000: 
NULL.                -999.2500: 
COMP.          Pioneer Natural Resources: COMPANY
WELL.          Fittipaldi 21-12: WELL
FLD.           Purgatoire River: FIELD
LOC.           207' FNL & 2110' FWL--: LOCATION
CNTY.               Las Animas: COUNTY
SRVC.                Patterson: SERVICE COMPANY
DATE.          Wed Mar 22 07:11:06 2006: LOG DATE
UWI.           05 071 08492 00: UNIQUE WELL ID
STAT.                 Colorado: STATE
~Curve Information Block
DEPT.FT            0 000 00 00: Depth
DCAL.in                       : CDL Caliper
RHOB.g/cc                     : CDL Bulk Density
RHOC.g/cc                     : CDL Density Correction
DPOR.pu                       : CDL Density Porosity
NPOR.pu                       : Neutron Porosity
GR.GAPI                       : Gamma Ray
~Parameter Information Block
~A  Depth       DCAL        RHOB        RHOC        DPOR        NPOR         GR     
# ...
  1601.4000      8.2157      2.1752     -0.0062     28.7741     32.1617     75.9056
  1601.5000      8.2148      2.1194     -0.0643     32.1595     31.8667     78.3607
  1601.6000      8.2148      2.1023      0.0297     33.1958     31.6270     79.7775
  1601.7000      8.2148      2.1086      0.0845     32.8092     31.2383     78.7940
  1601.8000      8.2356      2.1268      0.0963     31.7108     30.6360     77.3698
  1601.9000      8.2356      2.1733      0.1567     28.8928     30.1017     77.7041
  1602.0000      8.2841      2.2507      0.2840     24.1976     29.8226     78.7860
  1602.1000      8.2841      2.3416      0.3331     18.6887     29.8103     77.9259
  1602.2000      8.2841      2.4453      0.3668     12.4089     29.9051     74.6791
  1602.3000      8.3269      2.5487      0.4545      6.1381     29.7353     73.4733
  1602.4000      8.3269      2.6055      0.4476      2.6995     29.0927     76.4848
  1602.5000      8.2646      2.6020      0.3389      2.9104     28.2107     79.8362
  1602.6000      8.2646      2.5832      0.2991      4.0482     27.7055     81.4272
  1602.7000      8.2646      2.5815      0.3160      4.1506     27.9138     82.0802
  1602.8000      8.1169      2.5779      0.3038      4.3727     28.3317     81.1971
  1602.9000      8.1169      2.5463      0.2085      6.2840     28.5737     79.4921
  1603.0000      8.0354      2.5023      0.0764      8.9498     28.7954     80.0213
  1603.1000      8.0354      2.4791      0.0692     10.3552     28.8732     82.2787
  1603.2000      8.0354      2.4769      0.0829     10.4938     28.7264     83.8538
  1603.3000      8.0319      2.4740      0.0875     10.6686     28.8184     83.2270
  1603.4000      8.0319      2.4634      0.0919     11.3073     29.4276     79.2936
  1603.5000      8.0457      2.4470      0.0897     12.3022     30.2240     74.2207
  1603.6000      8.0457      2.4268      0.0918     13.5255     30.5018     70.5194
  1603.7000      8.0457      2.4085      0.1373     14.6365     30.0715     69.2053
  1603.8000      8.0597      2.3856      0.1375     16.0212     29.5494     71.5242
  1603.9000      8.0597      2.3483      0.1187     18.2857     29.4399     77.4562
  1604.0000      8.0765      2.3133      0.0522     20.4058     29.8241     83.3009
  1604.1000      8.0765      2.3062      0.0821     20.8354     30.3225     85.9826
  1604.2000      8.0765      2.3219      0.0848     19.8865     30.3548     85.8282
  1604.3000      8.0924      2.3448      0.1042     18.4969     29.9434     83.6943
  1604.4000      8.0924      2.3825      0.0591     16.2121     29.6792     79.1082
  1604.5000      8.0961      2.4408      0.1844     12.6799     29.9067     74.6071
  1604.6000      8.0961      2.4965      0.2645      9.3038     30.1636     74.3860
  1604.7000      8.0961      2.5301      0.2588      7.2655     30.0712     77.6039
  1604.8000      8.0925      2.5476      0.2392      6.2048     29.8249     80.6926
  1604.9000      8.0925      2.5596      0.2497      5.4786     29.6704     80.4578
  1605.0000      8.0970      2.5662      0.1965      5.0777     29.7983     75.8195
  1605.1000      8.0970      2.5650      0.2247      5.1503     30.0241     72.0652
  1605.2000      8.0970      2.5577      0.1692      5.5936     29.7982     75.1529
  1605.3000      8.0925      2.5482      0.1499      6.1682     29.2797     82.4449
  1605.4000      8.0925      2.5374      0.1198      6.8270     28.9829     86.9161
  1605.5000      8.0613      2.5322      0.1079      7.1375     28.7494     86.1753
  1605.6000      8.0613      2.5447      0.1159      6.3825     28.4456     84.2394
  1605.7000      8.0613      2.5701      0.1352      4.8425     28.2746     86.2615
  1605.8000      8.0377      2.5903      0.1021      3.6157     28.2850     90.9456
  1605.9000      8.0377      2.5939      0.1230      3.3994     28.7241     92.5450
  1606.0000      8.0355      2.5840      0.0709      3.9983     29.5001     90.6988
  1606.1000      8.0355      2.5718      0.0969      4.7374     29.7090     90.4224
  1606.2000      8.0355      2.5585      0.0765      5.5476     29.0243     92.8996
  1606.3000      8.0410      2.5435      0.0408      6.4568     28.1681     94.8603
  1606.4000      8.0410      2.5329      0.0480      7.0997     27.7522     95.6455
  1606.5000      8.0429      2.5305      0.0518      7.2434     27.7325     96.9232
  1606.6000      8.0429      2.5367      0.0549      6.8688     27.8721     96.7533
  1606.7000      8.0429      2.5433      0.0784      6.4671     28.0516     95.5696
  1606.8000      8.0377      2.5413      0.0442      6.5904     28.2791     96.6543
  1606.9000      8.0377      2.5373      0.0446      6.8273     28.7185     98.0843
  1607.0000      8.0333      2.5405      0.0646      6.6348     29.2300     98.8248
  1607.1000      8.0333      2.5423      0.0858      6.5296     29.3695    101.4395
  1607.2000      8.0333      2.5314      0.0672      7.1891     29.1575    105.6090
  1607.3000      8.0286      2.5150      0.0335      8.1791     28.9720    107.0752
  1607.4000      8.0286      2.4937      0.0716      9.4724     29.0319    103.6510
  1607.5000      8.0237      2.4528      0.0293     11.9487     29.3183    100.8127
  1607.6000      8.0237      2.4058     -0.0015     14.7998     29.5574    104.4850
  1607.7000      8.0237      2.3806     -0.0048     16.3289     29.7235    112.0910
  1607.8000      8.0240      2.3783      0.0168     16.4641     29.9441    116.0567
  1607.9000      8.0240      2.3911     -0.0229     15.6931     29.9788    115.4285
  1608.0000      8.0301      2.4280      0.0030     13.4550     29.7508    117.8369
  1608.1000      8.0301      2.4872      0.1083      9.8637     29.4501    122.7856
  1608.2000      8.0301      2.5408      0.1408      6.6190     29.2181    121.3839
  1608.3000      8.0496      2.5661      0.1520      5.0877     28.8646    113.2468
  1608.4000      8.0496      2.5649      0.1678      5.1550     28.4603    106.2400
  1608.5000      8.0843      2.5615      0.1567      5.3660     28.3944    104.9174
  1608.6000      8.0843      2.5765      0.1976      4.4520     28.5615    104.0221
  1608.7000      8.0843      2.5872      0.2417      3.8036     28.6772     97.7286
  1608.8000      8.1086      2.5655      0.1043      5.1209     28.6594     87.9611
  1608.9000      8.1086      2.5377      0.0331      6.8052     28.5418     81.9181
  1609.0000      8.0863      2.5375      0.0722      6.8191     28.3711     82.1362
  1609.1000      8.0863      2.5572      0.1177      5.6240     28.0932     84.3958
  1609.2000      8.0863      2.5751      0.1114      4.5411     27.6414     84.4276
  1609.3000      8.0224      2.5777      0.1162      4.3826     27.1797     81.5281
  1609.4000      8.0224      2.5584      0.0807      5.5496     27.2477     79.5820
  1609.5000      7.9740      2.5257      0.0475      7.5353     27.9299     81.5654
  1609.6000      7.9740      2.4974      0.0257      9.2455     28.5635     86.9641
  1609.7000      7.9740      2.4846      0.0426     10.0268     28.7485     92.8612
  1609.8000      7.9587      2.4923      0.0163      9.5575     28.7547     93.3581
  1609.9000      7.9587      2.5146      0.0812      8.2031     29.0259     87.7235
  1610.0000      7.9603      2.5209      0.0950      7.8251     29.6154     81.6005
  1610.1000      7.9603      2.4841      0.0591     10.0542     30.1752     77.8173
  1610.2000      7.9603      2.4080      0.0157     14.6637     30.5199     74.7600
  1610.3000      7.9641      2.3122     -0.0318     20.4715     30.9089     72.1893
  1610.4000      7.9641      2.2039     -0.0169     27.0353     31.5230     72.5058
  1610.5000      7.9611      2.0726     -0.0691     34.9926     31.9859     72.7023
  1610.6000      7.9611      1.9254     -0.1500     43.9161     32.2301     69.0481
  1610.7000      7.9611      1.7989     -0.1773     51.5821     32.6500     63.0737
  1610.8000      7.9628      1.7107     -0.1714     56.9294     33.2079     56.8048
  1610.9000      7.9628      1.6271     -0.1160     61.9966     33.4142     50.7685
