~Version Information
VERS.                      2.0: CWLS Log ASCII Standard - VERSION 2.0
WRAP.                       NO: One line per depth step
~Well Information Block
STRT.FT               459.3000: 
STOP.FT              1604.7000: 
STEP.FT                 0.1000: 
NULL.                -999.2500: 
COMP.          Pioneer Natural Resources: COMPANY
WELL.          Grand Prix 13-12 Tr: WELL
FLD.           Purgatoire River: FIELD
LOC.           2595' FSL & 1277' FWL--: LOCATION
CNTY.               Las Animas: COUNTY
SRVC.                Patterson: SERVICE COMPANY
DATE.          Tue Apr 04 07:18:28 2006: LOG DATE
UWI.           05 071 08711 00: UNIQUE WELL ID
STAT.                 Colorado: STATE
~Curve Information Block
DEPT.FT            0 000 00 00: Depth
DCAL.in                       : CDL Caliper
RHOB.g/cc                     : CDL Bulk Density
RHOC.g/cc                     : CDL Density Correction
DPOR.pu                       : CDL Density Porosity
GR.GAPI                       : Gamma Ray
~Parameter Information Block
~A  Depth       DCAL        RHOB        RHOC        DPOR         GR     
# ...
   616.1000      7.9585      2.6132      0.1010      2.2313    118.4219
   616.2000      7.9585      2.6405      0.1034      0.5785    112.2546
   616.3000      7.9377      2.6668      0.1045     -1.0193    111.7538
   616.4000      7.9377      2.6670      0.1235     -1.0291    114.6522
   616.5000      7.8992      2.6430      0.0435      0.4255    115.0912
   616.6000      7.8992      2.6268     -0.0067      1.4032    110.5596
   616.7000      7.8992      2.6272      0.0897      1.3825    107.0675
   616.8000      7.8691      2.6257      0.0754      1.4757    110.1852
   616.9000      7.8691      2.6221      0.0711      1.6906    116.4793
   617.0000      7.8581      2.6271      0.1524      1.3872    122.1756
   617.1000      7.8581      2.6328      0.1243      1.0434    129.5748
   617.2000      7.8581      2.6235      0.1497      1.6086    140.9382
   617.3000      7.8538      2.5983      0.1182      3.1311    152.8615
   617.4000      7.8538      2.5788      0.0227      4.3174    159.4402
   617.5000      7.8456      2.5722      0.0621      4.7146    159.7730
   617.6000      7.8456      2.5511      0.0747      5.9937    158.5872
   617.7000      7.8456      2.5063      0.0199      8.7105    159.4555
   617.8000      7.8407      2.4649      0.0037     11.2189    163.2696
   617.9000      7.8407      2.4469     -0.0237     12.3063    166.1655
   618.0000      7.8509      2.4499      0.0090     12.1276    161.7173
   618.1000      7.8509      2.4633      0.0266     11.3143    150.7343
   618.2000      7.8509      2.4724      0.0843     10.7662    140.0549
   618.3000      7.8723      2.4645      0.0541     11.2442    133.7835
   618.4000      7.8723      2.4509      0.0049     12.0647    132.0820
   618.5000      7.8900      2.4505      0.0605     12.0896    133.4937
   618.6000      7.8900      2.4555      0.1304     11.7855    133.3639
   618.7000      7.8900      2.4477      0.1506     12.2585    129.6268
   618.8000      7.8885      2.4262      0.1384     13.5619    125.4572
   618.9000      7.8885      2.4028      0.0930     14.9824    123.9623
   619.0000      7.8734      2.3859      0.1101     16.0049    125.9724
   619.1000      7.8734      2.3795      0.1121     16.3930    130.4192
   619.2000      7.8734      2.3866      0.1174     15.9616    134.7445
   619.3000      7.8627      2.4083      0.1119     14.6497    135.6877
   619.4000      7.8627      2.4406      0.1612     12.6905    132.3920
   619.5000      7.8558      2.4701      0.2017     10.9013    129.7050
   619.6000      7.8558      2.4817      0.2148     10.2008    131.6308
   619.7000      7.8558      2.4728      0.2028     10.7367    135.5026
   619.8000      7.8524      2.4507      0.1797     12.0759    140.0112
   619.9000      7.8524      2.4253      0.1375     13.6186    144.5859
   620.0000      7.8597      2.4151      0.0713     14.2386    143.8721
   620.1000      7.8597      2.4363      0.0999     12.9497    136.0296
   620.2000      7.8597      2.4767      0.0904     10.5013    127.4844
   620.3000      7.8823      2.5064      0.1094      8.7031    123.0308
   620.4000      7.8823      2.5097      0.0994      8.5003    121.0696
   620.5000      7.9076      2.4981      0.0801      9.2047    118.8120
   620.6000      7.9076      2.4871      0.0934      9.8735    117.1641
   620.7000      7.9076      2.4807      0.0616     10.2606    117.4039
   620.8000      7.9208      2.4871      0.0432      9.8748    117.7685
   620.9000      7.9208      2.5069      0.0492      8.6721    116.0903
   621.0000      7.9253      2.5265      0.0447      7.4830    116.0615
   621.1000      7.9253      2.5387      0.0614      6.7426    121.0209
   621.2000      7.9253      2.5465      0.0178      6.2729    125.4716
   621.3000      7.9298      2.5486      0.0502      6.1467    124.2137
   621.4000      7.9298      2.5458     -0.0266      6.3124    121.9766
   621.5000      7.9332      2.5566     -0.0049      5.6627    124.9319
   621.6000      7.9332      2.5857      0.0420      3.8999    128.8164
   621.7000      7.9332      2.6155      0.0531      2.0915    126.6402
   621.8000      7.9282      2.6328      0.0853      1.0444    120.5443
   621.9000      7.9282      2.6320      0.0503      1.0900    115.6922
   622.0000      7.9147      2.6134      0.0285      2.2172    115.6816
   622.1000      7.9147      2.5860     -0.0154      3.8814    120.0749
   622.2000      7.9147      2.5727     -0.0135      4.6844    122.2521
   622.3000      7.9004      2.5911      0.0401      3.5713    120.4083
   622.4000      7.9004      2.6289      0.0889      1.2809    118.6994
   622.5000      7.8920      2.6611      0.0865     -0.6723    118.9329
   622.6000      7.8920      2.6661      0.1026     -0.9775    119.9947
   622.7000      7.8920      2.6420      0.0535      0.4860    119.7183
   622.8000      7.8902      2.6093      0.0594      2.4682    119.9859
   622.9000      7.8902      2.5743      0.0297      4.5853    123.6361
   623.0000      7.8946      2.5353      0.0132      6.9539    127.6493
   623.1000      7.8946      2.5091     -0.0223      8.5396    129.5578
   623.2000      7.8946      2.5018      0.0162      8.9820    129.8543
   623.3000      7.9037      2.4959      0.0171      9.3401    129.8176
   623.4000      7.9037      2.4871      0.0141      9.8727    131.9136
   623.5000      7.9105      2.4896      0.0214      9.7203    135.9288
   623.6000      7.9105      2.5067      0.0435      8.6820    138.6213
   623.7000      7.9105      2.5243      0.0488      7.6168    137.0449
   623.8000      7.9112      2.5278      0.0328      7.4084    132.8098
   623.9000      7.9112      2.5185      0.0420      7.9673    130.7343
   624.0000      7.9051      2.5131      0.0256      8.2969    130.4388
   624.1000      7.9051      2.5216      0.0478      7.7820    127.5514
   624.2000      7.9051      2.5400      0.0501      6.6690    123.2746
   624.3000      7.8950      2.5581      0.0716      5.5680    121.3880
   624.4000      7.8950      2.5619      0.0857      5.3377    119.5493
   624.5000      7.8888      2.5482      0.0429      6.1700    115.4025
   624.6000      7.8888      2.5301      0.0525      7.2645    111.7543
   624.7000      7.8888      2.5187      0.0568      7.9576    112.2637
   624.8000      7.8869      2.5196      0.0195      7.9018    116.9192
   624.9000      7.8869      2.5278      0.0634      7.4072    122.7993
   625.0000      7.8862      2.5263      0.0200      7.4969    127.1438
   625.1000      7.8862      2.5154     -0.0048      8.1559    127.4720
   625.2000      7.8862      2.5087      0.0309      8.5624    125.7514
   625.3000      7.8860      2.5082      0.0135      8.5955    125.2431
   625.4000      7.8860      2.5106      0.0175      8.4510    127.1235
   625.5000      7.8877      2.5150      0.0267      8.1840    133.0648
   625.6000      7.8877      2.5195      0.0204      7.9104    141.1041
   625.7000      7.8877      2.5207      0.0298      7.8338    146.5390
   625.8000      7.8918      2.5228      0.0041      7.7114    146.5094
   625.9000      7.8918      2.5311      0.0501      7.2052    141.5445
   626.0000      7.8995      2.5410      0.0164      6.6048    135.0972
   626.1000      7.8995      2.5479      0.0578      6.1891    131.2309
   626.2000      7.8995      2.5531      0.0439      5.8718    131.2519
   626.3000      7.9125      2.5650      0.0185      5.1521    130.4543
   626.4000      7.9125      2.5875      0.0427      3.7882    123.8581
   626.5000      7.9257      2.6137      0.0516      2.1999    114.4785
   626.6000      7.9257      2.6382      0.0636      0.7124    109.6606
   626.7000      7.9257      2.6463      0.1157      0.2222    112.6079
   626.8000      7.9317      2.6200      0.0504      1.8194    118.8146
   626.9000      7.9317      2.5770     -0.0027      4.4221    121.8043
   627.0000      7.9295      2.5533     -0.0450      5.8576    122.0419
   627.1000      7.9295      2.5540      0.0190      5.8172    124.4616
   627.2000      7.9295      2.5571      0.0043      5.6281    129.6550
