~Version Information
VERS.                      2.0: CWLS Log ASCII Standard - VERSION 2.0
WRAP.                       NO: One line per depth step
~Well Information Block
STRT.FT               570.0000: 
STOP.FT              2090.5000: 
STEP.FT                 0.1000: 
NULL.                -999.2500: 
COMP.          XTO Energy Inc.: COMPANY
WELL.          Golden Eagle 19-10: WELL
FLD.           Purgatoire River: FIELD
LOC.           2684' FSL & 1825' FEL: LOCATION
CNTY.               Las Animas: COUNTY
SRVC.                Patterson: SERVICE COMPANY
DATE.          Mon Mar 06 07:05:15 2006: LOG DATE
UWI.           05 071 08697 00: UNIQUE WELL ID
STAT.                 Colorado: STATE
~Curve Information Block
DEPT.FT            0 000 00 00: Depth
DCAL.in                       : CDL Caliper
RHOB.g/cc                     : CDL Bulk Density
RHOC.g/cc                     : CDL Density Correction
DPOR.pu                       : CDL Density Porosity
GR.GAPI                       : Gamma Ray
NPOR.pu                       : Neutron Porosity
~Parameter Information Block
~A  Depth       DCAL        RHOB        RHOC        DPOR         GR         NPOR    
# ...
  1069.2000      7.8266      2.5362      0.0605      6.8999    156.9064     27.3118
  1069.3000      7.8256      2.5580      0.1031      5.5753    157.5438     27.1995
  1069.4000      7.8256      2.5680      0.0775      4.9726    156.6998     27.5762
  1069.5000      7.8235      2.5581      0.0762      5.5703    153.1225     28.0611
  1069.6000      7.8235      2.5337     -0.0044      7.0506    149.7672     28.4752
  1069.7000      7.8235      2.5190      0.0019      7.9394    149.3267     28.4592
  1069.8000      7.8199      2.5249      0.0427      7.5830    152.0742     28.1192
  1069.9000      7.8199      2.5350      0.0478      6.9674    155.0320     27.3439
  1070.0000      7.8190      2.5389      0.0312      6.7357    156.2300     26.3490
  1070.1000      7.8190      2.5440      0.0243      6.4217    155.2291     25.5959
  1070.2000      7.8190      2.5538      0.0244      5.8296    150.1551     24.6292
  1070.3000      7.8188      2.5666      0.0380      5.0574    138.4222     23.5743
  1070.4000      7.8188      2.5844      0.0359      3.9728    124.3019     22.9984
  1070.5000      7.8148      2.5990      0.0899      3.0938    116.5618     22.2412
  1070.6000      7.8148      2.5964      0.0581      3.2470    114.0821     21.2348
  1070.7000      7.8148      2.5827      0.0354      4.0804    111.6664     21.0441
  1070.8000      7.8041      2.5705      0.0110      4.8202    108.6641     21.3256
  1070.9000      7.8041      2.5626      0.0486      5.2951    104.3081     20.6525
  1071.0000      7.7853      2.5596     -0.0074      5.4783    101.0211     19.4305
  1071.1000      7.7853      2.5656     -0.0005      5.1155    102.8058     19.3866
  1071.2000      7.7853      2.5799      0.0032      4.2467    106.2906     20.8140
  1071.3000      7.7637      2.5943      0.0509      3.3775    106.5558     22.4546
  1071.4000      7.7637      2.6024      0.0660      2.8836    104.5965     23.0360
  1071.5000      7.7501      2.6136      0.0702      2.2079    101.7825     22.3152
  1071.6000      7.7501      2.6371      0.1207      0.7799     98.7108     21.1554
  1071.7000      7.7501      2.6610      0.1663     -0.6639     97.4947     20.5716
  1071.8000      7.7466      2.6661      0.1168     -0.9787     95.6723     21.0595
  1071.9000      7.7466      2.6515      0.0641     -0.0882     92.6300     22.1059
  1072.0000      7.7535      2.6339      0.0632      0.9750     95.5296     22.1520
  1072.1000      7.7535      2.6311      0.0288      1.1471    107.5197     20.9941
  1072.2000      7.7535      2.6389      0.0746      0.6753    121.6629     19.9036
  1072.3000      7.7645      2.6378      0.0443      0.7365    129.6312     19.4276
  1072.4000      7.7645      2.6205      0.0405      1.7893    131.4716     19.4366
  1072.5000      7.7651      2.5900      0.0304      3.6368    131.4062     19.8744
  1072.6000      7.7651      2.5526      0.0223      5.9035    129.0401     20.7352
  1072.7000      7.7651      2.5200      0.0034      7.8797    123.5919     21.9629
  1072.8000      7.7623      2.5022     -0.0066      8.9593    119.3873     23.3164
  1072.9000      7.7623      2.5024     -0.0259      8.9450    121.2928     24.3143
  1073.0000      7.7629      2.5144      0.0377      8.2164    128.8769     25.0285
  1073.1000      7.7629      2.5294      0.0074      7.3115    138.8065     25.8703
  1073.2000      7.7629      2.5439      0.0743      6.4310    147.6214     26.6090
  1073.3000      7.7813      2.5509      0.0619      6.0082    154.7101     26.9438
  1073.4000      7.7813      2.5446      0.0739      6.3873    162.2474     26.9947
  1073.5000      7.8159      2.5331      0.0567      7.0824    169.5505     26.8259
  1073.6000      7.8159      2.5270      0.0972      7.4569    171.4119     26.7096
  1073.7000      7.8159      2.5259      0.0565      7.5229    165.7492     27.0043
  1073.8000      7.8311      2.5298      0.0392      7.2867    157.9801     27.9932
  1073.9000      7.8311      2.5396      0.0666      6.6937    153.8403     29.4093
  1074.0000      7.8277      2.5494      0.0679      6.0993    155.3964     30.1393
  1074.1000      7.8277      2.5511      0.0605      5.9923    158.5493     29.9627
  1074.2000      7.8277      2.5498      0.0157      6.0703    160.0054     29.3747
  1074.3000      7.8303      2.5516      0.0745      5.9617    162.9459     29.0084
  1074.4000      7.8303      2.5456      0.0452      6.3279    168.1528     29.3590
  1074.5000      7.8335      2.5321      0.0198      7.1432    168.8720     29.3511
  1074.6000      7.8335      2.5304      0.0013      7.2504    162.0444     28.3834
  1074.7000      7.8335      2.5460      0.0367      6.3001    154.1355     27.5676
  1074.8000      7.8290      2.5662      0.1035      5.0786    148.5030     27.2413
  1074.9000      7.8290      2.5823      0.0419      4.1012    143.9365     26.7751
  1075.0000      7.8281      2.5951      0.0777      3.3292    139.4535     26.1686
  1075.1000      7.8281      2.5990      0.0752      3.0885    134.9843     26.0862
  1075.2000      7.8281      2.5951      0.0685      3.3255    133.1203     26.5357
  1075.3000      7.8363      2.5943      0.0729      3.3775    132.2348     26.2648
  1075.4000      7.8363      2.5981      0.1006      3.1482    128.6722     25.1030
  1075.5000      7.8345      2.6049      0.0711      2.7344    122.2878     24.2322
  1075.6000      7.8345      2.6166      0.0636      2.0248    115.3096     23.7414
  1075.7000      7.8345      2.6240      0.0942      1.5770    109.6808     23.0976
  1075.8000      7.8092      2.6211      0.0820      1.7520    106.7105     22.4863
  1075.9000      7.8092      2.6239      0.0307      1.5790    105.9193     22.0351
  1076.0000      7.7895      2.6374      0.0763      0.7638    105.1118     21.8061
  1076.1000      7.7895      2.6407      0.0448      0.5646    102.9523     22.4851
  1076.2000      7.7895      2.6282      0.0364      1.3201    101.7721     23.9964
  1076.3000      7.7852      2.6113      0.0254      2.3426    103.0734     24.4951
  1076.4000      7.7852      2.5965      0.0103      3.2406    103.1505     23.2808
  1076.5000      7.7857      2.5861      0.0009      3.8747     99.5246     22.1105
  1076.6000      7.7857      2.5849      0.0224      3.9450     95.8790     21.8939
  1076.7000      7.7857      2.5973      0.0091      3.1926     93.9930     21.9643
  1076.8000      7.7854      2.6158      0.0276      2.0745     91.7200     22.1283
  1076.9000      7.7854      2.6266      0.0219      1.4194     89.3742     22.5563
  1077.0000      7.7805      2.6245      0.0490      1.5430     88.7959     22.2853
  1077.1000      7.7805      2.6122      0.0031      2.2883     90.0363     20.5151
  1077.2000      7.7805      2.5971      0.0163      3.2086     91.2316     18.6217
  1077.3000      7.7697      2.5902     -0.0094      3.6250     92.6551     18.2383
  1077.4000      7.7697      2.5987      0.0235      3.1092     94.9575     19.0651
  1077.5000      7.7600      2.6163      0.0264      2.0426     95.6235     19.6435
  1077.6000      7.7600      2.6325      0.0640      1.0611     95.4983     19.9507
  1077.7000      7.7600      2.6413      0.0514      0.5296     98.8184     20.4670
  1077.8000      7.7557      2.6415      0.0714      0.5180    104.1065     20.3347
  1077.9000      7.7557      2.6373      0.0472      0.7727    104.5961     19.6305
  1078.0000      7.7557      2.6345      0.0766      0.9382    101.3477     20.0814
  1078.1000      7.7557      2.6326      0.0695      1.0526    100.3295     21.7214
  1078.2000      7.7557      2.6253      0.0200      1.4956    100.3460     22.6039
  1078.3000      7.7634      2.6088      0.0305      2.4981    100.6340     22.4490
  1078.4000      7.7634      2.5851      0.0136      3.9349    102.2450     22.2694
  1078.5000      7.7849      2.5634     -0.0265      5.2479    103.9810     22.1387
  1078.6000      7.7849      2.5540      0.0129      5.8162    108.4346     22.1091
  1078.7000      7.7849      2.5588      0.0207      5.5273    115.8795     22.7492
