~Version Information
VERS.                      2.0: CWLS Log ASCII Standard - VERSION 2.0
WRAP.                       NO: One line per depth step
~Well Information Block
STRT.FT               530.0000: 
STOP.FT              1298.0000: 
STEP.FT                 0.1000: 
NULL.                -999.2500: 
COMP.          Pioneer Natural Resources: COMPANY
WELL.            Keiko 14-6 Tr: WELL
FLD.           Purgatoire River: FIELD
LOC.           462' FSL & 1202' FWL: LOCATION
PROV.                 Colorado: PROVINCE
CNTY.               Las Animas: COUNTRY
SRVC.                Patterson: SERVICE COMPANY
DATE.          Fri Dec 30 07:26:03 2005: LOG DATE
UWI.           05 071 08629 00: UNIQUE WELL ID
~Curve Information Block
DEPT.FT            0 000 00 00: Depth
DCAL.in                       : CDL Caliper
RHOB.g/cc                     : CDL Bulk Density
RHOC.g/cc                     : CDL Density Correction
DPOR.pu                       : CDL Density Porosity
GR.GAPI                       : Gamma Ray
~Parameter Information Block
~A  Depth       DCAL        RHOB        RHOC        DPOR         GR     
# ...
   630.8000      8.0795      2.4743      0.0146     10.6508    136.5106
   630.9000      8.0795      2.4613     -0.0160     11.4345    129.7637
   631.0000      8.0779      2.4735      0.0254     10.6983    117.4955
   631.1000      8.0779      2.4980      0.0125      9.2128    108.9278
   631.2000      8.0779      2.5211      0.0544      7.8149    110.6261
   631.3000      8.0751      2.5329      0.0451      7.0941    117.7795
   631.4000      8.0751      2.5312      0.0503      7.1982    125.2229
   631.5000      8.0746      2.5233      0.0577      7.6761    130.0009
   631.6000      8.0746      2.5228      0.0730      7.7078    131.1889
   631.7000      8.0746      2.5379      0.0673      6.7955    130.8984
   631.8000      8.0730      2.5614      0.0989      5.3689    128.6385
   631.9000      8.0730      2.5753      0.0730      4.5271    123.9115
   632.0000      8.0705      2.5677      0.0915      4.9871    119.4980
   632.1000      8.0705      2.5563      0.0531      5.6780    119.5681
   632.2000      8.0705      2.5863      0.0269      3.8594    125.4255
   632.3000      8.0695      2.6663      0.1268     -0.9862    134.0692
   632.4000      8.0695      2.7475      0.1694     -5.9107    139.6875
   632.5000      8.0669      2.7895      0.1998     -8.4562    137.6983
   632.6000      8.0669      2.7945      0.1720     -8.7578    130.0972
   632.7000      8.0669      2.7881      0.1334     -8.3680    122.7209
   632.8000      8.0643      2.7869      0.1727     -8.2999    116.1601
   632.9000      8.0643      2.7862      0.1331     -8.2573    108.7651
   633.0000      8.0580      2.7849      0.1101     -8.1775    104.2502
   633.1000      8.0580      2.7994      0.0695     -9.0569    107.8263
   633.2000      8.0580      2.8459      0.0641    -11.8719    116.2459
   633.3000      8.0518      2.9173      0.1397    -16.1993    120.8020
   633.4000      8.0518      2.9866      0.1632    -20.3986    120.1222
   633.5000      8.0367      3.0303      0.1694    -23.0500    120.7737
   633.6000      8.0367      3.0352      0.1727    -23.3451    124.4638
   633.7000      8.0367      3.0018      0.0985    -21.3211    124.0392
   633.8000      8.0292      2.9461      0.0520    -17.9462    116.9517
   633.9000      8.0292      2.8707     -0.0012    -13.3728    108.8918
   634.0000      8.0541      2.7704     -0.0820     -7.2979    104.1994
   634.1000      8.0541      2.6677     -0.1416     -1.0701    102.0231
   634.2000      8.0541      2.5961     -0.1863      3.2677     99.6877
   634.3000      8.0743      2.5603     -0.1371      5.4346     99.7040
   634.4000      8.0743      2.5380     -0.1425      6.7864    105.1422
   634.5000      8.0790      2.5176     -0.0659      8.0219    112.3495
   634.6000      8.0790      2.5035     -0.0069      8.8809    118.5788
   634.7000      8.0790      2.4996      0.0140      9.1141    125.1778
   634.8000      8.0793      2.5054      0.0167      8.7623    131.6060
   634.9000      8.0793      2.5133      0.0466      8.2829    136.4932
   635.0000      8.0760      2.5128      0.0194      8.3131    138.3529
   635.1000      8.0760      2.5019      0.0142      8.9763    136.8347
   635.2000      8.0760      2.4911     -0.0008      9.6328    137.8752
   635.3000      8.0681      2.4936     -0.0131      9.4794    145.3103
   635.4000      8.0681      2.5099      0.0366      8.4906    151.2377
   635.5000      8.0629      2.5242      0.0682      7.6234    147.7176
   635.6000      8.0629      2.5288      0.0229      7.3432    139.6881
   635.7000      8.0629      2.5298      0.0639      7.2821    134.3979
   635.8000      8.0682      2.5242      0.0556      7.6265    129.2101
   635.9000      8.0682      2.5107      0.0480      8.4453    118.9257
   636.0000      8.0717      2.5017     -0.0029      8.9858    108.8855
   636.1000      8.0717      2.5040      0.0496      8.8489    109.6194
   636.2000      8.0717      2.5161      0.0456      8.1145    119.0215
   636.3000      8.0749      2.5407      0.0501      6.6236    126.6654
   636.4000      8.0749      2.5699      0.0886      4.8535    130.5053
   636.5000      8.0609      2.5858      0.1020      3.8908    133.0665
   636.6000      8.0609      2.5869      0.1169      3.8271    133.6044
   636.7000      8.0609      2.5848      0.1109      3.9513    131.8325
   636.8000      8.0664      2.5794      0.1089      4.2795    130.3409
   636.9000      8.0664      2.5656      0.0271      5.1164    129.2120
   637.0000      8.0673      2.5535      0.0502      5.8475    124.8376
   637.1000      8.0673      2.5505      0.0963      6.0288    119.4114
   637.2000      8.0673      2.5518      0.0698      5.9514    121.6914
   637.3000      8.0677      2.5505      0.0734      6.0275    132.0707
   637.4000      8.0677      2.5417      0.0672      6.5641    139.4007
   637.5000      8.0665      2.5291      0.0784      7.3279    138.6215
   637.6000      8.0665      2.5200      0.0468      7.8810    135.6471
   637.7000      8.0665      2.5145      0.0537      8.2132    134.7507
   637.8000      8.0663      2.5129      0.0285      8.3073    134.0821
   637.9000      8.0663      2.5169      0.0479      8.0645    130.6742
   638.0000      8.0652      2.5227      0.0577      7.7136    126.4291
   638.1000      8.0652      2.5255      0.0948      7.5455    126.9944
   638.2000      8.0652      2.5284      0.0497      7.3693    130.4780
   638.3000      8.0635      2.5371      0.0907      6.8411    128.4408
   638.4000      8.0635      2.5507      0.0518      6.0199    120.8846
   638.5000      8.0627      2.5721      0.0684      4.7193    114.6644
   638.6000      8.0627      2.5984      0.1004      3.1274    113.8968
   638.7000      8.0627      2.6093      0.1381      2.4644    116.5957
   638.8000      8.0603      2.5992      0.0664      3.0793    117.5394
   638.9000      8.0603      2.5838      0.0815      4.0099    111.8083
   639.0000      8.0578      2.5706      0.0667      4.8094     99.3833
   639.1000      8.0578      2.5547      0.0907      5.7734     86.9549
   639.2000      8.0578      2.5328      0.0601      7.1005     81.6357
   639.3000      8.0583      2.5116      0.0314      8.3884     80.6986
   639.4000      8.0583      2.5018      0.0493      8.9800     75.3400
   639.5000      8.0559      2.5037      0.0468      8.8662     66.3955
   639.6000      8.0559      2.5116      0.0429      8.3895     60.7286
   639.7000      8.0559      2.5252      0.0380      7.5632     58.8108
   639.8000      8.0556      2.5412      0.0642      6.5931     57.3912
   639.9000      8.0556      2.5562      0.0464      5.6824     56.3652
   640.0000      8.0497      2.5774      0.0818      4.4010     56.3056
   640.1000      8.0497      2.6056      0.1095      2.6923     56.3045
   640.2000      8.0497      2.6213      0.1547      1.7408     54.7247
   640.3000      8.0482      2.6092      0.1116      2.4720     51.6476
   640.4000      8.0482      2.5833      0.0772      4.0428     48.8352
   640.5000      8.0501      2.5633      0.0866      5.2551     44.4571
   640.6000      8.0501      2.5456      0.0801      6.3267     36.6846
   640.7000      8.0501      2.5217      0.0250      7.7740     28.9127
   640.8000      8.0546      2.4962      0.0611      9.3204     25.9795
   640.9000      8.0546      2.4785     -0.0279     10.3964     28.3560
   641.0000      8.0527      2.4732      0.0366     10.7168     33.4929
   641.1000      8.0527      2.4755      0.0302     10.5762     38.5328
   641.2000      8.0527      2.4876      0.0127      9.8394     39.0599
   641.3000      8.0467      2.5112      0.0719      8.4117     34.2677
   641.4000      8.0467      2.5329      0.0807      7.0970     30.2745
   641.5000      8.0432      2.5429      0.0913      6.4918     30.3467
   641.6000      8.0432      2.5472      0.0481      6.2315     31.9334
   641.7000      8.0432      2.5593      0.1001      5.4989     32.6530
   641.8000      8.0561      2.5775      0.1706      4.3925     33.1499
   641.9000      8.0561      2.5798      0.1537      4.2566     36.3282
