~Version Information
VERS.                      2.0: CWLS Log ASCII Standard - VERSION 2.0
WRAP.                       NO: One line per depth step
~Well Information Block
STRT.FT                -8.7500: 
STOP.FT              2331.5000: 
STEP.FT                 0.2500: 
NULL.                -999.2500: 
COMP.          Pioneer Natural Resources: COMPANY
WELL.          Sparrowhawk 22-12: WELL
FLD.           Purgatorie River: FIELD
LOC.           2049' FNL & 2060' FWL--: LOCATION
CNTY.               Las Animas: COUNTY
SRVC.          Patterson Wireline: SERVICE COMPANY
DATE.          Wed Apr 12 08:53:41 2006: LOG DATE
UWI.           05 071 08484 00: UNIQUE WELL ID
STAT.                       CO: STATE
~Curve Information Block
DEPT.FT            0 000 00 00: Depth
CCL.                          : Casing Collar Locator
TT3.usec                      : CBL 3' Travel Time
AMP3.mV                       : CBL 3' Amplitude
GR.GAPI                       : Gamma Ray
~Parameter Information Block
MAXAMPL.mV              0.0000: Maximum Amplitude
~A  Depth       CCL         TT3         AMP3         GR     
# ...
   761.7500      0.0000    264.1598     82.9510    127.0279
   762.0000      0.0000    264.1739     82.9681    131.0617
   762.2500      0.0000    264.1790     82.9533    134.3574
   762.5000      0.0000    264.1735     82.8865    136.3497
   762.7500      0.0000    264.1623     82.7708    137.8364
   763.0000      0.0000    264.1534     82.6525    140.4585
   763.2500      0.0000    264.1527     82.5775    144.8164
   763.5000      0.0000    264.1593     82.5434    149.2118
   763.7500      0.0000    264.1662     82.5028    150.9137
   764.0000      0.0000    264.1665     82.4042    148.9299
   764.2500      0.0000    264.1592     82.2309    144.8525
   764.5000      0.0000    264.1500     82.0176    140.9259
   764.7500      0.0000    264.1463     81.8333    138.2141
   765.0000      0.0000    264.1514     81.7371    136.6413
   765.2500      0.0000    264.1624     81.7410    135.5574
   765.5000      0.0000    264.1743     81.8122    133.8957
   765.7500      0.0000    264.1837     81.9036    130.6201
   766.0000      0.0000    264.1895     81.9847    125.4675
   766.2500      0.0000    264.1924     82.0521    118.9897
   766.5000      0.0000    264.1925     82.1154    111.8396
   766.7500      0.0000    264.1891     82.1705    104.2984
   767.0000      0.0000    264.1801     82.1953     96.5798
   767.2500      0.0000    264.1648     82.1808     89.3167
   767.5000      0.0000    264.1469     82.1523     83.4022
   767.7500      0.0000    264.1347     82.1421     79.2824
   768.0000      0.0000    264.1348     82.1501     76.5972
   768.2500      0.0000    264.1453     82.1448     74.6084
   768.5000      0.0000    264.1568     82.1000     72.9322
   768.7500      0.0000    264.1607     82.0209     71.8287
   769.0000      0.0000    264.1556     81.9431     71.8767
   769.2500      0.0000    264.1462     81.9153     73.2709
   769.5000      0.0000    264.1377     81.9698     75.3284
   769.7500      0.0000    264.1318     82.0883     76.7646
   770.0000      0.0000    264.1276     82.2042     76.6062
   770.2500      0.0000    264.1250     82.2594     74.8770
   770.5000      0.0000    264.1252     82.2579     72.5290
   770.7500      0.0000    264.1306     82.2570     70.7177
   771.0000      0.0000    264.1415     82.3113     69.9344
   771.2500      0.0000    264.1543     82.4310     69.8192
   771.5000      0.0000    264.1616     82.5797     69.8416
   771.7500      0.0000    264.1589     82.7054     69.8008
   772.0000      0.0000    264.1506     82.7774     69.5759
   772.2500      0.0000    264.1473     82.7994     69.0707
   772.5000      0.0000    264.1560     82.7886     68.7978
   772.7500      0.0000    264.1727     82.7477     69.8597
   773.0000      0.0000    264.1869     82.6625     72.9828
   773.2500      0.0000    264.1909     82.5264     78.1104
   773.5000      0.0000    264.1862     82.3637     85.0692
   773.7500      0.0000    264.1797     82.2197     93.8019
   774.0000      0.0000    264.1771     82.1244    103.6233
   774.2500      0.0000    264.1796     82.0696    112.7536
   774.5000      0.0000    264.1862     82.0287    118.9366
   774.7500      0.0000    264.1948     81.9880    120.6741
   775.0000      0.0000    264.2021     81.9553    118.3378
   775.2500      0.0000    264.2047     81.9437    114.3444
   775.5000      0.0000    264.2011     81.9545    111.8365
   775.7500      0.0000    264.1928     81.9670    112.6499
   776.0000      0.0000    264.1839     81.9432    116.2839
   776.2500      0.0000    264.1798     81.8562    120.4837
   776.5000      0.0000    264.1830     81.7286    122.7348
   776.7500      0.0000    264.1902     81.6350    121.8206
   777.0000      0.0000    264.1956     81.6494    118.7124
   777.2500      0.0000    264.1959     81.7931    116.0897
   777.5000      0.0000    264.1909     82.0367    116.7026
   777.7500      0.0000    264.1810     82.3342    121.8267
   778.0000      0.0000    264.1688     82.6398    130.8753
   778.2500      0.0000    264.1605     82.9115    142.0859
   778.5000      0.0000    264.1608     83.1220    153.5338
   778.7500      0.0000    264.1677     83.2709    163.7933
   779.0000      0.0000    264.1757     83.3766    171.8748
   779.2500      0.0000    264.1824     83.4522    176.9797
   779.5000      0.0000    264.1901     83.4905    178.8997
   779.7500      0.0000    264.1997     83.4817    178.4043
   780.0000      0.0000    264.2083     83.4441    176.4611
   780.2500      0.0000    264.2115     83.4214    173.1908
   780.5000      0.0000    264.2078     83.4456    168.2916
   780.7500      0.0000    264.1997     83.5095    162.1837
   781.0000      0.0000    264.1923     83.5809    155.9530
   781.2500      0.0000    264.1886     83.6316    150.3863
   781.5000      0.0000    264.1882     83.6547    146.0791
   781.7500      0.0000    264.1893     83.6648    144.4891
   782.0000      0.0000    264.1912     83.6849    147.4943
   782.2500      0.0000    264.1945     83.7238    154.9543
   782.5000      0.0000    264.1998     83.7653    163.3279
   782.7500      0.0000    264.2082     83.7868    167.9552
   783.0000      0.0000    264.2193     83.7874    167.2034
   783.2500      0.0000    264.2314     83.7894    164.0345
   783.5000      0.0000    264.2421     83.8134    163.0611
   783.7500      0.0000    264.2503     83.8617    166.1885
   784.0000      0.0000    264.2570     83.9223    171.6095
   784.2500      0.0000    264.2639     83.9789    176.5340
   784.5000      0.0000    264.2718     84.0156    179.5831
   784.7500      0.0000    264.2788     84.0298    180.3065
   785.0000      0.0000    264.2803     84.0383    177.8814
   785.2500      0.0000    264.2712     84.0590    171.7475
   785.5000      0.0000    264.2501     84.0900    163.3587
   785.7500      0.0000    264.2222     84.1159    156.1339
   786.0000      0.0000    264.1988     84.1356    152.9703
   786.2500      0.0000    264.1909     84.1776    153.9704
   786.5000      0.0000    264.2021     84.2840    156.8740
   786.7500      0.0000    264.2264     84.4615    159.2223
   787.0000      0.0000    264.2540     84.6478    159.4360
   787.2500      0.0000    264.2767     84.7460    156.5651
   787.5000      0.0000    264.2898     84.7040    150.5890
   787.7500      0.0000    264.2900     84.5527    143.0844
   788.0000      0.0000    264.2763     84.3716    136.3988
   788.2500      0.0000    264.2535     84.2279    131.7389
   788.5000      0.0000    264.2318     84.1406    128.4307
   788.7500      0.0000    264.2208     84.0869    124.8462
   789.0000      0.0000    264.2223     84.0324    119.7310
   789.2500      0.0000    264.2322     83.9375    112.9341
   789.5000      0.0000    264.2576     83.6940    105.4398
   789.7500      0.0000    264.3421     83.0197     98.8935
   790.0000      0.0000    264.5888     81.4072     94.6530
   790.2500      0.0000    265.1448     78.3337     92.9340
   790.5000      0.0000    266.1131     73.7938     93.0573
   790.7500      0.0000    267.4297     68.6787     94.4469
   791.0000      0.0000    268.8351     64.3167     96.7683
   791.2500      0.0000    270.0135     61.4525     99.2241
   791.5000      0.0000    270.7842     59.8573    100.7047
   791.7500      0.0000    271.1646     58.9111    100.9032
   792.0000      0.0000    271.2847     58.2369    100.7996
   792.2500      2.0000    271.2691     57.7688    102.0686
   792.5000     -2.0000    271.1789     57.5803    106.3213
   792.7500      0.0000    271.0130     57.8224    114.5242
   793.0000      0.0000    270.7315     58.7613    126.1735
   793.2500      0.0000    270.2781     60.7467    138.4868
   793.5000      0.0000    269.5994     63.9829    146.9514
   793.7500      0.0000    268.6736     68.1982    147.8267
   794.0000      0.0000    267.5556     72.6047    140.7530
   794.2500      0.0000    266.3976     76.3683    128.9125
   794.5000      0.0000    265.3970     79.1043    116.8062
   794.7500      0.0000    264.6915     80.8863    107.9130
   795.0000      0.0000    264.2955     81.9540    103.6498
