~Version Information
VERS.                      2.0: CWLS Log ASCII Standard - VERSION 2.0
WRAP.                       NO: One line per depth step
~Well Information Block
STRT.FT                 0.0000: 
STOP.FT              1507.7500: 
STEP.FT                 0.2500: 
NULL.                -999.2500: 
COMP.          Pioneer Natural Resources: COMPANY
WELL.          Pioneer 34-27 Tr: WELL
FLD.           Purgatorie River: FIELD
LOC.           243' FSL & 1593' FEL: LOCATION
STAT.                 Colorado: State
CNTY.               Las Animas: COUNTY
CTRY. USA : Country
SECT. 27 : Section
TOWN. 32S : Township
RANG. 67W : Range
SRVC.                Patterson: SERVICE COMPANY
DATE.          Wed Oct 12 09:30:25 2005: LOG DATE
API.                          : UNIQUE WELL ID
~Curve Information Block
DEPT.FT            0 000 00 00: Depth
GR.GAPI                       : Gamma Ray
CCL.                          : Casing Collar Locator
TT3.usec                      : CBL 3' Travel Time
AMP3.mV                       : CBL 3' Amplitude
~Parameter Information Block
~A  Depth        GR         CCL         TT3         AMP3    
# ...
  1273.0000     44.2654      0.0000    628.1044      6.4056
  1273.2500     46.8348      0.0000    630.4500      7.5917
  1273.5000     51.1206      0.0000    619.4688      8.7457
  1273.7500     56.8834      0.0000    594.3881      9.7812
  1274.0000     64.4910      0.0000    573.4200     10.6744
  1274.2500     74.3870      0.0000    580.0240     11.4680
  1274.5000     86.0128      0.0000    604.4766     12.3427
  1274.7500     97.0701      0.0000    603.9016     13.5340
  1275.0000    104.3290      0.0000    554.9757     15.0086
  1275.2500    105.8291      0.0000    485.3210     16.2942
  1275.5000    102.4410      0.0000    441.3355     16.7998
  1275.7500     97.1368      0.0000    442.3073     16.3659
  1276.0000     92.9945      0.0000    474.4293     15.4022
  1276.2500     91.9062      0.0000    515.7850     14.4681
  1276.5000     94.3906      0.0000    555.7707     13.8510
  1276.7500     99.8700      0.0000    592.6086     13.5299
  1277.0000    107.1295      0.0000    622.4219     13.3735
  1277.2500    114.8205      0.0000    633.8684     13.3008
  1277.5000    121.6938      0.0000    611.7410     13.3023
  1277.7500    126.5829      0.0000    552.5508     13.3728
  1278.0000    128.5909      0.0000    478.1423     13.4610
  1278.2500    127.5526      0.0000    420.5012     13.4795
  1278.5000    124.2059      0.0000    392.0533     13.3808
  1278.7500    119.7014      0.0000    383.3675     13.2161
  1279.0000    114.9632      0.0000    382.1492     13.0732
  1279.2500    110.5959      0.0000    382.6143     12.9853
  1279.5000    107.1378      0.0000    383.3107     12.9314
  1279.7500    104.9753      0.0000    384.0232     12.8908
  1280.0000    104.0601      0.0000    384.6971     12.8725
  1280.2500    103.9450      0.0000    385.8839     12.9026
  1280.5000    104.1697      0.0000    390.5435     12.9879
  1280.7500    104.6010      0.0000    404.6031     13.0785
  1281.0000    105.4274      0.0000    430.8629     13.0827
  1281.2500    106.7095      0.0000    462.1263     12.9583
  1281.5000    107.9025      0.0000    488.4292     12.7662
  1281.7500    108.2209      0.0000    507.6815     12.5991
  1282.0000    107.7453      0.0000    522.9540     12.4737
  1282.2500    107.7744      0.0000    538.4301     12.2889
  1282.5000    109.5268      0.0000    559.8374     11.8829
  1282.7500    112.5154      0.0000    590.2441     11.1823
  1283.0000    114.5347      0.0000    622.0457     10.2984
  1283.2500    113.2888      0.0000    640.8892      9.4506
  1283.5000    107.9093      0.0000    642.2471      8.8458
  1283.7500     99.1336      0.0000    635.4268      8.6058
  1284.0000     88.4340      0.0000    629.6392      8.6976
  1284.2500     77.1637      0.0000    622.0114      9.0007
  1284.5000     66.4987      0.0000    598.1586      9.4779
  1284.7500     57.8150      0.0000    546.8963     10.1452
  1285.0000     52.4850      0.0000    483.0129     10.9095
  1285.2500     51.0852      0.0000    446.3397     11.5629
  1285.5000     53.1304      0.0000    464.5016     11.9646
  1285.7500     57.6050      0.0000    524.8705     12.2696
  1286.0000     63.3343      0.0000    586.5127     12.9364
  1286.2500     68.9362      0.0000    614.4821     14.3170
  1286.5000     73.0523      0.0000    609.2530     16.1733
  1286.7500     74.9571      0.0000    602.9783     17.7702
  1287.0000     74.7870      0.0000    614.7270     18.5660
  1287.2500     73.1969      0.0000    626.0819     18.6456
  1287.5000     71.0440      0.0000    618.2769     18.3981
  1287.7500     69.2937      0.0000    600.1793     18.0510
  1288.0000     68.8151      0.0000    587.3479     17.6377
  1288.2500     69.9244      0.0000    583.3187     17.1850
  1288.5000     71.9636      0.0000    586.8135     16.7653
  1288.7500     73.5215      0.0000    597.6389     16.4142
  1289.0000     73.4779      0.0000    612.7770     16.0952
  1289.2500     71.9715      0.0000    628.0992     15.7618
  1289.5000     70.2828      0.0000    642.0092     15.4151
  1289.7500     69.7531      0.0000    650.8267     15.0966
  1290.0000     70.7691      0.0000    646.4694     14.8373
  1290.2500     72.6472      0.0000    623.1703     14.6224
  1290.5000     74.3870      0.0000    583.5684     14.4197
  1290.7500     75.4422      0.0000    539.8334     14.2215
  1291.0000     75.6952      0.0000    507.0172     14.0439
  1291.2500     75.0043      0.0000    491.3640     13.8995
  1291.5000     73.3272      0.0000    490.7524     13.7829
  1291.7500     71.2583      0.0000    505.0895     13.6733
  1292.0000     69.8798      0.0000    535.5889     13.5554
  1292.2500     69.8345      0.0000    573.6024     13.4471
  1292.5000     70.8768      0.0000    601.9841     13.3891
  1292.7500     72.4806      0.0000    610.3021     13.4097
  1293.0000     74.4663      0.0000    600.8911     13.5034
  1293.2500     76.7402      0.0000    582.2905     13.6376
  1293.5000     78.7970      0.0000    559.4754     13.7825
  1293.7500     80.0555      0.0000    530.3872     13.9269
  1294.0000     80.6865      0.0000    497.5058     14.0641
  1294.2500     81.6418      0.0000    475.6736     14.1862
  1294.5000     83.6550      0.0000    480.2309     14.2957
  1294.7500     86.3587      0.0000    512.2034     14.4024
  1295.0000     88.4846      0.0000    552.6297     14.5032
  1295.2500     88.8963      0.0000    574.5838     14.5964
  1295.5000     87.4596      0.0000    568.8259     14.7240
  1295.7500     85.1238      0.0000    545.3228     14.9596
  1296.0000     83.3840      0.0000    509.0795     15.3190
  1296.2500     83.6216      0.0000    461.2537     15.7358
  1296.5000     86.7454      0.0000    416.7127     16.1529
  1296.7500     93.0461      0.0000    389.7149     16.5660
  1297.0000    101.9202      0.0000    376.5950     16.9748
  1297.2500    111.6722      0.0000    366.8486     17.3768
  1297.5000    120.0297      0.0000    356.8536     17.7873
  1297.7500    125.2759      0.0000    349.0346     18.1864
  1298.0000    127.0307      0.0000    345.1050     18.4807
  1298.2500    126.1121      0.0000    343.8219     18.5897
  1298.5000    123.7293      0.0000    343.3150     18.5505
  1298.7500    120.5915      0.0000    343.1102     18.4762
  1299.0000    116.5521      0.0000    345.1705     18.4114
  1299.2500    111.0985      0.0000    355.4117     18.2884
  1299.5000    104.1002      0.0000    382.9257     18.0263
  1299.7500     96.0986      0.0000    430.7492     17.6082
  1300.0000     88.2360      0.0000    485.3111     17.0771
  1300.2500     81.9490      0.0000    523.5334     16.5134
  1300.5000     78.3043      0.0000    529.8454     15.9958
  1300.7500     77.4956      0.0000    502.2109     15.5581
  1301.0000     79.0126      0.0000    453.6641     15.1852
  1301.2500     81.8857      0.0000    407.8510     14.8485
  1301.5000     84.6504      0.0000    382.8539     14.5457
  1301.7500     85.8596      0.0000    384.2330     14.3015
  1302.0000     85.2177      0.0000    411.2550     14.1193
  1302.2500     83.7911      0.0000    461.3672     13.9644
  1302.5000     82.6725      0.0000    527.2094     13.8059
  1302.7500     81.8596      0.0000    591.0746     13.6546
  1303.0000     80.8934      0.0000    634.1722     13.5560
  1303.2500     80.2384      0.0000    654.8932     13.5401
  1303.5000     81.2379      0.0000    664.4333     13.5879
  1303.7500     84.5538      0.0000    667.6006     13.6543
  1304.0000     89.2324      0.0000    657.3013     13.7109
  1304.2500     93.6798      0.0000    620.9669     13.7660
  1304.5000     97.2269      0.0000    554.5240     13.8417
  1304.7500    100.3973      0.0000    476.7599     13.9467
  1305.0000    103.8728      0.0000    417.3550     14.0590
  1305.2500    107.5720      0.0000    387.9416     14.1095
  1305.5000    110.7432      0.0000    379.1577     14.0290
  1305.7500    112.8044      0.0000    380.2107     13.8689
  1306.0000    114.0266      0.0000    390.6844     13.7580
  1306.2500    115.3413      0.0000    418.3217     13.5298
