~Version Information
VERS.                      2.0: CWLS Log ASCII Standard - VERSION 2.0
WRAP.                       NO: One line per depth step
~Well Information Block
STRT.FT               230.0000: 
STOP.FT              1028.0000: 
STEP.FT                 0.2500: 
NULL.                -999.2500: 
COMP.          Pioneer Natural Resources: COMPANY
WELL.              Gough 14-29: WELL
FLD.           Purgatoire River: FIELD
LOC.           1199' FSL & 676' FWL: LOCATION
PROV.                 Colorado: PROVINCE
CNTY.               Las Animas: COUNTRY
SRVC.                Patterson: SERVICE COMPANY
DATE.          Thu Dec 22 16:27:18 2005: LOG DATE
UWI.           05 071 08612 00: UNIQUE WELL ID
~Curve Information Block
DEPT.FT            0 000 00 00: Depth
SN.Ohm-m                      : IEL Short Normal
SP.mV                         : IEL Spontaneous Potential
DIR.Ohm-m                     : IEL Induction Resistivity
GR.GAPI                       : Gamma Ray
~Parameter Information Block
SNDERRM.mmho-m         10.0000: Medium Sonde Error Correction
~A  Depth        SN          SP         DIR          GR     
# ...
   330.5000   2000.0000   2000.0000     11.5673    161.2927
   330.7500   2000.0000   2000.0000     11.4425    153.2043
   331.0000   2000.0000   2000.0000     11.3017    139.6032
   331.2500   2000.0000   2000.0000     11.1626    132.6154
   331.5000   2000.0000   2000.0000     11.0371    129.2606
   331.7500   2000.0000   2000.0000     10.9255    131.9543
   332.0000   2000.0000   2000.0000     10.8200    140.2482
   332.2500   2000.0000   2000.0000     10.7082    146.0435
   332.5000   2000.0000   2000.0000     10.5781    151.9185
   332.7500   2000.0000   2000.0000     10.4214    153.3808
   333.0000   2000.0000   2000.0000     10.2393    152.7633
   333.2500   2000.0000   2000.0000     10.0457    151.4808
   333.5000   2000.0000   2000.0000      9.8643    149.8660
   333.7500   2000.0000   2000.0000      9.7206    149.5894
   334.0000   2000.0000   2000.0000      9.6335    150.6647
   334.2500   2000.0000   2000.0000      9.6103    152.2470
   334.5000   2000.0000   2000.0000      9.6487    155.5848
   334.7500   2000.0000   2000.0000      9.7387    158.2486
   335.0000   2000.0000   2000.0000      9.8632    162.4184
   335.2500   2000.0000   2000.0000      9.9971    165.0371
   335.5000   2000.0000   2000.0000     10.1103    168.3799
   335.7500   2000.0000   2000.0000     10.1784    169.9237
   336.0000   2000.0000   2000.0000     10.1957    170.4371
   336.2500   2000.0000   2000.0000     10.1803    169.3302
   336.5000   2000.0000   2000.0000     10.1649    166.1061
   336.7500   2000.0000   2000.0000     10.1820    163.7401
   337.0000   2000.0000   2000.0000     10.2534    161.2302
   337.2500   2000.0000   2000.0000     10.3886    160.6451
   337.5000   2000.0000   2000.0000     10.5860    161.2938
   337.7500   2000.0000   2000.0000     10.8353    162.4523
   338.0000   2000.0000   2000.0000     11.1182    164.7653
   338.2500   2000.0000   2000.0000     11.4127    166.3587
   338.5000   2000.0000   2000.0000     11.7018    167.9957
   338.7500   2000.0000   2000.0000     11.9810    168.0509
   339.0000   2000.0000   2000.0000     12.2586    166.0858
   339.2500   2000.0000   2000.0000     12.5504    163.5808
   339.5000   2000.0000   2000.0000     12.8716    159.0405
   339.7500   2000.0000   2000.0000     13.2337    156.2049
   340.0000   2000.0000   2000.0000     13.6463    152.9218
   340.2500   2000.0000   2000.0000     14.1194    151.2357
   340.5000   2000.0000   2000.0000     14.6616    148.5370
   340.7500   2000.0000   2000.0000     15.2721    146.0949
   341.0000   2000.0000   2000.0000     15.9328    141.1588
   341.2500   2000.0000   2000.0000     16.6119    137.2130
   341.5000   2000.0000   2000.0000     17.2799    130.9216
   341.7500   2000.0000   2000.0000     17.9254    126.8611
   342.0000   2000.0000   2000.0000     18.5525    121.7416
   342.2500   2000.0000   2000.0000     19.1640    119.5307
   342.5000   2000.0000   2000.0000     19.7461    118.6935
   342.7500   2000.0000   2000.0000     20.2729    119.6154
   343.0000   2000.0000   2000.0000     20.7228    121.8938
   343.2500   2000.0000   2000.0000     21.0846    123.1874
   343.5000   2000.0000   2000.0000     21.3451    124.2610
   343.7500   2000.0000   2000.0000     21.4706    124.4864
   344.0000   2000.0000   2000.0000     21.4080    124.0663
   344.2500   2000.0000   2000.0000     21.1191    123.0317
   344.5000   2000.0000   2000.0000     20.6259    120.0360
   344.7500   2000.0000   2000.0000     20.0185    117.2913
   345.0000   2000.0000   2000.0000     19.4098    113.4367
   345.2500   2000.0000   2000.0000     18.8771    112.2715
   345.5000   2000.0000   2000.0000     18.4402    114.2440
   345.7500   2000.0000   2000.0000     18.0901    117.9467
   346.0000   2000.0000   2000.0000     17.8319    125.0718
   346.2500   2000.0000   2000.0000     17.6989    129.3670
   346.5000   2000.0000   2000.0000     17.7265    133.4376
   346.7500   2000.0000   2000.0000     17.9162    134.3053
   347.0000   2000.0000   2000.0000     18.2249    133.1636
   347.2500   2000.0000   2000.0000     18.5866    131.1612
   347.5000   2000.0000   2000.0000     18.9495    127.0418
   347.7500   2000.0000   2000.0000     19.3000    123.9138
   348.0000   2000.0000   2000.0000     19.6554    119.0997
   348.2500   2000.0000   2000.0000     20.0387    116.0898
   348.5000   2000.0000   2000.0000     20.4632    112.2974
   348.7500   2000.0000   2000.0000     20.9357    110.1662
   349.0000   2000.0000   2000.0000     21.4676    106.7319
   349.2500   2000.0000   2000.0000     22.0723    103.8700
   349.5000   2000.0000   2000.0000     22.7464     99.1382
   349.7500   2000.0000   2000.0000     23.4511     96.5980
   350.0000   2000.0000   2000.0000     24.1190     95.4199
   350.2500   2000.0000   2000.0000     24.6908     96.8524
   350.5000   2000.0000   2000.0000     25.1610    101.6363
   350.7500   2000.0000   2000.0000     25.5880    105.5331
   351.0000   2000.0000   2000.0000     26.0525    110.6383
   351.2500   2000.0000   2000.0000     26.5959    113.0137
   351.5000   2000.0000   2000.0000     27.1816    115.1148
   351.7500   2000.0000   2000.0000     27.7074    115.8907
   352.0000   2000.0000   2000.0000     28.0582    116.8166
   352.2500   2000.0000   2000.0000     28.1626    117.6107
   352.5000   2000.0000   2000.0000     28.0183    119.1051
   352.7500   2000.0000   2000.0000     27.6808    119.7395
   353.0000   2000.0000   2000.0000     27.2420    118.3338
   353.2500   2000.0000   2000.0000     26.8039    114.9290
   353.5000   2000.0000   2000.0000     26.4481    106.3420
   353.7500   2000.0000   2000.0000     26.2031     99.7514
   354.0000   2000.0000   2000.0000     26.0342     92.4292
   354.2500   2000.0000   2000.0000     25.8697     91.2554
   354.5000   2000.0000   2000.0000     25.6493     96.0761
   354.7500   2000.0000   2000.0000     25.3521    102.4653
   355.0000   2000.0000   2000.0000     24.9803    112.9783
   355.2500   2000.0000   2000.0000     24.5204    118.7256
   355.5000   2000.0000   2000.0000     23.9271    124.4047
   355.7500   2000.0000   2000.0000     23.1517    126.5955
   356.0000   2000.0000   2000.0000     22.1876    128.4158
   356.2500   2000.0000   2000.0000     21.0921    129.0861
   356.5000   2000.0000   2000.0000     19.9606    130.2103
   356.7500   2000.0000   2000.0000     18.8808    131.7531
   357.0000   2000.0000   2000.0000     17.9050    136.2289
   357.2500   2000.0000   2000.0000     17.0522    140.7130
   357.5000   2000.0000   2000.0000     16.3261    148.5871
   357.7500   2000.0000   2000.0000     15.7272    153.3297
   358.0000   2000.0000   2000.0000     15.2518    157.4825
   358.2500   2000.0000   2000.0000     14.8827    157.9011
   358.5000   2000.0000   2000.0000     14.5865    156.5289
   358.7500   2000.0000   2000.0000     14.3219    155.5842
   359.0000   2000.0000   2000.0000     14.0569    154.8958
   359.2500   2000.0000   2000.0000     13.7831    154.3458
   359.5000   2000.0000   2000.0000     13.5153    152.1366
   359.7500   2000.0000   2000.0000     13.2795    149.5018
   360.0000   2000.0000   2000.0000     13.0987    144.0627
   360.2500   2000.0000   2000.0000     12.9867    139.6943
   360.5000   2000.0000   2000.0000     12.9506    132.5328
   360.7500   2000.0000   2000.0000     12.9950    127.8136
   361.0000   2000.0000   2000.0000     13.1221    122.2695
   361.2500   2000.0000   2000.0000     13.3279    120.9182
   361.5000   2000.0000   2000.0000     13.5958    124.3348
   361.7500   2000.0000   2000.0000     13.8932    129.9574
   362.0000   2000.0000   2000.0000     14.1752    139.5168
   362.2500   2000.0000   2000.0000     14.3949    143.5115
   362.5000   2000.0000   2000.0000     14.5170    142.7555
   362.7500   2000.0000   2000.0000     14.5232    138.2453
   363.0000   2000.0000   2000.0000     14.4103    129.2106
   363.2500   2000.0000   2000.0000     14.1901    124.1589
   363.5000   2000.0000   2000.0000     13.8940    121.1150
   363.7500   2000.0000   2000.0000     13.5738    122.9673
