~Version Information
VERS.                      2.0: CWLS Log ASCII Standard - VERSION 2.0
WRAP.                       NO: One line per depth step
~Well Information Block
STRT.FT                10.0000: 
STOP.FT              1350.5000: 
STEP.FT                 0.1000: 
NULL.                -999.2500: 
COMP.          Pioneer Natural Resources: COMPANY
WELL.              Dicks 32-5R: WELL
FLD.           Purgatorie River: FIELD
LOC.           1485' FNL & 1684' FEL: LOCATION
PROV.                 Colorado: PROVINCE
CNTY.               Las Animas: COUNTRY
SRVC.                Patterson: SERVICE COMPANY
DATE.          Fri Dec 09 10:06:15 2005: LOG DATE
UWI.                          : UNIQUE WELL ID
~Curve Information Block
DEPT.FT            0 000 00 00: Depth
DCAL.in                       : CDL Caliper
RHOB.g/cc                     : CDL Bulk Density
RHOC.g/cc                     : CDL Density Correction
DPOR.pu                       : CDL Density Porosity
GR.GAPI                       : Gamma Ray
NPOR.pu                       : Neutron Porosity
~Parameter Information Block
~A  Depth       DCAL        RHOB        RHOC        DPOR         GR         NPOR    
    10.0000     -3.1029      1.5223      2.4038     -0.0226    100.1656     31.4086
    10.1000     -3.1029      1.4882      2.3857     -0.0232     99.0549     31.3614
    10.2000     -3.1029      1.4319      2.3730     -0.0244     97.8006     30.9043
    10.3000     -3.1029      1.3618      2.3322     -0.0258     96.2441     30.5327
    10.4000     -3.1029      1.2941      2.3014     -0.0271     96.0070     30.6826
    10.5000     -3.1029      1.2431      2.2805     -0.0282     97.5669     31.0960
    10.6000     -3.1029      1.2139      2.2763     -0.0287     98.8026     31.4481
    10.7000     -3.1029      1.2049      2.2735     -0.0289     98.0639     31.7492
    10.8000     -3.1029      1.2183      2.2438     -0.0286     97.0717     31.9046
    10.9000     -3.1029      1.2670      2.2156     -0.0277     97.7529     31.7109
    11.0000     -3.1029      1.3656      2.1843     -0.0257    100.5025     31.3844
    11.1000     -3.1029      1.5185      2.1538     -0.0226    105.1769     31.3237
    11.2000     -3.1029      1.7119      2.1791     -0.0188    109.8335     31.4104
    11.3000     -3.1029      1.9059      2.2318     -0.0149    110.1926     31.4053
    11.4000     -3.1029      2.0435      2.3567     -0.0121    104.1162     31.5649
    11.5000     -3.1029      2.0950      2.3802     -0.0111     96.9838     31.8547
    11.6000     -3.1029      2.0835      2.4758     -0.0113     95.2294     31.8657
    11.7000     -3.1029      2.0418      2.5555     -0.0122     97.0381     31.6628
    11.8000     -3.1029      1.9798      2.5840     -0.0134     97.1274     31.3690
    11.9000     -3.1029      1.9103      2.4977     -0.0148     96.1570     31.0689
    12.0000     -3.1029      1.8775      2.3876     -0.0155     97.0752     31.0070
    12.1000     -3.1029      1.9210      2.4315     -0.0146     98.0725     30.8433
    12.2000     -3.1029      2.0238      2.5762     -0.0125     96.8648     30.1154
    12.3000     -3.1029      2.1390      2.6190     -0.0102     96.4084     29.4179
    12.4000     -3.1029      2.2468      2.6580     -0.0081     97.9942     29.4540
    12.5000     -3.1029      2.3605      2.6666     -0.0058     98.4335     29.9336
    12.6000     -3.1029      2.5049      2.6743     -0.0029     96.9884     30.4190
    12.7000     -3.1029      2.6739      2.7886      0.0005     94.2695     30.7725
    12.8000     -3.1029      2.8009      2.8387      0.0030     91.4650     30.9642
    12.9000     -3.1029      2.8030      2.8565      0.0031     90.9239     31.0065
    13.0000     -3.1029      2.6512      2.7562      0.0000     93.3406     30.8256
    13.1000     -3.1029      2.3881      2.6176     -0.0052     96.2566     30.4464
    13.2000     -3.1029      2.0785      2.5064     -0.0114     97.4505     30.1020
    13.3000     -3.1029      1.7779      2.2657     -0.0175     97.2566     30.2528
    13.4000     -3.1029      1.5623      1.9645     -0.0218     95.3017     30.7457
    13.5000     -3.1029      1.5106      1.9339     -0.0228     92.4097     30.7795
    13.6000     -3.1029      1.6275      2.1026     -0.0205     91.3815     30.3448
    13.7000     -3.1029      1.8250      2.4354     -0.0165     92.8435     30.1597
    13.8000     -3.1029      1.9956      2.6180     -0.0131     96.3229     30.2685
    13.9000     -3.1029      2.0996      2.6209     -0.0110     99.6661     30.1210
    14.0000     -3.1029      2.1665      2.6277     -0.0097    100.7665     29.7695
    14.1000     -3.1029      2.2256      2.6368     -0.0085     99.9866     29.5660
    14.2000     -3.1029      2.2631      2.7077     -0.0077     98.9141     29.5673
    14.3000     -3.1029      2.2428      2.6600     -0.0081     98.8819     29.8649
    14.4000     -3.1029      2.1454      2.6429     -0.0101     98.8879     30.2853
    14.5000     -3.1029      1.9809      2.5923     -0.0134     98.4535     30.2699
    14.6000     -3.1029      1.7873      2.5357     -0.0173     98.4924     29.8317
    14.7000     -3.1029      1.6214      2.4252     -0.0206     99.3351     29.6480
    14.8000     -3.1029      1.5245      2.4516     -0.0225    102.1639     29.8646
    14.9000     -3.1029      1.4986      2.4531     -0.0230    105.6429     30.0253
    15.0000     -3.1029      1.5277      2.4641     -0.0225    107.2488     29.9693
    15.1000     -3.1029      1.5904      2.4873     -0.0212    105.4618     29.9383
    15.2000     -3.1029      1.6578      2.4375     -0.0199     99.4332     29.8824
    15.3000     -3.1029      1.7082      2.3414     -0.0188     92.2566     29.7390
    15.4000     -3.1029      1.7393      2.2990     -0.0182     89.0488     29.7817
    15.5000     -3.1029      1.7709      2.2360     -0.0176     89.1571     29.9050
    15.6000     -3.1029      1.8310      2.3034     -0.0164     88.3192     29.9054
    15.7000     -3.1029      1.9199      2.4228     -0.0146     87.4422     29.9561
    15.8000     -3.1029      2.0061      2.5559     -0.0129     89.4887     30.3068
    15.9000     -3.1029      2.0658      2.5815     -0.0117     92.5978     31.0593
    16.0000     -3.1029      2.1000      2.6255     -0.0110     94.5237     31.6244
    16.1000     -3.1029      2.1159      2.6238     -0.0107     96.0624     31.3202
    16.2000     -3.1029      2.1182      2.6355     -0.0106     97.3708     30.6075
    16.3000     -3.1029      2.1121      2.6152     -0.0108     96.7982     30.1942
    16.4000     -3.1029      2.1036      2.6429     -0.0109     93.6691     30.0317
    16.5000     -3.1029      2.0984      2.5992     -0.0110     90.7947     29.8406
    16.6000     -3.1029      2.0968      2.6524     -0.0111     90.7013     29.6458
    16.7000     -3.1029      2.0931      2.6110     -0.0111     91.9316     29.4010
    16.8000     -3.1029      2.0875      2.6199     -0.0113     92.6942     28.9010
    16.9000     -3.1029      2.0801      2.6258     -0.0114     92.8413     28.3293
    17.0000     -3.1029      2.0686      2.5978     -0.0116     92.9641     28.0939
    17.1000     -3.1029      2.0590      2.5845     -0.0118     94.5972     28.1075
    17.2000     -3.1029      2.0605      2.5888     -0.0118     98.7881     27.9654
    17.3000     -3.1029      2.0772      2.6129     -0.0115    103.0747     27.7000
    17.4000     -3.1029      2.1031      2.6248     -0.0109    102.5172     27.4415
    17.5000     -3.1029      2.1225      2.6511     -0.0106     99.0434     27.2733
    17.6000     -3.1029      2.1259      2.6296     -0.0105     98.6082     27.4807
    17.7000     -3.1029      2.1221      2.6236     -0.0106    101.2589     28.0515
    17.8000     -3.1029      2.1224      2.6226     -0.0106    105.2081     28.3950
    17.9000     -3.1029      2.1287      2.6056     -0.0104    108.9309     27.9277
    18.0000     -3.1029      2.1397      2.6101     -0.0102    108.0976     27.1059
    18.1000     -3.1029      2.1534      2.5965     -0.0099    102.2987     27.0451
    18.2000     -3.1029      2.1622      2.6293     -0.0098     98.0931     27.6973
    18.3000     -3.1029      2.1543      2.6171     -0.0099     98.6786     28.1567
    18.4000     -3.1029      2.1319      2.6106     -0.0104    100.3803     28.2656
    18.5000     -3.1029      2.1126      2.5520     -0.0108    101.8124     28.2778
    18.6000     -3.1029      2.1052      2.6107     -0.0109    102.8184     28.1652
    18.7000     -3.1029      2.0983      2.6079     -0.0110    101.1928     28.1379
    18.8000     -3.1029      2.0882      2.5728     -0.0112     97.0247     28.2708
    18.9000     -3.1029      2.0846      2.5847     -0.0113     92.9781     28.3557
    19.0000     -3.1029      2.0891      2.5840     -0.0112     91.6399     28.5039
    19.1000     -3.1029      2.0976      2.5954     -0.0111     92.1849     28.7636
    19.2000     -3.1029      2.1081      2.5964     -0.0108     91.5897     29.1373
    19.3000     -3.1029      2.1199      2.5905     -0.0106     89.1036     29.5045
    19.4000     -3.1029      2.1301      2.6369     -0.0104     86.8904     29.2642
    19.5000     -3.1029      2.1345      2.6302     -0.0103     87.1185     28.4256
