~Version Information
VERS.                      2.0: CWLS Log ASCII Standard - VERSION 2.0
WRAP.                       NO: One line per depth step
~Well Information Block
STRT.FT               645.0000: 
STOP.FT              2133.5000: 
STEP.FT                 0.2500: 
NULL.                -999.2500: 
COMP.          Pioneer Natural Resources: COMPANY
WELL.          Gunslinger 13-24: WELL
FLD.           Purgatoire River: FIELD
LOC.           1968' FSL & 633' FWL: LOCATION
PROV.                 Colorado: PROVINCE
CNTY.               Las Animas: COUNTRY
SRVC.                Patterson: SERVICE COMPANY
DATE.          Fri Jul 29 15:04:35 2005: LOG DATE
UWI.           05 071 08442 00: UNIQUE WELL ID
~Curve Information Block
DEPT.FT            0 000 00 00: Depth
SN.Ohm-m                      : IEL Short Normal
SP.mV                         : IEL Spontaneous Potential
DIR.Ohm-m                     : IEL Induction Resistivity
GR.GAPI                       : Gamma Ray
~Parameter Information Block
~A  Depth        SN          SP         DIR          GR     
# ...
  1315.0000     33.2487     97.2398     20.6069     73.8085
  1315.2500     38.7685     97.3432     21.8851     64.9002
  1315.5000     45.7384     97.3329     23.3042     55.5216
  1315.7500     53.2371     97.2308     24.8751     51.1851
  1316.0000     58.9693     97.0556     26.5841     46.4466
  1316.2500     61.4472     96.8216     28.3772     44.3389
  1316.5000     61.6410     96.5410     30.1599     43.4668
  1316.7500     61.0466     96.2317     31.8046     45.0735
  1317.0000     59.5690     95.9261     33.1571     51.4600
  1317.2500     56.8494     95.6661     34.0465     58.1072
  1317.5000     53.4899     95.4863     34.3309     69.8315
  1317.7500     50.2019     95.4023     33.9769     77.1923
  1318.0000     47.3364     95.4112     33.1131     85.0510
  1318.2500     44.9861     95.4914     31.9882     87.6924
  1318.5000     42.7993     95.6013     30.8641     89.1781
  1318.7500     40.2974     95.6936     29.9291     90.0829
  1319.0000     37.7896     95.7436     29.2753     93.4799
  1319.2500     36.0542     95.7573     28.9134     97.4154
  1319.5000     35.1999     95.7369     28.7979    104.4062
  1319.7500     34.8152     95.6438     28.8498    108.1138
  1320.0000     34.7675     95.4145     28.9828    109.3689
  1320.2500     35.2475     95.0200     29.1297    106.6224
  1320.5000     36.1910     94.4986     29.2564     98.3274
  1320.7500     37.0228     93.9228     29.3646    100.7745
  1321.0000     37.4000     93.3469     29.4913     90.5588
  1321.2500     38.1165     92.7980     29.7055     85.1694
  1321.5000     40.5370     92.3023     30.0904     79.1956
  1321.7500     44.6566     91.8960     30.7088     82.9798
  1322.0000     48.7522     91.6001     31.5624     77.9919
  1322.2500     51.7023     91.3960     32.5685     74.3243
  1322.5000     54.0103     91.2332     33.5623     68.5998
  1322.7500     56.2610     91.0574     34.3312     65.2746
  1323.0000     58.3177     90.8333     34.6702     61.8771
  1323.2500     59.8482     90.5575     34.4375     60.6446
  1323.5000     60.7777     90.2613     33.6003     60.1083
  1323.7500     61.0023     89.9979     32.2668     61.0137
  1324.0000     59.9644     89.8140     30.6755     65.5737
  1324.2500     57.0171     89.7235     29.1051     71.1314
  1324.5000     52.0813     89.6990     27.7551     82.6840
  1324.7500     46.2728     89.6849     26.6839     91.8550
  1325.0000     41.2699     89.6238     25.8448    106.4007
  1325.2500     37.6179     89.4844     25.1751    115.4602
  1325.5000     34.7382     89.2778     24.6575    125.9302
  1325.7500     32.1736     89.0493     24.3038    130.3216
  1326.0000     29.9943     88.8492     24.0947    134.2756
  1326.2500     28.3640     88.7030     23.9498    136.3888
  1326.5000     27.2549     88.6042     23.7726    139.5870
  1326.7500     26.6285     88.5331     23.5327    141.0891
  1327.0000     26.4947     88.4791     23.2986    140.5791
  1327.2500     26.7837     88.4433     23.1841    137.7823
  1327.5000     27.4675     88.4257     23.2622    130.2605
  1327.7500     28.7000     88.4158     23.5248    123.8382
  1328.0000     30.5190     88.3967     23.9056    113.6200
  1328.2500     32.6925     88.3590     24.3510    107.0256
  1328.5000     35.2837     88.3150     24.8854     97.9703
  1328.7500     38.7780     88.2974     25.6173     92.7007
  1329.0000     43.2194     88.3385     26.6775     86.4454
  1329.2500     47.8885     88.4504     28.1262     83.6593
  1329.5000     51.9394     88.6189     29.8680     81.5418
  1329.7500     54.9991     88.8117     31.6089     81.0462
  1330.0000     57.3586     88.9937     32.9244     80.5089
  1330.2500     59.2218     89.1450     33.4553     79.7834
  1330.5000     59.9388     89.2734     33.0994     77.8888
  1330.7500     59.1247     89.4103     32.0106     76.1955
  1331.0000     57.5357     89.5896     30.4376     73.5325
  1331.2500     55.6056     89.8209     28.5979     72.2347
  1331.5000     52.7134     90.0771     26.6593     72.3305
  1331.7500     48.4914     90.3115     24.7582     74.5717
  1332.0000     43.3911     90.4889     22.9991     82.2106
  1332.2500     38.2326     90.6029     21.4423     90.1759
  1332.5000     33.6570     90.6653     20.1030    104.9615
  1332.7500     29.8392     90.6859     18.9656    115.1452
  1333.0000     26.8126     90.6604     18.0034    128.2808
  1333.2500     24.6006     90.5735     17.1918    134.7583
  1333.5000     23.0165     90.4102     16.5111    141.2247
  1333.7500     21.7705     90.1765     15.9423    144.3596
  1334.0000     20.7002     89.9147     15.4609    149.6117
  1334.2500     19.7969     89.6950     15.0379    154.0754
  1334.5000     19.0530     89.5801     14.6473    160.3838
  1334.7500     18.3696     89.5896     14.2764    162.2723
  1335.0000     17.7405     89.6955     13.9299    159.7309
  1335.2500     17.3053     89.8533     13.6254    155.3530
  1335.5000     17.0337     90.0365     13.3842    148.5472
  1335.7500     16.7291     90.2456     13.2238    145.8995
  1336.0000     16.4596     90.4899     13.1546    146.1319
  1336.2500     16.5594     90.7699     13.1806    148.5036
  1336.5000     17.1531     91.0778     13.3019    152.9095
  1336.7500     17.9624     91.4026     13.5170    154.9033
  1337.0000     18.6011     91.7324     13.8221    155.1604
  1337.2500     18.9454     92.0589     14.2075    153.8002
  1337.5000     19.1867     92.3830     14.6558    151.2375
  1337.7500     19.5391     92.7076     15.1444    150.2096
  1338.0000     20.0475     93.0182     15.6556    149.8837
  1338.2500     20.6805     93.2725     16.1862    149.3506
  1338.5000     21.3948     93.4137     16.7488    145.2724
  1338.7500     22.1193     93.4046     17.3642    139.5083
  1339.0000     22.9226     93.2615     18.0510    127.4248
  1339.2500     24.1513     93.0548     18.8183    118.7552
  1339.5000     26.0379     92.8717     19.6692    107.3978
  1339.7500     28.3931     92.7703     20.6068    101.5079
  1340.0000     30.9865     92.7595     21.6386     94.8471
  1340.2500     33.7360     92.8058     22.7706     91.4755
  1340.5000     36.3791     92.8479     23.9958     87.8548
  1340.7500     38.4065     92.8145     25.2839     86.5379
  1341.0000     39.3565     92.6506     26.5811     86.2584
  1341.2500     39.1860     92.3484     27.8236     86.8923
  1341.5000     38.6022     91.9632     28.9581     88.1297
  1341.7500     38.6248     91.5922     29.9515     88.7125
  1342.0000     39.3037     91.3199     30.7864     89.2379
  1342.2500     39.6003     91.1718     31.4528     89.7228
  1342.5000     39.1469     91.1161     31.9553     91.1324
  1342.7500     38.9317     91.1058     32.3201     92.3292
  1343.0000     39.5643     91.1148     32.5748     93.2464
  1343.2500     40.2809     91.1407     32.6978     92.4100
  1343.5000     40.1059     91.1833     32.5933     88.6116
  1343.7500     38.8719     91.2352     32.1493     85.2346
  1344.0000     37.2201     91.2936     31.3518     81.3901
  1344.2500     36.0993     91.3740     30.3274     80.7380
  1344.5000     35.7597     91.4991     29.2446     82.8566
  1344.7500     35.3121     91.6728     28.1786     85.7233
  1345.0000     33.8578     91.8699     27.0849     91.0638
  1345.2500     31.6129     92.0517     25.8944     94.9681
  1345.5000     29.5053     92.1892     24.6153    100.9202
  1345.7500     28.0352     92.2725     23.3373    104.5294
  1346.0000     26.8664     92.3030     22.1554    108.5626
  1346.2500     25.6494     92.2787     21.1117    110.0100
  1346.5000     24.5891     92.1863     20.1937    110.1840
  1346.7500     23.8073     92.0060     19.3673    109.1986
  1347.0000     22.9564     91.7306     18.6097    107.2477
  1347.2500     21.9002     91.3828     17.9238    106.7267
  1347.5000     21.0562     91.0100     17.3325    109.0674
  1347.7500     20.6843     90.6540     16.8625    113.3448
  1348.0000     20.5010     90.3277     16.5258    123.2196
  1348.2500     20.1905     90.0214     16.3095    130.8174
