~Version Information
VERS.                      2.0: CWLS Log ASCII Standard - VERSION 2.0
WRAP.                       NO: One line per depth step
~Well Information Block
STRT.FT                -6.5000: 
STOP.FT              1758.0000: 
STEP.FT                 0.2500: 
NULL.                -999.2500: 
COMP.          Pioneer Natural Resources: COMPANY
WELL.           Rolls 14-14 Tr: WELL
FLD.           Purgatorie River: FIELD
LOC.           473' FSL & 817' FWL--: LOCATION
PROV.                       CO: PROVINCE
CNTY.               Las Animas: COUNTRY
SRVC.          Patterson Wireline: SERVICE COMPANY
DATE.          Mon Aug 08 11:51:25 2005: LOG DATE
UWI.           05 071 08454 00: UNIQUE WELL ID
~Curve Information Block
DEPT.FT            0 000 00 00: Depth
CCL.                          : Casing Collar Locator
TT3.usec                      : CBL 3' Travel Time
AMP3.mV                       : CBL 3' Amplitude
GR.GAPI                       : Gamma Ray
~Parameter Information Block
~A  Depth       CCL         TT3         AMP3         GR     
# ...
   697.0000      0.0000    744.6609      5.7392     93.7761
   697.2500      0.0000    750.0004      5.7436     96.0689
   697.5000      0.0000    755.8660      5.7665     99.1383
   697.7500      0.0000    761.4422      5.8058    101.7611
   698.0000      0.0000    765.3872      5.8559    102.1475
   698.2500      0.0000    766.3333      5.9027     99.5047
   698.5000      0.0000    763.7169      5.9325     94.6816
   698.7500      0.0000    758.4619      5.9401     88.9858
   699.0000      0.0000    752.6465      5.9270     83.0106
   699.2500      0.0000    748.1475      5.8954     77.1278
   699.5000      0.0000    745.6185      5.8500     72.3655
   699.7500      0.0000    744.6427      5.7993     69.7049
   700.0000      0.0000    744.4650      5.7543     68.6886
   700.2500      0.0000    744.5323      5.7204     67.6266
   700.5000      0.0000    744.6702      5.6912     65.3173
   700.7500      0.0000    745.0396      5.6491     62.0909
   701.0000      0.0000    745.9643      5.5771     59.1232
   701.2500      0.0000    747.7602      5.4754     57.0790
   701.5000      0.0000    750.9496      5.3656     55.6481
   701.7500      0.0000    756.6499      5.2679     54.3467
   702.0000      0.0000    765.8637      5.1700     53.5378
   702.2500      0.0000    777.5437      5.0370     54.5144
   702.5000      0.0000    788.3190      4.8626     58.5418
   702.7500      0.0000    795.5195      4.6891     65.6693
   703.0000     -1.5228    799.7864      4.5616     74.4695
   703.2500      2.0000    803.7523      4.4812     83.0889
   703.5000      2.0000    809.1111      4.4209     90.4313
   703.7500      0.0000    815.4055      4.3696     96.1822
   704.0000      0.0000    820.3316      4.3554    100.2109
   704.2500      0.0000    820.6200      4.4353    102.5325
   704.5000      0.0000    813.7443      4.6582    103.4747
   704.7500      0.0000    799.9139      5.0025    103.3281
   705.0000      0.0000    782.4608      5.3510    102.1690
   705.2500      0.0000    765.9245      5.5642    100.1994
   705.5000      0.0000    753.5544      5.5975     97.6408
   705.7500      0.0000    746.1832      5.5276     94.2991
   706.0000      0.0000    742.8463      5.4636     90.0560
   706.2500      0.0000    742.1424      5.4544     85.7848
   706.5000      0.0000    743.2878      5.4810     83.0182
   706.7500      0.0000    746.4324      5.5125     82.6304
   707.0000      0.0000    752.2371      5.5469     84.3162
   707.2500      0.0000    761.0288      5.6016     87.2698
   707.5000      0.0000    772.2682      5.6825     90.7641
   707.7500      0.0000    784.8146      5.7733     93.9575
   708.0000      0.0000    797.5446      5.8541     95.8804
   708.2500      0.0000    809.4814      5.9183     96.1879
   708.5000      0.0000    819.5893      5.9723     95.5536
   708.7500      0.0000    826.9521      6.0256     94.6505
   709.0000      0.0000    831.4399      6.0869     92.9300
   709.2500      0.0000    833.6855      6.1639     89.1227
   709.5000      0.0000    833.7864      6.2619     83.0016
   709.7500      0.0000    830.4440      6.3824     76.1966
   710.0000      0.0000    822.8428      6.5213     71.2626
   710.2500      0.0000    813.5255      6.6674     70.1072
   710.5000      0.0000    807.7681      6.8078     72.8280
   710.7500      0.0000    808.9221      6.9377     77.3899
   711.0000      0.0000    814.6008      7.0605     80.5576
   711.2500      0.0000    818.1390      7.1777     79.8870
   711.5000      0.0000    814.3026      7.2847     75.2668
   711.7500      0.0000    803.5876      7.3794     68.6879
   712.0000      0.0000    790.9452      7.4641     62.8005
   712.2500      0.0000    781.0579      7.5401     59.6319
   712.5000      0.0000    775.3823      7.6065     59.9529
   712.7500      0.0000    772.7950      7.6646     63.0460
   713.0000      0.0000    771.6798      7.7181     67.0779
   713.2500      0.0000    771.0977      7.7688     70.2802
   713.5000      0.0000    770.7970      7.8128     72.0341
   713.7500      0.0000    770.7532      7.8418     72.6918
   714.0000      0.0000    770.8935      7.8542     72.6541
   714.2500      0.0000    771.0994      7.8638     72.1492
   714.5000      0.0000    771.3635      7.8957     71.6026
   714.7500      0.0000    771.9816      7.9683     71.4063
   715.0000      0.0000    773.7888      8.0772     71.2797
   715.2500      0.0000    778.2842      8.1935     70.4935
   715.5000      0.0000    787.1644      8.2800     68.8048
   715.7500      0.0000    801.0138      8.3142     66.6253
   716.0000      0.0000    817.9969      8.3006     64.2957
   716.2500      0.0000    834.0807      8.2614     61.7954
   716.5000      0.0000    845.1054      8.2133     59.1992
   716.7500      0.0000    849.1168      8.1537     56.7942
   717.0000      0.0000    847.1842      8.0708     54.6368
   717.2500      0.0000    842.3208      7.9632     52.4955
   717.5000      0.0000    837.5234      7.8454     50.2975
   717.7500      0.0000    834.5292      7.7348     48.2039
   718.0000      0.0000    834.0137      7.6388     46.1968
   718.2500      0.0000    836.2094      7.5557     44.0342
   718.5000      0.0000    840.8924      7.4859     41.8896
   718.7500      0.0000    847.1722      7.4355     40.7510
   719.0000      0.0000    853.7247      7.4096     41.7563
   719.2500      0.0000    859.2872      7.4062     45.0187
   719.5000      0.0000    863.0933      7.4149     49.2917
   719.7500      0.0000    865.0772      7.4199     52.8909
   720.0000      0.0000    865.7007      7.4062     54.9492
   720.2500      0.0000    865.5404      7.3711     55.9463
   720.5000      0.0000    865.0162      7.3292     57.2677
   720.7500      0.0000    864.4230      7.3034     60.2802
   721.0000      0.0000    864.0500      7.3086     65.5445
   721.2500      0.0000    864.0607      7.3408     72.4796
   721.5000      0.0000    864.1555      7.3809     79.4453
   721.7500      0.0000    863.3475      7.4124     84.3686
   722.0000      0.0000    860.3720      7.4327     85.9824
   722.2500      0.0000    854.8285      7.4505     84.8848
   722.5000      0.0000    848.2060      7.4743     83.2615
   722.7500      0.0000    843.3384      7.5045     83.3952
   723.0000      0.0000    842.1953      7.5321     86.3297
   723.2500      0.0000    844.1689      7.5489     91.5857
   723.5000      0.0000    846.7168      7.5559     97.6152
   723.7500      0.0000    847.3396      7.5569    102.3634
   724.0000      0.0000    844.7982      7.5439    103.8947
   724.2500      0.0000    839.3762      7.4961    101.3314
   724.5000      0.0000    833.0898      7.3986     95.7383
   724.7500      0.0000    829.2016      7.2606     89.9231
   725.0000      0.0000    829.9668      7.1143     86.6849
   725.2500      0.0000    834.5377      6.9886     86.7436
   725.5000      0.0000    839.8430      6.8865     88.3236
   725.7500      0.0000    843.1559      6.7905     88.9431
   726.0000      0.0000    843.3486      6.6886     87.6784
   726.2500      0.0000    840.8655      6.5872     85.6717
   726.5000      0.0000    837.8904      6.5014     84.5279
   726.7500      0.0000    837.7293      6.4364     84.4935
   727.0000      0.0000    842.2270      6.3843     84.3777
   727.2500      0.0000    849.7198      6.3387     83.0939
   727.5000      0.0000    856.3041      6.3071     80.9600
   727.7500      0.0000    858.6654      6.3023     79.4167
   728.0000      0.0000    855.0475      6.3261     79.6267
   728.2500      0.0000    844.4490      6.3687     81.5024
   728.5000      0.0000    826.6889      6.4234     84.0593
   728.7500      0.0000    804.2561      6.4928     86.5340
   729.0000      0.0000    783.5572      6.5819     89.0164
   729.2500      0.0000    772.7004      6.6887     91.9042
   729.5000      0.0000    776.5490      6.8006     94.7005
   729.7500      0.0000    793.2246      6.9010     95.6708
   730.0000      0.0000    815.2692      6.9776     93.3236
   730.2500      0.0000    834.4680      7.0232     88.2494
