~Version Information
VERS.                      2.0: CWLS Log ASCII Standard - VERSION 2.0
WRAP.                       NO: One line per depth step
~Well Information Block
STRT.FT                -6.5000: 
STOP.FT              1636.7500: 
STEP.FT                 0.2500: 
NULL.                -999.2500: 
COMP.          Pioneer Natural Resources: COMPANY
WELL.          Stock Canyon 34-33: WELL
FLD.           Purgatorie River: FIELD
LOC.           980' FSL & 2191' FEL--: LOCATION
PROV.                       CO: PROVINCE
CNTY.               Las Animas: COUNTRY
SRVC.          Patterson Wireline: SERVICE COMPANY
DATE.          Mon Dec 12 09:29:49 2005: LOG DATE
UWI.           05 071 08601 00: UNIQUE WELL ID
~Curve Information Block
DEPT.FT            0 000 00 00: Depth
CCL.                          : Casing Collar Locator
TT3.usec                      : CBL 3' Travel Time
AMP3.mV                       : CBL 3' Amplitude
GR.GAPI                       : Gamma Ray
~Parameter Information Block
~A  Depth       CCL         TT3         AMP3         GR     
# ...
  1266.5000      0.0000    286.3368     54.9308     47.7998
  1266.7500      0.0000    284.9330     56.6556     45.7583
  1267.0000      0.0000    283.1603     59.1727     45.2257
  1267.2500      0.0000    281.4837     62.4036     45.6515
  1267.5000      0.0000    280.2130     65.9432     45.5629
  1267.7500      0.0000    279.4052     69.0574     43.5424
  1268.0000      0.0000    278.9676     71.1663     39.4060
  1268.2500      0.0000    278.7710     72.2368     34.4590
  1268.5000      0.0000    278.7019     72.6307     30.4935
  1268.7500      0.0000    278.6848     72.7264     28.5856
  1269.0000      0.0000    278.6835     72.7376     28.6885
  1269.2500      0.0000    278.6859     72.7418     29.9482
  1269.5000      0.0000    278.6891     72.7474     31.3007
  1269.7500      0.0000    278.6914     72.7428     32.0573
  1270.0000      0.0000    278.6911     72.7200     32.0715
  1270.2500      0.0000    278.6874     72.6829     31.3737
  1270.5000      0.0000    278.6809     72.6426     29.8959
  1270.7500      0.0000    278.6730     72.6077     27.7869
  1271.0000      0.0000    278.6653     72.5812     25.7467
  1271.2500      0.0000    278.6585     72.5627     24.6703
  1271.5000      0.0000    278.6526     72.5496     24.8874
  1271.7500      0.0000    278.6483     72.5374     25.8970
  1272.0000      0.0000    278.6459     72.5211     26.8967
  1272.2500      0.0000    278.6453     72.4970     27.4554
  1272.5000      0.0000    278.6460     72.4659     27.6052
  1272.7500      0.0000    278.6484     72.4333     27.5302
  1273.0000      0.0000    278.6529     72.4065     27.4830
  1273.2500      0.0000    278.6583     72.3911     27.8360
  1273.5000      0.0000    278.6606     72.3889     28.7610
  1273.7500      0.0000    278.6561     72.3989     29.8337
  1274.0000      0.0000    278.6435     72.4194     30.3688
  1274.2500      0.0000    278.6261     72.4492     30.3613
  1274.5000      0.0000    278.6090     72.4844     30.8252
  1274.7500      0.0000    278.5961     72.5151     32.8985
  1275.0000      0.0000    278.5891     72.5304     36.7254
  1275.2500      0.0000    278.5877     72.5261     41.3528
  1275.5000      0.0000    278.5908     72.5072     45.5192
  1275.7500      0.0000    278.5967     72.4828     48.3795
  1276.0000      0.0000    278.6029     72.4594     49.6939
  1276.2500      0.0000    278.6070     72.4389     49.7994
  1276.5000      0.0000    278.6088     72.4207     49.5379
  1276.7500      0.0000    278.6092     72.4056     49.7938
  1277.0000      0.0000    278.6088     72.3961     50.7041
  1277.2500      0.0000    278.6070     72.3938     51.5912
  1277.5000      0.0000    278.6028     72.3953     51.9999
  1277.7500      0.0000    278.5966     72.3911     52.3706
  1278.0000      0.0000    278.5902     72.3699     53.2701
  1278.2500      0.0000    278.5850     72.3245     54.3821
  1278.5000      0.0000    278.5817     72.2574     54.8296
  1278.7500      0.0000    278.5807     72.1790     54.3325
  1279.0000      0.0000    278.5821     72.1036     53.6406
  1279.2500      0.0000    278.5845     72.0469     53.8057
  1279.5000      0.0000    278.5855     72.0237     55.1093
  1279.7500      0.0000    278.5823     72.0403     56.6553
  1280.0000      0.0000    278.5742     72.0877     57.1593
  1280.2500      0.0000    278.5630     72.1430     56.2616
  1280.5000      0.0000    278.5512     72.1818     54.8638
  1280.7500      0.0000    278.5412     72.1909     53.9962
  1281.0000      0.0000    278.5340     72.1736     53.5851
  1281.2500      0.0000    278.5296     72.1442     52.7268
  1281.5000      0.0000    278.5276     72.1178     51.0346
  1281.7500      0.0000    278.5283     72.1015     49.2422
  1282.0000      0.0000    278.5322     72.0926     48.4312
  1282.2500      0.0000    278.5394     72.0868     48.9633
  1282.5000      0.0000    278.5488     72.0860     50.3590
  1282.7500      0.0000    278.5588     72.0974     52.1111
  1283.0000      0.0000    278.5686     72.1254     54.2336
  1283.2500      0.0000    278.5784     72.1679     56.8666
  1283.5000      0.0000    278.5876     72.2213     59.6959
  1283.7500      0.0000    278.5942     72.2829     61.9829
  1284.0000      0.0000    278.5956     72.3481     62.9273
  1284.2500      0.0000    278.5909     72.4093     61.8092
  1284.5000      0.0000    278.5827     72.4591     58.1336
  1284.7500      0.0000    278.5754     72.4949     52.0142
  1285.0000      0.0000    278.5726     72.5194     44.4031
  1285.2500      0.0000    278.5749     72.5360     36.8058
  1285.5000      0.0000    278.5806     72.5427     30.6283
  1285.7500      0.0000    278.5877     72.5320     26.5674
  1286.0000      0.0000    278.5944     72.4996     24.5606
  1286.2500      0.0000    278.5993     72.4534     24.3552
  1286.5000      0.0000    278.6021     72.4105     26.0058
  1286.7500      0.0000    278.6028     72.3870     29.7208
  1287.0000      0.0000    278.6014     72.3912     35.3165
  1287.2500      0.0000    278.5977     72.4238     41.9196
  1287.5000      0.0000    278.5919     72.4791     48.1953
  1287.7500      0.0000    278.5858     72.5457     52.9164
  1288.0000      0.0000    278.5831     72.6076     55.4505
  1288.2500      0.0000    278.5868     72.6510     55.8300
  1288.5000      0.0000    278.5965     72.6726     54.5475
  1288.7500      0.0000    278.6083     72.6813     52.4397
  1289.0000      0.0000    278.6179     72.6894     50.7608
  1289.2500      0.0000    278.6224     72.7028     51.0859
  1289.5000      0.0000    278.6220     72.7194     54.7287
  1289.7500      0.0000    278.6185     72.7358     62.0166
  1290.0000      0.0000    278.6134     72.7507     72.3186
  1290.2500      0.0000    278.6078     72.7619     84.9623
  1290.5000      0.0000    278.6034     72.7675     99.7291
  1290.7500      0.0000    278.6035     72.7716    116.0184
  1291.0000      0.0000    278.6140     72.7879    131.8708
  1291.2500      0.0000    278.6459     72.8334    144.4948
  1291.5000      0.0000    278.7188     72.9145    151.8957
  1291.7500      0.0000    278.8532     73.0154    153.9148
  1292.0000      0.0000    279.0426     73.1042    151.9695
  1292.2500      0.0000    279.2245     73.1567    148.0905
  1292.5000      0.0000    279.3051     73.1723    144.0047
  1292.7500      0.0000    279.2373     73.1675    140.7632
  1293.0000      0.0000    279.0678     73.1564    138.9741
  1293.2500      0.0000    278.8902     73.1447    138.8783
  1293.5000      0.0000    278.7666     73.1367    139.9958
  1293.7500      0.0000    278.7038     73.1396    141.3937
  1294.0000      0.0000    278.6809     73.1575    142.8184
  1294.2500      0.0000    278.6778     73.1836    144.8451
  1294.5000      0.0000    278.6829     73.2012    147.2030
  1294.7500      0.0000    278.6903     73.1950    147.6872
  1295.0000      0.0000    278.6972     73.1615    143.8959
  1295.2500      0.0000    278.7023     73.1106    135.9586
  1295.5000      0.0000    278.7052     73.0596    126.5550
  1295.7500      0.0000    278.7052     73.0257    118.3111
  1296.0000      0.0000    278.7019     73.0199    112.0893
  1296.2500      0.0000    278.6946     73.0456    107.5413
  1296.5000      0.0000    278.6836     73.0967    103.8995
  1296.7500      0.0000    278.6696     73.1600     99.8499
  1297.0000      0.0000    278.6540     73.2204     93.6323
  1297.2500      0.0000    278.6383     73.2666     84.0728
  1297.5000      0.0000    278.6247     73.2916     71.6219
  1297.7500      0.0000    278.6151     73.2920     58.3401
  1298.0000      0.0000    278.6101     73.2690     46.7474
  1298.2500      0.0000    278.6082     73.2315     38.3854
  1298.5000      0.0000    278.6068     73.1935     33.2245
  1298.7500      0.0000    278.6039     73.1675     30.2776
  1299.0000      0.0000    278.5981     73.1618     28.7306
  1299.2500      0.0000    278.5893     73.1789     28.5839
  1299.5000      0.0000    278.5777     73.2146     30.2719
  1299.7500      0.0000    278.5641     73.2592     33.7504
