~Version Information
VERS.                      2.0: CWLS Log ASCII Standard - VERSION 2.0
WRAP.                       NO: One line per depth step
~Well Information Block
STRT.FT               800.0000: 
STOP.FT              3500.0000: 
STEP.FT                 0.2500: 
NULL.                -999.2500: 
COMP.          Pioneer Natural Resources: COMPANY
WELL.          Cordillera 34-7: WELL
FLD.           Purgatoire River: FIELD
LOC.           598' FSL & 1770' FEL--: LOCATION
PROV.                 Colorado: PROVINCE
CNTY.               Las Animas: COUNTRY
SRVC.                Patterson: SERVICE COMPANY
DATE.          Thu Oct 27 20:08:30 2005: LOG DATE
UWI.           05 071 08552 00: UNIQUE WELL ID
~Curve Information Block
DEPT.FT            0 000 00 00: Depth
SN.Ohm-m                      : IEL Short Normal
SP.mV                         : IEL Spontaneous Potential
DIR.Ohm-m                     : IEL Induction Resistivity
GR.GAPI                       : Gamma Ray
~Parameter Information Block
~A  Depth        SN          SP         DIR          GR     
   800.0000   2000.0000   2000.0000      6.4678     44.8881
   800.2500   2000.0000   2000.0000      6.3818     45.2393
   800.5000   2000.0000   2000.0000      6.3523     44.9926
   800.7500   2000.0000   2000.0000      6.3917     44.4971
   801.0000   2000.0000   2000.0000      6.4804     43.7437
   801.2500   2000.0000   2000.0000      6.5804     43.3573
   801.5000   2000.0000   2000.0000      6.6578     42.9076
   801.7500   2000.0000   2000.0000      6.7019     42.6834
   802.0000   2000.0000   2000.0000      6.7278     42.5787
   802.2500   2000.0000   2000.0000      6.7665     42.7586
   802.5000   2000.0000   2000.0000      6.8560     43.5457
   802.7500   2000.0000   2000.0000      7.0388     44.4793
   803.0000   2000.0000   2000.0000      7.3581     46.4663
   803.2500   2000.0000   2000.0000      7.8466     47.9566
   803.5000   2000.0000   2000.0000      8.5051     49.6566
   803.7500   2000.0000   2000.0000      9.2777     50.0049
   804.0000   2000.0000   2000.0000     10.0446     49.3810
   804.2500   2000.0000   2000.0000     10.6611     48.7704
   804.5000   2000.0000   2000.0000     11.0366     48.8834
   804.7500   2000.0000   2000.0000     11.1797     50.1683
   805.0000   2000.0000   2000.0000     11.1685     53.9804
   805.2500   2000.0000   2000.0000     11.0896     57.3815
   805.5000   2000.0000   2000.0000     11.0031     62.6714
   805.7500   2000.0000   2000.0000     10.9405     65.6793
   806.0000   2000.0000   2000.0000     10.9129     68.7036
   806.2500   2000.0000   2000.0000     10.9179     69.6537
   806.5000   2000.0000   2000.0000     10.9438     69.8690
   806.7500   2000.0000   2000.0000     10.9747     69.5766
   807.0000   2000.0000   2000.0000     10.9960     68.9093
   807.2500   2000.0000   2000.0000     11.0002     68.2556
   807.5000   2000.0000   2000.0000     10.9875     66.5075
   807.7500   2000.0000   2000.0000     10.9637     64.6790
   808.0000   2000.0000   2000.0000     10.9358     61.2524
   808.2500   2000.0000   2000.0000     10.9087     58.8915
   808.5000   2000.0000   2000.0000     10.8843     55.7549
   808.7500   2000.0000   2000.0000     10.8610     54.0528
   809.0000   2000.0000   2000.0000     10.8351     51.9916
   809.2500   2000.0000   2000.0000     10.8011     50.7833
   809.5000   2000.0000   2000.0000     10.7542     49.0115
   809.7500   2000.0000   2000.0000     10.6930     47.8859
   810.0000   2000.0000   2000.0000     10.6218     46.5180
   810.2500   2000.0000   2000.0000     10.5498     45.9449
   810.5000   2000.0000   2000.0000     10.4870     45.6234
   810.7500   2000.0000   2000.0000     10.4401     45.6712
   811.0000   2000.0000   2000.0000     10.4101     45.9131
   811.2500   2000.0000   2000.0000     10.3934     46.0992
   811.5000   2000.0000   2000.0000     10.3845     46.3269
   811.7500   2000.0000   2000.0000     10.3796     46.3869
   812.0000   2000.0000   2000.0000     10.3775     46.1566
   812.2500   2000.0000   2000.0000     10.3769     45.6406
   812.5000   2000.0000   2000.0000     10.3717     44.3052
   812.7500   2000.0000   2000.0000     10.3479     43.3704
   813.0000   2000.0000   2000.0000     10.2871     42.8363
   813.2500   2000.0000   2000.0000     10.1773     43.4173
   813.5000   2000.0000   2000.0000     10.0267     45.5155
   813.7500   2000.0000   2000.0000      9.8699     47.2273
   814.0000   2000.0000   2000.0000      9.7572     49.1093
   814.2500   2000.0000   2000.0000      9.7344     49.3571
   814.5000   2000.0000   2000.0000      9.8232     48.0601
   814.7500   2000.0000   2000.0000     10.0138     46.4954
   815.0000   2000.0000   2000.0000     10.2707     43.9894
   815.2500   2000.0000   2000.0000     10.5489     42.4629
   815.5000   2000.0000   2000.0000     10.8106     40.4950
   815.7500   2000.0000   2000.0000     11.0420     39.5377
   816.0000   2000.0000   2000.0000     11.2660     38.9308
   816.2500   2000.0000   2000.0000     11.5527     39.0292
   816.5000   2000.0000   2000.0000     12.0116     39.4463
   816.7500   2000.0000   2000.0000     12.7596     39.6553
   817.0000   2000.0000   2000.0000     13.8485     39.8484
   817.2500   2000.0000   2000.0000     15.1379     40.0541
   817.5000   2000.0000   2000.0000     16.1737     40.7065
   817.7500   2000.0000   2000.0000     16.3625     41.3930
   818.0000   2000.0000   2000.0000     15.5463     42.7252
   818.2500   2000.0000   2000.0000     14.2042     43.7274
   818.5000   2000.0000   2000.0000     12.9347     45.0591
   818.7500   2000.0000   2000.0000     12.0844     45.5824
   819.0000   2000.0000   2000.0000     11.8264     45.9398
   819.2500   2000.0000   2000.0000     12.4035     46.5432
   819.5000   2000.0000   2000.0000     14.4854     49.4712
   819.7500   2000.0000   2000.0000     20.3062     53.0559
   820.0000   2000.0000   2000.0000     41.5181     59.6241
   820.2500   2000.0000   2000.0000   1458.8802     63.5921
   820.5000   2000.0000   2000.0000 100000.0000     67.8879
   820.7500   2000.0000   2000.0000 100000.0000     69.9621
   821.0000   2000.0000   2000.0000     64.3041     72.7645
   821.2500   2000.0000   2000.0000     18.9482     74.4146
   821.5000   2000.0000   2000.0000     10.7806     75.8688
   821.7500   2000.0000   2000.0000      8.0616     76.0730
   822.0000   2000.0000   2000.0000      7.1160     76.4276
   822.2500   2000.0000   2000.0000      6.9856     77.8421
   822.5000   2000.0000   2000.0000      7.2191     82.9775
   822.7500   2000.0000   2000.0000      7.2951     88.1142
   823.0000   2000.0000   2000.0000      6.6216     96.3993
   823.2500   2000.0000   2000.0000      5.2541    101.1021
   823.5000   2000.0000   2000.0000      3.9065    106.2521
   823.7500   2000.0000   2000.0000      2.9993    108.8914
   824.0000   2000.0000   2000.0000      2.5404    112.7193
   824.2500   2000.0000   2000.0000      2.4549    115.2389
   824.5000   2000.0000   2000.0000      2.7483    117.9333
   824.7500   2000.0000   2000.0000      3.6004    118.3324
   825.0000   2000.0000   2000.0000      5.6489    116.8163
   825.2500   2000.0000   2000.0000     11.6722    115.0537
   825.5000   2000.0000   2000.0000     66.2582    112.3010
   825.7500   2000.0000   2000.0000 100000.0000    110.4702
   826.0000   2000.0000   2000.0000 100000.0000    107.6581
   826.2500   2000.0000   2000.0000 100000.0000    106.1235
   826.5000   2000.0000   2000.0000 100000.0000    105.3544
   826.7500   2000.0000   2000.0000 100000.0000    106.0268
   827.0000   2000.0000   2000.0000 100000.0000    108.0189
   827.2500   2000.0000   2000.0000 100000.0000    109.3331
   827.5000   2000.0000   2000.0000     78.2246    110.4725
   827.7500   2000.0000   2000.0000     32.7627    110.4415
   828.0000   2000.0000   2000.0000     25.2650    109.0660
   828.2500   2000.0000   2000.0000     23.5464    107.2778
   828.5000   2000.0000   2000.0000     23.6567    103.4453
   828.7500   2000.0000   2000.0000     24.3266    100.3568
   829.0000   2000.0000   2000.0000     25.0245     95.8060
   829.2500   2000.0000   2000.0000     25.5884     93.5487
   829.5000   2000.0000   2000.0000     26.0778     92.1441
   829.7500   2000.0000   2000.0000     26.6432     92.3985
   830.0000   2000.0000   2000.0000     27.3463     93.5897
   830.2500   2000.0000   2000.0000     27.9527     94.4059
   830.5000   2000.0000   2000.0000     27.8902     95.4186
   830.7500   2000.0000   2000.0000     26.6604     96.1251
   831.0000   2000.0000   2000.0000     24.4249     97.6991
   831.2500   2000.0000   2000.0000     21.8963     99.2324
   831.5000   2000.0000   2000.0000     19.6911    101.9655
   831.7500   2000.0000   2000.0000     18.0352    103.5668
   832.0000   2000.0000   2000.0000     16.8849    104.5164
   832.2500   2000.0000   2000.0000     16.1123    103.7608
   832.5000   2000.0000   2000.0000     15.6162    100.9075
   832.7500   2000.0000   2000.0000     15.3580     98.6342
   833.0000   2000.0000   2000.0000     15.3456     95.8031
   833.2500   2000.0000   2000.0000     15.5915     94.3181
