~Version Information
VERS.                      2.0: CWLS Log ASCII Standard - VERSION 2.0
WRAP.                       NO: One line per depth step
~Well Information Block
STRT.FT                -8.2500: 
STOP.FT              1439.2500: 
STEP.FT                 0.2500: 
NULL.                -999.2500: 
COMP.          Pioneer Natural Resources: COMPANY
WELL.          Old Faithful 21-2: WELL
FLD.           Purgatorie River: FIELD
LOC.           806' FNL & 2509' FWL--: LOCATION
PROV.                       CO: PROVINCE
CNTY.               Las Animas: COUNTRY
SRVC.          Patterson Wireline: SERVICE COMPANY
DATE.          Mon Dec 12 11:21:25 2005: LOG DATE
UWI.           08 071 08617 00: UNIQUE WELL ID
~Curve Information Block
DEPT.FT            0 000 00 00: Depth
CCL.                          : Casing Collar Locator
TT3.usec                      : CBL 3' Travel Time
AMP3.mV                       : CBL 3' Amplitude
GR.GAPI                       : Gamma Ray
~Parameter Information Block
~A  Depth       CCL         TT3         AMP3         GR     
    -8.2500   -999.2500   -999.2500   -999.2500    101.4057
    -8.0000   -999.2500   -999.2500   -999.2500    103.7028
    -7.7500   -999.2500   -999.2500   -999.2500    104.3018
    -7.5000   -999.2500   -999.2500   -999.2500    103.6838
    -7.2500   -999.2500   -999.2500   -999.2500    102.6071
    -7.0000   -999.2500   -999.2500   -999.2500    100.9216
    -6.7500   -999.2500   -999.2500   -999.2500     98.3887
    -6.5000   -999.2500   -999.2500   -999.2500     96.0412
    -6.2500   -999.2500   -999.2500   -999.2500     95.8456
    -6.0000   -999.2500   -999.2500   -999.2500     98.7386
    -5.7500   -999.2500   -999.2500   -999.2500    103.4126
    -5.5000   -999.2500   -999.2500   -999.2500    107.4134
    -5.2500   -999.2500   -999.2500   -999.2500    109.2243
    -5.0000   -999.2500   -999.2500   -999.2500    108.9062
    -4.7500   -999.2500   -999.2500   -999.2500    107.1575
    -4.5000   -999.2500   -999.2500   -999.2500    104.5505
    -4.2500   -999.2500   -999.2500   -999.2500    101.6150
    -4.0000   -999.2500   -999.2500   -999.2500     98.9350
    -3.7500   -999.2500   -999.2500   -999.2500     96.8062
    -3.5000   -999.2500   1167.0000     -0.2829     94.9116
    -3.2500   -999.2500   1167.0000     -0.2836     92.6390
    -3.0000   -999.2500   1167.0000     -0.2865     89.9602
    -2.7500   -999.2500   1167.0000     -0.2887     87.9578
    -2.5000   -999.2500   1167.0000     -0.2903     88.0596
    -2.2500   -999.2500   1167.0000     -0.2931     90.3715
    -2.0000   -999.2500   1167.0000     -0.2987     92.8739
    -1.7500   -999.2500   1167.0000     -0.3082     92.5358
    -1.5000   -999.2500   1167.0000     -0.3223     87.3481
    -1.2500   -999.2500   1167.0000     -0.3382     77.6760
    -1.0000   -999.2500   1167.0000     -0.3501     66.1014
    -0.7500   -999.2500   1167.0000     -0.3535     55.8027
    -0.5000   -999.2500   1167.0000     -0.3496     48.6670
    -0.2500   -999.2500   1167.0000     -0.3431     44.7100
     0.0000   -999.2500   1167.0000     -0.3365     42.9764
     0.2500   -999.2500   1167.0000     -0.3290     42.5204
     0.5000   -999.2500   1167.0000     -0.3195     42.5082
     0.7500   -999.2500   1167.0000     -0.3007     39.8137
     1.0000   -999.2500   1167.0000     -0.2954     36.0044
     1.2500   -999.2500   1167.0000     -0.2945     31.7256
     1.5000   -999.2500   1167.0000     -0.2977     29.1884
     1.7500   -999.2500   1167.0000     -0.3022     30.4185
     2.0000      0.0000   1167.0000     -0.3039     36.1432
     2.2500      0.0000   1167.0000     -0.3002     45.5005
     2.5000      0.0000   1167.0000     -0.2922     56.6974
     2.7500      0.0000   1167.0000     -0.2834     67.9864
     3.0000      0.0000   1167.0000     -0.2769     78.0632
     3.2500      0.0000   1167.0000     -0.2746     85.9121
     3.5000      0.0000   1167.0000     -0.2772     91.0704
     3.7500      0.0000   1167.0000     -0.2828     94.3321
     4.0000      0.0000   1167.0000     -0.2871     97.4481
     4.2500      0.0000   1167.0000     -0.2869    101.6238
     4.5000      0.0000   1167.0000     -0.2834    106.8113
     4.7500      0.0000   1167.0000     -0.2824    112.5686
     5.0000      0.0000   1167.0000     -0.2886    118.6209
     5.2500      0.0000   1167.0000     -0.3013    124.1858
     5.5000      0.0000   1166.9840     -0.3155    127.5891
     5.7500      0.0000   1166.8768     -0.3257    127.1628
     6.0000      0.0000   1166.2882     -0.3207    122.4938
     6.2500      0.0000   1163.8357     -0.2630    114.9407
     6.5000      0.0000   1155.6725     -0.0093    107.1428
     6.7500      0.0000   1133.7531      0.8715    101.7087
     7.0000      0.0000   1085.7720      3.3595     99.7711
     7.2500      0.0000    999.4105      9.0062    100.3187
     7.5000      0.0000    871.0905     19.1799    100.9620
     7.7500      0.0000    714.0493     33.6168     99.8427
     8.0000      0.0000    556.9442     49.6715     96.9753
     8.2500      0.0000    429.7731     63.6188     93.5851
     8.5000      0.0000    347.3233     73.0652     90.6142
     8.7500      0.0000    304.8727     78.0491     88.3385
     9.0000      0.0000    287.6283     80.1032     86.7589
     9.2500      0.0000    282.1282     80.7789     85.4503
     9.5000      0.0000    280.7572     80.9776     83.3006
     9.7500      0.0000    280.4953     81.0501     79.1991
    10.0000      0.0000    280.4596     81.0859     73.2208
    10.2500      0.0000    280.4638     81.0925     66.9368
    10.5000      0.0000    280.4671     81.0646     62.3779
    10.7500      0.0000    280.4700     80.9973     60.5428
    11.0000      0.0000    280.4747     80.8937     60.9063
    11.2500      0.0000    280.4834     80.7689     62.3832
    11.5000      0.0000    280.4960     80.6468     64.4208
    11.7500      0.0000    280.5099     80.5465     66.8874
    12.0000      0.0000    280.5223     80.4706     69.4686
    12.2500      0.0000    280.5341     80.3983     71.9677
    12.5000      0.0000    280.5549     80.2723     74.9284
    12.7500      0.0000    280.6090     79.9558     79.0869
    13.0000      0.0000    280.7433     79.1894     84.1262
    13.2500      0.0000    281.0332     77.6613     88.5296
    13.5000      0.0000    281.5759     75.2488     90.8251
    13.7500      0.0000    282.4491     72.2546     90.7178
    14.0000      0.0000    283.6298     69.3536     89.0538
    14.2500      0.0000    284.9325     67.2306     86.9554
    14.5000      0.0000    286.0695     66.1850     84.9351
    14.7500      0.0000    286.8275     65.9878     82.6122
    15.0000      0.0000    287.1886     66.0948     79.4949
    15.2500      0.0000    287.2823     66.0307     76.3147
    15.5000     -2.0000    287.2547     65.6178     75.2313
    15.7500      0.0000    287.1877     64.9019     78.2154
    16.0000      0.0000    287.0804     63.9582     85.1202
    16.2500      0.0000    286.8402     62.7693     93.4135
    16.5000      0.0000    286.2947     61.2324     99.7600
    16.7500      0.0000    285.3028     59.2447    102.0892
    17.0000      0.0000    283.9732     56.7989    100.7624
    17.2500      0.0000    282.8253     53.9814     98.1600
    17.5000      0.0000    282.7446     50.8083     96.9823
    17.7500      0.0000    284.7349     47.1026     98.4402
    18.0000      0.0000    289.5105     42.6790    101.5936
    18.2500      0.0000    297.0337     37.6566    104.1441
    18.5000      0.0000    306.7815     32.4801    104.1386
    18.7500      0.0000    319.5947     27.6449    101.4007
    19.0000      0.0000    340.5189     23.4601     97.3888
    19.2500      0.0000    379.4043     20.0122     93.7594
    19.5000      0.0000    445.5527     17.2545     91.3796
    19.7500      0.0000    537.9340     15.1011     90.5747
    20.0000      0.0000    640.5135     13.4774     91.6514
    20.2500      0.0000    730.5607     12.3144     94.7535
    20.5000      0.0000    793.3011     11.5306     99.2167
    20.7500      0.0000    828.3095     11.0326    103.3898
    21.0000      0.0000    844.2000     10.7311    105.3769
    21.2500      0.0000    850.7319     10.5553    104.0598
    21.5000      0.0000    855.0311     10.4571     99.6549
    21.7500      0.0000    860.8900     10.4076     93.5742
    22.0000      0.0000    868.9506     10.3905     87.8461
    22.2500      0.0000    877.6697     10.3941     84.4441
    22.5000      0.0000    884.9635     10.4017     84.6041
    22.7500      0.0000    889.7088     10.3885     88.0755
    23.0000      0.0000    892.5200     10.3323     92.8969
    23.2500      0.0000    895.1091     10.2325     96.4092
    23.5000      0.0000    898.1502     10.1103     96.9340
    23.7500      0.0000    899.3284      9.9820     94.5640
    24.0000      0.0000    893.8552      9.8364     90.5612
    24.2500      0.0000    877.7968      9.6484     86.3731
    24.5000      0.0000    851.8934      9.4152     83.0822
    24.7500      0.0000    822.3143      9.1716     81.1893
    25.0000      0.0000    796.6643      8.9676     80.5732
