~Version Information
VERS.                      2.0: CWLS Log ASCII Standard - VERSION 2.0
WRAP.                       NO: One line per depth step
~Well Information Block
STRT.FT               529.2000: 
STOP.FT              1325.2000: 
STEP.FT                 0.1000: 
NULL.                -999.2500: 
COMP.          Pioneer Natural Resources: COMPANY
WELL.            Erin 21-15 Tr: WELL
FLD.           Purgatoire River: FIELD
LOC.           1217' FNL & 2284' FWL--: LOCATION
CNTY.               Las Animas: COUNTY
SRVC.                Patterson: SERVICE COMPANY
DATE.          Mon Mar 06 14:26:48 2006: LOG DATE
UWI.           05 071 08712 00: UNIQUE WELL ID
STAT.                 Colorado: STATE
~Curve Information Block
DEPT.FT            0 000 00 00: Depth
DCAL.in                       : CDL Caliper
RHOB.g/cc                     : CDL Bulk Density
RHOC.g/cc                     : CDL Density Correction
DPOR.pu                       : CDL Density Porosity
GR.GAPI                       : Gamma Ray
~Parameter Information Block
~A  Depth       DCAL        RHOB        RHOC        DPOR         GR     
# ...
   641.2000      7.9846      2.5362      0.0173      6.8978    111.7310
   641.3000      7.9863      2.5642      0.0835      5.2006    112.6136
   641.4000      7.9863      2.5817      0.0414      4.1396    112.8930
   641.5000      7.9902      2.5836      0.0843      4.0227    112.9435
   641.6000      7.9902      2.5794      0.0383      4.2806    114.9539
   641.7000      7.9902      2.5796      0.0334      4.2664    115.5537
   641.8000      7.9933      2.5802      0.0731      4.2277    109.9780
   641.9000      7.9933      2.5754      0.0240      4.5210    100.8410
   642.0000      7.9927      2.5700      0.0639      4.8485     96.1532
   642.1000      7.9927      2.5666      0.0471      5.0519     98.6007
   642.2000      7.9927      2.5606      0.0537      5.4174    101.3847
   642.3000      7.9898      2.5495     -0.0049      6.0882     99.3221
   642.4000      7.9898      2.5424      0.0357      6.5204     96.7113
   642.5000      7.9873      2.5466      0.0104      6.2689     96.7350
   642.6000      7.9873      2.5587      0.0156      5.5346     97.6641
   642.7000      7.9873      2.5699      0.0380      4.8540     98.6584
   642.8000      7.9882      2.5740      0.0674      4.6076     97.4433
   642.9000      7.9882      2.5668      0.0478      5.0406     95.9823
   643.0000      7.9899      2.5495      0.0175      6.0933     97.7254
   643.1000      7.9899      2.5339     -0.0524      7.0391     99.4909
   643.2000      7.9899      2.5270      0.0409      7.4531     99.4321
   643.3000      7.9879      2.5204      0.0136      7.8558     99.3909
   643.4000      7.9879      2.5118      0.0066      8.3784     98.1766
   643.5000      7.9806      2.5053     -0.0018      8.7675     95.1699
   643.6000      7.9806      2.5062      0.0033      8.7166     93.7808
   643.7000      7.9806      2.5190     -0.0143      7.9383     95.4208
   643.8000      7.9737      2.5368      0.0209      6.8619     99.4449
   643.9000      7.9737      2.5526      0.0305      5.9033    101.2431
   644.0000      7.9721      2.5715      0.0420      4.7596     97.1519
   644.1000      7.9721      2.5946      0.0867      3.3593     91.8124
   644.2000      7.9721      2.6178      0.0734      1.9489     89.3061
   644.3000      7.9742      2.6423      0.0511      0.4669     88.6107
   644.4000      7.9742      2.6644      0.0742     -0.8710     89.6587
   644.5000      7.9765      2.6753      0.0691     -1.5307     90.5676
   644.6000      7.9765      2.6721      0.0691     -1.3388     86.4039
   644.7000      7.9765      2.6630      0.0072     -0.7862     76.9796
   644.8000      7.9778      2.6656      0.0100     -0.9441     69.7142
   644.9000      7.9778      2.6837      0.0185     -2.0452     70.3795
   645.0000      7.9767      2.6970      0.0399     -2.8500     74.4275
   645.1000      7.9767      2.6881      0.0352     -2.3095     75.2752
   645.2000      7.9767      2.6719     -0.0326     -1.3297     72.0808
   645.3000      7.9747      2.6661      0.0444     -0.9768     67.0317
   645.4000      7.9747      2.6589      0.0010     -0.5411     63.1930
   645.5000      7.9772      2.6418     -0.0387      0.4969     62.3575
   645.6000      7.9772      2.6145      0.0284      2.1530     66.5870
   645.7000      7.9772      2.5788     -0.0382      4.3128     73.4985
   645.8000      7.9839      2.5522     -0.0010      5.9249     75.3407
   645.9000      7.9839      2.5446      0.0151      6.3853     71.3805
   646.0000      7.9920      2.5503      0.0103      6.0444     69.9347
   646.1000      7.9920      2.5556      0.0806      5.7237     75.6362
   646.2000      7.9920      2.5503      0.0203      6.0428     82.2812
   646.3000      7.9966      2.5417      0.0268      6.5632     84.8818
   646.4000      7.9966      2.5321      0.0376      7.1450     87.1323
   646.5000      7.9980      2.5155      0.0351      8.1524     93.4898
   646.6000      7.9980      2.4994      0.0244      9.1297    102.5234
   646.7000      7.9980      2.4917      0.0081      9.5959    109.3106
   646.8000      8.0005      2.4873      0.0249      9.8590    110.7860
   646.9000      8.0005      2.4862      0.0033      9.9302    109.0281
   647.0000      8.0018      2.4957      0.0288      9.3543    107.3646
   647.1000      8.0018      2.5108      0.0430      8.4356    106.3903
   647.2000      8.0018      2.5222      0.0289      7.7453    106.4554
   647.3000      8.0004      2.5358      0.0236      6.9189    108.3833
   647.4000      8.0004      2.5577      0.0551      5.5933    109.1568
   647.5000      8.0001      2.5734      0.1109      4.6447    106.1609
   647.6000      8.0001      2.5719      0.0516      4.7359    101.8047
   647.7000      8.0001      2.5716      0.0128      4.7522     98.0463
   647.8000      8.0003      2.5894      0.0564      3.6720     95.8965
   647.9000      8.0003      2.6090      0.1033      2.4843     95.9943
   648.0000      7.9975      2.6095      0.0549      2.4526     98.6205
   648.1000      7.9975      2.5929      0.0736      3.4613    102.1756
   648.2000      7.9975      2.5687      0.0207      4.9303    102.0159
   648.3000      7.9897      2.5471      0.0372      6.2390     95.6888
   648.4000      7.9897      2.5395      0.0004      6.6998     88.3855
   648.5000      7.9816      2.5511      0.0225      5.9961     87.5183
   648.6000      7.9816      2.5734      0.0416      4.6422     91.5472
   648.7000      7.9816      2.5900      0.0933      3.6392     93.0890
   648.8000      7.9784      2.5931      0.0578      3.4496     89.2652
   648.9000      7.9784      2.5904      0.0672      3.6151     83.9449
   649.0000      7.9789      2.5889      0.0647      3.7024     82.8071
   649.1000      7.9789      2.5889      0.0517      3.7032     84.7902
   649.2000      7.9789      2.5835      0.0897      4.0298     83.5310
   649.3000      7.9783      2.5708      0.0251      4.8024     80.7178
   649.4000      7.9783      2.5629      0.0360      5.2794     81.7360
   649.5000      7.9754      2.5643      0.0553      5.1942     83.5003
   649.6000      7.9754      2.5660      0.0536      5.0915     81.3298
   649.7000      7.9754      2.5643      0.0381      5.1929     78.2093
   649.8000      7.9738      2.5664      0.0374      5.0640     77.6580
   649.9000      7.9738      2.5763      0.0713      4.4664     78.7148
   650.0000      7.9761      2.5890      0.0519      3.6979     79.8421
   650.1000      7.9761      2.6009      0.0689      2.9770     79.9817
   650.2000      7.9761      2.6072      0.0831      2.5947     78.9916
   650.3000      7.9846      2.6069      0.0760      2.6100     77.9226
   650.4000      7.9846      2.6061      0.0826      2.6590     80.8444
   650.5000      8.0007      2.6050      0.0586      2.7288     89.3711
   650.6000      8.0007      2.5998      0.0430      3.0411     95.1744
   650.7000      8.0007      2.5880      0.0468      3.7584     92.7433
   650.8000      8.0168      2.5708     -0.0006      4.7981     88.3506
   650.9000      8.0168      2.5555      0.0154      5.7283     88.9440
   651.0000      8.0220      2.5456      0.0328      6.3275     94.2124
   651.1000      8.0220      2.5479     -0.0019      6.1870     97.9734
   651.2000      8.0220      2.5663      0.0598      5.0743     98.3945
   651.3000      8.0147      2.5849      0.0638      3.9425    101.1457
   651.4000      8.0147      2.5855      0.0601      3.9070    104.4012
   651.5000      7.9985      2.5605      0.0521      5.4231    104.8952
   651.6000      7.9985      2.5243     -0.0387      7.6172    107.6026
   651.7000      7.9985      2.5095      0.0073      8.5150    111.7732
   651.8000      7.9828      2.5225      0.0202      7.7272    110.0482
   651.9000      7.9828      2.5355      0.0623      6.9420    104.9189
   652.0000      7.9750      2.5323      0.0240      7.1306    101.0699
   652.1000      7.9750      2.5232      0.0060      7.6858     95.0217
   652.2000      7.9750      2.5135      0.0457      8.2713     89.4740
   652.3000      7.9720      2.5100     -0.0062      8.4846     92.8626
