~Version Information
VERS.                      2.0: CWLS Log ASCII Standard - VERSION 2.0
WRAP.                       NO: One line per depth step
~Well Information Block
STRT.FT                -8.0000: 
STOP.FT              1060.7500: 
STEP.FT                 0.2500: 
NULL.                -999.2500: 
COMP.          Pioneer Natural Resources: COMPANY
WELL.          Pavillion 44-25: WELL
FLD.           Purgatorie River: FIELD
LOC.           719' FSL & 650' FEL--: LOCATION
PROV.                       CO: PROVINCE
CNTY.               Las Animas: COUNTRY
SRVC.          Patterson Wireline: SERVICE COMPANY
DATE.          Mon Dec 19 11:59:26 2005: LOG DATE
UWI.           05 071 08624 00: UNIQUE WELL ID
~Curve Information Block
DEPT.FT            0 000 00 00: Depth
CCL.                          : Casing Collar Locator
TT3.usec                      : CBL 3' Travel Time
AMP3.mV                       : CBL 3' Amplitude
GR.GAPI                       : Gamma Ray
~Parameter Information Block
~A  Depth       CCL         TT3         AMP3         GR     
# ...
   561.5000      0.0000    736.3311      6.8066    175.5257
   561.7500      0.0000    733.5128      6.8526    172.9388
   562.0000      0.0000    732.3578      6.9027    169.9371
   562.2500      0.0000    730.1292      6.9538    166.9723
   562.5000      0.0000    727.6807      7.0051    163.9440
   562.7500      0.0000    727.0085      7.0537    160.9937
   563.0000      0.0000    727.2606      7.0928    159.2475
   563.2500      0.0000    725.4409      7.1183    160.1016
   563.5000      0.0000    720.7111      7.1419    163.9537
   563.7500      0.0000    715.3563      7.1985    169.7174
   564.0000      0.0000    710.9735      7.3326    175.1889
   564.2500      0.0000    706.3603      7.5467    177.8450
   564.5000      0.0000    700.9691      7.7407    175.9517
   564.7500      0.0000    698.5015      7.7398    169.3609
   565.0000      0.0000    705.0524      7.4432    159.2616
   565.2500      0.0000    723.9301      6.9472    147.1507
   565.5000      0.0000    752.5530      6.4720    134.1451
   565.7500      0.0000    782.9808      6.1727    121.2635
   566.0000      0.0000    804.9797      6.0541    109.9268
   566.2500      2.0000    810.6010      6.0430    101.7809
   566.5000      0.0000    798.4214      6.0890     98.0664
   566.7500      0.0000    774.8911      6.2028     99.0418
   567.0000      0.0000    750.9475      6.4344    103.5676
   567.2500      0.0000    734.9990      6.8092    109.2425
   567.5000      0.0000    727.7712      7.2645    113.6440
   567.7500      0.0000    724.0854      7.6675    115.8149
   568.0000      0.0000    718.8913      7.9190    116.4698
   568.2500      0.0000    710.7822      8.0224    116.8861
   568.5000      0.0000    701.2955      8.0417    117.7416
   568.7500      0.0000    692.7666      8.0287    118.6499
   569.0000      0.0000    686.7992      8.0026    118.5197
   569.2500      0.0000    683.5791      7.9675    116.3689
   569.5000      0.0000    682.2285      7.9246    111.9506
   569.7500      0.0000    681.6786      7.8747    106.0687
   570.0000      0.0000    681.2792      7.8206    100.5244
   570.2500      0.0000    680.8633      7.7688     97.3042
   570.5000      0.0000    680.5138      7.7244     97.5260
   570.7500      0.0000    680.3093      7.6875    101.2554
   571.0000      0.0000    680.2074      7.6572    107.8512
   571.2500      0.0000    680.1227      7.6339    115.8962
   571.5000      0.0000    680.0388      7.6135    123.3236
   571.7500      0.0000    680.0074      7.5825    128.3491
   572.0000      0.0000    680.0452      7.5288    130.2802
   572.2500      0.0000    680.0780      7.4607    129.4916
   572.5000      0.0000    680.0682      7.4082    126.9667
   572.7500      0.0000    680.3082      7.4010    123.6111
   573.0000      0.0000    681.7141      7.4413    119.5198
   573.2500      0.0000    685.7598      7.5021    114.2054
   573.5000      0.0000    693.5618      7.5501    107.9448
   573.7500      0.0000    704.3660      7.5687    102.4466
   574.0000      0.0000    714.9266      7.5568     99.6013
   574.2500      0.0000    721.0530      7.5134     99.8764
   574.5000      0.0000    720.2756      7.4363    102.5174
   574.7500      0.0000    713.2750      7.3342    107.1660
   575.0000      0.0000    703.2017      7.2274    114.5695
   575.2500      0.0000    693.7419      7.1292    125.3931
   575.5000      0.0000    687.2059      7.0347    138.6016
   575.7500      0.0000    683.8066      6.9364    151.4244
   576.0000      0.0000    682.4223      6.8432    161.0381
   576.2500      0.0000    681.8445      6.7767    166.0009
   576.5000      0.0000    681.4319      6.7543    166.0430
   576.7500      0.0000    681.0358      6.7825    161.2527
   577.0000      0.0000    680.6776      6.8630    152.1037
   577.2500      0.0000    680.3560      6.9943    139.9631
   577.5000      0.0000    680.0449      7.1616    127.0686
   577.7500      0.0000    679.7687      7.3333    116.2169
   578.0000      0.0000    679.6046      7.4720    110.4944
   578.2500      0.0000    679.6123      7.5524    112.2432
   578.5000      0.0000    679.7828      7.5721    121.2660
   578.7500      0.0000    680.0640      7.5483    134.2387
   579.0000      0.0000    680.4147      7.5030    146.5015
   579.2500      0.0000    680.8173      7.4538    154.7426
   579.5000      0.0000    681.2391      7.4161    158.1204
   579.7500      0.0000    681.6006      7.4074    157.3634
   580.0000      0.0000    681.8098      7.4426    153.3429
   580.2500      0.0000    681.8353      7.5269    146.5312
   580.5000      0.0000    681.7279      7.6525    137.5832
   580.7500      0.0000    681.6038      7.7987    128.2045
   581.0000      0.0000    681.6849      7.9327    121.0511
   581.2500      0.0000    682.3842      8.0191    118.3630
   581.5000      0.0000    684.2289      8.0371    120.6058
   581.7500      0.0000    687.4487      7.9917    126.4106
   582.0000      0.0000    691.5905      7.9057    133.7281
   582.2500      0.0000    695.7278      7.8034    141.0825
   582.5000      0.0000    698.9949      7.7005    147.8502
   582.7500      0.0000    700.5904      7.6035    153.5246
   583.0000      0.0000    699.6207      7.5154    157.2475
   583.2500      0.0000    695.8456      7.4420    158.6673
   583.5000      0.0000    690.5031      7.3911    158.9887
   583.7500      0.0000    685.5963      7.3639    160.2782
   584.0000      0.0000    682.3438      7.3499    163.5114
   584.2500      0.0000    680.6749      7.3330    167.8230
   584.5000      0.0000    679.9166      7.3030    171.5684
   584.7500      0.0000    679.5166      7.2625    173.6366
   585.0000      0.0000    679.2288      7.2231    173.9744
   585.2500      0.0000    678.9900      7.1965    173.3920
   585.5000      0.0000    678.7914      7.1901    172.9810
   585.7500      0.0000    678.6282      7.2054    173.5094
   586.0000      0.0000    678.5085      7.2368    175.0455
   586.2500      0.0000    678.4527      7.2728    176.8409
   586.5000      0.0000    678.4802      7.3009    177.7095
   586.7500      0.0000    678.5972      7.3139    176.8986
   587.0000      0.0000    678.7880      7.3092    174.6437
   587.2500      0.0000    679.0132      7.2839    171.7577
   587.5000      0.0000    679.2241      7.2344    169.0204
   587.7500      0.0000    679.3824      7.1601    167.0916
   588.0000      0.0000    679.4611      7.0668    166.2544
   588.2500      0.0000    679.3997      6.9656    165.7397
   588.5000      0.0000    679.0151      6.8678    164.1363
   588.7500      0.0000    677.9010      6.7804    161.3099
   589.0000      0.0000    675.4906      6.7036    159.2400
   589.2500      0.0000    671.5621      6.6366    160.1119
   589.5000      0.0000    667.0311      6.5834    164.0687
   589.7500      0.0000    664.0197      6.5520    169.5107
   590.0000      0.0000    664.4389      6.5451    174.9765
   590.2500      0.0000    668.2396      6.5520    179.8480
   590.5000      0.0000    673.4011      6.5500    183.7102
   590.7500      0.0000    677.7080      6.5167    186.0587
   591.0000      0.0000    680.2561      6.4423    186.7867
   591.2500      0.0000    681.4723      6.3299    186.5639
   591.5000      0.0000    682.4099      6.1877    186.7473
   591.7500      0.0000    684.3520      6.0261    188.6388
   592.0000      0.0000    688.6940      5.8615    192.0102
   592.2500      0.0000    696.3374      5.7180    194.3884
   592.5000      0.0000    706.6140      5.6198    192.8015
   592.7500      0.0000    717.1584      5.5841    186.3807
   593.0000      0.0000    725.5641      5.6194    176.5986
   593.2500      0.0000    730.9067      5.7240    165.3372
   593.5000      0.0000    733.0534      5.8847    153.4198
   593.7500      0.0000    731.5887      6.0759    140.7544
   594.0000      0.0000    726.9016      6.2645    127.4124
   594.2500      0.0000    721.6737      6.4180    114.6042
   594.5000      0.0000    719.4128      6.5156    104.7038
   594.7500      0.0000    721.2028      6.5549    100.1829
