~Version Information
VERS.                      2.0: CWLS Log ASCII Standard - VERSION 2.0
WRAP.                       NO: One line per depth step
~Well Information Block
STRT.FT               370.0000: 
STOP.FT              2831.7500: 
STEP.FT                 0.2500: 
NULL.                -999.2500: 
COMP.          Pioneer Natural Resources: COMPANY
WELL.          Black Cat 13-32: WELL
FLD.           Purgatoire River: FIELD
LOC.           1865' FSL & 1120' FWL--: LOCATION
PROV.                 Colorado: PROVINCE
CNTY.               Las Animas: COUNTRY
SRVC.                Patterson: SERVICE COMPANY
DATE.          Sun Jul 31 08:49:16 2005: LOG DATE
UWI.           05 071 08450 00: UNIQUE WELL ID
~Curve Information Block
DEPT.FT            0 000 00 00: Depth
DIR.Ohm-m                     : IEL Induction Resistivity
SN.Ohm-m                      : IEL Short Normal
SP.mV                         : IEL Spontaneous Potential
GR.GAPI                       : Gamma Ray
~Parameter Information Block
~A  Depth       DIR          SN          SP          GR     
# ...
  1442.0000     20.4655     23.4071    141.2386    123.3358
  1442.2500     21.3299     24.1730    141.3167    121.3918
  1442.5000     22.2433     24.9533    141.3491    120.9777
  1442.7500     23.1221     25.6500    141.3414    122.5668
  1443.0000     23.8558     26.1870    141.2969    126.9695
  1443.2500     24.3400     26.5289    141.2169    130.2167
  1443.5000     24.5128     26.6786    141.0999    133.8799
  1443.7500     24.3821     26.6691    140.9421    135.2448
  1444.0000     24.0293     26.5567    140.7379    136.6342
  1444.2500     23.5847     26.4103    140.4801    137.9485
  1444.5000     23.1873     26.2937    140.1596    141.0358
  1444.7500     22.9463     26.2414    139.7651    143.2871
  1445.0000     22.9191     26.2442    139.2824    144.9883
  1445.2500     23.1087     26.2593    138.6948    143.9765
  1445.5000     23.4806     26.2480    137.9842    138.9874
  1445.7500     23.9914     26.2276    137.1327    134.1769
  1446.0000     24.6215     26.3127    136.1245    126.7487
  1446.2500     25.3946     26.7136    134.9469    122.5758
  1446.5000     26.3738     27.6694    133.5896    118.3185
  1446.7500     27.6358     29.3273    132.0437    116.9343
  1447.0000     29.2362     31.6339    130.3017    116.6850
  1447.2500     31.1770     34.3277    128.3575    117.2250
  1447.5000     33.3833     37.0625    126.2111    117.9525
  1447.7500     35.6975     39.5753    123.8767    117.8790
  1448.0000     37.9007     41.7696    121.3942    116.7874
  1448.2500     39.7739     43.6771    118.8402    115.6173
  1448.5000     41.1837     45.3682    116.3322    113.5498
  1448.7500     42.1480     46.8921    114.0221    112.1689
  1449.0000     42.8250     48.2652    112.0754    110.7213
  1449.2500     43.4248     49.4814    110.6383    110.4346
  1449.5000     44.1099     50.5235    109.8018    110.3849
  1449.7500     44.9405     51.3735    109.5723    109.7273
  1450.0000     45.8791     52.0242    109.8620    107.0927
  1450.2500     46.8362     52.4860    110.5011    104.8111
  1450.5000     47.7257     52.7862    111.2709    102.1746
  1450.7500     48.5020     52.9640    111.9471    101.3178
  1451.0000     49.1611     53.0675    112.3406    100.8579
  1451.2500     49.7134     53.1526    112.3265    100.5292
  1451.5000     50.1546     53.2795    111.8564     99.2468
  1451.7500     50.4666     53.5003    110.9544     97.7610
  1452.0000     50.6525     53.8421    109.7013     95.0841
  1452.2500     50.7649     54.2995    108.2130     93.4406
  1452.5000     50.8937     54.8460    106.6178     91.4659
  1452.7500     51.1187     55.4526    105.0361     90.1471
  1453.0000     51.4718     56.0992    103.5665     87.0957
  1453.2500     51.9388     56.7758    102.2777     83.9387
  1453.5000     52.4861     57.4805    101.2077     77.9007
  1453.7500     53.0884     58.2219    100.3676     73.7474
  1454.0000     53.7448     59.0166     99.7468     68.5844
  1454.2500     54.4793     59.8719     99.3207     66.1888
  1454.5000     55.3141     60.7631     99.0553     63.9615
  1454.7500     56.2138     61.6325     98.9128     63.0366
  1455.0000     57.0425     62.4132     98.8538     62.0324
  1455.2500     57.6005     63.0515     98.8404     61.6086
  1455.5000     57.7495     63.5074     98.8392     61.5856
  1455.7500     57.5263     63.7461     98.8235     61.9677
  1456.0000     57.1264     63.7430     98.7756     62.6435
  1456.2500     56.7719     63.5005     98.6892     62.9004
  1456.5000     56.5926     63.0534     98.5711     63.2076
  1456.7500     56.5978     62.4486     98.4420     63.7250
  1457.0000     56.7098     61.7078     98.3358     65.1778
  1457.2500     56.7869     60.7961     98.2957     66.3289
  1457.5000     56.6212     59.6152     98.3686     67.8077
  1457.7500     55.9587     58.0412     98.5979     68.6231
  1458.0000     54.5913     56.0096     99.0147     70.0760
  1458.2500     52.4852     53.6065     99.6318     71.6304
  1458.5000     49.8366     51.0924    100.4392     75.6767
  1458.7500     46.9950     48.8103    101.4038     79.9148
  1459.0000     44.3166     47.0248    102.4726     88.6996
  1459.2500     42.0490     45.8037    103.5793     95.8081
  1459.5000     40.2952     45.0287    104.6539    106.9651
  1459.7500     39.0348     44.5101    105.6331    113.4848
  1460.0000     38.1700     44.1066    106.4708    119.4915
  1460.2500     37.5724     43.7697    107.1457    120.1415
  1460.5000     37.1245     43.5164    107.6654    116.6502
  1460.7500     36.7480     43.3807    108.0654    112.5127
  1461.0000     36.4114     43.3749    108.4022    105.1886
  1461.2500     36.1114     43.4614    108.7434     99.7802
  1461.5000     35.8430     43.5397    109.1555     91.1833
  1461.7500     35.5740     43.4716    109.6926     86.0977
  1462.0000     35.2262     43.1427    110.3884     82.2006
  1462.2500     34.6744     42.5107    111.2525     83.3289
  1462.5000     33.7837     41.5888    112.2717     90.5804
  1462.7500     32.4880     40.3887    113.4150     97.9036
  1463.0000     30.8537     38.8979    114.6409    109.8101
  1463.2500     29.0549     37.1185    115.9056    117.1040
  1463.5000     27.2783     35.1128    117.1700    126.2262
  1463.7500     25.6464     32.9947    118.4055    131.1187
  1464.0000     24.2046     30.8752    119.5969    136.6063
  1464.2500     22.9493     28.8136    120.7421    138.6502
  1464.5000     21.8601     26.8176    121.8509    138.5366
  1464.7500     20.9171     24.8874    122.9399    136.2890
  1465.0000     20.1025     23.0667    124.0280    130.4953
  1465.2500     19.3984     21.4548    125.1300    125.8845
  1465.5000     18.7850     20.1699    126.2520    119.7118
  1465.7500     18.2459     19.2951    127.3883    117.1737
  1466.0000     17.7745     18.8462    128.5204    116.6426
  1466.2500     17.3787     18.7757    129.6194    118.0116
  1466.5000     17.0799     18.9983    130.6506    120.6675
  1466.7500     16.9069     19.4279    131.5793    121.8596
  1467.0000     16.8883     20.0158    132.3766    122.3532
  1467.2500     17.0474     20.7690    133.0250    121.8955
  1467.5000     17.4006     21.7398    133.5212    119.4329
  1467.7500     17.9606     23.0029    133.8768    115.7660
  1468.0000     18.7451     24.6529    134.1168    106.0715
  1468.2500     19.7854     26.8300    134.2761     97.0006
  1468.5000     21.1313     29.7362    134.3955     81.7210
  1468.7500     22.8469     33.5795    134.5162     72.3905
  1469.0000     24.9980     38.4218    134.6751     62.5029
  1469.2500     27.6337     44.0067    134.8999     59.2908
  1469.5000     30.7622     49.7233    135.2056     58.9391
  1469.7500     34.3190     54.8037    135.5925     60.8131
  1470.0000     38.1276     58.6564    136.0463     65.2432
  1470.2500     41.8752     61.1057    136.5399     68.6185
  1470.5000     45.1536     62.3785    137.0379     73.8140
  1470.7500     47.6085     62.8895    137.5020     77.3117
  1471.0000     49.1337     63.0054    137.8968     82.4726
  1471.2500     49.9357     62.9332    138.1949     85.6482
  1471.5000     50.3938     62.7395    138.3801     89.6091
  1471.7500     50.8426     62.4208    138.4477     91.5829
  1472.0000     51.4425     61.9559    138.4031     93.6028
  1472.2500     52.1786     61.3280    138.2578     94.5151
  1472.5000     52.9345     60.5357    138.0237     95.7018
  1472.7500     53.5762     59.6021    137.7092     96.6358
  1473.0000     54.0023     58.5795    137.3149     98.5866
  1473.2500     54.1615     57.5461    136.8320    100.3472
  1473.5000     54.0509     56.5920    136.2429    103.6860
  1473.7500     53.7036     55.7961    135.5232    106.3422
  1474.0000     53.1714     55.2025    134.6452    110.8607
  1474.2500     52.5195     54.8151    133.5830    114.0395
  1474.5000     51.8345     54.6137    132.3162    118.3473
  1474.7500     51.2262     54.5789    130.8356    120.2971
  1475.0000     50.8065     54.7082    129.1461    120.7061
  1475.2500     50.6558     55.0179    127.2685    118.8695
