~Version Information
VERS.                      2.0: CWLS Log ASCII Standard - VERSION 2.0
WRAP.                       NO: One line per depth step
~Well Information Block
STRT.FT               330.0000: 
STOP.FT              1923.5000: 
STEP.FT                 0.1000: 
NULL.                -999.2500: 
COMP.          Pioneer Natural Resources: COMPANY
WELL.          State Wildlife 32-16 Tr: WELL
FLD.           Purgatoire River: FIELD
LOC.           1838' FNL & 1850' FEL: LOCATION
STAT.                 Colorado: State
CNTY.               Las Animas: COUNTY
CTRY. USA : Country
SECT. 16 : Section
TOWN. 32S : Township
RANG. 66W : Range
SRVC.                Patterson: SERVICE COMPANY
DATE.          Mon Nov 14 07:20:48 2005: LOG DATE
API.           05 071 08568 00: UNIQUE WELL ID
~Curve Information Block
DEPT.FT            0 000 00 00: Depth
DCAL.in                       : CDL Caliper
RHOB.g/cc                     : CDL Bulk Density
RHOC.g/cc                     : CDL Density Correction
DPOR.pu                       : CDL Density Porosity
GR.GAPI                       : Gamma Ray
NPOR.pu                       : Neutron Porosity
~Parameter Information Block
~A  Depth       DCAL        RHOB        RHOC        DPOR         GR         NPOR    
# ...
  1165.2000      7.9662      2.5871      0.0895      3.8130    169.5354     27.9969
  1165.3000      7.9567      2.5708      0.0954      4.8006    162.3233     28.0006
  1165.4000      7.9567      2.5353      0.0284      6.9517    159.3089     27.8542
  1165.5000      7.9471      2.5118      0.0434      8.3762    159.4566     27.9132
  1165.6000      7.9471      2.5166      0.0371      8.0822    154.9863     28.5215
  1165.7000      7.9471      2.5406      0.0696      6.6319    148.8920     29.3671
  1165.8000      7.9482      2.5674      0.0487      5.0054    147.7684     29.8097
  1165.9000      7.9482      2.5939      0.0528      3.4015    152.3749     29.4147
  1166.0000      7.9281      2.6177      0.1317      1.9575    157.1558     28.6165
  1166.1000      7.9281      2.6269      0.1343      1.3988    154.0634     28.0739
  1166.2000      7.9281      2.6221      0.1174      1.6916    145.4653     27.8743
  1166.3000      7.9565      2.6175      0.0914      1.9726    140.7212     28.0012
  1166.4000      7.9565      2.6161      0.0853      2.0560    139.1715     28.2557
  1166.5000      7.9588      2.6137      0.0446      2.1996    132.2636     28.0731
  1166.6000      7.9588      2.6137      0.0412      2.2003    119.7403     27.5878
  1166.7000      7.9588      2.6222      0.0389      1.6851    108.6477     27.2395
  1166.8000      7.9480      2.6381      0.0428      0.7237     99.7548     26.7545
  1166.9000      7.9480      2.6470      0.0620      0.1830     90.1190     26.0165
  1167.0000      7.9492      2.6411      0.0451      0.5366     83.8089     25.3360
  1167.1000      7.9492      2.6345      0.0411      0.9387     85.4913     24.8005
  1167.2000      7.9492      2.6335      0.0581      0.9976     88.9590     24.3693
  1167.3000      7.9301      2.6268      0.0555      1.4044     87.7810     24.1301
  1167.4000      7.9301      2.6247     -0.0053      1.5335     84.0175     23.9653
  1167.5000      7.9190      2.6475      0.0459      0.1489     83.2536     23.5184
  1167.6000      7.9190      2.6779      0.0876     -1.6884     87.0120     22.9017
  1167.7000      7.9190      2.6912      0.0951     -2.4962     89.2200     22.2832
  1167.8000      7.9242      2.6897      0.0559     -2.4048     87.6069     21.6609
  1167.9000      7.9242      2.6746      0.0616     -1.4891     87.6867     21.1536
  1168.0000      7.9479      2.6469      0.0164      0.1863     89.0622     21.0395
  1168.1000      7.9479      2.6242      0.0348      1.5657     86.7930     21.5274
  1168.2000      7.9479      2.6136      0.0102      2.2075     81.8813     22.0215
  1168.3000      7.9542      2.6101     -0.0068      2.4180     78.4557     21.9489
  1168.4000      7.9542      2.6128      0.0347      2.2572     79.0422     21.7101
  1168.5000      7.9618      2.6242     -0.0083      1.5616     84.2542     21.6275
  1168.6000      7.9618      2.6457      0.0512      0.2596     92.4109     21.5199
  1168.7000      7.9618      2.6668      0.1270     -1.0200     98.3934     21.5457
  1168.8000      7.9924      2.6793      0.1315     -1.7737     99.5550     21.5200
  1168.9000      7.9924      2.6940      0.0993     -2.6640    102.5959     20.7507
  1169.0000      7.9530      2.7080      0.1510     -3.5174    111.6816     19.7470
  1169.1000      7.9530      2.6933      0.1469     -2.6248    121.3369     19.6336
  1169.2000      7.9530      2.6492      0.0307      0.0485    124.7033     20.3462
  1169.3000      7.9485      2.6091      0.0753      2.4766    121.6719     21.1970
  1169.4000      7.9485      2.5874      0.0209      3.7947    120.0205     21.9967
  1169.5000      7.9556      2.5672      0.0418      5.0204    125.1104     22.5311
  1169.6000      7.9556      2.5370      0.0045      6.8497    134.3935     22.6503
  1169.7000      7.9556      2.5115     -0.0029      8.3968    141.3413     22.9445
  1169.8000      7.9566      2.5086     -0.0085      8.5672    142.9685     23.9660
  1169.9000      7.9566      2.5265      0.0470      7.4860    141.7936     25.2394
  1170.0000      7.9654      2.5456      0.0390      6.3278    138.8638     26.0909
  1170.1000      7.9654      2.5524      0.0526      5.9126    134.3891     26.4945
  1170.2000      7.9654      2.5524      0.0226      5.9150    133.3438     26.4624
  1170.3000      7.9762      2.5556      0.0560      5.7222    140.5045     25.9319
  1170.4000      7.9762      2.5634      0.0405      5.2495    150.4493     25.3354
  1170.5000      7.9789      2.5734      0.0548      4.6426    154.3420     25.2646
  1170.6000      7.9789      2.5812      0.0954      4.1688    153.1225     25.7903
  1170.7000      7.9789      2.5791      0.0875      4.2969    150.9075     26.2068
  1170.8000      7.9759      2.5653      0.0816      5.1310    146.5966     25.9272
  1170.9000      7.9759      2.5542      0.0605      5.8055    141.6493     25.2141
  1171.0000      7.9793      2.5549      0.0856      5.7622    136.8628     24.2290
  1171.1000      7.9793      2.5560      0.0866      5.6997    130.9198     23.1245
  1171.2000      7.9793      2.5474      0.0618      6.2173    124.8137     22.2761
  1171.3000      7.9812      2.5312      0.0364      7.2025    122.0335     21.6846
  1171.4000      7.9812      2.5116      0.0473      8.3904    124.4978     21.1363
  1171.5000      7.9856      2.4911      0.0270      9.6314    128.7621     20.5830
  1171.6000      7.9856      2.4672      0.0440     11.0772    131.7297     20.0509
  1171.7000      7.9856      2.4450     -0.0053     12.4215    135.9859     19.5930
  1171.8000      7.9926      2.4314      0.0705     13.2511    142.8566     19.3693
  1171.9000      7.9926      2.4134      0.0505     14.3417    145.7725     19.3142
  1172.0000      7.9895      2.3894      0.0204     15.7960    142.0032     19.1559
  1172.1000      7.9895      2.3770      0.0499     16.5437    138.9161     18.9347
  1172.2000      7.9895      2.3774      0.0774     16.5217    140.7899     18.7494
  1172.3000      7.9946      2.3732      0.1370     16.7769    144.5535     18.6238
  1172.4000      7.9946      2.3579      0.1026     17.7036    147.1542     18.7878
  1172.5000      7.9989      2.3445      0.0819     18.5161    145.9473     19.3059
  1172.6000      7.9989      2.3403      0.0973     18.7713    141.5592     19.9335
  1172.7000      7.9989      2.3432      0.0656     18.5925    138.1778     20.4132
  1172.8000      8.0014      2.3561      0.1155     17.8093    137.8868     20.5383
  1172.9000      8.0014      2.3701      0.1682     16.9613    142.4198     20.3019
  1173.0000      8.0047      2.3662      0.1461     17.1983    148.5930     20.0099
  1173.1000      8.0047      2.3492      0.1090     18.2275    150.1191     20.0139
  1173.2000      8.0047      2.3380      0.1344     18.9084    147.6183     20.1275
  1173.3000      8.0182      2.3309      0.1812     19.3403    146.5809     20.0747
  1173.4000      8.0182      2.3214      0.1176     19.9178    148.0269     20.1948
  1173.5000      8.0334      2.3165      0.1225     20.2104    146.7102     20.6150
  1173.6000      8.0334      2.3217      0.0661     19.8950    139.4346     21.0811
  1173.7000      8.0334      2.3314      0.0737     19.3082    130.8791     21.6527
  1173.8000      8.0320      2.3346      0.0900     19.1133    128.3526     21.8834
  1173.9000      8.0320      2.3268      0.0990     19.5906    131.5726     21.1981
  1174.0000      8.0475      2.3093      0.0835     20.6500    134.5254     20.2824
  1174.1000      8.0475      2.2804      0.0706     22.3986    136.4504     20.0835
  1174.2000      8.0475      2.2418      0.0074     24.7392    141.9867     20.4612
  1174.3000      8.0644      2.2089     -0.0324     26.7332    150.3605     20.4293
  1174.4000      8.0644      2.1906     -0.0268     27.8437    156.1253     19.7402
  1174.5000      8.0741      2.1746      0.0606     28.8121    158.5059     19.0939
  1174.6000      8.0741      2.1515      0.0489     30.2120    160.1179     18.4642
  1174.7000      8.0741      2.1379     -0.0140     31.0344    159.1699     17.3605
