~Version Information
VERS.                      2.0: CWLS Log ASCII Standard - VERSION 2.0
WRAP.                       NO: One line per depth step
~Well Information Block
STRT.FT               520.0000: 
STOP.FT              2555.2000: 
STEP.FT                 0.1000: 
NULL.                -999.2500: 
COMP.          Pioneer Natural Resources: COMPANY
WELL.          Horsefeathers 24-34: WELL
FLD.           Purgatoire River: FIELD
LOC.           183' FSL & 1570' FWL--: LOCATION
CNTY.               Las Animas: COUNTY
SRVC.                Patterson: SERVICE COMPANY
DATE.          Mon Feb 06 08:03:40 2006: LOG DATE
UWI.           05 071 08675 00: UNIQUE WELL ID
STAT.                 Colorado: STATE
~Curve Information Block
DEPT.FT            0 000 00 00: Depth
DCAL.in                       : CDL Caliper
RHOB.g/cc                     : CDL Bulk Density
RHOC.g/cc                     : CDL Density Correction
DPOR.pu                       : CDL Density Porosity
NPOR.pu                       : Neutron Porosity
GR.GAPI                       : Gamma Ray
~Parameter Information Block
~A  Depth       DCAL        RHOB        RHOC        DPOR        NPOR         GR     
# ...
  1057.6000      8.0052      2.6173      0.0803      1.9794     24.6657    134.0609
  1057.7000      8.0052      2.6012      0.0396      2.9598     24.5132    134.8369
  1057.8000      8.0064      2.5861     -0.0333      3.8723     24.7630    134.1008
  1057.9000      8.0064      2.5806      0.0129      4.2033     25.1836    131.4403
  1058.0000      8.0053      2.5702     -0.0173      4.8364     25.3154    128.6291
  1058.1000      8.0053      2.5610     -0.0185      5.3944     25.0359    125.6443
  1058.2000      8.0053      2.5730      0.0232      4.6647     25.0037    121.0543
  1058.3000      8.0036      2.5996      0.0648      3.0539     25.6791    116.3889
  1058.4000      8.0036      2.6264      0.0225      1.4331     26.6237    113.6128
  1058.5000      8.0048      2.6578      0.0260     -0.4716     27.3890    111.7742
  1058.6000      8.0048      2.6902      0.0938     -2.4380     28.0221    113.1633
  1058.7000      8.0048      2.7017      0.0675     -3.1352     28.2590    121.0030
  1058.8000      8.0069      2.6888      0.0403     -2.3490     27.8516    129.4894
  1058.9000      8.0069      2.6711      0.0470     -1.2808     27.3306    130.3505
  1059.0000      8.0063      2.6619      0.0611     -0.7212     27.3384    125.4982
  1059.1000      8.0063      2.6554      0.0291     -0.3300     27.6082    122.0540
  1059.2000      8.0063      2.6453      0.0041      0.2877     27.3254    121.5695
  1059.3000      8.0036      2.6378     -0.0136      0.7422     26.5620    121.5137
  1059.4000      8.0036      2.6364      0.0243      0.8265     26.0839    119.8095
  1059.5000      8.0019      2.6306      0.0153      1.1740     26.2434    118.8718
  1059.6000      8.0019      2.6175      0.0187      1.9727     26.7526    120.6754
  1059.7000      8.0019      2.6058     -0.0005      2.6797     26.8914    123.9071
  1059.8000      8.0028      2.5985      0.0700      3.1198     26.3343    128.4067
  1059.9000      8.0028      2.5973      0.0048      3.1940     25.8600    132.6786
  1060.0000      8.0050      2.6130      0.0442      2.2406     26.1221    135.3180
  1060.1000      8.0050      2.6411      0.0452      0.5387     26.6962    138.8351
  1060.2000      8.0050      2.6592      0.0659     -0.5591     27.0668    142.0609
  1060.3000      8.0051      2.6566      0.0210     -0.4029     27.2227    139.5705
  1060.4000      8.0051      2.6346      0.0258      0.9317     27.0957    135.3551
  1060.5000      8.0035      2.6033      0.0031      2.8327     26.5905    137.4980
  1060.6000      8.0035      2.5883     -0.0024      3.7398     26.0066    142.4154
  1060.7000      8.0035      2.6011     -0.0116      2.9653     25.7249    143.5071
  1060.8000      8.0029      2.6163      0.0674      2.0407     25.7586    140.6661
  1060.9000      8.0029      2.6077      0.0326      2.5635     25.8882    136.4267
  1061.0000      8.0017      2.5833      0.0037      4.0454     26.1415    136.6766
  1061.1000      8.0017      2.5655     -0.0182      5.1229     26.4987    141.1362
  1061.2000      8.0017      2.5629      0.0283      5.2782     26.6550    140.2684
  1061.3000      7.9978      2.5745     -0.0247      4.5731     26.5691    131.9302
  1061.4000      7.9978      2.6022      0.0151      2.8955     26.6662    123.1253
  1061.5000      7.9941      2.6354      0.0160      0.8849     27.0460    118.3432
  1061.6000      7.9941      2.6511      0.0840     -0.0640     27.4774    115.5201
  1061.7000      7.9941      2.6430      0.0347      0.4223     27.8445    112.5180
  1061.8000      7.9944      2.6342     -0.0030      0.9552     27.9425    109.8731
  1061.9000      7.9944      2.6425     -0.0039      0.4567     27.5843    107.6520
  1062.0000      7.9969      2.6603      0.0621     -0.6253     26.8231    105.7108
  1062.1000      7.9969      2.6794      0.0316     -1.7813     26.1430    103.1836
  1062.2000      7.9969      2.6957      0.0307     -2.7681     26.0927     99.7535
  1062.3000      8.0000      2.6972      0.0985     -2.8629     26.7108     97.4372
  1062.4000      8.0000      2.6847      0.0428     -2.1039     27.5463     98.5394
  1062.5000      8.0031      2.6763      0.0353     -1.5967     27.9571    101.8283
  1062.6000      8.0031      2.6760      0.0364     -1.5764     27.7468    102.9002
  1062.7000      8.0031      2.6665      0.0621     -0.9985     27.3922    101.9622
  1062.8000      8.0046      2.6419      0.0539      0.4936     27.1340    104.1107
  1062.9000      8.0046      2.6250     -0.0268      1.5179     26.6359    112.1851
  1063.0000      8.0045      2.6332      0.0219      1.0194     25.8450    124.4775
  1063.1000      8.0045      2.6523      0.0558     -0.1418     25.2972    130.8784
  1063.2000      8.0045      2.6650      0.0723     -0.9115     25.0594    122.3118
  1063.3000      8.0032      2.6698      0.0498     -1.1995     24.9376    107.4083
  1063.4000      8.0032      2.6635      0.0687     -0.8172     24.9860     98.8906
  1063.5000      8.0022      2.6400      0.0398      0.6067     25.2700     97.4536
  1063.6000      8.0022      2.6053      0.0008      2.7105     25.7457     99.0269
  1063.7000      8.0022      2.5812     -0.0589      4.1715     26.0384    104.8647
  1063.8000      8.0030      2.5824      0.0144      4.0962     25.8183    118.4613
  1063.9000      8.0030      2.5959      0.0332      3.2813     25.5460    133.1161
  1064.0000      8.0039      2.6054      0.0556      2.7040     25.6658    138.0352
  1064.1000      8.0039      2.6121     -0.0121      2.2995     25.7637    133.3855
  1064.2000      8.0039      2.6215      0.0231      1.7292     25.6561    124.2229
  1064.3000      8.0012      2.6319      0.0096      1.0939     25.7290    113.2361
  1064.4000      8.0012      2.6384      0.0266      0.7012     25.8022    105.7910
  1064.5000      7.9976      2.6311      0.0393      1.1466     25.4258    104.6404
  1064.6000      7.9976      2.6086     -0.0045      2.5093     24.8279    104.2184
  1064.7000      7.9976      2.5902      0.0023      3.6264     24.7447    101.9995
  1064.8000      7.9950      2.5921     -0.0086      3.5109     25.2823    102.3098
  1064.9000      7.9950      2.6072      0.0580      2.5963     25.5162    105.5983
  1065.0000      7.9921      2.6223      0.0660      1.6807     24.9665    106.2569
  1065.1000      7.9921      2.6358      0.0411      0.8604     24.0462    102.9493
  1065.2000      7.9921      2.6455      0.0712      0.2747     23.3248    100.2394
  1065.3000      7.9902      2.6452      0.0196      0.2908     23.2776     98.7133
  1065.4000      7.9902      2.6416      0.0129      0.5092     23.7092     96.6248
  1065.5000      7.9892      2.6449      0.0302      0.3076     23.9363     95.2577
  1065.6000      7.9892      2.6500      0.0564      0.0030     23.7360     94.9004
  1065.7000      7.9892      2.6503      0.0001     -0.0205     23.6750     94.2013
  1065.8000      7.9866      2.6524      0.0210     -0.1444     24.4808     92.4939
  1065.9000      7.9866      2.6600      0.0189     -0.6062     26.0289     88.7914
  1066.0000      7.9839      2.6700      0.0577     -1.2107     27.1038     83.3374
  1066.1000      7.9839      2.6739      0.0574     -1.4464     26.8313     78.7977
  1066.2000      7.9839      2.6604      0.0504     -0.6312     25.8754     77.5495
  1066.3000      7.9842      2.6315     -0.0001      1.1195     25.4522     77.9205
  1066.4000      7.9842      2.6085     -0.0170      2.5149     25.7001     79.0885
  1066.5000      7.9870      2.6055      0.0167      2.6946     25.7597     82.7050
  1066.6000      7.9870      2.6139      0.0051      2.1852     25.6117     87.3998
  1066.7000      7.9870      2.6259      0.0230      1.4585     25.8656     89.6376
  1066.8000      7.9866      2.6428      0.0178      0.4346     26.3993     89.1241
  1066.9000      7.9866      2.6604      0.0520     -0.6294     26.7956     86.7825
  1067.0000      7.9831      2.6676      0.0724     -1.0644     26.7283     82.9494
  1067.1000      7.9831      2.6591      0.0452     -0.5543     26.1795     81.3839
