~Version Information
VERS.                      2.0: CWLS Log ASCII Standard - VERSION 2.0
WRAP.                       NO: One line per depth step
~Well Information Block
STRT.FT               570.0000: 
STOP.FT              1954.5000: 
STEP.FT                 0.1000: 
NULL.                -999.2500: 
COMP.          Petrogulf Corporation: COMPANY
WELL.            Montoya 7-14R: WELL
FLD.           Purgatorie River: FIELD
LOC.           628' FSL & 454' FWL: LOCATION
PROV.                 Colorado: PROVINCE
CNTY.               Las Animas: COUNTRY
SRVC.                Patterson: SERVICE COMPANY
DATE.          Mon Oct 10 07:31:15 2005: LOG DATE
UWI.                          : UNIQUE WELL ID
~Curve Information Block
DEPT.FT            0 000 00 00: Depth
DCAL.in                       : CDL Caliper
RHOB.g/cc                     : CDL Bulk Density
RHOC.g/cc                     : CDL Density Correction
DPOR.pu                       : CDL Density Porosity
GR.GAPI                       : Gamma Ray
NPOR.pu                       : Neutron Porosity
~Parameter Information Block
~A  Depth       DCAL        RHOB        RHOC        DPOR         GR         NPOR    
# ...
  1395.6000      7.7885      2.5545      0.0443      5.7888    117.9508     17.6220
  1395.7000      7.7885      2.5802      0.0973      4.2298    119.3917     17.7183
  1395.8000      7.7344      2.6108      0.1269      2.3770    118.8836     17.9451
  1395.9000      7.7344      2.6321      0.1562      1.0838    118.6397     18.2045
  1396.0000      7.7518      2.6382      0.1627      0.7124    120.3438     18.3735
  1396.1000      7.7518      2.6312      0.1169      1.1418    120.8491     18.2708
  1396.2000      7.7518      2.6169      0.1233      2.0080    118.3061     18.1128
  1396.3000      7.7632      2.5954      0.0864      3.3093    115.3790     18.3751
  1396.4000      7.7632      2.5636      0.0754      5.2355    112.7457     19.1599
  1396.5000      7.8207      2.5241      0.0722      7.6320    109.6320     20.0673
  1396.6000      7.8207      2.4976     -0.0001      9.2390    108.4506     20.4786
  1396.7000      7.8207      2.5104     -0.0045      8.4587    111.1137     20.3570
  1396.8000      7.8587      2.5542      0.0814      5.8083    114.5097     20.0396
  1396.9000      7.8587      2.5945      0.1092      3.3629    115.7417     19.6002
  1397.0000      7.7864      2.6187      0.1314      1.8959    115.1465     19.2171
  1397.1000      7.7864      2.6368      0.1494      0.8016    112.7336     19.2273
  1397.2000      7.7864      2.6526      0.1438     -0.1591    108.9303     19.5122
  1397.3000      7.7672      2.6610      0.1607     -0.6692    105.5142     19.6170
  1397.4000      7.7672      2.6519      0.1227     -0.1127    103.8337     19.4771
  1397.5000      7.7876      2.6167      0.1390      2.0179    103.1701     19.1429
  1397.6000      7.7876      2.5642      0.0838      5.2027    102.5504     18.7787
  1397.7000      7.7876      2.5252     -0.0080      7.5639    104.2074     18.8211
  1397.8000      7.8707      2.5139      0.0745      8.2490    108.4532     19.0933
  1397.9000      7.8707      2.5063      0.0362      8.7099    109.9007     19.1198
  1398.0000      7.9184      2.4911      0.0055      9.6317    107.1562     18.8615
  1398.1000      7.9184      2.4849     -0.0187     10.0058    105.8137     18.5556
  1398.2000      7.9184      2.4930      0.0547      9.5131    108.7364     18.4177
  1398.3000      7.9064      2.5065     -0.0019      8.6956    112.0304     18.4536
  1398.4000      7.9064      2.5293      0.0673      7.3164    111.2963     18.6021
  1398.5000      7.7710      2.5682      0.0216      4.9564    107.5144     18.8393
  1398.6000      7.7710      2.6160      0.1436      2.0616    105.4291     18.9886
  1398.7000      7.7710      2.6587      0.1407     -0.5281    105.3095     19.0251
  1398.8000      7.7421      2.6920      0.1981     -2.5455    103.7272     19.2611
  1398.9000      7.7421      2.7131      0.1892     -3.8242    100.4393     19.5204
  1399.0000      7.7810      2.7184      0.1607     -4.1462     97.5830     19.2932
  1399.1000      7.7810      2.7065      0.1376     -3.4240     95.9572     18.8538
  1399.2000      7.7810      2.6774      0.1076     -1.6588     95.0129     18.6552
  1399.3000      7.8426      2.6331      0.0668      1.0253     95.2718     18.5804
  1399.4000      7.8426      2.5822      0.0052      4.1081     99.1247     18.4417
  1399.5000      7.9054      2.5530     -0.0765      5.8772    107.4389     18.1086
  1399.6000      7.9054      2.5682      0.0025      4.9602    116.1877     17.5660
  1399.7000      7.9054      2.6029      0.0718      2.8541    120.0700     17.3007
  1399.8000      7.9751      2.6186      0.0929      1.9013    119.3885     17.4502
  1399.9000      7.9751      2.6092      0.0567      2.4735    119.0297     17.6643
  1400.0000      7.9331      2.5849      0.0341      3.9430    119.5848     17.9273
  1400.1000      7.9331      2.5536      0.0260      5.8450    116.4714     18.2304
  1400.2000      7.9331      2.5311     -0.0033      7.2088    108.4123     18.1825
  1400.3000      7.8633      2.5360      0.0151      6.9081    101.0106     17.5869
  1400.4000      7.8633      2.5619      0.0716      5.3421     97.5746     16.7121
  1400.5000      7.8173      2.5869      0.0767      3.8257     94.8571     15.9624
  1400.6000      7.8173      2.6046      0.0562      2.7532     89.3836     15.7211
  1400.7000      7.8173      2.6190      0.0721      1.8811     83.6162     15.9951
  1400.8000      7.7978      2.6270      0.0645      1.3954     82.4530     16.1292
  1400.9000      7.7978      2.6239      0.1345      1.5794     85.0598     15.5751
  1401.0000      7.7888      2.6162      0.1178      2.0455     88.4221     14.7911
  1401.1000      7.7888      2.6106      0.0818      2.3892     91.0298     14.3235
  1401.2000      7.7888      2.5979      0.1102      3.1571     93.1166     14.0775
  1401.3000      7.7988      2.5738      0.0377      4.6155     96.7557     14.0108
  1401.4000      7.7988      2.5577      0.0143      5.5910    101.6615     14.2861
  1401.5000      7.8186      2.5638      0.0342      5.2260    107.9572     14.8107
  1401.6000      7.8186      2.5831      0.0488      4.0548    115.2785     15.3378
  1401.7000      7.8186      2.5976      0.0910      3.1780    119.2368     15.9623
  1401.8000      7.8066      2.6015      0.0313      2.9417    119.3164     16.8278
  1401.9000      7.8066      2.6029      0.1164      2.8516    120.1781     17.7141
  1402.0000      7.8088      2.6053      0.1000      2.7087    124.7603     18.4189
  1402.1000      7.8088      2.6058      0.1350      2.6805    132.9453     19.1665
  1402.2000      7.8088      2.5988      0.1381      3.1029    141.5604     20.0136
  1402.3000      7.8704      2.5888      0.1126      3.7111    145.3334     20.5749
  1402.4000      7.8704      2.5830      0.1025      4.0635    143.9529     20.7904
  1402.5000      7.9425      2.5726      0.1062      4.6929    142.3978     21.0351
  1402.6000      7.9425      2.5535      0.0728      5.8503    140.4337     21.7457
  1402.7000      7.9425      2.5444      0.0069      6.4016    134.7308     22.9422
  1402.8000      7.9857      2.5585      0.0488      5.5431    131.7250     24.3231
  1402.9000      7.9857      2.5821      0.0924      4.1130    137.0634     25.6124
  1403.0000      8.0344      2.5933      0.1090      3.4351    142.9893     26.5308
  1403.1000      8.0344      2.5942      0.0606      3.3807    144.0071     27.0111
  1403.2000      8.0344      2.6081      0.0676      2.5388    146.0955     27.0939
  1403.3000      7.9922      2.6344      0.1270      0.9424    149.4904     26.6946
  1403.4000      7.9922      2.6502      0.0894     -0.0146    148.5400     25.9663
  1403.5000      7.9912      2.6515      0.0631     -0.0883    144.4526     25.2849
  1403.6000      7.9912      2.6434      0.0458      0.4029    138.9149     24.5693
  1403.7000      7.9912      2.6259      0.0453      1.4591    131.7523     23.7027
  1403.8000      7.9503      2.6023      0.0391      2.8880    126.8307     22.9223
  1403.9000      7.9503      2.5785     -0.0045      4.3360    125.9234     22.3728
  1404.0000      7.9370      2.5672     -0.0309      5.0184    125.9479     22.0574
  1404.1000      7.9370      2.5712      0.0351      4.7774    124.9296     21.7707
  1404.2000      7.9370      2.5726      0.0235      4.6884    124.4370     21.0100
  1404.3000      7.9327      2.5681     -0.0039      4.9666    125.8646     19.8790
  1404.4000      7.9327      2.5698      0.0090      4.8616    127.7140     19.4913
  1404.5000      7.9376      2.5723      0.0493      4.7101    128.2394     20.1965
  1404.6000      7.9376      2.5601      0.0614      5.4506    127.7644     20.9621
  1404.7000      7.9376      2.5415     -0.0064      6.5769    126.9617     21.2133
  1404.8000      7.9340      2.5352      0.0406      6.9605    127.3920     21.5038
  1404.9000      7.9340      2.5361      0.0018      6.9022    130.6237     22.1980
  1405.0000      7.9397      2.5310      0.0350      7.2118    136.5608     22.7413
  1405.1000      7.9397      2.5314     -0.0524      7.1862    143.9321     22.7029
