~Version Information
VERS.                      2.0: CWLS Log ASCII Standard - VERSION 2.0
WRAP.                       NO: One line per depth step
~Well Information Block
STRT.FT               245.0000: 
STOP.FT              1102.5000: 
STEP.FT                 0.1000: 
NULL.                -999.2500: 
COMP.          Pioneer Natural Resources: COMPANY
WELL.           Pavilion 44-25: WELL
FLD.           Purgatoire River: FIELD
LOC.           719' FSL & 650' FEL: LOCATION
PROV.                 Colorado: PROVINCE
CNTY.               Las Animas: COUNTRY
SRVC.                Patterson: SERVICE COMPANY
DATE.          Wed Dec 14 09:57:07 2005: LOG DATE
UWI.           05 071 08624 00: UNIQUE WELL ID
~Curve Information Block
DEPT.FT            0 000 00 00: Depth
DCAL.in                       : CDL Caliper
RHOB.g/cc                     : CDL Bulk Density
RHOC.g/cc                     : CDL Density Correction
DPOR.pu                       : CDL Density Porosity
GR.GAPI                       : Gamma Ray
NPOR.pu                       : Neutron Porosity
~Parameter Information Block
~A  Depth       DCAL        RHOB        RHOC        DPOR         GR         NPOR    
# ...
   917.0000      7.8818      2.5016      0.0113      8.9963     69.9288     19.7489
   917.1000      7.8818      2.4944     -0.0339      9.4298     77.3867     19.1595
   917.2000      7.8818      2.4849     -0.0246     10.0047     84.3636     18.1183
   917.3000      7.8813      2.4806     -0.0012     10.2657     85.0805     17.5472
   917.4000      7.8813      2.4705      0.0288     10.8775     80.9273     17.5226
   917.5000      7.8802      2.4499      0.0216     12.1280     74.1432     17.5930
   917.6000      7.8802      2.4359     -0.0057     12.9730     68.3970     17.7012
   917.7000      7.8802      2.4430     -0.0020     12.5482     68.8107     18.1054
   917.8000      7.8786      2.4616      0.0076     11.4196     73.2407     18.3615
   917.9000      7.8786      2.4696      0.0558     10.9329     73.0391     17.8213
   918.0000      7.8827      2.4623     -0.0250     11.3748     65.2808     17.0164
   918.1000      7.8827      2.4566      0.0090     11.7226     56.8714     16.7740
   918.2000      7.8827      2.4594      0.0045     11.5506     56.9424     16.9931
   918.3000      7.8834      2.4631      0.0111     11.3279     64.8459     17.1475
   918.4000      7.8834      2.4597      0.0196     11.5321     71.6781     17.1512
   918.5000      7.8819      2.4510     -0.0069     12.0630     73.0042     17.0402
   918.6000      7.8819      2.4422      0.0284     12.5963     71.3102     16.7398
   918.7000      7.8819      2.4312      0.0122     13.2599     70.1924     16.6238
   918.8000      7.8816      2.4206     -0.0133     13.9004     70.8550     17.1201
   918.9000      7.8816      2.4178      0.0035     14.0713     71.8679     18.1180
   919.0000      7.8810      2.4177      0.0092     14.0779     70.4316     18.9225
   919.1000      7.8810      2.4131     -0.0014     14.3580     66.3196     18.6957
   919.2000      7.8810      2.4091     -0.0304     14.5978     60.7286     17.6895
   919.3000      7.8812      2.4153     -0.0007     14.2216     55.3295     16.9858
   919.4000      7.8812      2.4330      0.0060     13.1515     55.1149     16.8409
   919.5000      7.8809      2.4547      0.0119     11.8391     61.5070     16.8363
   919.6000      7.8809      2.4684      0.0246     11.0034     68.8244     16.7038
   919.7000      7.8809      2.4670      0.0232     11.0917     73.0213     16.5012
   919.8000      7.8809      2.4618     -0.0142     11.4057     73.6059     16.3995
   919.9000      7.8809      2.4681      0.0372     11.0225     70.9299     16.2066
   920.0000      7.8811      2.4737      0.0587     10.6837     68.8388     15.8154
   920.1000      7.8811      2.4629     -0.0155     11.3414     68.8454     15.8042
   920.2000      7.8811      2.4520     -0.0469     12.0004     67.5609     16.6250
   920.3000      7.8805      2.4610     -0.0122     11.4545     64.5667     17.8202
   920.4000      7.8805      2.4781      0.0256     10.4184     64.1914     18.5325
   920.5000      7.8807      2.4806      0.0245     10.2648     67.7844     18.7661
   920.6000      7.8807      2.4717      0.0139     10.8073     70.4482     19.2043
   920.7000      7.8807      2.4677      0.0285     11.0465     68.5189     19.7127
   920.8000      7.8821      2.4739      0.0063     10.6715     65.7983     19.4781
   920.9000      7.8821      2.4839      0.0451     10.0656     68.2437     18.6636
   921.0000      7.8811      2.4908      0.0223      9.6471     72.9016     18.3466
   921.1000      7.8811      2.4956      0.0346      9.3554     72.5496     18.8607
   921.2000      7.8811      2.4993      0.0835      9.1335     68.0869     19.2928
   921.3000      7.8815      2.5046      0.0192      8.8128     64.7338     19.0157
   921.4000      7.8815      2.5162      0.0378      8.1068     65.1939     18.4021
   921.5000      7.8809      2.5218      0.0392      7.7677     69.7484     17.9277
   921.6000      7.8809      2.5066      0.0429      8.6895     77.7007     17.7218
   921.7000      7.8809      2.4848     -0.0058     10.0137     86.1234     17.8373
   921.8000      7.8806      2.4830     -0.0121     10.1190     88.5462     18.2246
   921.9000      7.8806      2.5005      0.0341      9.0611     84.0904     18.4050
   922.0000      7.8795      2.5128      0.0529      8.3124     78.1493     18.1591
   922.1000      7.8795      2.5113      0.0318      8.4044     72.8248     18.0789
   922.2000      7.8795      2.5047      0.0655      8.8085     69.7623     18.2279
   922.3000      7.8685      2.4945      0.0322      9.4217     70.1428     18.1822
   922.4000      7.8685      2.4796      0.0309     10.3257     71.1899     18.5092
   922.5000      7.8789      2.4684      0.0213     11.0071     73.4618     19.5362
   922.6000      7.8789      2.4723      0.0363     10.7693     78.6187     20.3307
   922.7000      7.8789      2.4930      0.0233      9.5171     82.0267     20.3446
   922.8000      7.8814      2.5204      0.0378      7.8565     79.2387     19.9715
   922.9000      7.8814      2.5361      0.0621      6.9007     72.6898     19.7899
   923.0000      7.8827      2.5290      0.0715      7.3350     67.2848     20.0299
   923.1000      7.8827      2.5063      0.0159      8.7077     66.9752     20.1421
   923.2000      7.8827      2.4904      0.0096      9.6738     70.9312     19.5902
   923.3000      7.8804      2.4956     -0.0035      9.3565     73.4923     18.7037
   923.4000      7.8804      2.5078      0.0543      8.6186     71.8571     17.8784
   923.5000      7.8801      2.5034      0.0504      8.8844     68.2901     17.3906
   923.6000      7.8801      2.4902      0.0057      9.6823     65.7700     17.3314
   923.7000      7.8801      2.4965      0.0098      9.3021     65.3570     17.3291
   923.8000      7.8807      2.5198      0.0680      7.8881     66.1946     17.2926
   923.9000      7.8807      2.5264      0.0527      7.4895     66.1793     17.6075
   924.0000      7.8855      2.5056      0.0383      8.7534     63.7713     18.1402
   924.1000      7.8855      2.4806      0.0007     10.2646     61.8197     18.1980
   924.2000      7.8855      2.4688      0.0182     10.9844     64.8617     17.6449
   924.3000      7.8835      2.4691      0.0006     10.9643     72.2171     17.0608
   924.4000      7.8835      2.4782      0.0106     10.4123     79.1812     16.7318
   924.5000      7.8823      2.4925      0.0210      9.5443     82.4938     16.5625
   924.6000      7.8823      2.5118      0.0315      8.3765     79.4228     16.3613
   924.7000      7.8823      2.5309      0.0492      7.2197     72.4276     16.1798
   924.8000      7.8806      2.5346      0.0592      6.9933     69.2213     16.3617
   924.9000      7.8806      2.5205      0.0628      7.8486     69.9968     16.9459
   925.0000      7.8801      2.5063      0.0316      8.7106     67.7311     17.6561
   925.1000      7.8801      2.5057      0.0335      8.7450     63.3496     18.2347
   925.2000      7.8801      2.5128      0.0603      8.3176     62.7901     18.3425
   925.3000      7.8801      2.5214      0.0385      7.7961     67.2416     17.7056
   925.4000      7.8801      2.5357      0.0445      6.9245     73.0474     16.8100
   925.5000      7.8802      2.5449      0.0913      6.3715     74.6498     16.7593
   925.6000      7.8802      2.5280      0.0754      7.3950     70.6983     17.5502
   925.7000      7.8802      2.4927     -0.0035      9.5321     65.3880     18.0035
   925.8000      7.8813      2.4652      0.0092     11.1992     62.9369     17.9195
   925.9000      7.8813      2.4556     -0.0122     11.7821     62.5197     17.8070
   926.0000      7.8820      2.4535      0.0228     11.9119     62.1294     17.6460
   926.1000      7.8820      2.4456      0.0386     12.3889     63.1221     17.1637
   926.2000      7.8820      2.4416     -0.0182     12.6295     67.5538     16.4268
   926.3000      7.8795      2.4597      0.0385     11.5335     73.8484     16.0275
   926.4000      7.8795      2.4934      0.0354      9.4904     77.7628     16.2590
   926.5000      7.8811      2.5205      0.0580      7.8475     76.3099     16.7772
