~Version Information
VERS.                      2.0: CWLS Log ASCII Standard - VERSION 2.0
WRAP.                       NO: One line per depth step
~Well Information Block
STRT.FT                10.0000: 
STOP.FT              1360.0000: 
STEP.FT                 0.1000: 
NULL.                -999.2500: 
COMP.          Pioneer Natural Resources: COMPANY
WELL.              Geyser 41-2: WELL
FLD.           Purgatorie River: FIELD
LOC.           506' FNL & 1127' FEL: LOCATION
PROV.                 Colorado: PROVINCE
CNTY.               Las Animas: COUNTRY
SRVC.                Patterson: SERVICE COMPANY
DATE.          Thu Dec 01 07:38:14 2005: LOG DATE
UWI.                          : UNIQUE WELL ID
~Curve Information Block
DEPT.FT            0 000 00 00: Depth
DCAL.in                       : CDL Caliper
RHOB.g/cc                     : CDL Bulk Density
RHOC.g/cc                     : CDL Density Correction
DPOR.pu                       : CDL Density Porosity
GR.GAPI                       : Gamma Ray
NPOR.pu                       : Neutron Porosity
~Parameter Information Block
~A  Depth       DCAL        RHOB        RHOC        DPOR         GR         NPOR    
# ...
   278.8000      8.0039      2.6517      0.0521     -0.1023     81.6523     25.5003
   278.9000      8.0039      2.6341      0.0408      0.9661     83.4903     25.1388
   279.0000      7.9992      2.6290      0.0273      1.2729     84.9508     24.8305
   279.1000      7.9992      2.6447      0.0765      0.3211     86.1503     24.3968
   279.2000      7.9992      2.6550      0.0647     -0.3039     87.5797     23.9581
   279.3000      7.9995      2.6436      0.0402      0.3883     88.5956     23.7682
   279.4000      7.9995      2.6231      0.0483      1.6274     88.6613     23.7529
   279.5000      7.9995      2.6089     -0.0125      2.4925     87.7717     23.7207
   279.6000      7.9995      2.6038      0.0263      2.8007     87.0217     23.6922
   279.7000      7.9995      2.5993      0.0454      3.0736     88.0185     23.7460
   279.8000      7.9983      2.5950      0.0477      3.3349     91.6210     23.8740
   279.9000      7.9983      2.6018      0.0161      2.9220     95.1363     24.0679
   280.0000      7.9973      2.6189      0.0637      1.8826     95.6839     24.3866
   280.1000      7.9973      2.6298      0.0543      1.2269     93.9101     24.9675
   280.2000      7.9973      2.6238      0.0651      1.5868     91.4876     25.8407
   280.3000      7.9992      2.6088     -0.0059      2.4970     89.5243     26.5755
   280.4000      7.9992      2.5953     -0.0220      3.3151     87.7947     26.6748
   280.5000      8.0075      2.5895     -0.0600      3.6649     87.1848     26.4121
   280.6000      8.0075      2.5998     -0.0729      3.0398     89.3866     26.5296
   280.7000      8.0075      2.6185      0.0050      1.9099     93.9734     27.0727
   280.8000      8.0158      2.6271     -0.0022      1.3857     98.1762     27.3147
   280.9000      8.0158      2.6186      0.0161      1.9005     98.0985     26.8145
   281.0000      8.0204      2.5983     -0.0267      3.1310     95.1015     25.9392
   281.1000      8.0204      2.5853     -0.0447      3.9215     94.6440     25.2311
   281.2000      8.0204      2.5866     -0.0051      3.8395     98.0602     24.8429
   281.3000      8.0462      2.5887     -0.0232      3.7147    102.8521     24.7620
   281.4000      8.0462      2.5890     -0.0109      3.6976    106.2309     24.8985
   281.5000      8.0435      2.5973      0.0158      3.1954    106.2216     25.0397
   281.6000      8.0435      2.6173      0.0317      1.9841    104.3359     25.1636
   281.7000      8.0435      2.6413      0.0828      0.5262    103.7040     25.4109
   281.8000      8.0573      2.6519      0.0838     -0.1148    104.8841     25.8045
   281.9000      8.0573      2.6390      0.0983      0.6674    106.2629     26.3295
   282.0000      8.0623      2.6160      0.0637      2.0589    108.5401     26.9186
   282.1000      8.0623      2.6030      0.0815      2.8468    113.6068     27.2916
   282.2000      8.0623      2.6022      0.0428      2.8988    119.5568     27.3399
   282.3000      8.0649      2.5982      0.1023      3.1424    122.0514     27.3166
   282.4000      8.0649      2.5806      0.0241      4.2074    120.6254     27.4448
   282.5000      8.0805      2.5592      0.0164      5.5009    120.3917     27.5765
   282.6000      8.0805      2.5463      0.0073      6.2869    122.6993     27.5793
   282.7000      8.0805      2.5437      0.0013      6.4433    123.2625     27.5745
   282.8000      8.0840      2.5500     -0.0124      6.0621    121.1431     27.5944
   282.9000      8.0840      2.5579     -0.0014      5.5798    119.0299     27.5811
   283.0000      8.0892      2.5490      0.0710      6.1236    119.3516     27.5162
   283.1000      8.0892      2.5194      0.0075      7.9131    121.7576     27.3960
   283.2000      8.0892      2.5069     -0.0268      8.6737    124.1782     27.2411
   283.3000      8.1130      2.5352      0.0561      6.9552    125.3047     27.1135
   283.4000      8.1130      2.5690      0.0877      4.9066    125.2731     27.0694
   283.5000      8.1228      2.5745     -0.0074      4.5736    127.0039     27.0706
   283.6000      8.1228      2.5617      0.0641      5.3500    131.4349     27.0731
   283.7000      8.1228      2.5468      0.0530      6.2536    134.9811     26.9788
   283.8000      8.1353      2.5325      0.0716      7.1225    135.3669     26.6604
   283.9000      8.1353      2.5134      0.0686      8.2771    133.9775     25.9574
   284.0000      8.1419      2.4833      0.0520     10.1032    135.4373     24.8096
   284.1000      8.1419      2.4286      0.0783     13.4153    140.7792     23.4802
   284.2000      8.1419      2.3327      0.0565     19.2331    143.4747     22.1877
   284.3000      8.1569      2.2034      0.0093     27.0639    141.4292     20.9023
   284.4000      8.1569      2.0692     -0.0011     35.2010    137.4245     19.5300
   284.5000      8.1606      1.9410     -0.0008     42.9687    131.7750     18.0427
   284.6000      8.1606      1.8036      0.0024     51.2974    124.5949     16.5345
   284.7000      8.1606      1.6508     -0.1036     60.5587    118.1194     15.2403
   284.8000      8.1653      1.5105     -0.1079     69.0603    114.5403     14.3273
   284.9000      8.1653      1.4162     -0.1029     74.7787    112.8200     13.7553
   285.0000      8.1606      1.3804     -0.0534     76.9434    110.6262     13.4418
   285.1000      8.1606      1.3998      0.0281     75.7684    107.0567     13.3168
   285.2000      8.1606      1.4659      0.1087     71.7662    102.3627     13.1504
   285.3000      8.1581      1.5651      0.1700     65.7492     98.0006     12.7479
   285.4000      8.1581      1.6719      0.2447     59.2786     95.7580     12.3834
   285.5000      8.1641      1.7576      0.2535     54.0823     95.2485     12.5236
   285.6000      8.1641      1.8156      0.2753     50.5709     95.4633     13.2779
   285.7000      8.1641      1.8620      0.2550     47.7587     97.4380     14.3704
   285.8000      8.2656      1.9127      0.2208     44.6871    103.1127     15.5566
   285.9000      8.2656      1.9668      0.1743     41.4091    112.8218     16.7600
   286.0000      8.3422      2.0133      0.1630     38.5909    123.0802     18.0348
   286.1000      8.3422      2.0461      0.0688     36.5975    128.3623     19.4863
   286.2000      8.3422      2.0715      0.0266     35.0590    128.7269     21.0440
   286.3000      8.2027      2.1023      0.0027     33.1948    130.0365     22.4099
   286.4000      8.2027      2.1450      0.1071     30.6077    136.1480     23.4433
   286.5000      8.1302      2.1953      0.1103     27.5554    143.9277     24.2691
   286.6000      8.1302      2.2450      0.1223     24.5459    146.2518     25.0105
   286.7000      8.1302      2.2841      0.0803     22.1751    142.1927     25.6440
   286.8000      8.1197      2.3099      0.0570     20.6147    138.6749     25.9363
   286.9000      8.1197      2.3211      0.0572     19.9331    139.0630     25.8151
   287.0000      8.1099      2.3087      0.0763     20.6838    142.6081     25.4884
   287.1000      8.1099      2.2741      0.0436     22.7795    148.8862     25.0389
   287.2000      8.1099      2.2356      0.0083     25.1169    154.9910     24.3171
   287.3000      8.1083      2.2050      0.0065     26.9725    156.6081     23.3102
   287.4000      8.1083      2.1855     -0.0509     28.1517    153.5258     22.3285
   287.5000      8.1135      2.1752     -0.0076     28.7744    150.3550     21.7492
   287.6000      8.1135      2.1577      0.0194     29.8384    150.2644     21.6372
   287.7000      8.1135      2.1270      0.0201     31.6951    151.9425     21.6680
   287.8000      8.1157      2.1114     -0.0260     32.6445    153.1356     21.6096
   287.9000      8.1157      2.1321      0.0621     31.3859    154.9899     21.6678
   288.0000      8.1188      2.1716      0.0693     28.9935    157.6539     21.8660
   288.1000      8.1188      2.2128      0.0695     26.4941    158.3896     21.9772
   288.2000      8.1188      2.2560      0.1006     23.8782    156.7793     22.1503
   288.3000      8.1162      2.2912      0.1902     21.7440    155.7653     22.4348
