~Version Information
VERS.                      2.0: CWLS Log ASCII Standard - VERSION 2.0
WRAP.                       NO: One line per depth step
~Well Information Block
STRT.FT                 0.0000: 
STOP.FT               683.5000: 
STEP.FT                 0.2500: 
NULL.                -999.2500: 
COMP.          Pioneer Natural Resources: COMPANY
WELL.           Belvedere 14-7: WELL
FLD.           Purgatorie River: FIELD
LOC.           786' FSL & 1283' FWL: LOCATION
PROV.                 Colorado: PROVINCE
CNTY.               Las Animas: COUNTRY
SRVC.                Patterson: SERVICE COMPANY
DATE.          Fri Dec 02 12:52:31 2005: LOG DATE
UWI.           05-071-08557               : UNIQUE WELL ID
~Curve Information Block
DEPT.FT            0 000 00 00: Depth
CCL.                          : Casing Collar Locator
TT3.usec                      : CBL 3' Travel Time
AMP3.mV                       : CBL 3' Amplitude
GR.GAPI                       : Gamma Ray
~Parameter Information Block
~A  Depth       CCL         TT3         AMP3         GR     
# ...
   603.0000      0.0000    679.1321     10.1115     54.3586
   603.2500      0.0000    679.0033     10.0146     53.2635
   603.5000      0.0000    678.7426      9.8074     51.2538
   603.7500      0.0000    678.0599      9.4036     48.8642
   604.0000      0.0000    675.9421      8.6636     47.5949
   604.2500      0.0000    670.8788      7.6454     48.5805
   604.5000      0.0000    664.9932      6.8358     51.6084
   604.7500      0.0000    667.9612      6.6402     55.4401
   605.0000      0.0000    688.9251      6.7050     58.8380
   605.2500      0.0000    722.9660      6.5435     61.0398
   605.5000      0.0000    752.8900      6.3890     61.4825
   605.7500      0.0000    766.0001      6.5764     59.8072
   606.0000     -2.0000    765.8391      6.9360     56.5093
   606.2500      2.0000    762.9191      7.2240     53.1537
   606.5000      0.0000    759.8054      7.4024     51.4520
   606.7500      0.0000    754.1173      7.4633     52.0669
   607.0000      0.0000    744.9218      7.5010     54.3081
   607.2500      0.0000    731.5286      7.9540     56.8041
   607.5000      0.0000    716.7331      9.1401     58.4175
   607.7500      0.0000    707.0690     10.4957     58.7047
   608.0000      0.0000    705.7260     11.1928     57.8253
   608.2500      0.0000    710.3103     11.2853     56.3633
   608.5000      0.0000    715.9421     11.3988     55.2578
   608.7500      0.0000    719.3958     11.8522     55.4402
   609.0000      0.0000    720.9603     12.4832     57.2066
   609.2500      0.0000    722.7532     12.9990     60.0019
   609.5000      0.0000    726.8030     13.3178     62.8792
   609.7500      0.0000    733.3006     13.5517     65.1454
   610.0000      0.0000    739.4789     13.7916     66.6488
   610.2500      0.0000    741.9852     14.0095     67.5255
   610.5000      0.0000    739.6844     14.1166     67.7787
   610.7500      0.0000    733.9334     14.0589     67.3177
   611.0000      0.0000    727.9808     13.8589     66.3174
   611.2500      0.0000    724.3661     13.5889     65.2274
   611.5000      0.0000    723.0058     13.3008     64.4201
   611.7500      0.0000    722.7485     12.9973     63.9406
   612.0000      0.0000    722.8670     12.6830     63.5610
   612.2500      0.0000    722.7789     12.3988     63.0928
   612.5000      0.0000    721.3236     12.1845     62.6316
   612.7500      0.0000    716.5558     12.0236     62.3096
   613.0000      0.0000    707.4407     11.8367     61.8765
   613.2500      0.0000    696.8738     11.5584     60.8649
   613.5000      0.0000    690.4810     11.1985     59.2215
   613.7500      0.0000    689.9323     10.8133     57.5663
   614.0000      0.0000    690.4072     10.4693     56.7628
   614.2500      0.0000    687.4859     10.2255     57.2868
   614.5000      0.0000    682.6532     10.1002     58.9335
   614.7500      0.0000    679.2338     10.0594     60.9195
   615.0000      0.0000    677.8447     10.0552     62.2280
   615.2500      0.0000    677.4984     10.0732     62.1836
   615.5000      0.0000    677.5027     10.1177     61.0135
   615.7500      0.0000    677.6446     10.1617     59.8067
   616.0000      0.0000    678.0754     10.1594     59.6656
   616.2500      0.0000    679.7166     10.1121     60.8131
   616.5000      0.0000    684.4969     10.0783     62.5942
   616.7500      0.0000    693.6559     10.1127     64.1518
   617.0000      0.0000    704.9658     10.2105     64.8070
   617.2500      0.0000    713.9220     10.3186     64.0642
   617.5000      0.0000    718.4521     10.4055     61.8642
   617.7500      0.0000    719.9362     10.4857     59.0299
   618.0000      0.0000    720.3287     10.5608     57.0353
   618.2500      0.0000    720.4990     10.5910     56.7896
   618.5000      0.0000    720.5284     10.5253     57.6165
   618.7500      0.0000    720.1520     10.3448     57.8808
   619.0000      0.0000    718.4878     10.0984     56.8073
   619.2500      0.0000    713.6542      9.8688     55.4048
   619.5000      0.0000    704.3306      9.7092     55.3904
   619.7500      0.0000    692.7023      9.6272     57.4427
   620.0000      0.0000    683.4165      9.5882     60.6928
   620.2500      0.0000    678.7006      9.5365     63.6340
   620.5000      0.0000    677.2006      9.4467     65.2607
   620.7500      0.0000    676.9023      9.3458     65.5328
   621.0000      0.0000    676.7920      9.2672     65.1112
   621.2500      0.0000    676.6014      9.2090     64.7628
   621.5000      0.0000    676.3918      9.1582     64.8097
   621.7500      0.0000    676.3186      9.1238     64.8852
   622.0000      0.0000    676.4288      9.1324     64.2877
   622.2500      0.0000    676.6024      9.1984     62.8368
   622.5000      0.0000    676.7007      9.2943     61.3130
   622.7500      0.0000    676.6965      9.3788     60.8318
   623.0000      0.0000    676.6222      9.4503     61.8449
   623.2500      0.0000    676.4946      9.5374     63.8436
   623.5000      0.0000    676.3588      9.6661     65.8166
   623.7500      0.0000    676.3732      9.8646     66.8350
   624.0000      0.0000    676.8980     10.1567     66.4674
   624.2500      0.0000    678.8269     10.5325     65.0051
   624.5000      0.0000    683.7057     10.9519     63.2251
   624.7500      0.0000    691.7404     11.3724     61.7444
   625.0000      0.0000    698.8165     11.7586     60.8112
   625.2500      0.0000    699.3406     12.0955     60.8225
   625.5000      0.0000    694.1761     12.4042     62.4793
   625.7500      0.0000    691.1168     12.7129     65.8822
   626.0000      0.0000    695.8533     13.0202     69.6958
   626.2500      0.0000    706.0586     13.3119     71.7184
   626.5000      0.0000    715.2792     13.5697     70.4547
   626.7500      0.0000    720.0530     13.7111     66.1660
   627.0000      0.0000    721.2993     13.6012     60.6126
   627.2500      0.0000    720.9056     13.2151     55.9469
   627.5000      0.0000    719.1424     12.7025     53.5143
   627.7500      0.0000    714.3447     12.2259     53.1579
   628.0000      0.0000    705.0730     11.8206     53.6019
   628.2500      0.0000    693.4038     11.4442     53.7411
   628.5000      0.0000    683.9443     11.0711     53.6007
   628.7500      0.0000    678.9714     10.7080     54.0444
   629.0000      0.0000    677.2667     10.3883     55.7110
   629.2500      0.0000    676.9587     10.1633     58.2765
   629.5000      0.0000    677.2925     10.0485     60.6604
   629.7500      0.0000    678.6848     10.0046     61.9906
   630.0000      0.0000    682.0562      9.9812     62.3900
   630.2500      0.0000    686.7418      9.9488     62.6789
   630.5000      0.0000    689.4022      9.9168     63.3187
   630.7500      0.0000    688.3547      9.9201     63.8804
   631.0000      0.0000    687.0553      9.9742     63.6127
   631.2500      0.0000    688.4346     10.0682     62.3127
   631.5000      0.0000    689.8413     10.1820     60.4669
   631.7500      0.0000    688.7610     10.2789     58.7232
   632.0000      0.0000    688.5928     10.3185     57.4582
   632.2500      0.0000    692.9973     10.3034     56.6685
   632.5000      0.0000    698.4487     10.2641     56.0211
   632.7500      0.0000    698.0990     10.2076     55.2154
   633.0000      0.0000    691.2869     10.1365     54.4611
   633.2500      0.0000    683.6545     10.0852     54.4392
   633.5000      0.0000    679.0854     10.0749     55.7990
   633.7500      0.0000    676.5762     10.0697     58.6835
   634.0000      0.0000    673.3976     10.0268     62.3565
   634.2500      0.0000    668.5270      9.9572     65.1787
   634.5000      0.0000    664.2739      9.8917     65.3985
   634.7500      0.0000    664.1086      9.8228     62.2692
   635.0000      0.0000    668.1903      9.7225     56.5076
   635.2500      0.0000    673.8595      9.5982     49.9973
   635.5000      0.0000    679.9285      9.5116     45.0360
   635.7500      0.0000    685.9434      9.5281     43.1876
   636.0000      0.0000    688.9789      9.6386     44.3730
   636.2500      0.0000    686.8829      9.7724     47.1459
