~Version Information
VERS.                      2.0: CWLS Log ASCII Standard - VERSION 2.0
WRAP.                       NO: One line per depth step
~Well Information Block
STRT.FT               645.0000: 
STOP.FT              1320.0000: 
STEP.FT                 0.1000: 
NULL.                -999.2500: 
COMP.          Pioneer Natural Resources: COMPANY
WELL.          Rockfish 11-30 Tr: WELL
FLD.           Purgatoire River: FIELD
LOC.           1063' FNL & 1068' FWL: LOCATION
STAT.                 Colorado: State
CNTY.               Las Animas: COUNTY
CTRY. USA : Country
SECT. 30 : Section
TOWN. 32S : Township
RANG. 65W : Range
SRVC.                Patterson: SERVICE COMPANY
DATE.          Wed Nov 16 07:46:07 2005: LOG DATE
API.           05 071 08585 00: UNIQUE WELL ID
~Curve Information Block
DEPT.FT            0 000 00 00: Depth
DCAL.in                       : CDL Caliper
RHOB.g/cc                     : CDL Bulk Density
RHOC.g/cc                     : CDL Density Correction
DPOR.pu                       : CDL Density Porosity
GR.GAPI                       : Gamma Ray
NPOR.pu                       : Neutron Porosity
~Parameter Information Block
~A  Depth       DCAL        RHOB        RHOC        DPOR         GR         NPOR    
# ...
  1038.6000      7.9057      2.5250      0.0352      7.5733     63.0353     18.8330
  1038.7000      7.9057      2.5314      0.0741      7.1886     66.9787     18.6212
  1038.8000      7.9006      2.5417      0.1065      6.5631     73.6898     18.2881
  1038.9000      7.9006      2.5358      0.1009      6.9202     77.7494     18.2156
  1039.0000      7.8759      2.5129      0.0759      8.3091     77.9240     18.6900
  1039.1000      7.8759      2.4943     -0.0108      9.4371     74.5049     19.2368
  1039.2000      7.8759      2.5042      0.0256      8.8353     69.3432     19.0874
  1039.3000      7.8610      2.5384      0.0876      6.7660     65.9558     18.4532
  1039.4000      7.8610      2.5741      0.1404      4.6016     64.2527     17.8501
  1039.5000      7.8502      2.5972      0.1422      3.2015     62.0284     17.3449
  1039.6000      7.8502      2.6025      0.1425      2.8809     59.6942     16.9917
  1039.7000      7.8502      2.5927      0.1237      3.4745     59.0925     16.7358
  1039.8000      7.8547      2.5819      0.0609      4.1268     60.0229     16.6446
  1039.9000      7.8547      2.5805      0.0916      4.2119     61.2930     16.9750
  1040.0000      7.8643      2.5867      0.0624      3.8376     63.7071     17.6173
  1040.1000      7.8643      2.5980      0.0383      3.1517     68.4932     18.2749
  1040.2000      7.8643      2.6092      0.0798      2.4717     73.7610     18.8164
  1040.3000      7.8805      2.6112      0.0867      2.3528     76.2162     19.1265
  1040.4000      7.8805      2.6010      0.0724      2.9721     76.5570     19.0361
  1040.5000      7.9202      2.5811      0.0619      4.1751     76.0039     18.6425
  1040.6000      7.9202      2.5575      0.0243      5.6048     75.5815     18.5560
  1040.7000      7.9202      2.5380      0.0110      6.7864     77.7341     19.0963
  1040.8000      7.9258      2.5232      0.0122      7.6845     79.7876     19.6316
  1040.9000      7.9258      2.5096     -0.0015      8.5086     78.6868     19.2075
  1041.0000      7.9136      2.4961      0.0426      9.3300     78.0014     17.9838
  1041.1000      7.9136      2.4809     -0.0218     10.2494     80.7499     17.0567
  1041.2000      7.9136      2.4754     -0.0247     10.5832     84.3020     16.9397
  1041.3000      7.9046      2.4921      0.0323      9.5677     84.6909     17.2667
  1041.4000      7.9046      2.5185      0.0437      7.9684     82.8836     17.5532
  1041.5000      7.9057      2.5382      0.0352      6.7761     81.4813     17.8121
  1041.6000      7.9057      2.5440      0.0903      6.4239     79.4369     18.4827
  1041.7000      7.9057      2.5324      0.0261      7.1258     76.4924     19.6220
  1041.8000      7.9114      2.5188      0.0397      7.9486     76.4853     20.4892
  1041.9000      7.9114      2.5220      0.0345      7.7578     78.0320     20.3537
  1042.0000      7.9143      2.5455     -0.0001      6.3343     76.7284     19.5615
  1042.1000      7.9143      2.5726      0.0876      4.6935     75.1367     19.0493
  1042.2000      7.9143      2.5795      0.0668      4.2703     74.2656     19.2879
  1042.3000      7.9187      2.5682      0.0290      4.9582     69.9184     19.9728
  1042.4000      7.9187      2.5491      0.0508      6.1140     65.4776     20.5745
  1042.5000      7.9341      2.5266      0.0016      7.4815     66.6583     21.0230
  1042.6000      7.9341      2.5053      0.0528      8.7708     71.9241     21.4289
  1042.7000      7.9341      2.4902     -0.0176      9.6827     75.6231     21.5144
  1042.8000      7.9259      2.4924     -0.0150      9.5516     73.7362     21.0580
  1042.9000      7.9259      2.5084      0.0278      8.5828     67.6874     20.3142
  1043.0000      7.9327      2.5219      0.0306      7.7650     62.4099     19.7501
  1043.1000      7.9327      2.5300      0.0863      7.2698     61.9139     19.6961
  1043.2000      7.9327      2.5375      0.0405      6.8211     63.2376     19.8891
  1043.3000      7.9384      2.5419      0.1065      6.5489     60.6849     19.9100
  1043.4000      7.9384      2.5374      0.0752      6.8259     57.4329     19.7623
  1043.5000      7.8994      2.5299      0.0950      7.2810     59.2809     19.4381
  1043.6000      7.8994      2.5280      0.1267      7.3922     62.4979     18.7744
  1043.7000      7.8994      2.5316      0.1058      7.1752     60.2036     17.9575
  1043.8000      7.8585      2.5424      0.1333      6.5212     55.7699     17.3244
  1043.9000      7.8585      2.5621      0.1461      5.3243     58.4050     17.0278
  1044.0000      7.8364      2.5853      0.1958      3.9184     66.6949     17.1927
  1044.1000      7.8364      2.6038      0.1828      2.8017     71.2508     17.7460
  1044.2000      7.8364      2.6086      0.1862      2.5074     70.3521     18.1904
  1044.3000      7.8576      2.5936      0.1599      3.4171     69.3055     18.2585
  1044.4000      7.8576      2.5639      0.1426      5.2193     70.1753     18.3022
  1044.5000      7.8767      2.5347      0.0945      6.9906     70.8129     18.4991
  1044.6000      7.8767      2.5217      0.0742      7.7741     71.0281     18.7420
  1044.7000      7.8767      2.5268      0.0979      7.4696     71.2762     18.8617
  1044.8000      7.8839      2.5347      0.0781      6.9853     71.0166     18.6253
  1044.9000      7.8839      2.5384      0.0997      6.7652     70.1346     18.2033
  1045.0000      7.8753      2.5491      0.0895      6.1122     68.3138     18.0251
  1045.1000      7.8753      2.5705      0.1123      4.8202     65.9157     18.1802
  1045.2000      7.8753      2.5769      0.1606      4.4333     63.1902     18.6245
  1045.3000      7.8871      2.5522      0.1263      5.9251     60.3614     19.0300
  1045.4000      7.8871      2.5229      0.0509      7.7037     58.4443     18.9276
  1045.5000      7.8851      2.5139      0.1023      8.2493     58.6442     18.5800
  1045.6000      7.8851      2.5166      0.0746      8.0871     60.5701     18.4980
  1045.7000      7.8851      2.5196      0.0663      7.9049     61.9791     18.6128
  1045.8000      7.8841      2.5173      0.0487      8.0406     62.4789     18.5435
  1045.9000      7.8841      2.5041      0.0558      8.8428     63.9316     18.0740
  1046.0000      7.9048      2.4861      0.0327      9.9324     67.1768     17.5647
  1046.1000      7.9048      2.4725      0.0638     10.7597     68.7105     17.5985
  1046.2000      7.9048      2.4657      0.0411     11.1718     65.7411     17.9731
  1046.3000      7.8855      2.4753     -0.0010     10.5849     61.6063     18.3510
  1046.4000      7.8855      2.5034      0.0408      8.8862     58.9873     18.6901
  1046.5000      7.8879      2.5232      0.0833      7.6823     58.8111     18.5833
  1046.6000      7.8879      2.5191      0.0555      7.9325     63.0678     18.0874
  1046.7000      7.8879      2.5087      0.0386      8.5634     70.7014     18.1500
  1046.8000      7.8844      2.4979      0.0776      9.2169     79.7989     18.8028
  1046.9000      7.8844      2.4654      0.0813     11.1867     90.5765     18.8919
  1047.0000      7.8863      2.4109     -0.0046     14.4927     98.9661     18.1878
  1047.1000      7.8863      2.3574      0.0055     17.7316    101.1678     17.6164
  1047.2000      7.8863      2.3068     -0.0053     20.7976    101.5366     17.6391
  1047.3000      7.8842      2.2433      0.0184     24.6504    107.7631     18.1548
  1047.4000      7.8842      2.1678     -0.0277     29.2242    123.8112     18.7723
  1047.5000      7.8848      2.1121     -0.0513     32.5991    146.5900     19.2770
  1047.6000      7.8848      2.1041      0.0263     33.0852    165.2635     19.9478
  1047.7000      7.8848      2.1403      0.0470     30.8935    171.4189     20.6795
  1047.8000      7.8942      2.2122      0.1065     26.5334    168.4522     21.2817
  1047.9000      7.8942      2.3080      0.1932     20.7274    163.5015     22.1855
  1048.0000      7.8947      2.3985      0.2940     15.2407    158.4017     23.5560
  1048.1000      7.8947      2.4620      0.2492     11.3928    155.2635     24.7161
