~Version Information
 VERS.                                  2.0 : CWLS LAS VERSION
 WRAP.                                   NO : WRAPING MODE
 SWARE .                 MController 2.5.0J : SOFTWARE VERSION
~Well Information
 WELL.                        Baa Baa 34-01 : WELL
 COMP.  Pioneer Natural Resources USA, Inc. : COMPANY
 FLD.                      Purgatoire River : FIELD
 LOC.                SW/SE Sec 01 T33S R67W : LOCATION
 DATE.                          09/06-07/05 : DATE(S) LOGGED
 SRVC.       BLANCO Geological Services LLC : SERVICE COMPANY
 STAT.                                   CO : STATE
 CNTY.                           Las Animas : COUNTY
 CTRY.                                  USA : COUNTRY
 API.                       05-071-08502-00 : API NUMBER
 STRT.FT                            1856.00 : START DEPTH
 STOP.FT                            2300.00 : STOP DEPTH
 STEP.FT                               1.00 : DEPTH INCREMENT
 NULL.                                -9999 : NULL VALUE
~Curve information
 DEPTH.FT                                   :
 ROP.MIN/FT                                 :
 GAS.UNITS                                  :
~ASCII Log data
      1856.0     -9999.00         62.6 
      1857.0         1.63         26.1 
      1858.0         0.82         27.8 
      1859.0         1.07         33.9 
      1860.0         0.47         37.1 
      1861.0         0.82         37.7 
      1862.0         0.58         36.0 
      1863.0         0.93         26.4 
      1864.0         0.23         24.2 
      1865.0         0.82         20.7 
      1866.0         0.47         21.3 
      1867.0         0.47         25.7 
      1868.0         0.35         22.9 
      1869.0         0.58         18.8 
      1870.0         0.82         19.1 
      1871.0         0.72         20.6 
      1872.0         0.58         20.2 
      1873.0         0.58         21.5 
      1874.0         0.58         23.0 
      1875.0         0.47         28.2 
      1876.0         0.58         27.4 
      1877.0         0.47         27.2 
      1878.0         0.58         24.0 
      1879.0         0.23         22.9 
      1880.0         0.58         24.3 
      1881.0         0.82         24.6 
      1882.0         0.58         26.6 
      1883.0         0.47         23.9 
      1884.0         0.47         19.5 
      1885.0         0.58         19.9 
      1886.0         0.23         19.4 
      1887.0         0.58         21.0 
      1888.0         0.47         25.6 
      1889.0         0.23         26.0 
      1890.0         0.70         19.7 
      1891.0         0.58         22.7 
      1892.0         0.23         24.9 
      1893.0         0.70         21.3 
      1894.0         0.48         20.6 
      1895.0         0.82         22.0 
      1896.0         0.35         22.4 
      1897.0         0.47         22.3 
      1898.0         0.23         21.5 
      1899.0         0.82         21.8 
      1900.0         0.58         21.5 
      1901.0         0.58         20.7 
      1902.0         0.70         22.8 
      1903.0         0.58         22.9 
      1904.0         0.82         20.8 
      1905.0         0.82         20.0 
      1906.0         0.82         23.1 
      1907.0         0.58         21.2 
      1908.0         0.23         22.8 
      1909.0         0.93         25.5 
      1910.0         0.70         23.5 
      1911.0         0.93         20.5 
      1912.0         0.60         18.5 
      1913.0         0.47         20.5 
      1914.0         0.82         24.0 
      1915.0         0.58         24.1 
      1916.0         0.82         21.7 
      1917.0         0.47         21.5 
      1918.0         0.35         21.7 
      1919.0         0.82         25.1 
      1920.0         0.47         24.9 
      1921.0         0.58         24.5 
      1922.0         0.58         22.3 
      1923.0         0.35         23.5 
      1924.0         0.47         24.5 
      1925.0         0.35         22.2 
      1926.0         0.82         22.0 
      1927.0         0.47         21.5 
      1928.0         0.47         21.3 
      1929.0         0.70         24.9 
      1930.0         0.23         26.0 
      1931.0         0.35         22.4 
      1932.0         0.58         22.3 
      1933.0         0.23         22.7 
      1934.0         0.58         23.6 
      1935.0         0.60         26.0 
      1936.0         0.70         24.1 
      1937.0         0.58         34.1 
      1938.0         0.58         38.0 
      1939.0         0.82         36.9 
      1940.0         0.82         36.7 
      1941.0         0.47         36.6 
      1942.0         0.88         36.7 
      1943.0         0.68         36.6 
      1944.0         0.53         36.0 
      1945.0         0.53         34.3 
      1946.0         0.30         45.3 
      1947.0         0.27        144.1 
      1948.0         0.67        202.0 
      1949.0         0.27        181.2 
      1950.0         0.30        155.0 
      1951.0         0.82         64.0 
      1952.0         0.50         71.8 
      1953.0         0.53         84.4 
      1954.0         0.27         74.5 
      1955.0         0.37         64.3 
      1956.0         0.83         71.4 
      1957.0         0.27        105.2 
      1958.0         0.28        128.2 
      1959.0         0.53         56.9 
      1960.0         0.27         53.4 
      1961.0         0.27         55.0 
      1962.0         0.27         56.7 
      1963.0         0.70         68.2 
      1964.0         0.27         66.2 
      1965.0         0.67         53.3 
      1966.0         0.55         62.8 
      1967.0         0.53        100.9 
      1968.0         0.80         50.7 
      1969.0         0.53         54.8 
      1970.0         0.70         62.6 
      1971.0         0.55         57.8 
      1972.0         0.53         55.6 
      1973.0         1.00         64.3 
      1974.0         0.27        114.4 
      1975.0         1.07         62.5 
      1976.0         0.55         83.1 
      1977.0         0.83         42.8 
      1978.0         0.53         47.2 
      1979.0         0.40         52.5 
      1980.0         0.53        125.9 
      1981.0         1.08         42.8 
      1982.0         0.77         52.3 
      1983.0         0.70         60.1 
      1984.0         0.80         56.8 
      1985.0         0.27         54.4 
      1986.0         0.65        107.4 
      1987.0         0.37         95.7 
      1988.0         0.27         61.5 
      1989.0         0.80         27.5 
      1990.0         0.63         43.0 
      1991.0         0.70         47.6 
      1992.0         0.82         50.6 
      1993.0         0.67         55.2 
      1994.0         0.80         56.3 
      1995.0         0.27         56.1 
      1996.0         0.53         55.0 
      1997.0         0.82         51.4 
      1998.0         0.27         50.0 
      1999.0         0.53         54.7 
      2000.0         0.80         50.0 
      2001.0         0.30         45.9 
      2002.0         0.83         51.2 
      2003.0         0.82         52.7 
      2004.0         0.27         56.1 
      2005.0         0.80         49.9 
      2006.0         0.53         51.5 
      2007.0         0.27         52.1 
      2008.0         0.80         52.4 
      2009.0         0.55         52.1 
      2010.0         0.53         51.5 
      2011.0         0.53         53.9 
      2012.0         0.27         53.6 
      2013.0         0.27         52.0 
      2014.0         0.27         52.5 
      2015.0         0.53         53.5 
      2016.0         0.53         52.6 
      2017.0         0.55         55.9 
      2018.0         0.27         55.3 
      2019.0         0.20         56.6 
      2020.0         0.83         82.9 
      2021.0         0.67         91.2 
      2022.0         0.53         88.0 
      2023.0         0.68         78.1 
      2024.0         0.53         74.2 
      2025.0         0.70         74.9 
      2026.0         0.53         74.8 
      2027.0         0.80         68.3 
      2028.0         0.40         63.4 
      2029.0         0.82         63.6 
      2030.0         0.40         73.1 
      2031.0         0.53         80.1 
      2032.0         0.53         75.2 
      2033.0         0.53         77.3 
      2034.0         0.53         79.7 
      2035.0         0.55         71.4 
      2036.0         0.80         70.3 
      2037.0         0.27         71.2 
      2038.0         0.53         67.8 
      2039.0         0.53         70.7 
      2040.0         0.53         68.0 
      2041.0         0.55         68.4 
      2042.0         0.53         69.6 
      2043.0         0.27         69.4 
      2044.0         0.67         65.7 
      2045.0         0.80         63.7 
      2046.0         0.27         65.4 
      2047.0         0.53         66.6 
      2048.0         0.28         66.7 
      2049.0         0.27         67.3 
      2050.0         0.67         72.6 
      2051.0         0.53         72.3 
      2052.0         0.70         60.3 
      2053.0         0.57         56.6 
      2054.0         0.82         60.8 
      2055.0         0.53         61.4 
