~Version Information
 VERS.                                  2.0 : CWLS LAS VERSION
 WRAP.                                   NO : WRAPING MODE
 SWARE .                 MController 2.5.0N : SOFTWARE VERSION
~Well Information
 WELL.                    Hellzonfire 32-31 : WELL
 COMP.    Pioneer Natural Resources USA Inc : COMPANY
 FLD.                      Purgatoire River : FIELD
 LOC.                 SW/NE SEC31 T32S R66W : LOCATION
 DATE.                             09/01/05 : DATE(S) LOGGED
 SRVC.       Blanco Geological Services LLC : SERVICE COMPANY
 STAT.                             Colorado : STATE
 CNTY.                           Las Animas : COUNTY
 CTRY.                                  USA : COUNTRY
 API.                       05-071-08483-00 : API NUMBER
 STRT.FT                             356.00 : START DEPTH
 STOP.FT                            2480.00 : STOP DEPTH
 STEP.FT                               1.00 : DEPTH INCREMENT
 NULL.                                -9999 : NULL VALUE
~Curve information
 DEPTH.FT                                   :
 ROP.MIN/FT                                 :
 GAS.UNITS                                  :
~ASCII Log data
# ...
      1356.0         0.40        860.6 
      1357.0         0.33        800.7 
      1358.0         0.33        796.2 
      1359.0         0.25        761.7 
      1360.0         0.33        744.9 
      1361.0         0.30        724.0 
      1362.0         0.33        713.3 
      1363.0         0.27        701.1 
      1364.0         0.27        693.7 
      1365.0         0.30        689.8 
      1366.0         0.30        675.3 
      1367.0         0.23        673.7 
      1368.0         0.23        670.1 
      1369.0         0.33        670.8 
      1370.0         0.30        723.6 
      1371.0         0.35        704.0 
      1372.0         0.30        680.1 
      1373.0         0.27        668.2 
      1374.0         0.27        638.6 
      1375.0         0.30        590.2 
      1376.0         2.25       1214.5 
      1377.0         0.57       1239.9 
      1378.0         0.43       1191.9 
      1379.0         0.37       1088.8 
      1380.0         0.43        949.2 
      1381.0         0.43        847.7 
      1382.0         0.40        834.2 
      1383.0         0.42        821.0 
      1384.0         0.33        799.4 
      1385.0         0.37        739.4 
      1386.0         0.33        732.3 
      1387.0         0.33        709.1 
      1388.0         0.33        691.4 
      1389.0         0.37        666.9 
      1390.0         0.33        658.5 
      1391.0         0.33        651.5 
      1392.0         0.33        648.2 
      1393.0         0.32        646.0 
      1394.0         0.33        642.8 
      1395.0         0.33        641.5 
      1396.0         0.33        641.1 
      1397.0         0.30        638.2 
      1398.0         0.30        638.6 
      1399.0         0.33        656.9 
      1400.0         0.30        661.1 
      1401.0         0.33        649.8 
      1402.0         0.30        639.5 
      1403.0         0.30        634.7 
      1404.0         0.35        613.4 
      1405.0         0.90        569.3 
      1406.0         1.43       1136.5 
      1407.0         0.33       1201.2 
      1408.0         0.27       1207.7 
      1409.0         0.25       1209.9 
      1410.0         0.17       1198.0 
      1411.0         0.30       1093.9 
      1412.0         0.37       1080.1 
      1413.0         0.37        869.6 
      1414.0         0.27        820.3 
      1415.0         0.27        817.1 
      1416.0         0.33        814.8 
      1417.0         0.33        804.9 
      1418.0         0.37        780.7 
      1419.0         0.30        720.7 
      1420.0         0.28        704.9 
      1421.0         0.23        700.1 
      1422.0         0.27        678.2 
      1423.0         0.30        656.3 
      1424.0         0.30        643.4 
      1425.0         0.30        634.4 
      1426.0         0.30        625.0 
      1427.0         0.33        621.8 
      1428.0         0.30        619.2 
      1429.0         0.37        627.0 
      1430.0         0.27        636.0 
      1431.0         0.17        636.0 
      1432.0         0.28        626.6 
      1433.0         0.37        607.6 
      1434.0         0.30        590.2 
      1435.0         0.37        576.7 
      1436.0         1.57       1046.6 
      1437.0         0.72       1191.6 
      1438.0         0.53       1194.8 
      1439.0         0.57       1076.2 
      1440.0         0.33        924.1 
      1441.0         0.37        823.5 
      1442.0         0.43        786.2 
      1443.0         0.47        752.0 
      1444.0         0.47        722.4 
      1445.0         0.42        698.8 
      1446.0         0.37        674.7 
      1447.0         0.30        646.0 
      1448.0         0.40        634.7 
      1449.0         0.33        621.8 
      1450.0         0.30        614.1 
      1451.0         0.37        606.0 
      1452.0         0.30        598.3 
      1453.0         0.30        594.7 
      1454.0         0.30        589.3 
      1455.0         0.35        586.0 
      1456.0         0.33        581.8 
      1457.0         0.30        578.3 
      1458.0         0.33        574.8 
      1459.0         0.30        596.7 
      1460.0         0.33        605.4 
      1461.0         0.33        589.3 
      1462.0         0.30        578.9 
      1463.0         0.33        574.1 
      1464.0         0.33        537.4 
      1465.0         0.18        496.4 
      1466.0         1.47        974.4 
      1467.0         0.43       1139.4 
      1468.0         0.47       1166.8 
      1469.0         0.30       1154.8 
      1470.0         0.27       1048.5 
      1471.0         0.35        955.3 
      1472.0         0.33        910.2 
      1473.0         0.43        771.0 
      1474.0         0.50        739.4 
      1475.0         0.40        731.1 
      1476.0         0.37        713.0 
      1477.0         0.40        675.0 
      1478.0         0.37        647.9 
      1479.0         0.43        626.6 
      1480.0         0.38        602.8 
      1481.0         0.37        591.5 
      1482.0         0.33        586.4 
      1483.0         0.33        583.1 
      1484.0         0.30        575.4 
      1485.0         0.33        563.2 
      1486.0         0.33        557.7 
      1487.0         0.33        547.4 
      1488.0         0.37        548.3 
      1489.0         0.30        545.1 
      1490.0         0.35        550.3 
      1491.0         0.43        562.2 
      1492.0         0.47        572.5 
      1493.0         0.47        578.9 
      1494.0         0.43        559.3 
      1495.0         0.50        536.4 
      1496.0         1.85        987.6 
      1497.0         0.23       1064.0 
      1498.0         0.30       1117.8 
      1499.0         0.60       1169.7 
      1500.0         0.57       1081.7 
      1501.0         0.23        883.8 
      1502.0         0.20        789.7 
      1503.0         0.32        738.5 
      1504.0         0.27        730.7 
      1505.0         0.33        718.8 
      1506.0         0.33        710.1 
      1507.0         0.33        676.9 
      1508.0         0.40        662.7 
      1509.0         0.30        609.6 
      1510.0         0.37        589.3 
      1511.0         0.27        581.8 
      1512.0         0.33        577.0 
      1513.0         0.42        573.8 
      1514.0         0.37        568.3 
      1515.0         0.30        559.9 
      1516.0         0.23        545.8 
      1517.0         0.20        543.5 
      1518.0         0.23        538.3 
      1519.0         0.17        527.4 
      1520.0         0.17        526.1 
      1521.0         0.13        530.6 
      1522.0         0.30        551.6 
      1523.0         0.33        561.5 
      1524.0         0.30        560.3 
      1525.0         0.45        549.0 
      1526.0         2.97       1324.7 
      1527.0         0.35       1373.3 
      1528.0         1.10       1382.0 
      1529.0         0.53        794.9 
      1530.0         0.53        769.1 
      1531.0         0.53        723.3 
      1532.0         0.57        711.1 
      1533.0         0.55        670.1 
      1534.0         0.23        635.0 
      1535.0         0.33        597.0 
      1536.0         0.23        593.8 
      1537.0         0.20        576.4 
      1538.0         0.33        556.1 
      1539.0         0.30        546.1 
      1540.0         0.37        538.7 
      1541.0         0.43        509.3 
      1542.0         0.27        494.8 
      1543.0         0.25        500.6 
      1544.0         0.33        499.7 
      1545.0         0.40        505.5 
      1546.0         0.33        506.1 
      1547.0         0.40        507.4 
      1548.0         0.43        493.9 
      1549.0         0.33        470.3 
      1550.0         0.40        483.6 
      1551.0         0.27        498.1 
      1552.0         0.20        500.0 
      1553.0         0.32        501.3 
      1554.0         0.30        496.4 
      1555.0         0.30        458.4 
