~Version Information
VERS.                      2.0: CWLS Log ASCII Standard - VERSION 2.0
WRAP.                       NO: One line per depth step
~Well Information Block
STRT.FT               673.2000: 
STOP.FT              1510.5000: 
STEP.FT                 0.1000: 
NULL.                -999.2500: 
COMP.          Pioneer Natural Resources: COMPANY
WELL.          Hammerhead 24-24 Tr: WELL
FLD.           Purgatoire River: FIELD
LOC.           953' FSL & 1922' FWL: LOCATION
PROV.                 Colorado: PROVINCE
CNTY.               Las Animas: COUNTRY
SRVC.                Patterson: SERVICE COMPANY
DATE.          Mon Jan 30 07:27:57 2006: LOG DATE
UWI.           05 071 08669 00: UNIQUE WELL ID
~Curve Information Block
DEPT.FT            0 000 00 00: Depth
DCAL.in                       : CDL Caliper
RHOB.g/cc                     : CDL Bulk Density
RHOC.g/cc                     : CDL Density Correction
DPOR.pu                       : CDL Density Porosity
GR.GAPI                       : Gamma Ray
~Parameter Information Block
~A  Depth       DCAL        RHOB        RHOC        DPOR         GR     
# ...
  1390.0000      7.9218      2.4987     -0.0077      9.1680    155.9372
  1390.1000      7.9218      2.5233      0.0579      7.6793    152.3909
  1390.2000      7.9218      2.5496      0.0672      6.0873    151.8384
  1390.3000      7.9216      2.5777      0.0941      4.3803    149.1950
  1390.4000      7.9216      2.6092      0.1258      2.4716    141.7590
  1390.5000      7.9217      2.6371      0.1006      0.7838    133.0806
  1390.6000      7.9217      2.6579      0.1217     -0.4810    129.2844
  1390.7000      7.9217      2.6659      0.1434     -0.9639    128.6882
  1390.8000      7.9210      2.6569      0.1187     -0.4161    128.3077
  1390.9000      7.9210      2.6408      0.0878      0.5556    128.4383
  1391.0000      7.9210      2.6210      0.0778      1.7587    128.2785
  1391.1000      7.9210      2.5910      0.0478      3.5728    129.3921
  1391.2000      7.9210      2.5603     -0.0135      5.4377    134.4771
  1391.3000      7.9216      2.5429      0.0851      6.4908    141.1114
  1391.4000      7.9216      2.5429      0.0200      6.4894    144.9043
  1391.5000      7.9223      2.5581      0.0790      5.5670    145.6070
  1391.6000      7.9223      2.5826      0.0418      4.0824    145.6708
  1391.7000      7.9223      2.6142      0.0638      2.1680    145.9246
  1391.8000      7.9225      2.6405      0.0955      0.5762    143.4400
  1391.9000      7.9225      2.6467      0.0853      0.2001    137.9996
  1392.0000      7.9228      2.6462      0.0955      0.2328    133.3529
  1392.1000      7.9228      2.6537      0.1053     -0.2240    127.7822
  1392.2000      7.9228      2.6587      0.1017     -0.5285    118.9677
  1392.3000      7.9232      2.6506      0.0529     -0.0394    111.1350
  1392.4000      7.9232      2.6359      0.0106      0.8546    110.7521
  1392.5000      7.9230      2.6210      0.0302      1.7574    116.0932
  1392.6000      7.9230      2.6069      0.0055      2.6136    118.9728
  1392.7000      7.9230      2.5982      0.0329      3.1409    120.5234
  1392.8000      7.9224      2.5948      0.0109      3.3452    125.2496
  1392.9000      7.9224      2.5855      0.0378      3.9117    130.8893
  1393.0000      7.9217      2.5660      0.0084      5.0889    135.1978
  1393.1000      7.9217      2.5526      0.0019      5.9024    140.0538
  1393.2000      7.9217      2.5576      0.0606      5.5983    145.1400
  1393.3000      7.9216      2.5705      0.0747      4.8201    148.9166
  1393.4000      7.9216      2.5765      0.0529      4.4574    153.8542
  1393.5000      7.9222      2.5759      0.0658      4.4901    161.1740
  1393.6000      7.9222      2.5751      0.0651      4.5399    165.6382
  1393.7000      7.9222      2.5754      0.0341      4.5216    163.9919
  1393.8000      7.9218      2.5746      0.0741      4.5693    158.6056
  1393.9000      7.9218      2.5691      0.0572      4.9060    154.1984
  1394.0000      7.9210      2.5641      0.0235      5.2052    157.0848
  1394.1000      7.9210      2.5667      0.0492      5.0496    164.6425
  1394.2000      7.9210      2.5698      0.0883      4.8595    164.9856
  1394.3000      7.9214      2.5680      0.0662      4.9676    155.5664
  1394.4000      7.9214      2.5685      0.0276      4.9376    149.0436
  1394.5000      7.9218      2.5779     -0.0059      4.3724    151.8661
  1394.6000      7.9218      2.5857      0.0936      3.8940    156.6452
  1394.7000      7.9218      2.5759      0.0814      4.4919    160.2655
  1394.8000      7.9219      2.5546      0.0367      5.7810    164.7708
  1394.9000      7.9219      2.5347      0.0413      6.9898    167.0703
  1395.0000      7.9219      2.5029      0.0696      8.9162    163.9822
  1395.1000      7.9219      2.4446      0.0351     12.4464    158.6616
  1395.2000      7.9219      2.3804     -0.0397     16.3378    156.6936
  1395.3000      7.9218      2.3352      0.0026     19.0806    156.1442
  1395.4000      7.9218      2.3105     -0.0366     20.5753    149.2603
  1395.5000      7.9219      2.3094     -0.0333     20.6441    138.0567
  1395.6000      7.9219      2.3320      0.0141     19.2700    133.4109
  1395.7000      7.9219      2.3657      0.0370     17.2327    139.5647
  1395.8000      7.9219      2.3991      0.0821     15.2054    148.8218
  1395.9000      7.9219      2.4349      0.0916     13.0345    154.8629
  1396.0000      7.9214      2.4828      0.1129     10.1345    159.3303
  1396.1000      7.9214      2.5375      0.1846      6.8155    161.4064
  1396.2000      7.9214      2.5745      0.1797      4.5744    156.9146
  1396.3000      7.9213      2.5790      0.0905      4.3023    149.0599
  1396.4000      7.9213      2.5615      0.0592      5.3649    146.1261
  1396.5000      7.9218      2.5387      0.0461      6.7441    150.9115
  1396.6000      7.9218      2.5241      0.0032      7.6290    159.7590
  1396.7000      7.9218      2.5242      0.0026      7.6246    168.6071
  1396.8000      7.9220      2.5300      0.0406      7.2737    173.2200
  1396.9000      7.9220      2.5254      0.0625      7.5500    170.7918
  1397.0000      7.9214      2.5112      0.0259      8.4099    164.7536
  1397.1000      7.9214      2.4990      0.0493      9.1519    159.1784
  1397.2000      7.9214      2.4886      0.0121      9.7834    155.2800
  1397.3000      7.9210      2.4821      0.0049     10.1745    151.6676
  1397.4000      7.9210      2.4898      0.0336      9.7083    145.2990
  1397.5000      7.9212      2.5112      0.0073      8.4146    143.1472
  1397.6000      7.9212      2.5340      0.0668      7.0323    150.8658
  1397.7000      7.9212      2.5542      0.0618      5.8072    159.1251
  1397.8000      7.9215      2.5753      0.0866      4.5300    160.4858
  1397.9000      7.9215      2.5838      0.1263      4.0096    157.8968
  1398.0000      7.9219      2.5613      0.1181      5.3754    157.7716
  1398.1000      7.9219      2.5138      0.0869      8.2567    162.9474
  1398.2000      7.9219      2.4720      0.0425     10.7854    167.2617
  1398.3000      7.9219      2.4702      0.0486     10.8969    164.8985
  1398.4000      7.9219      2.5167      0.0990      8.0764    157.5766
  1398.5000      7.9215      2.5903      0.0927      3.6196    148.0785
  1398.6000      7.9215      2.6695      0.1378     -1.1834    139.5319
  1398.7000      7.9215      2.7473      0.1853     -5.8952    133.1212
  1398.8000      7.9216      2.8186      0.2312    -10.2182    125.9975
  1398.9000      7.9216      2.8691      0.2598    -13.2764    116.0516
  1399.0000      7.9223      2.8861      0.2575    -14.3080    106.7570
  1399.1000      7.9223      2.8803      0.1618    -13.9584    101.3861
  1399.2000      7.9223      2.8670      0.1641    -13.1521     98.3398
  1399.3000      7.9224      2.8431      0.1354    -11.7060     92.8970
  1399.4000      7.9224      2.8133      0.0516     -9.8982     85.2250
  1399.5000      7.9221      2.7909      0.0592     -8.5411     77.8124
  1399.6000      7.9221      2.7684      0.0697     -7.1738     71.2449
  1399.7000      7.9221      2.7407      0.0053     -5.4971     68.4527
  1399.8000      7.9219      2.7218     -0.0138     -4.3542     69.3529
  1399.9000      7.9219      2.7095      0.0143     -3.6043     69.2503
  1400.0000      7.9212      2.6919     -0.0086     -2.5399     69.4433
  1400.1000      7.9212      2.6775     -0.0091     -1.6695     73.5982
  1400.2000      7.9212      2.6714      0.0305     -1.2998     81.3071
  1400.3000      7.9207      2.6618      0.0235     -0.7171     91.6953
  1400.4000      7.9207      2.6422     -0.0024      0.4735    102.5071
  1400.5000      7.9214      2.6141     -0.0242      2.1755    111.8379
  1400.6000      7.9214      2.5868     -0.0193      3.8303    120.4961
  1400.7000      7.9214      2.5736     -0.0102      4.6297    126.8679
  1400.8000      7.9211      2.5725      0.0316      4.6990    130.9845
  1400.9000      7.9211      2.5686      0.0326      4.9348    136.1073
  1401.0000      7.9188      2.5598      0.0192      5.4667    142.4563
  1401.1000      7.9188      2.5589      0.0558      5.5184    150.8962
