~Version Information
VERS.                      2.0: CWLS Log ASCII Standard - VERSION 2.0
WRAP.                       NO: One line per depth step
~Well Information Block
STRT.FT                -7.0000: 
STOP.FT              2328.5000: 
STEP.FT                 0.2500: 
NULL.                -999.2500: 
COMP.          Pioneer Natural Resources: COMPANY
WELL.              Rolls 14-14: WELL
FLD.           Purgatorie River: FIELD
LOC.           572' FSL & 856' FWL--: LOCATION
PROV.                       CO: PROVINCE
CNTY.               Las Animas: COUNTRY
SRVC.          Patterson Wireline: SERVICE COMPANY
DATE.          Mon Aug 08 10:10:54 2005: LOG DATE
UWI.           05 071 08455 00: UNIQUE WELL ID
~Curve Information Block
DEPT.FT            0 000 00 00: Depth
CCL.                          : Casing Collar Locator
TT3.usec                      : CBL 3' Travel Time
AMP3.mV                       : CBL 3' Amplitude
GR.GAPI                       : Gamma Ray
~Parameter Information Block
~A  Depth       CCL         TT3         AMP3         GR     
# ...
  1701.5000      0.0000    426.3171      5.2864    124.1318
  1701.7500      0.0000    454.2627      5.2524    124.7304
  1702.0000      0.0000    474.6340      5.2045    123.4745
  1702.2500      0.0000    478.4856      5.1535    119.8212
  1702.5000      0.0000    468.2269      5.1232    113.6494
  1702.7500      0.0000    457.0648      5.1324    105.8632
  1703.0000      0.0000    460.3336      5.1790     97.9125
  1703.2500      0.0000    486.9876      5.2432     90.6373
  1703.5000      0.0000    535.1418      5.3004     83.7282
  1703.7500      0.0000    592.5171      5.3304     76.4901
  1704.0000      0.0000    643.1808      5.3255     68.9737
  1704.2500      0.0000    677.0556      5.2997     62.1116
  1704.5000      0.0000    693.9250      5.2831     56.9239
  1704.7500      0.0000    699.5546      5.3018     53.9677
  1705.0000      0.0000    700.1403      5.3578     53.4143
  1705.2500      0.0000    700.0087      5.4278     55.0394
  1705.5000      0.0000    701.4849      5.4830     57.9659
  1705.7500      0.0000    704.8416      5.5091     60.8954
  1706.0000      0.0000    708.7469      5.5048     62.8647
  1706.2500      0.0000    711.6580      5.4697     63.6813
  1706.5000      0.0000    712.9156      5.4072     63.7314
  1706.7500      0.0000    712.4703      5.3339     63.6481
  1707.0000      0.0000    709.7369      5.2707     64.1153
  1707.2500      0.0000    702.8240      5.2221     65.5373
  1707.5000      0.0000    689.5786      5.1769     67.6352
  1707.7500      0.0000    670.9194      5.1311     69.6985
  1708.0000      0.0000    653.4498      5.0982     71.6488
  1708.2500      0.0000    646.3342      5.0918     74.6469
  1708.5000      0.0000    653.4741      5.1046     80.0091
  1708.7500      0.0000    669.9279      5.1124     87.3876
  1709.0000      0.0000    686.9322      5.0952     94.7663
  1709.2500      0.0000    698.3568      5.0515    100.7088
  1709.5000      0.0000    701.5270      4.9955    105.7324
  1709.7500      0.0000    694.8310      4.9462    110.5565
  1710.0000      0.0000    677.4886      4.9175    113.9300
  1710.2500      0.0000    651.7420      4.9118    113.6212
  1710.5000      0.0000    623.6761      4.9171    109.3008
  1710.7500      0.0000    599.9820      4.9083    103.3822
  1711.0000      0.0000    582.7723      4.8639     98.9777
  1711.2500      0.0000    567.9892      4.7866     97.5375
  1711.5000      0.0000    551.0023      4.7028     98.4965
  1711.7500      0.0000    534.7903      4.6399    100.9117
  1712.0000      0.0000    530.0300      4.6101    105.1940
  1712.2500      0.0000    543.2092      4.6122    112.8410
  1712.5000      0.0000    565.0926      4.6383    124.0602
  1712.7500      0.0000    575.4160      4.6781    135.9471
  1713.0000      0.0000    561.4183      4.7235    144.0560
  1713.2500      0.0000    530.7609      4.7727    146.3312
  1713.5000      0.0000    505.6982      4.8237    144.8533
  1713.7500      0.0000    505.3603      4.8659    143.1563
  1714.0000      0.0000    532.0941      4.8868    142.5021
  1714.2500      0.0000    570.3882      4.8880    141.5265
  1714.5000      0.0000    596.6827      4.8897    138.8370
  1714.7500      0.0000    593.6575      4.9125    134.5947
  1715.0000      0.0000    561.3368      4.9567    129.5740
  1715.2500      0.0000    518.2997      5.0008    124.0573
  1715.5000      0.0000    490.9414      5.0176    118.1756
  1715.7500      0.0000    496.5748      4.9896    112.4487
  1716.0000      0.0000    532.1015      4.9191    107.5437
  1716.2500      0.0000    577.0790      4.8276    103.9413
  1716.5000      0.0000    609.4236      4.7415    101.9004
  1716.7500      0.0000    621.1447      4.6807    101.3886
  1717.0000      0.0000    621.4776      4.6597    102.0465
  1717.2500      0.0000    626.6998      4.6872    103.2727
  1717.5000      0.0000    646.6729      4.7541    104.3016
  1717.7500      0.0000    678.6614      4.8312    104.8420
  1718.0000      0.0000    711.2167      4.8899    106.1208
  1718.2500      0.0000    732.8945      4.9192    110.4097
  1718.5000      0.0000    738.8741      4.9175    118.6122
  1718.7500      0.0000    731.8837      4.8759    128.9059
  1719.0000      0.0000    718.2670      4.7809    138.6052
  1719.2500      0.0000    703.5142      4.6281    146.7482
  1719.5000      0.0000    690.6027      4.4234    153.8060
  1719.7500      0.0000    680.6391      4.1818    159.3959
  1720.0000      0.0000    673.7999      3.9326    161.8684
  1720.2500      0.0000    669.8995      3.7155    160.4994
  1720.5000      0.0000    668.4844      3.5606    156.9469
  1720.7500      0.0000    668.3516      3.4786    153.7673
  1721.0000      0.0000    667.7235      3.4640    151.9928
  1721.2500      0.0000    666.0178      3.4968    150.8583
  1721.5000     -1.5222    665.1221      3.5437    149.4798
  1721.7500     -2.0000    667.7228      3.5727    147.9238
  1722.0000     -2.0000    674.3032      3.5704    146.7837
  1722.2500      0.0000    682.4138      3.5449    146.5863
  1722.5000      0.0000    688.6436      3.5215    147.7543
  1722.7500      0.0000    691.0659      3.5320    150.3405
  1723.0000      0.0000    690.3149      3.5957    153.3925
  1723.2500      0.0000    688.6405      3.7038    155.2700
  1723.5000      0.0000    687.8657      3.8282    155.2591
  1723.7500      0.0000    688.4048      3.9461    154.4786
  1724.0000      0.0000    689.9382      4.0487    154.5823
  1724.2500      0.0000    692.1541      4.1341    155.7546
  1724.5000      0.0000    694.7392      4.2029    156.5195
  1724.7500      0.0000    697.7901      4.2585    155.3880
  1725.0000      0.0000    702.4109      4.3008    152.1837
  1725.2500      0.0000    709.5239      4.3216    147.8403
  1725.5000      0.0000    717.6245      4.3142    143.2965
  1725.7500      0.0000    723.2743      4.2900    138.5792
  1726.0000      0.0000    724.7872      4.2764    132.8774
  1726.2500      0.0000    724.2104      4.2953    125.6312
  1726.5000      0.0000    724.8099      4.3423    117.3830
  1726.7500      0.0000    727.7188      4.3876    109.3747
  1727.0000      0.0000    731.6002      4.3988    102.5800
  1727.2500      0.0000    734.1851      4.3650     97.2795
  1727.5000      0.0000    733.5096      4.3019     93.3136
  1727.7500      0.0000    728.8708      4.2341     90.4769
  1728.0000      0.0000    721.3640      4.1740     88.5221
  1728.2500      0.0000    713.1700      4.1159     86.9252
  1728.5000      0.0000    706.2880      4.0462     85.0899
  1728.7500      0.0000    701.9731      3.9584     83.0569
  1729.0000      0.0000    700.7098      3.8611     81.8449
  1729.2500      0.0000    702.1821      3.7759     82.7449
  1729.5000      0.0000    705.4061      3.7257     86.0709
  1729.7500      0.0000    709.2851      3.7213     90.6730
  1730.0000      0.0000    713.1926      3.7552     94.9483
  1730.2500      0.0000    716.8866      3.8065     98.2426
  1730.5000      0.0000    719.8659      3.8575    100.7423
  1730.7500      0.0000    721.2341      3.9060    102.1543
  1731.0000      0.0000    720.5062      3.9623    101.5139
  1731.2500      0.0000    718.1861      4.0323     98.6194
  1731.5000      0.0000    715.1805      4.1026     94.6048
  1731.7500      0.0000    711.9146      4.1423     90.5916
  1732.0000      0.0000    708.3984      4.1293     86.6516
  1732.2500      0.0000    704.9077      4.0762     82.6701
  1732.5000      0.0000    702.1379      4.0273     79.6523
  1732.7500      0.0000    700.7644      4.0280     79.8176
  1733.0000      0.0000    701.3361      4.0934     85.4433
  1733.2500      0.0000    704.5961      4.1985     97.1754
  1733.5000      0.0000    711.0633      4.2968    112.8301
  1733.7500      0.0000    719.6448      4.3484    127.8993
  1734.0000      0.0000    726.8743      4.3340    137.9135
  1734.2500      0.0000    728.4304      4.2526    140.9535
  1734.5000      0.0000    722.3031      4.1216    138.5013
  1734.7500      0.0000    710.6107      3.9741    134.4990
