~Version Information
VERS.                      2.0: CWLS Log ASCII Standard - VERSION 2.0
WRAP.                       NO: One line per depth step
~Well Information Block
STRT.FT               580.0000: 
STOP.FT              1179.0000: 
STEP.FT                 0.1000: 
NULL.                -999.2500: 
COMP.          Pioneer Natural Resources: COMPANY
WELL.          Tin Barn 14-20 TR: WELL
FLD.           Purgatorie River: FIELD
LOC.           925 FSL & 1151 FWL: LOCATION
PROV.                 Colorado: PROVINCE
CNTY.               Las Animas: COUNTRY
SRVC.                Patterson: SERVICE COMPANY
DATE.          Thu Jan 12 12:02:37 2006: LOG DATE
UWI.                          : UNIQUE WELL ID
~Curve Information Block
DEPT.FT            0 000 00 00: Depth
DCAL.in                       : CDL Caliper
RHOB.g/cc                     : CDL Bulk Density
RHOC.g/cc                     : CDL Density Correction
DPOR.pu                       : CDL Density Porosity
GR.GAPI                       : Gamma Ray
~Parameter Information Block
~A  Depth       DCAL        RHOB        RHOC        DPOR         GR     
# ...
   848.8000      7.9362      2.5227      0.0556      7.7154    114.0063
   848.9000      7.9362      2.5450      0.0440      6.3608    111.8037
   849.0000      7.9438      2.5514      0.0584      5.9732    110.1906
   849.1000      7.9438      2.5511      0.0006      5.9921    107.7565
   849.2000      7.9438      2.5552      0.0286      5.7480    105.1257
   849.3000      7.9467      2.5626      0.0296      5.2976    103.5533
   849.4000      7.9467      2.5651      0.0648      5.1436    104.1160
   849.5000      7.9376      2.5614      0.0211      5.3707    107.4834
   849.6000      7.9376      2.5583      0.0325      5.5601    111.0451
   849.7000      7.9376      2.5529      0.0221      5.8874    112.2518
   849.8000      7.9365      2.5369      0.0199      6.8570    112.6812
   849.9000      7.9365      2.5143     -0.0121      8.2237    114.2631
   850.0000      7.9449      2.4930      0.0294      9.5160    117.0052
   850.1000      7.9449      2.4757     -0.0339     10.5655    120.6622
   850.2000      7.9449      2.4673     -0.0411     11.0746    123.9240
   850.3000      7.9479      2.4689      0.0059     10.9732    124.5489
   850.4000      7.9479      2.4759      0.0217     10.5514    123.3465
   850.5000      7.9475      2.4831      0.0350     10.1135    123.5524
   850.6000      7.9475      2.4856      0.0335      9.9640    126.6074
   850.7000      7.9475      2.4896      0.0099      9.7193    130.2398
   850.8000      7.9522      2.5058      0.0309      8.7372    131.6469
   850.9000      7.9522      2.5232      0.0739      7.6873    131.9321
   851.0000      7.9685      2.5246      0.0706      7.6022    132.0845
   851.1000      7.9685      2.5134      0.0367      8.2817    131.5413
   851.2000      7.9685      2.5039      0.0091      8.8567    130.1579
   851.3000      7.9386      2.5059      0.0418      8.7350    128.5979
   851.4000      7.9386      2.5161      0.0660      8.1143    127.9300
   851.5000      7.9440      2.5257      0.0668      7.5325    127.7681
   851.6000      7.9440      2.5327      0.0868      7.1067    127.8020
   851.7000      7.9440      2.5386      0.0412      6.7508    128.3791
   851.8000      7.9434      2.5369      0.0797      6.8560    127.0828
   851.9000      7.9434      2.5181      0.0305      7.9919    121.6332
   852.0000      7.9430      2.4939      0.0419      9.4624    115.8063
   852.1000      7.9430      2.4846      0.0660     10.0273    114.4231
   852.2000      7.9430      2.4875      0.0899      9.8497    118.5779
   852.3000      7.9416      2.4859      0.0768      9.9457    125.0638
   852.4000      7.9416      2.4762      0.0687     10.5346    126.8092
   852.5000      7.9398      2.4670      0.0131     11.0932    122.8444
   852.6000      7.9398      2.4680      0.0215     11.0332    119.8587
   852.7000      7.9398      2.4826      0.0576     10.1453    122.3515
   852.8000      7.9427      2.5027      0.0760      8.9285    127.8566
   852.9000      7.9427      2.5200      0.0487      7.8793    130.2295
   853.0000      7.9421      2.5324      0.1268      7.1276    126.9125
   853.1000      7.9421      2.5392      0.0846      6.7152    121.1988
   853.2000      7.9421      2.5450      0.0988      6.3625    117.3440
   853.3000      7.9354      2.5483      0.1208      6.1607    115.8700
   853.4000      7.9354      2.5432      0.0821      6.4753    115.6227
   853.5000      7.9380      2.5315      0.0360      7.1826    116.1993
   853.6000      7.9380      2.5194      0.0401      7.9170    115.8329
   853.7000      7.9380      2.5108      0.0211      8.4358    113.1672
   853.8000      7.9354      2.5082      0.0065      8.5928    110.4737
   853.9000      7.9354      2.5143     -0.0013      8.2255    110.0332
   854.0000      7.9438      2.5216      0.0573      7.7830    110.3503
   854.1000      7.9438      2.5142      0.0391      8.2320    109.7624
   854.2000      7.9438      2.4984     -0.0614      9.1856    109.6897
   854.3000      7.9555      2.4912      0.0033      9.6228    110.8445
   854.4000      7.9555      2.4927     -0.0117      9.5361    112.0187
   854.5000      7.9466      2.5012      0.0530      9.0152    113.1505
   854.6000      7.9466      2.5201      0.0367      7.8755    114.5785
   854.7000      7.9466      2.5487     -0.0043      6.1422    116.8727
   854.8000      7.9553      2.5743      0.0637      4.5851    120.9340
   854.9000      7.9553      2.5840      0.0422      3.9971    123.3713
   855.0000      7.9338      2.5884      0.0245      3.7347    121.0893
   855.1000      7.9338      2.6007      0.0601      2.9877    117.3124
   855.2000      7.9338      2.6095      0.0995      2.4529    117.4016
   855.3000      7.9294      2.6060      0.0341      2.6691    121.1843
   855.4000      7.9294      2.6046     -0.0090      2.7496    122.6753
   855.5000      7.9500      2.6180      0.0484      1.9375    119.4949
   855.6000      7.9500      2.6374      0.0692      0.7630    115.3905
   855.7000      7.9500      2.6463      0.0918      0.2257    114.1132
   855.8000      7.9556      2.6409      0.0667      0.5516    114.9371
   855.9000      7.9556      2.6283      0.0556      1.3141    114.6068
   856.0000      7.9440      2.6110      0.0439      2.3665    111.7203
   856.1000      7.9440      2.5918      0.0250      3.5293    107.3631
   856.2000      7.9440      2.5817     -0.0288      4.1389    104.7577
   856.3000      7.9298      2.5802      0.0269      4.2314    106.2368
   856.4000      7.9298      2.5714      0.0176      4.7623    109.6635
   856.5000      7.9336      2.5535     -0.0036      5.8490    112.1211
   856.6000      7.9336      2.5334      0.0498      7.0692    114.6575
   856.7000      7.9336      2.5135      0.0018      8.2754    118.9297
   856.8000      7.9366      2.5009     -0.0125      9.0350    122.3685
   856.9000      7.9366      2.5028     -0.0072      8.9211    122.2389
   857.0000      7.9298      2.5199      0.0065      7.8855    120.8557
   857.1000      7.9298      2.5449      0.0194      6.3722    121.3218
   857.2000      7.9298      2.5649      0.0614      5.1556    122.8919
   857.3000      7.9230      2.5781      0.0212      4.3551    122.7761
   857.4000      7.9230      2.5870      0.0543      3.8199    120.4184
   857.5000      7.9328      2.5804      0.0624      4.2161    118.8234
   857.6000      7.9328      2.5602      0.0178      5.4453    120.2101
   857.7000      7.9328      2.5485      0.0179      6.1491    120.7824
   857.8000      7.9430      2.5560      0.0094      5.6950    116.9656
   857.9000      7.9430      2.5783     -0.0279      4.3460    110.8448
   858.0000      7.9260      2.6038      0.0260      2.8013    105.4671
   858.1000      7.9260      2.6189      0.0328      1.8837    102.7424
   858.2000      7.9260      2.6319     -0.0288      1.0994    101.9838
   858.3000      7.9228      2.6635      0.0230     -0.8184    101.0145
   858.4000      7.9228      2.7074      0.1214     -3.4760     99.4408
   858.5000      7.9051      2.7424      0.1053     -5.6025     96.9043
   858.6000      7.9051      2.7629      0.0938     -6.8395     93.1387
   858.7000      7.9051      2.7686      0.0660     -7.1893     89.4191
   858.8000      7.8621      2.7674      0.0274     -7.1136     86.7806
   858.9000      7.8621      2.7723      0.0422     -7.4093     84.3404
   859.0000      7.8486      2.7814      0.0420     -7.9613     82.9533
   859.1000      7.8486      2.7887      0.0276     -8.4058     85.3077
   859.2000      7.8486      2.7907      0.0406     -8.5260     89.2548
   859.3000      7.8474      2.7853      0.0082     -8.1988     90.6270
   859.4000      7.8474      2.7800      0.0536     -7.8806     90.2146
   859.5000      7.8937      2.7716      0.0418     -7.3699     90.2413
   859.6000      7.8937      2.7469      0.0599     -5.8751     89.6194
   859.7000      7.8937      2.7142     -0.0009     -3.8894     85.9405
   859.8000      7.9166      2.6974      0.0175     -2.8742     80.8708
   859.9000      7.9166      2.6905      0.1026     -2.4552     79.4404
