~Version Information
VERS.                      2.0: CWLS Log ASCII Standard - VERSION 2.0
WRAP.                       NO: One line per depth step
~Well Information Block
STRT.FT                -6.5000: 
STOP.FT              1564.2500: 
STEP.FT                 0.2500: 
NULL.                -999.2500: 
COMP.          Pioneer Natural Resources: COMPANY
WELL.            Bluesky 44-17: WELL
FLD.           Purgatorie River: FIELD
LOC.           --39' FSL & 288' FEL------: LOCATION
STAT.                       CO: State
CNTY.               Las Animas: COUNTY
CTRY. USA : Country
SECT. 17 : Section
TOWN. 33S : Township
RANG. 66W : Range
SRVC.          Patterson Wireline: SERVICE COMPANY
DATE.          Tue Sep 13 13:24:14 2005: LOG DATE
API.           05 071 08511 00: UNIQUE WELL ID
~Curve Information Block
DEPT.FT            0 000 00 00: Depth
CCL.                          : Casing Collar Locator
TT3.usec                      : CBL 3' Travel Time
AMP3.mV                       : CBL 3' Amplitude
GR.GAPI                       : Gamma Ray
~Parameter Information Block
~A  Depth       CCL         TT3         AMP3         GR     
# ...
  1333.5000      0.0000    696.6456      8.5397     49.7581
  1333.7500      0.0000    699.9089      8.7112     48.2803
  1334.0000      0.0000    701.4309      8.9205     49.7114
  1334.2500      0.0000    700.9055      9.1460     53.2787
  1334.5000      0.0000    699.4532      9.3499     57.7981
  1334.7500      0.0000    698.2416      9.5022     61.9355
  1335.0000      0.0000    697.6793      9.5971     64.4438
  1335.2500      0.0000    697.6791      9.6508     64.7791
  1335.5000      0.0000    698.1268      9.6857     63.5277
  1335.7500      0.0000    699.1002      9.7164     61.9413
  1336.0000      0.0000    700.8566      9.7440     60.8095
  1336.2500      0.0000    703.3875      9.7606     59.8052
  1336.5000      0.0000    705.6764      9.7573     58.1149
  1336.7500      0.0000    705.2172      9.7269     55.5836
  1337.0000      0.0000    697.5782      9.6625     52.9273
  1337.2500      0.0000    676.3630      9.5594     51.0034
  1337.5000      0.0000    635.8397      9.4191     50.3147
  1337.7500      0.0000    576.8106      9.2511     51.1224
  1338.0000      0.0000    510.1950      9.0685     53.3724
  1338.2500      0.0000    452.2606      8.8818     56.3257
  1338.5000      0.0000    415.1291      8.6964     58.7955
  1338.7500      0.0000    402.8980      8.5132     60.1913
  1339.0000      0.0000    415.6703      8.3313     61.0025
  1339.2500      0.0000    452.9391      8.1512     61.8261
  1339.5000      0.0000    510.4391      7.9783     62.2374
  1339.7500      0.0000    576.1657      7.8234     61.1540
  1340.0000      0.0000    634.0461      7.6987     58.2223
  1340.2500      0.0000    673.0972      7.6087     54.4504
  1340.5000      0.0000    692.0758      7.5433     51.5787
  1340.7500      0.0000    696.0353      7.4804     51.0449
  1341.0000      0.0000    690.5523      7.4002     53.2458
  1341.2500      0.0000    678.8427      7.2988     57.4257
  1341.5000      0.0000    662.1080      7.1895     62.3063
  1341.7500      0.0000    641.8999      7.0927     66.8425
  1342.0000      0.0000    622.2764      7.0233     70.3091
  1342.2500      0.0000    607.5602      6.9859     72.1475
  1342.5000      0.0000    596.0388      6.9774     72.3291
  1342.7500      0.0000    578.6138      6.9920     71.6527
  1343.0000      0.0000    547.8512      7.0213     71.0941
  1343.2500      0.0000    508.0618      7.0524     71.0156
  1343.5000      0.0000    474.2564      7.0691     71.2075
  1343.7500      0.0000    461.9239      7.0603     71.2277
  1344.0000      0.0000    478.3112      7.0270     70.3276
  1344.2500      0.0000    519.8256      6.9834     67.4737
  1344.5000      0.0000    574.1649      6.9466     62.1581
  1344.7500      0.0000    626.2036      6.9248     55.3750
  1345.0000      0.0000    665.2790      6.9143     49.3489
  1345.2500      0.0000    688.6187      6.9085     45.9794
  1345.5000      0.0000    699.1785      6.9058     45.6687
  1345.7500      0.0000    701.5859      6.9078     47.6742
  1346.0000      0.0000    699.7748      6.9118     51.1750
  1346.2500      0.0000    696.2197      6.9090     55.6874
  1346.5000      0.0000    691.7094      6.8887     60.6302
  1346.7500      0.0000    685.9355      6.8433     64.8669
  1347.0000      0.0000    678.8967      6.7686     66.9563
  1347.2500      0.0000    671.7031      6.6591     66.1440
  1347.5000      0.0000    666.0735      6.5044     63.1660
  1347.7500      0.0000    663.3682      6.2959     59.9191
  1348.0000      0.0000    663.9520      6.0478     58.2859
  1348.2500      0.0000    667.1936      5.8101     59.0264
  1348.5000      0.0000    672.4890      5.6553     61.1990
  1348.7500      0.0000    680.4515      5.6412     62.5707
  1349.0000      0.0000    692.4760      5.7818     61.3001
  1349.2500      0.0000    708.8230      6.0449     57.5864
  1349.5000      0.0000    727.5121      6.3734     53.4137
  1349.7500      0.0000    745.0087      6.7112     50.6887
  1350.0000      0.0000    757.7719      7.0178     49.9234
  1350.2500      0.0000    763.8339      7.2655     50.5297
  1350.5000      0.0000    763.8343      7.4336     51.7562
  1350.7500      0.0000    760.4606      7.5149     53.1432
  1351.0000      0.0000    756.4188      7.5304     54.5557
  1351.2500      0.0000    753.1316      7.5306     56.2485
  1351.5000      0.0000    751.3058      7.5742     58.7388
  1351.7500      0.0000    751.7740      7.7012     62.2297
  1352.0000      0.0000    754.9734      7.9205     66.3436
  1352.2500      0.0000    759.7090      8.2118     70.8113
  1352.5000      0.0000    762.9842      8.5375     76.0688
  1352.7500      0.0000    761.7061      8.8591     82.5256
  1353.0000      0.0000    755.0490      9.1497     89.5337
  1353.2500      0.0000    745.3469      9.3951     95.8054
  1353.5000      0.0000    736.8130      9.5874    100.6165
  1353.7500      0.0000    733.1221      9.7195    103.9492
  1354.0000      0.0000    735.3038      9.7830    105.9224
  1354.2500      0.0000    740.9147      9.7722    106.8442
  1354.5000      0.0000    745.1828      9.6890    107.3864
  1354.7500      0.0000    743.9276      9.5406    107.9977
  1355.0000      0.0000    736.3806      9.3330    108.3964
  1355.2500      0.0000    725.5180      9.0744    107.9987
  1355.5000      0.0000    715.5685      8.7907    106.5604
  1355.7500      0.0000    708.9391      8.5217    104.1599
  1356.0000      0.0000    704.8103      8.2953    100.8507
  1356.2500      0.0000    700.3967      8.1100     96.7067
  1356.5000      0.0000    694.2738      7.9468     92.1900
  1356.7500      0.0000    688.8619      7.7915     88.2264
  1357.0000      0.0000    689.2517      7.6405     85.6710
  1357.2500      0.0000    699.3698      7.4939     84.5750
  1357.5000      0.0000    718.7785      7.3500     84.0438
  1357.7500      0.0000    742.3237      7.2099     82.9784
  1358.0000      0.0000    762.9371      7.0855     81.0937
  1358.2500      0.0000    775.4862      6.9982     79.1706
  1358.5000      0.0000    778.7639      6.9660     78.1876
  1358.7500      0.0000    775.1565      6.9900     78.2997
  1359.0000      0.0000    769.4240      7.0552     78.8417
  1359.2500      0.0000    766.5389      7.1417     79.1793
  1359.5000      0.0000    768.3246      7.2318     79.2971
  1359.7500      0.0000    771.5234      7.3119     79.4423
  1360.0000      0.0000    769.7700      7.3682     79.2895
  1360.2500      0.0000    758.1331      7.3836     77.8186
  1360.5000      0.0000    737.0463      7.3356     74.3967
  1360.7500      0.0000    713.2595      7.2056     69.8958
  1361.0000      0.0000    696.3205      6.9938     66.1992
  1361.2500      0.0000    692.1020      6.7234     64.5191
  1361.5000      0.0000    698.9113      6.4294     64.6679
  1361.7500      0.0000    710.2560      6.1475     65.9919
  1362.0000      0.0000    721.2556      5.9083     68.2565
  1362.2500      0.0000    731.4258      5.7283     71.1110
  1362.5000      0.0000    741.5433      5.6107     73.3031
  1362.7500      0.0000    750.2301      5.5561     73.4055
  1363.0000      0.0000    755.2449      5.5530     71.3516
  1363.2500     -2.0000    756.5520      5.5645     68.6386
  1363.5000      0.0000    756.2250      5.5471     67.0020
  1363.7500      0.0000    755.9883      5.4903     67.3257
  1364.0000      0.0000    756.1177      5.4396     69.6559
  1364.2500      0.0000    756.3141      5.4827     73.4159
  1364.5000      0.0000    756.5160      5.6869     77.4160
  1364.7500      0.0000    756.5121      6.0244     80.4651
  1365.0000      0.0000    755.0942      6.3736     82.4394
  1365.2500      0.0000    750.7165      6.6283     84.3602
  1365.5000      0.0000    743.2698      6.7873     87.1258
  1365.7500      0.0000    733.9984      6.9153     90.4046
  1366.0000      0.0000    723.5580      7.0491     92.9212
  1366.2500      0.0000    711.6414      7.1750     93.8390
  1366.5000      0.0000    698.9133      7.2682     93.7672
  1366.7500      0.0000    687.9324      7.3204     94.1616
