~Version Information
VERS.                      2.0: CWLS Log ASCII Standard - VERSION 2.0
WRAP.                       NO: One line per depth step
~Well Information Block
STRT.FT                10.0000: 
STOP.FT              1380.7500: 
STEP.FT                 0.2500: 
NULL.                -999.2500: 
COMP.          Pioneer Natural Resources: COMPANY
WELL.          Baa Baa 34-1 Tr: WELL
FLD.           Purgatoire River: FIELD
LOC.           785' FSL & 2304' FEL: LOCATION
CNTY.               Las Animas: COUNTY
SRVC.                Patterson: SERVICE COMPANY
DATE.          Tue Mar 07 13:08:19 2006: LOG DATE
UWI.           05 071 08710 00: UNIQUE WELL ID
STAT.                 Colorado: STATE
~Curve Information Block
DEPT.FT            0 000 00 00: Depth
GR.GAPI                       : Gamma Ray
CCL.                          : Casing Collar Locator
TT3.usec                      : CBL 3' Travel Time
AMP3.mV                       : CBL 3' Amplitude
~Parameter Information Block
~A  Depth        GR         CCL         TT3         AMP3    
# ...
  1182.5000    114.2608      0.0000    775.6280      4.2360
  1182.7500    120.5357      0.0000    783.4570      3.8053
  1183.0000    125.1169      0.0000    790.6550      3.5978
  1183.2500    127.2281     -3.0000    795.6314      3.5228
  1183.5000    126.6831     -3.0000    797.6796      3.5394
  1183.7500    123.7854      0.0000    797.8948      3.6709
  1184.0000    119.1584      0.0000    797.7705      3.9827
  1184.2500    113.8493      0.0000    796.7859      4.5365
  1184.5000    109.3346      0.0000    792.7229      5.3309
  1184.7500    106.8547      0.0000    784.6890      6.2740
  1185.0000    106.4774      0.0000    774.7425      7.2111
  1185.2500    107.1084      0.0000    766.2139      7.9834
  1185.5000    107.6464      0.0000    761.2231      8.4950
  1185.7500    107.9086      0.0000    759.9105      8.7508
  1186.0000    108.3634      0.0000    761.0878      8.8290
  1186.2500    109.3186      0.0000    762.9505      8.8130
  1186.5000    110.5652      0.0000    763.7361      8.7501
  1186.7500    111.6292      0.0000    762.6283      8.6575
  1187.0000    112.3743      0.0000    760.1946      8.5441
  1187.2500    113.5212      0.0000    757.6805      8.4206
  1187.5000    116.2734      0.0000    755.9230      8.3013
  1187.7500    121.0049      0.0000    755.0339      8.2008
  1188.0000    126.5432      0.0000    754.8153      8.1289
  1188.2500    131.0957      0.0000    755.1816      8.0928
  1188.5000    133.5946      0.0000    756.2630      8.1078
  1188.7500    133.8634      0.0000    758.2290      8.1980
  1189.0000    131.8539      0.0000    760.9186      8.3779
  1189.2500    127.2659      0.0000    763.5767      8.6360
  1189.5000    119.9923      0.0000    765.2689      8.9403
  1189.7500    110.7348      0.0000    765.7886      9.2602
  1190.0000    101.0493      0.0000    765.8182      9.5829
  1190.2500     92.8862      0.0000    765.9056      9.9147
  1190.5000     88.1134      0.0000    765.7768     10.2687
  1190.7500     88.0229      0.0000    765.1292     10.6497
  1191.0000     92.7187      0.0000    764.5869     11.0495
  1191.2500    100.8812      0.0000    765.1882     11.4533
  1191.5000    110.2177      0.0000    767.1765     11.8492
  1191.7500    118.1750      0.0000    769.8982     12.2334
  1192.0000    122.6062      0.0000    772.6818     12.6083
  1192.2500    122.5377      0.0000    775.0421     12.9719
  1192.5000    118.7460      0.0000    776.1127     13.3087
  1192.7500    113.4151      0.0000    774.9816     13.5935
  1193.0000    108.7980      0.0000    772.0924     13.8098
  1193.2500    105.9243      0.0000    769.5535     13.9678
  1193.5000    104.5400      0.0000    769.3663     14.1038
  1193.7500    104.2291      0.0000    771.3947     14.2608
  1194.0000    105.3483      0.0000    773.3570     14.4669
  1194.2500    108.7731      0.0000    772.9883     14.7283
  1194.5000    115.0874      0.0000    770.2321     15.0329
  1194.7500    124.3549      0.0000    767.1643     15.3590
  1195.0000    136.1763      0.0000    765.8076     15.6805
  1195.2500    149.1658      0.0000    766.3477     15.9758
  1195.5000    160.5365      0.0000    767.6440     16.2401
  1195.7500    167.1468      0.0000    769.1244     16.4881
  1196.0000    167.3636      0.0000    771.5046     16.7336
  1196.2500    161.8555      0.0000    775.3336     16.9586
  1196.5000    152.9293      0.0000    779.3722     17.1104
  1196.7500    143.5711      0.0000    781.2283     17.1343
  1197.0000    136.6643      0.0000    779.7847     17.0087
  1197.2500    134.0069      0.0000    776.5769     16.7473
  1197.5000    135.5706      0.0000    774.3641     16.3793
  1197.7500    139.8604      0.0000    774.3347     15.9327
  1198.0000    145.0177      0.0000    775.0340     15.4301
  1198.2500    149.6332      0.0000    774.1967     14.8953
  1198.5000    153.0232      0.0000    771.3669     14.3628
  1198.7500    155.0864      0.0000    768.3685     13.8747
  1199.0000    155.6494      0.0000    767.4208     13.4588
  1199.2500    153.9513      0.0000    769.2367     13.1108
  1199.5000    149.0737      0.0000    772.8086     12.8056
  1199.7500    140.7599      0.0000    776.4123     12.5272
  1200.0000    129.6356      0.0000    778.5450     12.2798
  1200.2500    116.9970      0.0000    778.3500     12.0722
  1200.5000    104.5834      0.0000    775.7515     11.9002
  1200.7500     94.1667      0.0000    771.3688     11.7462
  1201.0000     87.0423      0.0000    766.2585     11.5888
  1201.2500     83.9012      0.0000    761.5754     11.4095
  1201.5000     84.8918      0.0000    758.1422     11.2010
  1201.7500     89.3149      0.0000    756.1464     10.9735
  1202.0000     95.3649      0.0000    755.3096     10.7493
  1202.2500    100.8409      0.0000    755.3798     10.5503
  1202.5000    104.5278      0.0000    756.5280     10.3890
  1202.7500    106.8638      0.0000    759.3317     10.2667
  1203.0000    109.2560      0.0000    764.2473     10.1700
  1203.2500    112.7673      0.0000    770.7515     10.0729
  1203.5000    117.3330      0.0000    776.9712      9.9520
  1203.7500    122.0094      0.0000    780.5925      9.8097
  1204.0000    125.6438      0.0000    780.4197      9.6789
  1204.2500    127.1787      0.0000    776.9783      9.5980
  1204.5000    125.7945      0.0000    771.7506      9.5766
  1204.7500    121.5021      0.0000    766.2582      9.5885
  1205.0000    115.7743      0.0000    761.7946      9.5974
  1205.2500    111.0207      0.0000    759.4030      9.5881
  1205.5000    108.8979      0.0000    759.6988      9.5699
  1205.7500    109.1481      0.0000    762.5314      9.5544
  1206.0000    110.2177      0.0000    766.6020      9.5353
  1206.2500    110.8797      0.0000    769.6353      9.4957
  1206.5000    111.1412      0.0000    769.6986      9.4331
  1206.7500    111.7464      0.0000    766.7213      9.3736
  1207.0000    113.0602      0.0000    762.4473      9.3576
  1207.2500    114.5642      0.0000    758.8182      9.4128
  1207.5000    115.5096      0.0000    756.6587      9.5398
  1207.7500    115.9023      0.0000    755.7272      9.7183
  1208.0000    116.5276      0.0000    755.4548      9.9230
  1208.2500    117.9479      0.0000    755.4327     10.1308
  1208.5000    119.6950      0.0000    755.4832     10.3219
  1208.7500    120.4080      0.0000    755.5960     10.4827
  1209.0000    118.6232      0.0000    755.8995     10.6155
  1209.2500    113.7154      0.0000    756.6688     10.7382
  1209.5000    106.5242      0.0000    758.2503     10.8662
  1209.7500     98.9709      0.0000    760.7475     10.9937
  1210.0000     92.6971      0.0000    763.6876     11.0984
  1210.2500     88.0129      0.0000    766.1898     11.1640
  1210.5000     84.1305      0.0000    767.5908     11.1913
  1210.7500     80.2527      0.0000    767.7373     11.1874
  1211.0000     76.5907      0.0000    766.7803     11.1454
  1211.2500     74.5916      0.0000    765.2134     11.0371
  1211.5000     76.0457      0.0000    764.0053     10.8334
  1211.7500     81.7062      0.0000    763.9362     10.5389
  1212.0000     90.7290      0.0000    764.6194     10.2053
  1212.2500    101.3196      0.0000    764.7477      9.9048
  1212.5000    111.6778      0.0000    763.6151      9.6911
  1212.7500    120.5104      0.0000    762.1592      9.5791
  1213.0000    127.1991      0.0000    762.3198      9.5487
  1213.2500    131.7165      0.0000    765.4582      9.5600
  1213.5000    134.2529      0.0000    771.2076      9.5690
  1213.7500    134.9679      0.0000    777.5721      9.5402
  1214.0000    134.2866      0.0000    782.3773      9.4564
  1214.2500    133.2586      0.0000    785.0024      9.3232
  1214.5000    133.1659      0.0000    786.6018      9.1646
  1214.7500    134.5913      0.0000    788.5175      9.0092
  1215.0000    136.9682      0.0000    790.7861      8.8746
  1215.2500    139.0274      0.0000    792.2523      8.7617
  1215.5000    139.6866      0.0000    791.5906      8.6601
  1215.7500    138.6660      0.0000    788.0565      8.5607
