~Version Information
VERS.                      2.0: CWLS Log ASCII Standard - VERSION 2.0
WRAP.                       NO: One line per depth step
~Well Information Block
STRT.FT               660.0000: 
STOP.FT              2491.0000: 
STEP.FT                 0.2500: 
NULL.                -999.2500: 
COMP.          Petrogulf Corporation: COMPANY
WELL.          Montoya 18-11V-B: WELL
FLD.           Purgatorie River: FIELD
LOC.           848' FNL & 619' FWL: LOCATION
PROV.                 Colorado: PROVINCE
CNTY.               Las Animas: COUNTRY
SRVC.                Patterson: SERVICE COMPANY
DATE.          Wed Oct 05 04:34:17 2005: LOG DATE
UWI.                          : UNIQUE WELL ID
~Curve Information Block
DEPT.FT            0 000 00 00: Depth
SP.mV                         : DIL Spontaneous Potential
RILD.Ohm-m                    : DIL Deep Resistivity
RILM.Ohm-m                    : DIL Medium Resistivity
RLL3.Ohm-m                    : DIL Shallow Resistivity
GR.GAPI                       : Gamma Ray
~Parameter Information Block
~A  Depth        SP         RILD        RILM        RLL3         GR     
# ...
  1864.0000    171.1438     20.2976     23.6212     52.1542    107.1075
  1864.2500    171.8551     20.9242     24.6033     51.9056    100.0773
  1864.5000    172.4901     21.4554     25.2721     49.4004     92.9663
  1864.7500    173.0365     21.8427     25.5771     46.2432     91.2922
  1865.0000    173.5080     22.0409     25.5025     43.4145     92.3736
  1865.2500    173.9291     22.0175     25.0693     40.8740     94.2996
  1865.5000    174.3215     21.7672     24.3327     38.0244     97.7197
  1865.7500    174.6973     21.3206     23.3739     34.4866    100.2781
  1866.0000    175.0570     20.7401     22.2868     30.4707    104.5270
  1866.2500    175.3930     20.1021     21.1634     26.5476    107.3333
  1866.5000    175.6938     19.4763     20.0816     23.2180    111.1562
  1866.7500    175.9479     18.9128     19.0993     20.6963    113.7477
  1867.0000    176.1451     18.4391     18.2534     18.9457    118.4082
  1867.2500    176.2773     18.0651     17.5645     17.8012    121.9820
  1867.5000    176.3422     17.7912     17.0411     17.0927    127.3213
  1867.7500    176.3486     17.6148     16.6853     16.7338    130.5104
  1868.0000    176.3180     17.5328     16.4961     16.7311    134.1804
  1868.2500    176.2779     17.5426     16.4718     17.1146    135.3243
  1868.5000    176.2522     17.6411     16.6112     17.8704    134.2376
  1868.7500    176.2548     17.8258     16.9138     18.9418    131.8658
  1869.0000    176.2891     18.0956     17.3794     20.2803    127.5828
  1869.2500    176.3516     18.4518     18.0074     21.8877    125.2714
  1869.5000    176.4380     18.8987     18.7954     23.8248    123.0501
  1869.7500    176.5502     19.4433     19.7378     26.1714    122.0100
  1870.0000    176.7009     20.0914     20.8243     28.9199    120.5576
  1870.2500    176.9093     20.8409     22.0389     31.8470    119.6573
  1870.5000    177.1888     21.6763     23.3591     34.5291    118.3517
  1870.7500    177.5349     22.5676     24.7569     36.6220    117.2144
  1871.0000    177.9225     23.4766     26.1994     38.1941    114.4503
  1871.2500    178.3107     24.3677     27.6515     39.6986    111.6029
  1871.5000    178.6510     25.2151     29.0768     41.5057    105.3622
  1871.7500    178.8962     26.0033     30.4396     43.4718     99.6302
  1872.0000    179.0123     26.7215     31.7070     45.0233     88.5206
  1872.2500    178.9894     27.3600     32.8508     45.6466     79.7263
  1872.5000    178.8453     27.9116     33.8508     45.2701     65.9002
  1872.7500    178.6169     28.3707     34.6961     44.2406     57.5749
  1873.0000    178.3457     28.7268     35.3847     43.0314     48.4913
  1873.2500    178.0687     28.9575     35.9188     41.9751     45.1614
  1873.5000    177.8163     29.0315     36.2984     41.1719     43.3806
  1873.7500    177.6167     28.9231     36.5126     40.5629     43.2247
  1874.0000    177.4978     28.6257     36.5328     40.0830     42.8326
  1874.2500    177.4866     28.1539     36.3111     39.7933     42.1861
  1874.5000    177.6069     27.5363     35.7869     39.9020     41.4231
  1874.7500    177.8773     26.8094     34.9052     40.6394     41.5990
  1875.0000    178.3085     26.0162     33.6439     42.0278     42.8461
  1875.2500    178.8988     25.2044     32.0367     43.6520     43.8039
  1875.5000    179.6264     24.4201     30.1803     44.5865     44.8247
  1875.7500    180.4411     23.6985     28.2145     43.6760     45.5881
  1876.0000    181.2612     23.0608     26.2876     40.2094     48.6823
  1876.2500    181.9859     22.5152     24.5232     34.5723     53.2851
  1876.5000    182.5243     22.0597     23.0029     28.2057     65.2309
  1876.7500    182.8280     21.6811     21.7650     22.7479     76.3009
  1877.0000    182.9076     21.3512     20.8127     19.1053     95.2679
  1877.2500    182.8233     21.0262     20.1235     17.2495    107.4631
  1877.5000    182.6574     20.6564     19.6570     16.7112    122.0030
  1877.7500    182.4896     20.2039     19.3589     17.1460    128.2957
  1878.0000    182.3855     19.6598     19.1642     18.5287    132.6094
  1878.2500    182.3971     19.0490     19.0018     20.9701    132.5186
  1878.5000    182.5661     18.4178     18.8028     24.3151    128.8891
  1878.7500    182.9222     17.8132     18.5126     27.7615    124.6917
  1879.0000    183.4733     17.2662     18.1026     29.9221    116.8904
  1879.2500    184.1953     16.7881     17.5758     29.5927    111.8057
  1879.5000    185.0351     16.3756     16.9612     26.7084    107.2008
  1879.7500    185.9295     16.0179     16.3012     22.4790    107.7481
  1880.0000    186.8264     15.6994     15.6379     18.4788    114.6404
  1880.2500    187.6920     15.3997     15.0029     15.6302    121.7757
  1880.5000    188.5005     15.0944     14.4144     13.9741    131.4814
  1880.7500    189.2228     14.7606     13.8788     13.1134    134.6932
  1881.0000    189.8268     14.3848     13.3949     12.6805    133.0970
  1881.2500    190.2877     13.9691     12.9579     12.4868    128.9411
  1881.5000    190.5940     13.5302     12.5632     12.4488    122.3179
  1881.7500    190.7448     13.0933     12.2077     12.4956    120.0985
  1882.0000    190.7469     12.6832     11.8905     12.5499    122.0287
  1882.2500    190.6158     12.3185     11.6124     12.5613    126.1817
  1882.5000    190.3781     12.0095     11.3748     12.5271    133.5937
  1882.7500    190.0686     11.7606     11.1786     12.4747    137.5662
  1883.0000    189.7219     11.5722     11.0241     12.4315    140.7846
  1883.2500    189.3619     11.4410     10.9099     12.4131    141.2523
  1883.5000    188.9987     11.3594     10.8335     12.4277    140.1822
  1883.7500    188.6313     11.3159     10.7907     12.4816    138.8409
  1884.0000    188.2534     11.2979     10.7766     12.5786    137.2827
  1884.2500    187.8533     11.2955     10.7855     12.7186    137.3792
  1884.5000    187.4097     11.3039     10.8122     12.8948    139.5300
  1884.7500    186.8866     11.3230     10.8520     13.0879    141.6062
  1885.0000    186.2397     11.3555     10.9021     13.2650    144.1245
  1885.2500    185.4344     11.4043     10.9616     13.3906    145.1408
  1885.5000    184.4639     11.4725     11.0317     13.4417    146.6060
  1885.7500    183.3528     11.5629     11.1155     13.4210    148.2984
  1886.0000    182.1430     11.6793     11.2175     13.3620    152.3041
  1886.2500    180.8774     11.8246     11.3433     13.3170    155.3838
  1886.5000    179.5909     12.0007     11.4994     13.3328    158.7585
  1886.7500    178.3103     12.2071     11.6930     13.4323    159.2600
  1887.0000    177.0574     12.4424     11.9313     13.6226    157.1299
  1887.2500    175.8509     12.7060     12.2212     13.9205    154.3437
  1887.5000    174.7090     12.9991     12.5685     14.3667    149.3460
  1887.7500    173.6498     13.3254     12.9774     15.0084    145.9121
  1888.0000    172.6879     13.6900     13.4496     15.8652    140.7775
  1888.2500    171.8289     14.0975     13.9841     16.9165    137.3126
  1888.5000    171.0687     14.5505     14.5771     18.1251    131.9383
  1888.7500    170.3971     15.0496     15.2225     19.4686    128.1896
  1889.0000    169.8012     15.5936     15.9129     20.9428    122.7128
  1889.2500    169.2634     16.1801     16.6407     22.5311    119.8543
  1889.5000    168.7585     16.8037     17.3999     24.1636    117.7599
  1889.7500    168.2582     17.4552     18.1869     25.6852    117.3796
  1890.0000    167.7408     18.1213     19.0012     26.8724    115.8299
  1890.2500    167.1995     18.7878     19.8443     27.5709    112.9796
  1890.5000    166.6416     19.4431     20.7167     27.9346    106.7197
  1890.7500    166.0833     20.0787     21.6141     28.5300    102.9082
  1891.0000    165.5439     20.6859     22.5223     30.0342     99.7548
  1891.2500    165.0426     21.2527     23.4142     32.6345     98.8210
  1891.5000    164.5941     21.7647     24.2506     35.6787     95.9250
  1891.7500    164.2062     22.2107     24.9858     38.0100     91.2241
