~Version Information
VERS.                      2.0: CWLS Log ASCII Standard - VERSION 2.0
WRAP.                       NO: One line per depth step
~Well Information Block
STRT.FT               262.2500: 
STOP.FT              1942.0000: 
STEP.FT                 0.2500: 
NULL.                -999.2500: 
COMP.          XTO Energy Inc.: COMPANY
WELL.          Golden Eagle 19-11: WELL
FLD.           Purgatoire River: FIELD
LOC.           2351' FSL & 1926' FWL--: LOCATION
CNTY.               Las Animas: COUNTY
SRVC.                Patterson: SERVICE COMPANY
DATE.          Wed Mar 08 23:33:01 2006: LOG DATE
UWI.           05 071 08696 00: UNIQUE WELL ID
STAT.                 Colorado: STATE
~Curve Information Block
DEPT.FT            0 000 00 00: Depth
SP.mV                         : DIL Spontaneous Potential
RILD.Ohm-m                    : DIL Deep Resistivity
RILM.Ohm-m                    : DIL Medium Resistivity
RLL3.Ohm-m                    : DIL Shallow Resistivity
GR.GAPI                       : Gamma Ray
~Parameter Information Block
~A  Depth        SP         RILD        RILM        RLL3         GR     
# ...
  1802.2500     45.8940      9.1013      9.5666     15.3701     92.7613
  1802.5000     45.8449      8.9729      9.1532     15.1147     98.1940
  1802.7500     45.8855      8.9243      8.8064     13.7261    102.4338
  1803.0000     45.9970      8.9415      8.5813     11.7302    107.5669
  1803.2500     46.1569      9.0045      8.5165     10.1602    108.9795
  1803.5000     46.3391      9.0881      8.6274     10.0075    106.9104
  1803.7500     46.5211      9.1662      8.9032     11.6901    102.9323
  1804.0000     46.6905      9.2184      9.3027     14.8964     94.7273
  1804.2500     46.8368      9.2384      9.7532     18.7599     89.1048
  1804.5000     46.9399      9.2384     10.1634     22.2030     82.8595
  1804.7500     46.9730      9.2461     10.4552     24.3361     81.2558
  1805.0000     46.9230      9.2932     10.5988     24.7322     82.8586
  1805.2500     46.8083      9.4033     10.6221     23.4408     85.5132
  1805.5000     46.6754      9.5828     10.5889     20.8569     89.3732
  1805.7500     46.5765      9.8192     10.5660     17.6360     90.9723
  1806.0000     46.5470     10.0861     10.6005     14.6000     91.8563
  1806.2500     46.5924     10.3515     10.7127     12.4809     91.8832
  1806.5000     46.6886     10.5852     10.8981     11.6021     91.6174
  1806.7500     46.7963     10.7632     11.1329     11.7679     91.1173
  1807.0000     46.8886     10.8699     11.3833     12.4536     89.3937
  1807.2500     46.9728     10.9007     11.6172     13.1281     87.6635
  1807.5000     47.0839     10.8637     11.8155     13.4951     85.1842
  1807.7500     47.2525     10.7783     11.9752     13.5491     84.2537
  1808.0000     47.4747     10.6674     12.1038     13.4534     84.1217
  1808.2500     47.7080     10.5492     12.2090     13.3587     84.3757
  1808.5000     47.8959     10.4312     12.2913     13.3177     84.3605
  1808.7500     47.9980     10.3103     12.3398     13.3416     84.0205
  1809.0000     48.0095     10.1779     12.3338     13.4809     83.3993
  1809.2500     47.9596     10.0274     12.2470     13.7977     82.9667
  1809.5000     47.8906      9.8591     12.0551     14.2639     82.1514
  1809.7500     47.8251      9.6816     11.7469     14.7264     81.7056
  1810.0000     47.7475      9.5085     11.3330     14.9733     82.0579
  1810.2500     47.6164      9.3548     10.8476     14.8043     83.2470
  1810.5000     47.3983      9.2336     10.3409     14.0730     85.8746
  1810.7500     47.0960      9.1545      9.8661     12.7744     87.6316
  1811.0000     46.7521      9.1212      9.4692     11.1463     90.1017
  1811.2500     46.4283      9.1305      9.1830      9.6112     91.9658
  1811.5000     46.1734      9.1726      9.0272      8.5493     95.0050
  1811.7500     45.9963      9.2340      9.0095      8.1374     96.3431
  1812.0000     45.8610      9.3005      9.1273      8.3932     95.7092
  1812.2500     45.7061      9.3611      9.3671      9.2751     93.4938
  1812.5000     45.4742      9.4097      9.7036     10.6716     89.0360
  1812.7500     45.1337      9.4465     10.0997     12.3586     86.1713
  1813.0000     44.6893      9.4779     10.5101     14.0671     82.1364
  1813.2500     44.1862      9.5150     10.8885     15.6118     79.2075
  1813.5000     43.7039      9.5716     11.1960     16.9150     74.5184
  1813.7500     43.3282      9.6622     11.4051     17.9118     72.0676
  1814.0000     43.1039      9.7987     11.5025     18.4748     71.5430
  1814.2500     43.0056      9.9855     11.4921     18.4285     74.1140
  1814.5000     42.9539     10.2146     11.3998     17.6250     81.9914
  1814.7500     42.8689     10.4631     11.2720     16.0610     88.6976
  1815.0000     42.7213     10.6962     11.1654     14.0001     98.1638
  1815.2500     42.5485     10.8753     11.1318     11.9891    102.7936
  1815.5000     42.4282     10.9679     11.2034     10.6771    106.2085
  1815.7500     42.4287     10.9549     11.3821     10.5126    106.1853
  1816.0000     42.5658     10.8340     11.6341     11.5053    103.6464
  1816.2500     42.7802     10.6179     11.8931     13.2041    101.1889
  1816.5000     42.9512     10.3321     12.0779     14.9130     97.9449
  1816.7500     42.9518     10.0093     12.1213     16.0288     96.6056
  1817.0000     42.7222      9.6813     11.9953     16.2936     95.5898
  1817.2500     42.3091      9.3707     11.7146     15.8133     94.9864
  1817.5000     41.8352      9.0854     11.3205     14.8694     93.7748
  1817.7500     41.4213      8.8200     10.8591     13.7081     93.4094
  1818.0000     41.1213      8.5626     10.3667     12.4871     95.2752
  1818.2500     40.9153      8.3020      9.8651     11.3646     98.3981
  1818.5000     40.7551      8.0323      9.3642     10.5247    104.1497
  1818.7500     40.6187      7.7530      8.8685     10.0326    107.1926
  1819.0000     40.5245      7.4676      8.3825      9.7179    109.7945
  1819.2500     40.4988      7.1828      7.9138      9.3131    111.3750
  1819.5000     40.5352      6.9077      7.4721      8.7129    116.1702
  1819.7500     40.5883      6.6531      7.0674      8.0393    121.2019
  1820.0000     40.6055      6.4292      6.7086      7.4746    128.9685
  1820.2500     40.5610      6.2427      6.4031      7.0985    132.3904
  1820.5000     40.4607      6.0968      6.1557      6.8751    133.2793
  1820.7500     40.3153      5.9908      5.9686      6.7411    131.3210
  1821.0000     40.1189      5.9221      5.8406      6.6888    126.3826
  1821.2500     39.8606      5.8876      5.7679      6.7595    123.0311
  1821.5000     39.5587      5.8841      5.7459      6.9437    119.2032
  1821.7500     39.2703      5.9087      5.7714      7.1318    117.3530
  1822.0000     39.0574      5.9583      5.8430      7.2292    114.8002
  1822.2500     38.9406      6.0298      5.9610      7.2955    113.0401
  1822.5000     38.8866      6.1197      6.1257      7.4946    110.6408
  1822.7500     38.8386      6.2253      6.3357      7.9267    109.4583
  1823.0000     38.7581      6.3440      6.5851      8.5747    108.5283
  1823.2500     38.6456      6.4746      6.8622      9.3824    108.5255
  1823.5000     38.5297      6.6162      7.1503     10.2795    109.3998
  1823.7500     38.4419      6.7674      7.4318     11.1065    110.4207
  1824.0000     38.3964      6.9259      7.6953     11.6175    112.3013
  1824.2500     38.3884      7.0884      7.9392     11.6776    113.7815
  1824.5000     38.4066      7.2512      8.1689     11.4962    116.6362
  1824.7500     38.4443      7.4125      8.3889     11.6032    118.9769
  1825.0000     38.4957      7.5731      8.5947     12.4529    122.4683
  1825.2500     38.5396      7.7353      8.7736     13.9259    124.3043
  1825.5000     38.5357      7.9010      8.9127     15.2380    126.2028
  1825.7500     38.4448      8.0705      9.0121     15.4999    127.1986
  1826.0000     38.2561      8.2429      9.0902     14.4937    128.4869
  1826.2500     37.9896      8.4175      9.1792     12.8930    128.7382
  1826.5000     37.6739      8.5941      9.3129     11.7137    126.7770
  1826.7500     37.3244      8.7708      9.5155     11.5786    123.5168
  1827.0000     36.9424      8.9425      9.7953     12.4258    116.9616
  1827.2500     36.5252      9.1017     10.1435     13.7454    113.0695
  1827.5000     36.0694      9.2418     10.5380     15.0285    110.1381
  1827.7500     35.5680      9.3622     10.9491     16.0670    110.1306
  1828.0000     35.0211      9.4675     11.3472     16.9394    111.0616
  1828.2500     34.4539      9.5643     11.7073     17.7885    111.0872
  1828.5000     33.9145      9.6566     12.0096     18.6306    109.6995
  1828.7500     33.4442      9.7453     12.2370     19.3260    108.2954
  1829.0000     33.0518      9.8311     12.3726     19.6699    106.7846
  1829.2500     32.7176      9.9165     12.4024     19.4984    107.1833
  1829.5000     32.4197     10.0052     12.3246     18.7339    111.6365
  1829.7500     32.1509     10.0988     12.1594     17.3875    117.3518
  1830.0000     31.9072     10.1930     11.9494     15.5958    127.8166
