~Version Information
VERS.                      2.0: CWLS Log ASCII Standard - VERSION 2.0
WRAP.                       NO: One line per depth step
~Well Information Block
STRT.FT               390.0000: 
STOP.FT               825.0000: 
STEP.FT                 0.1000: 
NULL.                -999.2500: 
COMP.          Pioneer Natural Resources: COMPANY
WELL.             Veedol 34-28: WELL
FLD.           Purgatoire River: FIELD
LOC.           357' FSL & 2520' FEL: LOCATION
PROV.                 Colorado: PROVINCE
CNTY.               Las Animas: COUNTRY
SRVC.                Patterson: SERVICE COMPANY
DATE.          Thu Dec 22 14:38:20 2005: LOG DATE
UWI.           05 071 08628 00: UNIQUE WELL ID
~Curve Information Block
DEPT.FT            0 000 00 00: Depth
DCAL.in                       : CDL Caliper
RHOB.g/cc                     : CDL Bulk Density
RHOC.g/cc                     : CDL Density Correction
DPOR.pu                       : CDL Density Porosity
GR.GAPI                       : Gamma Ray
NPOR.pu                       : Neutron Porosity
~Parameter Information Block
~A  Depth       DCAL        RHOB        RHOC        DPOR         GR         NPOR    
# ...
   783.6000      7.8513      2.4743      0.0218     10.6511     99.2569     21.7421
   783.7000      7.8513      2.4863     -0.0231      9.9203     93.9457     22.2187
   783.8000      7.8526      2.5007      0.0482      9.0503     92.3108     22.3405
   783.9000      7.8526      2.5152      0.0442      8.1695     92.1085     22.7294
   784.0000      7.8529      2.5212      0.0688      7.8032     93.0093     23.6440
   784.1000      7.8529      2.5077      0.0533      8.6266     98.9704     24.8890
   784.2000      7.8529      2.4788      0.0140     10.3763    105.9775     26.1943
   784.3000      7.8518      2.4716     -0.0515     10.8134    108.0646     27.1924
   784.4000      7.8518      2.5073      0.0517      8.6480    109.8623     27.2661
   784.5000      7.8507      2.5522      0.0959      5.9260    114.1625     26.6461
   784.6000      7.8507      2.5721      0.0650      4.7200    118.9308     26.0347
   784.7000      7.8507      2.5687      0.0837      4.9302    121.1264     25.7546
   784.8000      7.8500      2.5534      0.0589      5.8519    117.2384     26.0178
   784.9000      7.8500      2.5362      0.0468      6.8969    111.1741     26.5831
   785.0000      7.8497      2.5228      0.0390      7.7061    107.6464     26.7313
   785.1000      7.8497      2.5126      0.0580      8.3251    104.4781     26.1492
   785.2000      7.8497      2.5021      0.0108      8.9659    100.8151     24.9614
   785.3000      7.8497      2.4903     -0.0009      9.6778     99.2687     23.8244
   785.4000      7.8497      2.4817     -0.0163     10.1990     99.1840     23.2954
   785.5000      7.8498      2.4834     -0.0128     10.0959    100.4938     23.1339
   785.6000      7.8498      2.4942      0.0140      9.4449    103.3464     22.9684
   785.7000      7.8498      2.5030      0.0114      8.9098    101.5068     23.0993
   785.8000      7.8492      2.5054      0.0048      8.7631     92.6603     23.7660
   785.9000      7.8492      2.5057      0.0132      8.7461     85.3945     24.3098
   786.0000      7.8492      2.5023      0.0309      8.9525     85.2250     24.4352
   786.1000      7.8492      2.4879      0.0053      9.8258     89.2362     24.4669
   786.2000      7.8492      2.4639     -0.0105     11.2810     90.5955     24.1588
   786.3000      7.8500      2.4416      0.0205     12.6329     87.1484     23.4092
   786.4000      7.8500      2.4318     -0.0412     13.2271     86.7249     23.1883
   786.5000      7.8508      2.4343      0.0028     13.0742     94.5555     23.9441
   786.6000      7.8508      2.4401     -0.0326     12.7193    106.2191     24.7999
   786.7000      7.8508      2.4479      0.0019     12.2476    116.6974     25.2895
   786.8000      7.8513      2.4605     -0.0007     11.4854    124.9512     25.7824
   786.9000      7.8513      2.4785      0.0410     10.3962    127.7546     26.4123
   787.0000      7.8510      2.5028      0.0567      8.9201    123.8446     26.9577
   787.1000      7.8510      2.5387      0.0626      6.7425    119.9051     27.2997
   787.2000      7.8510      2.5833      0.1461      4.0400    119.9390     27.4642
   787.3000      7.8504      2.6166      0.2133      2.0253    119.5660     27.5907
   787.4000      7.8504      2.6235      0.1804      1.6056    117.6933     27.7455
   787.5000      7.8502      2.6077      0.1632      2.5665    118.7351     27.8186
   787.6000      7.8502      2.5800      0.1370      4.2454    123.0522     27.5401
   787.7000      7.8502      2.5571      0.0813      5.6288    128.6467     26.8114
   787.8000      7.8500      2.5563      0.0695      5.6758    133.1531     26.2173
   787.9000      7.8500      2.5772      0.0689      4.4119    134.4148     26.2904
   788.0000      7.8497      2.5996      0.1545      3.0540    132.7152     26.5791
   788.1000      7.8497      2.6028      0.1255      2.8622    130.6107     26.5339
   788.2000      7.8497      2.5892      0.0978      3.6828    131.6324     26.5287
   788.3000      7.8499      2.5743      0.1476      4.5881    134.3854     27.2168
   788.4000      7.8499      2.5658      0.1016      5.1013    135.8527     28.3158
   788.5000      7.8505      2.5570      0.1550      5.6374    134.7974     29.1332
   788.6000      7.8505      2.5402      0.0894      6.6556    126.6212     30.0091
   788.7000      7.8505      2.5301      0.0823      7.2637    111.6561     31.3275
   788.8000      7.8504      2.5407      0.0895      6.6227    102.1480     32.1735
   788.9000      7.8504      2.5635      0.0984      5.2438    103.4598     31.9257
   789.0000      7.8500      2.5882      0.0911      3.7462    107.4254     31.0762
   789.1000      7.8500      2.6120      0.1370      2.3040    106.2277     29.9101
   789.2000      7.8500      2.6314      0.1353      1.1261     99.8686     28.3952
   789.3000      7.8501      2.6456      0.1480      0.2673     94.5258     26.7178
   789.4000      7.8501      2.6555      0.1364     -0.3359     92.6827     25.3029
   789.5000      7.8500      2.6637      0.0954     -0.8281     92.7396     24.1604
   789.6000      7.8500      2.6669      0.1167     -1.0263     95.7644     22.9802
   789.7000      7.8500      2.6532      0.0954     -0.1914    100.8018     22.1035
   789.8000      7.8498      2.6180      0.0517      1.9406    105.3099     21.7309
   789.9000      7.8498      2.5722      0.0349      4.7169    108.0142     21.5796
   790.0000      7.8498      2.5308      0.0369      7.2253    107.8542     21.7284
   790.1000      7.8498      2.5008      0.0295      9.0417    106.4578     22.4607
   790.2000      7.8498      2.4838      0.0122     10.0700    107.8596     23.7998
   790.3000      7.8502      2.4853      0.0109      9.9819    113.8024     25.3221
   790.4000      7.8502      2.5062      0.0538      8.7139    121.6869     26.6846
   790.5000      7.8507      2.5373      0.0747      6.8325    127.0979     27.5186
   790.6000      7.8507      2.5700      0.1081      4.8513    128.1896     27.3193
   790.7000      7.8507      2.6001      0.1791      3.0253    123.9429     26.8093
   790.8000      7.8506      2.6209      0.1643      1.7654    116.8418     27.2313
   790.9000      7.8506      2.6272      0.1696      1.3835    113.4091     28.0558
   791.0000      7.8495      2.6269      0.1333      1.4001    111.9969     27.8830
   791.1000      7.8495      2.6287      0.1688      1.2912    104.5808     26.9079
   791.2000      7.8495      2.6235      0.1482      1.6071     92.9760     26.3219
   791.3000      7.8464      2.6069      0.0947      2.6136     85.4787     26.0578
   791.4000      7.8464      2.5941      0.0540      3.3867     84.5176     25.0627
   791.5000      7.8437      2.5962      0.0648      3.2628     88.1343     23.1634
   791.6000      7.8437      2.6016      0.0820      2.9350     92.5854     21.3557
   791.7000      7.8437      2.5927      0.0830      3.4737     92.0931     20.3679
   791.8000      7.8454      2.5621      0.1090      5.3293     86.6322     20.2944
   791.9000      7.8454      2.5198      0.0240      7.8936     83.1093     21.0966
   792.0000      7.8476      2.4906      0.0196      9.6583     84.6233     22.4196
   792.1000      7.8476      2.4896     -0.0104      9.7227     87.7831     23.7433
   792.2000      7.8476      2.5067      0.0478      8.6867     90.8019     24.4136
   792.3000      7.8478      2.5206      0.0583      7.8432     95.3762     24.1096
   792.4000      7.8478      2.5290      0.0661      7.3320    103.3585     23.6411
   792.5000      7.8482      2.5451      0.0667      6.3599    112.9796     23.7174
   792.6000      7.8482      2.5747      0.0649      4.5608    121.0481     24.2297
   792.7000      7.8482      2.6078      0.1145      2.5577    123.5502     24.8808
   792.8000      7.8492      2.6196      0.1577      1.8449    120.0534     25.3733
   792.9000      7.8492      2.6044      0.0838      2.7611    116.6741     25.1604
   793.0000      7.8501      2.5863      0.0960      3.8591    114.9677     24.1433
   793.1000      7.8501      2.5751      0.0960      4.5376    111.0699     23.1058
