~Version Information
VERS.                                  2.0 : CWLS LAS VERSION
WRAP.                                   NO : WRAPING MODE
SWARE .                  MController 2.5.1 : SOFTWARE VERSION
~Well Information
WELL.                  Horesfeathers 24-34 : WELL
COMP.  Pioneer Natural Resources USA, Inc. : COMPANY
FLD.                      Purgatoire River : FIELD
LOC.                      SE/SW 34-32S-67W : LOCATION
DATE.                02/03/2006-02/05/2006 : DATE(S) LOGGED
SRVC.                  Entrada GeoSciences : SERVICE COMPANY
STAT.                             Colorado : STATE
CNTY.                           Las Animas : COUNTY
CTRY.                        United States : COUNTRY
API.                          05-071-xxxxx : API NUMBER
STRT.FT                             514.00 : START DEPTH
STOP.FT                            2575.00 : STOP DEPTH
STEP.FT                               1.00 : DEPTH INCREMENT
NULL.                                -9999 : NULL VALUE
~Curve information
DEPTH.FT                                   :
ROP.MIN/FT                                 :
GAS.UNITS                                  :
~ASCII Log data
# ...
     1956.00         0.23        332.5
     1957.00         0.13        222.1
     1958.00         0.20        188.5
     1959.00         0.27         90.8
     1960.00         0.32         45.8
     1961.00         0.43         23.5
     1962.00         0.27          8.7
     1963.00         0.37          8.8
     1964.00         0.30         14.7
     1965.00         0.30         27.5
     1966.00         0.23         46.1
     1967.00         0.27         50.4
     1968.00         0.20         58.7
     1969.00         0.20        143.2
     1970.00         0.23          4.9
     1971.00         0.48          7.5
     1972.00         0.20          9.6
     1973.00         0.20         11.1
     1974.00         0.13         14.0
     1975.00         0.13         19.8
     1976.00         0.13         19.8
     1977.00         0.10         31.3
     1978.00         0.13         31.3
     1979.00         0.13         34.9
     1980.00         0.17         34.9
     1981.00         0.17         30.5
     1982.00         0.15         28.6
     1983.00         0.23         23.6
     1984.00         0.13         16.9
     1985.00         0.13         16.9
     1986.00         0.30         10.2
     1987.00         0.17          5.5
     1988.00         0.20          4.4
     1989.00         0.13          2.6
     1990.00         0.23          1.4
     1991.00         0.13          1.1
     1992.00         0.23          2.9
     1993.00         0.33         13.6
     1994.00         0.30         27.3
     1995.00         0.17         27.3
     1996.00         0.27         35.3
     1997.00         0.23         38.7
     1998.00         0.18         41.1
     1999.00         0.33         43.2
     2000.00         0.03         43.2
     2001.00         0.33         44.7
     2002.00         0.20         45.1
     2003.00         0.33         45.8
     2004.00         0.27         54.8
     2005.00         0.20         69.1
     2006.00         0.20         69.1
     2007.00         0.20         85.7
     2008.00         0.17        103.2
     2009.00         0.12        103.2
     2010.00         0.23        111.2
     2011.00         0.27        116.1
     2012.00         0.27        107.9
     2013.00         0.27        219.6
     2014.00         0.30        287.1
     2015.00         0.27        317.6
     2016.00         0.27        446.2
     2017.00         0.30        779.4
     2018.00         0.27        778.3
     2019.00         0.23        771.8
     2020.00         0.37        738.7
     2021.00         0.35        722.6
     2022.00         0.43        618.9
     2023.00         0.50        411.2
     2024.00         0.57        144.6
     2025.00         0.50         26.1
     2026.00         0.47          8.1
     2027.00         0.47         12.9
     2028.00         0.35         18.5
     2029.00         0.50         29.2
     2030.00         0.33         32.9
     2031.00         0.50         49.4
     2032.00         0.40         64.2
     2033.00         0.40         94.6
     2034.00         0.65        123.1
     2035.00         0.70        171.9
     2036.00         0.43        188.8
     2037.00         0.33        212.1
     2038.00         0.37        230.8
     2039.00         0.27        250.3
     2040.00         0.23        250.6
     2041.00         0.33        231.2
     2042.00         0.30        207.8
     2043.00         0.30        161.4
     2044.00         0.35         92.9
     2045.00         0.30         83.7
     2046.00         0.27         60.5
     2047.00         0.27        205.4
     2048.00         0.27         37.3
     2049.00         0.30         53.4
     2050.00         0.27         76.8
     2051.00         0.27        104.7
     2052.00         0.57        137.4
     2053.00         0.50        138.0
     2054.00         0.52        125.4
     2055.00         0.53         84.9
     2056.00         0.47         60.8
     2057.00         0.57         47.8
     2058.00         0.60         30.7
     2059.00         0.67         21.5
     2060.00         0.68         33.7
     2061.00         0.60         17.0
     2062.00         0.13         17.0
     2063.00         0.10         15.0
     2064.00         0.13         15.0
     2065.00         0.13         14.0
     2066.00         0.13         14.0
     2067.00         0.27         13.1
     2068.00         0.13          4.4
     2069.00         0.20          3.4
     2070.00         0.27          4.2
     2071.00         0.27          2.9
     2072.00         0.27         52.9
     2073.00         0.30        111.1
     2074.00         0.33        146.6
     2075.00         0.30        177.8
     2076.00         0.22        215.7
     2077.00         0.27        272.2
     2078.00         0.37        333.6
     2079.00         0.43        348.8
     2080.00         0.37        425.7
     2081.00         0.23        425.7
     2082.00         0.23        426.9
     2083.00         0.23        356.9
     2084.00         0.27        214.8
     2085.00         0.23        108.0
     2086.00         0.30         73.0
     2087.00         0.33         23.5
     2088.00         0.28          8.3
     2089.00         0.27          6.5
     2090.00         0.27          4.9
     2091.00         0.60          9.4
     2092.00         0.40         13.1
     2093.00         0.37         18.0
     2094.00         0.47         21.8
     2095.00         0.48         27.8
     2096.00         0.53         33.5
     2097.00         0.63         43.6
     2098.00         0.50          8.9
     2099.00         0.47         11.4
     2100.00         0.37         17.7
     2101.00         0.30         46.1
     2102.00         0.42        108.9
     2103.00         0.43        172.3
     2104.00         0.33        146.6
     2105.00         0.33        137.6
     2106.00         0.33         88.2
     2107.00         0.30         58.7
     2108.00         0.27         35.2
     2109.00         0.17         18.2
     2110.00         0.17          7.7
     2111.00         0.17          7.7
     2112.00         0.17          7.1
     2113.00         0.17          3.1
     2114.00         0.17          2.8
     2115.00         0.17          1.2
     2116.00         0.12          2.3
     2117.00         0.13          1.6
     2118.00         0.27          3.8
     2119.00         0.33          5.3
     2120.00         0.27         11.2
     2121.00         0.43         21.8
     2122.00         0.60         30.5
     2123.00         0.55         34.7
     2124.00         0.57        256.4
     2125.00         0.43         69.3
     2126.00         0.20         75.6
     2127.00         0.30         71.0
     2128.00         0.43         62.0
     2129.00         0.33         59.7
     2130.00         0.30         59.4
     2131.00         0.20         55.4
     2132.00         0.20         52.5
     2133.00         0.22         49.5
     2134.00         0.33         44.2
     2135.00         0.23         45.0
     2136.00         0.27         44.9
     2137.00         0.20         43.2
     2138.00         0.20         42.0
     2139.00         0.17         50.7
     2140.00         0.20        103.8
     2141.00         0.20        212.7
     2142.00         0.17        212.7
     2143.00         0.23        324.8
     2144.00         0.20        401.6
     2145.00         0.17        445.8
     2146.00         0.17        469.7
     2147.00         0.17        819.0
     2148.00         0.10        819.0
     2149.00         0.30        826.6
     2150.00         0.38        828.1
     2151.00         0.27        827.2
     2152.00         0.50        825.4
     2153.00         0.33        400.0
     2154.00         0.47        400.0
     2155.00         0.50        170.3
     2156.00         0.47        158.5
     2157.00         0.45        163.5
     2158.00         0.40         87.8
     2159.00         0.33         47.0
     2160.00         0.40         85.8
     2161.00         0.37         44.4
