~Version Information
VERS.                      2.0: CWLS Log ASCII Standard - VERSION 2.0
WRAP.                       NO: One line per depth step
~Well Information Block
STRT.FT               325.0000: 
STOP.FT              1014.5000: 
STEP.FT                 0.2500: 
NULL.                -999.2500: 
COMP.          Pioneer Natural Resources: COMPANY
WELL.                Doc 34-30: WELL
FLD.           Purgatoire River: FIELD
LOC.           454' FSL & 1386' FEL: LOCATION
CNTY.               Las Animas: COUNTY
SRVC.                Patterson: SERVICE COMPANY
DATE.          Wed Feb 15 20:26:19 2006: LOG DATE
UWI.           05 071 08694 00: UNIQUE WELL ID
STAT.                 Colorado: STATE
~Curve Information Block
DEPT.FT            0 000 00 00: Depth
SN.Ohm-m                      : IEL Short Normal
SP.mV                         : IEL Spontaneous Potential
DIR.Ohm-m                     : IEL Induction Resistivity
GR.GAPI                       : Gamma Ray
~Parameter Information Block
~A  Depth        SN          SP         DIR          GR     
# ...
   894.5000     11.8087     49.9313      9.8306     95.6859
   894.7500     11.8180     50.1213      9.9969     97.9451
   895.0000     11.7930     50.3368     10.1457    100.7467
   895.2500     11.7338     50.5492     10.2692    101.7410
   895.5000     11.6790     50.7303     10.3624    101.7210
   895.7500     11.6635     50.8628     10.4212    100.5966
   896.0000     11.6970     50.9461     10.4442     96.7346
   896.2500     11.7688     50.9978     10.4359     92.6438
   896.5000     11.8663     51.0474     10.4075     85.3911
   896.7500     11.9446     51.1228     10.3750     81.1056
   897.0000     11.9424     51.2381     10.3533     77.6375
   897.2500     11.8661     51.3916     10.3524     77.8826
   897.5000     11.7827     51.5723     10.3759     81.4192
   897.7500     11.7336     51.7659     10.4224     84.7752
   898.0000     11.7006     51.9580     10.4853     89.4138
   898.2500     11.6327     52.1334     10.5528     91.7568
   898.5000     11.5087     52.2782     10.6104     94.4339
   898.7500     11.3848     52.3859     10.6460     96.0369
   899.0000     11.3273     52.4604     10.6544     98.2847
   899.2500     11.3329     52.5148     10.6372     99.3217
   899.5000     11.3832     52.5654     10.5987     99.4408
   899.7500     11.4918     52.6225     10.5443     98.4947
   900.0000     11.6443     52.6848     10.4816     96.2850
   900.2500     11.7659     52.7421     10.4215     95.0225
   900.5000     11.7934     52.7830     10.3772     94.5403
   900.7500     11.7370     52.7995     10.3581     95.3048
   901.0000     11.6446     52.7854     10.3664     97.1790
   901.2500     11.5658     52.7343     10.3959     98.0421
   901.5000     11.5540     52.6408     10.4364     97.7720
   901.7500     11.6180     52.5036     10.4785     96.6317
   902.0000     11.6773     52.3254     10.5161     94.5527
   902.2500     11.6604     52.1106     10.5465     93.6653
   902.5000     11.6183     51.8656     10.5689     93.8022
   902.7500     11.6439     51.5984     10.5856     94.8061
   903.0000     11.7166     51.3166     10.6014     96.9088
   903.2500     11.7419     51.0251     10.6217     98.1578
   903.5000     11.7095     50.7249     10.6501     99.2696
   903.7500     11.6840     50.4115     10.6862     99.5216
   904.0000     11.6950     50.0711     10.7275     99.1320
   904.2500     11.7360     49.6808     10.7738     97.9674
   904.5000     11.7856     49.2157     10.8309     94.1688
   904.7500     11.8345     48.6616     10.9104     90.5325
   905.0000     11.9090     48.0295     11.0247     84.9767
   905.2500     12.0076     47.3634     11.1819     81.9980
   905.5000     12.0898     46.7295     11.3845     78.9417
   905.7500     12.1624     46.1883     11.6313     77.6216
   906.0000     12.2958     45.7693     11.9208     76.0681
   906.2500     12.5568     45.4653     12.2507     74.8295
   906.5000     12.9756     45.2468     12.6161     71.9577
   906.7500     13.5713     45.0778     13.0078     69.2925
   907.0000     14.3361     44.9269     13.4142     64.6073
   907.2500     15.1942     44.7740     13.8270     61.3476
   907.5000     16.0528     44.6183     14.2443     56.7003
   907.7500     16.8834     44.4788     14.6689     54.0536
   908.0000     17.7236     44.3823     15.1013     51.2941
   908.2500     18.6127     44.3467     15.5325     50.3742
   908.5000     19.4811     44.3732     15.9436     50.0215
   908.7500     20.1482     44.4491     16.3128     50.1603
   909.0000     20.4954     44.5577     16.6259     50.7247
   909.2500     20.5636     44.6861     16.8861     51.4440
   909.5000     20.4685     44.8277     17.1133     53.3396
   909.7500     20.2966     44.9793     17.3346     55.2979
   910.0000     20.0770     45.1369     17.5705     59.3208
   910.2500     19.8055     45.2914     17.8251     62.4342
   910.5000     19.5156     45.4274     18.0861     66.4645
   910.7500     19.3297     45.5315     18.3299     67.7427
   911.0000     19.3426     45.6028     18.5271     66.5368
   911.2500     19.4825     45.6560     18.6488     63.9557
   911.5000     19.6395     45.7114     18.6762     59.2817
   911.7500     19.8798     45.7844     18.6104     56.7826
   912.0000     20.3375     45.8830     18.4705     54.7936
   912.2500     20.9555     46.0096     18.2787     54.4066
   912.5000     21.5270     46.1611     18.0432     54.4378
   912.7500     21.9304     46.3278     17.7559     54.5645
   913.0000     22.1642     46.4958     17.4062     54.7821
   913.2500     22.2186     46.6558     17.0033     55.0080
   913.5000     22.0142     46.8125     16.5881     55.9058
   913.7500     21.4697     46.9867     16.2214     57.4264
   914.0000     20.6226     47.2050     15.9586     62.2572
   914.2500     19.6629     47.4861     15.8291     67.5358
   914.5000     18.8308     47.8317     15.8310     77.9409
   914.7500     18.2346     48.2270     15.9382     85.4961
   915.0000     17.7955     48.6441     16.1103     95.4197
   915.2500     17.4037     49.0497     16.3007     99.8093
   915.5000     17.0439     49.4181     16.4615    101.6693
   915.7500     16.8177     49.7461     16.5514     99.7120
   916.0000     16.8612     50.0578     16.5509     93.2840
   916.2500     17.1603     50.3932     16.4739     87.9432
   916.5000     17.5859     50.7872     16.3650     80.5614
   916.7500     18.1370     51.2548     16.2789     77.0393
   917.0000     18.9180     51.7887     16.2583     74.6401
   917.2500     19.8653     52.3673     16.3214     74.8270
   917.5000     20.6917     52.9651     16.4626     76.9989
   917.7500     21.1580     53.5603     16.6564     79.4064
   918.0000     21.2270     54.1371     16.8623     84.4707
   918.2500     20.9475     54.6829     17.0284     88.7950
   918.5000     20.4088     55.1854     17.1008     95.9850
   918.7500     19.7897     55.6297     17.0404    100.5064
   919.0000     19.2399     56.0002     16.8407    105.7726
   919.2500     18.7521     56.2873     16.5320    108.0778
   919.5000     18.2811     56.4942     16.1683    110.1907
   919.7500     17.8617     56.6379     15.8043    111.1654
   920.0000     17.5200     56.7424     15.4783    112.6881
   920.2500     17.1916     56.8324     15.2070    114.0663
   920.5000     16.7876     56.9296     14.9912    116.8440
   920.7500     16.3168     57.0488     14.8251    118.8528
   921.0000     15.9294     57.1947     14.7030    120.9585
   921.2500     15.8064     57.3617     14.6175    121.0282
   921.5000     15.9760     57.5394     14.5536    118.1720
   921.7500     16.2812     57.7166     14.4866    114.0686
   922.0000     16.5638     57.8856     14.3925    105.3232
   922.2500     16.8186     58.0472     14.2623     99.0191
   922.5000     17.1166     58.2112     14.1070     91.9026
   922.7500     17.4738     58.3932     13.9497     90.3461
   923.0000     17.7993     58.6081     13.8141     94.0313
   923.2500     17.9205     58.8648     13.7180     99.9381
   923.5000     17.7310     59.1608     13.6733    111.1734
   923.7500     17.2774     59.4785     13.6856    118.3256
   924.0000     16.6775     59.7869     13.7508    126.2423
   924.2500     16.0520     60.0495     13.8494    129.0575
   924.5000     15.4774     60.2370     13.9458    129.3859
   924.7500     14.9682     60.3392     13.9959    127.2162
   925.0000     14.5609     60.3701     13.9605    121.4424
   925.2500     14.3211     60.3628     13.8187    116.9164
   925.5000     14.2248     60.3568     13.5746    110.9562
   925.7500     14.1519     60.3843     13.2552    108.3101
   926.0000     14.0520     60.4638     12.9003    106.6319
   926.2500     14.0472     60.5987     12.5507    106.5069
   926.5000     14.2441     60.7813     12.2380    106.1972
   926.7500     14.5086     60.9999     11.9802    105.1833
   927.0000     14.6009     61.2448     11.7814    102.6467
   927.2500     14.4486     61.5082     11.6338    101.2774
   927.5000     14.1693     61.7800     11.5206    101.8680
   927.7500     13.8887     62.0438     11.4197    104.7446
