~Version Information
VERS.                      2.0: CWLS Log ASCII Standard - VERSION 2.0
WRAP.                       NO: One line per depth step
~Well Information Block
STRT.FT               -12.0000: 
STOP.FT              1728.0000: 
STEP.FT                 0.2500: 
NULL.                -999.2500: 
COMP.          XTO Energy Inc.: COMPANY
WELL.          Apache Canyon 35-06: WELL
FLD.              Vermejo Coal: FIELD
LOC.           2422' FNL & 1889' FWL--: LOCATION
STAT.                       CO: State
CNTY.               Las Animas: COUNTY
CTRY. USA : Country
SECT.  : Section
TOWN.  : Township
RANG.  : Range
SRVC.          Patterson Wireline: SERVICE COMPANY
DATE.          Fri Jan 06 08:11:44 2006: LOG DATE
API.              05 071 08540: UNIQUE WELL ID
~Curve Information Block
DEPT.FT            0 000 00 00: Depth
CCL.                          : Casing Collar Locator
TT3.usec                      : CBL 3' Travel Time
AMP3.mV                       : CBL 3' Amplitude
GR.GAPI                       : Gamma Ray
~Parameter Information Block
~A  Depth       CCL         TT3         AMP3         GR     
# ...
   222.5000      0.0000    749.2720      6.3447     74.9888
   222.7500      0.0000    753.8762      6.3542     69.4197
   223.0000     -2.0000    744.2822      6.3447     67.8410
   223.2500      0.0000    717.9005      6.2933     71.2167
   223.5000      0.0000    674.9749      6.1777     78.4692
   223.7500      0.0000    623.6190      5.9933     87.0493
   224.0000      0.0000    582.2513      5.7706     94.2587
   224.2500      0.0000    570.4493      5.5705     98.4546
   224.5000      0.0000    593.8760      5.4532     99.4607
   224.7500      0.0000    638.6658      5.4484     98.2830
   225.0000      0.0000    682.5624      5.5440     96.6484
   225.2500      0.0000    711.9303      5.6959     96.3067
   225.5000      0.0000    727.8660      5.8531     98.1172
   225.7500      0.0000    738.7924      5.9818    101.6372
   226.0000      0.0000    750.7512      6.0710    105.6591
   226.2500      0.0000    763.8318      6.1201    109.1608
   226.5000      0.0000    774.5233      6.1273    111.8909
   226.7500      0.0000    780.2941      6.0894    114.0570
   227.0000      0.0000    782.7706      6.0115    115.5209
   227.2500      0.0000    786.4137      5.9132    115.8117
   227.5000      0.0000    793.7735      5.8224    114.9546
   227.7500      0.0000    802.9014      5.7608    113.4794
   228.0000      0.0000    809.4258      5.7343    111.4833
   228.2500      0.0000    809.9172      5.7359    108.7354
   228.5000      0.0000    803.0120      5.7549    106.1016
   228.7500      0.0000    788.9695      5.7853    105.6786
   229.0000      0.0000    769.8245      5.8303    108.6056
   229.2500      0.0000    750.4454      5.8972    113.3879
   229.5000      0.0000    738.4261      5.9846    117.1278
   229.7500      0.0000    740.0964      6.0715    118.1229
   230.0000      0.0000    754.4048      6.1267    116.9653
   230.2500      0.0000    772.0431      6.1373    115.5424
   230.5000      0.0000    783.0701      6.1257    115.1827
   230.7500      0.0000    784.9249      6.1320    115.2376
   231.0000      0.0000    781.9083      6.1773    113.3634
   231.2500      0.0000    778.9200      6.2503    107.9393
   231.5000      0.0000    778.0089      6.3252    100.4512
   231.7500      0.0000    779.1519      6.3832     94.9766
   232.0000      0.0000    781.6571      6.4151     95.0466
   232.2500      0.0000    785.6338      6.4107    101.0565
   232.5000      0.0000    793.3385      6.3540    110.2736
   232.7500      0.0000    807.7323      6.2366    118.8087
   233.0000      0.0000    828.3166      6.0780    124.0292
   233.2500      0.0000    849.4473      5.9250    125.8729
   233.5000      0.0000    864.4482      5.8237    126.0682
   233.7500      0.0000    871.1271      5.7889    126.2056
   234.0000      0.0000    872.2548      5.7992    126.7548
   234.2500      0.0000    871.4789      5.8175    127.6441
   234.5000      0.0000    870.2894      5.8163    129.0728
   234.7500      0.0000    868.4334      5.7876    131.2672
   235.0000      0.0000    865.3427      5.7386    133.5153
   235.2500      0.0000    860.5447      5.6822    134.1413
   235.5000      0.0000    854.1635      5.6284    132.0850
   235.7500      0.0000    848.1241      5.5795    128.2224
   236.0000      0.0000    846.0416      5.5290    124.4614
   236.2500      0.0000    850.3026      5.4664    121.7899
   236.5000      0.0000    858.5162      5.3829    119.8100
   236.7500      0.0000    863.3303      5.2781    118.0322
   237.0000      0.0000    857.3226      5.1611    117.0596
   237.2500      0.0000    839.6093      5.0459    118.2024
   237.5000      0.0000    817.5499      4.9434    121.8027
   237.7500      0.0000    801.4088      4.8581    126.0671
   238.0000      0.0000    798.5032      4.7910    127.8961
   238.2500      0.0000    812.6234      4.7433    124.9334
   238.5000      0.0000    845.0682      4.7185    116.7632
   238.7500      0.0000    892.8389      4.7200    104.6071
   239.0000      0.0000    947.7922      4.7492     90.4737
   239.2500      0.0000   1000.0981      4.8079     76.6004
   239.5000      0.0000   1041.8933      4.9012     65.1531
   239.7500      0.0000   1067.4562      5.0347     57.7665
   240.0000      0.0000   1072.5428      5.2061     54.8910
   240.2500      0.0000   1056.7533      5.4040     55.5253
   240.5000      0.0000   1027.4767      5.6180     57.8555
   240.7500      0.0000    998.2094      5.8476     60.5154
   241.0000      0.0000    978.0687      6.0955     63.5352
   241.2500      0.0000    963.1939      6.3526     68.1588
   241.5000      0.0000    942.8329      6.5953     75.4860
   241.7500      0.0000    913.2137      6.7965     84.9872
   242.0000      0.0000    880.8398      6.9393     94.4937
   242.2500      0.0000    853.4880      7.0214    101.9437
   242.5000      0.0000    833.6574      7.0536    106.8156
   242.7500      0.0000    820.4521      7.0552    109.4165
   243.0000      0.0000    812.7607      7.0503    109.5428
   243.2500      0.0000    809.7237      7.0626    107.2039
   243.5000      0.0000    810.6027      7.1063    104.4204
   243.7500      0.0000    814.6525      7.1759    104.6167
   244.0000      0.0000    819.9996      7.2459    109.4420
   244.2500      0.0000    823.1375      7.2898    117.0454
   244.5000      0.0000    821.0298      7.3020    124.2003
   244.7500      0.0000    813.7400      7.3001    129.4912
   245.0000      0.0000    804.4159      7.3059    133.5952
   245.2500      0.0000    797.1048      7.3266    137.0084
   245.5000      0.0000    794.5772      7.3482    138.9361
   245.7500      0.0000    796.4894      7.3441    138.6295
   246.0000      0.0000    798.9838      7.2920    136.6624
   246.2500      0.0000    797.6691      7.1861    134.3872
   246.5000      0.0000    792.3257      7.0343    132.6347
   246.7500      0.0000    788.0858      6.8446    131.0488
   247.0000      0.0000    791.1644      6.6224    128.3796
   247.2500      0.0000    803.4080      6.3802    123.5703
   247.5000      0.0000    821.1686      6.1442    117.0497
   247.7500      0.0000    838.7330      5.9433    110.9948
   248.0000      0.0000    851.5911      5.7936    107.9916
   248.2500      0.0000    857.3959      5.6971    109.3046
   248.5000      0.0000    855.9077      5.6540    114.2943
   248.7500      0.0000    848.7020      5.6754    121.0335
   249.0000      0.0000    839.2629      5.7771    127.3334
   249.2500      0.0000    832.9568      5.9600    131.7232
   249.5000      0.0000    833.9623      6.1960    133.9017
   249.7500      0.0000    840.1509      6.4384    134.3338
   250.0000      0.0000    843.2317      6.6492    133.8458
   250.2500      0.0000    836.1588      6.8203    133.6916
   250.5000      0.0000    820.4732      6.9692    134.9267
   250.7500      0.0000    806.5143      7.1151    137.1037
   251.0000      0.0000    806.1805      7.2597    138.3858
   251.2500      0.0000    823.3924      7.3890    137.4262
   251.5000      0.0000    850.1106      7.4863    134.6808
   251.7500      0.0000    871.9987      7.5433    131.8834
   252.0000      0.0000    878.5037      7.5620    130.7200
   252.2500      0.0000    868.6473      7.5512    131.7969
   252.5000      0.0000    850.0662      7.5186    134.3226
   252.7500      0.0000    834.2427      7.4676    136.7550
   253.0000      0.0000    830.3706      7.4017    137.9405
   253.2500      0.0000    840.4851      7.3307    137.7306
   253.5000      0.0000    859.2996      7.2671    136.5603
   253.7500      0.0000    878.4523      7.2136    134.5614
   254.0000      0.0000    891.0832      7.1570    131.3397
   254.2500      0.0000    894.4129      7.0777    126.8207
   254.5000      0.0000    890.4143      6.9674    122.1875
   254.7500      0.0000    884.2567      6.8396    119.5964
   255.0000      0.0000    881.0115      6.7226    120.7813
   255.2500      0.0000    883.0677      6.6436    125.9554
   255.5000      0.0000    889.8903      6.6132    133.7251
   255.7500      0.0000    899.3112      6.6220    141.5614
