~Version Information
VERS.                      2.0: CWLS Log ASCII Standard - VERSION 2.0
WRAP.                       NO: One line per depth step
~Well Information Block
STRT.FT               530.0000: 
STOP.FT              1298.0000: 
STEP.FT                 0.1000: 
NULL.                -999.2500: 
COMP.          Pioneer Natural Resources: COMPANY
WELL.            Keiko 14-6 Tr: WELL
FLD.           Purgatoire River: FIELD
LOC.           462' FSL & 1202' FWL: LOCATION
PROV.                 Colorado: PROVINCE
CNTY.               Las Animas: COUNTRY
SRVC.                Patterson: SERVICE COMPANY
DATE.          Fri Dec 30 07:26:03 2005: LOG DATE
UWI.           05 071 08629 00: UNIQUE WELL ID
~Curve Information Block
DEPT.FT            0 000 00 00: Depth
DCAL.in                       : CDL Caliper
RHOB.g/cc                     : CDL Bulk Density
RHOC.g/cc                     : CDL Density Correction
DPOR.pu                       : CDL Density Porosity
GR.GAPI                       : Gamma Ray
~Parameter Information Block
~A  Depth       DCAL        RHOB        RHOC        DPOR         GR     
# ...
  1034.0000      7.8885      2.5060      0.0726      8.7266    117.0644
  1034.1000      7.8885      2.5076      0.0229      8.6280    115.9796
  1034.2000      7.8885      2.5191      0.0794      7.9343    115.8609
  1034.3000      7.8951      2.5299      0.0974      7.2767    121.3426
  1034.4000      7.8951      2.5374      0.1063      6.8218    129.6458
  1034.5000      7.8975      2.5506      0.1066      6.0256    135.2253
  1034.6000      7.8975      2.5672      0.1449      5.0162    136.3811
  1034.7000      7.8975      2.5783      0.1545      4.3464    135.6635
  1034.8000      7.8990      2.5732      0.1552      4.6558    132.6661
  1034.9000      7.8990      2.5600      0.0904      5.4563    123.7374
  1035.0000      7.8978      2.5667      0.1255      5.0479    113.0704
  1035.1000      7.8978      2.5980      0.1308      3.1518    109.7162
  1035.2000      7.8978      2.6330      0.1281      1.0281    113.8113
  1035.3000      7.8959      2.6541      0.1420     -0.2461    118.7804
  1035.4000      7.8959      2.6613      0.1313     -0.6823    119.2314
  1035.5000      7.8965      2.6634      0.1508     -0.8145    114.0266
  1035.6000      7.8965      2.6608      0.1212     -0.6547    106.2778
  1035.7000      7.8965      2.6553      0.1254     -0.3224    101.3206
  1035.8000      7.8960      2.6533      0.0976     -0.1989    101.1345
  1035.9000      7.8960      2.6493      0.1142      0.0435    100.1684
  1036.0000      7.8962      2.6295      0.0619      1.2400     96.2684
  1036.1000      7.8962      2.5985      0.0610      3.1234     95.2440
  1036.2000      7.8962      2.5816      0.0194      4.1473     97.2221
  1036.3000      7.8974      2.5885      0.0509      3.7244     96.5132
  1036.4000      7.8974      2.6010      0.0181      2.9677     96.2642
  1036.5000      7.8960      2.6062      0.0029      2.6519    100.6506
  1036.6000      7.8960      2.5984      0.0355      3.1301    102.2017
  1036.7000      7.8960      2.5756      0.0100      4.5102     96.7084
  1036.8000      7.8973      2.5591     -0.0097      5.5067     91.4460
  1036.9000      7.8973      2.5690      0.0197      4.9100     91.3444
  1037.0000      7.8974      2.5986      0.0292      3.1168     92.8592
  1037.1000      7.8974      2.6287      0.0625      1.2907     91.0591
  1037.2000      7.8974      2.6483      0.0298      0.1055     85.9188
  1037.3000      7.8971      2.6569      0.0426     -0.4195     83.2280
  1037.4000      7.8971      2.6656     -0.0139     -0.9467     84.5411
  1037.5000      7.8959      2.6881      0.0694     -2.3111     85.8502
  1037.6000      7.8959      2.7075      0.1431     -3.4836     84.2832
  1037.7000      7.8959      2.7014      0.0741     -3.1125     79.4807
  1037.8000      7.8927      2.6832      0.0445     -2.0148     74.2332
  1037.9000      7.8927      2.6767      0.0026     -1.6186     70.9417
  1038.0000      7.8971      2.6861      0.0395     -2.1871     70.4000
  1038.1000      7.8971      2.6913      0.0698     -2.5046     72.8458
  1038.2000      7.8971      2.6756      0.0132     -1.5532     75.1693
  1038.3000      7.9089      2.6528     -0.0152     -0.1709     72.0571
  1038.4000      7.9089      2.6445      0.0227      0.3333     66.1917
  1038.5000      7.9070      2.6381      0.0747      0.7209     65.3079
  1038.6000      7.9070      2.6089     -0.0079      2.4905     69.0917
  1038.7000      7.9070      2.5769     -0.0148      4.4310     73.3587
  1038.8000      7.8926      2.5792     -0.0120      4.2900     80.2926
  1038.9000      7.8926      2.6084      0.0442      2.5198     89.3524
  1039.0000      7.8951      2.6297      0.0314      1.2328     92.5260
  1039.1000      7.8951      2.6353      0.0056      0.8921     88.1634
  1039.2000      7.8951      2.6374      0.0208      0.7636     83.4732
  1039.3000      7.8923      2.6395      0.0349      0.6386     85.8981
  1039.4000      7.8923      2.6438      0.0565      0.3747     93.4865
  1039.5000      7.8941      2.6549      0.0767     -0.2997     96.7656
  1039.6000      7.8941      2.6703      0.0869     -1.2329     93.2627
  1039.7000      7.8941      2.6780      0.1491     -1.6948     87.1841
  1039.8000      7.8922      2.6694      0.1285     -1.1763     81.9316
  1039.9000      7.8922      2.6529      0.0894     -0.1777     79.9747
  1040.0000      7.8954      2.6328      0.0691      1.0407     81.8155
  1040.1000      7.8954      2.6034      0.0375      2.8230     85.0057
  1040.2000      7.8954      2.5710     -0.0074      4.7876     89.9038
  1040.3000      7.8983      2.5463     -0.0029      6.2831     97.3070
  1040.4000      7.8983      2.5361     -0.0357      6.9038    103.4799
  1040.5000      7.8879      2.5480     -0.0390      6.1840    106.2752
  1040.6000      7.8879      2.5704      0.0400      4.8246    105.2824
  1040.7000      7.8879      2.5732      0.0399      4.6538     99.6947
  1040.8000      7.8936      2.5552      0.0123      5.7451     94.9353
  1040.9000      7.8936      2.5452     -0.0093      6.3494    100.3052
  1041.0000      7.8954      2.5529      0.0254      5.8870    112.2374
  1041.1000      7.8954      2.5595      0.0134      5.4839    118.5553
  1041.2000      7.8954      2.5558     -0.0028      5.7063    116.7832
  1041.3000      7.8929      2.5560     -0.0120      5.6985    112.9489
  1041.4000      7.8929      2.5657      0.0432      5.1083    112.1294
  1041.5000      7.8950      2.5667      0.0551      5.0509    116.0794
  1041.6000      7.8950      2.5541      0.0039      5.8097    121.8516
  1041.7000      7.8950      2.5521      0.0070      5.9351    125.0859
  1041.8000      7.8938      2.5753      0.0634      4.5252    125.4494
  1041.9000      7.8938      2.6090      0.0809      2.4828    126.0031
  1042.0000      7.8951      2.6283      0.0943      1.3141    127.7825
  1042.1000      7.8951      2.6244      0.0771      1.5506    129.5164
  1042.2000      7.8951      2.6128      0.0490      2.2571    128.5423
  1042.3000      7.8939      2.6087      0.0150      2.5052    123.9296
  1042.4000      7.8939      2.6155     -0.0028      2.0932    119.2867
  1042.5000      7.8957      2.6293      0.0290      1.2545    117.6665
  1042.6000      7.8957      2.6364      0.0262      0.8261    116.4869
  1042.7000      7.8957      2.6287      0.0143      1.2929    114.9070
  1042.8000      7.8941      2.6179      0.0283      1.9469    117.5008
  1042.9000      7.8941      2.6224      0.0221      1.6754    124.5103
  1043.0000      7.8971      2.6384      0.0799      0.7001    130.5569
  1043.1000      7.8971      2.6409      0.0596      0.5523    133.0605
  1043.2000      7.8971      2.6285      0.0399      1.3044    136.1971
  1043.3000      7.8976      2.6196      0.0723      1.8418    146.4934
  1043.4000      7.8976      2.6100      0.0332      2.4263    162.0928
  1043.5000      7.8964      2.5927     -0.0120      3.4747    168.7235
  1043.6000      7.8964      2.5726      0.0171      4.6883    158.7009
  1043.7000      7.8964      2.5514      0.0038      5.9778    145.4862
  1043.8000      7.8940      2.5319      0.0157      7.1559    142.7468
  1043.9000      7.8940      2.5214     -0.0174      7.7927    149.0012
  1044.0000      7.8851      2.5225      0.0176      7.7290    156.1611
  1044.1000      7.8851      2.5310      0.0113      7.2131    160.4704
  1044.2000      7.8851      2.5419      0.0434      6.5512    161.7222
  1044.3000      7.8916      2.5486      0.0355      6.1449    157.2131
  1044.4000      7.8916      2.5453      0.0512      6.3476    149.1717
  1044.5000      7.8933      2.5332     -0.0037      7.0788    143.2851
  1044.6000      7.8933      2.5176      0.0396      8.0263    137.3455
  1044.7000      7.8933      2.5001     -0.0093      9.0858    128.9617
  1044.8000      7.8938      2.4832     -0.0168     10.1107    122.7821
  1044.9000      7.8938      2.4658      0.0198     11.1610    121.8298
  1045.0000      7.8928      2.4539     -0.0676     11.8859    124.8985
  1045.1000      7.8928      2.4596     -0.0252     11.5366    128.5281
