~Version Information
VERS.                      2.0: CWLS Log ASCII Standard - VERSION 2.0
WRAP.                       NO: One line per depth step
~Well Information Block
STRT.FT               -12.2500: 
STOP.FT              1442.2500: 
STEP.FT                 0.2500: 
NULL.                -999.2500: 
COMP.          Pioneer Natural Resources: COMPANY
WELL.              Lucky 21-36: WELL
FLD.           Purgatorie River: FIELD
LOC.           799' FNL & 1578' FWL--: LOCATION
CDN. :
PROV. :
UWI. :
STAT. :
CNTY. :
CTRY. :
API. :
COMP. :
WELL. :
FLD. :
LOC. :
DATE. :
SRVC. :
CNTY.               Las Animas: COUNTY
SRVC.          Superior Well Services: SERVICE COMPANY
DATE.          Mon Jul 21 12-16-21 2008: LOG DATE
UWI.           05 071 08456 00: UNIQUE WELL ID
STAT.                       CO: STATE
~Curve Information Block
DEPT.FT            0 000 00 00: Depth
CCL.                          : Casing Collar Locator
TT3.usec                      : CBL 3' Travel Time
AMP3.mV                       : CBL 3' Amplitude
GR.GAPI                       : Gamma Ray
~Parameter Information Block
~A  Depth       CCL         TT3         AMP3         GR     
# ...
  1126.7500      0.0000    782.6982     13.7289     50.8909
  1127.0000      0.0000    778.7512     13.7156     50.6728
  1127.2500      0.0000    773.5626     13.7256     51.1239
  1127.5000      0.0000    768.6830     13.7512     51.6917
  1127.7500      0.0000    765.9055     13.7974     51.5814
  1128.0000      0.0000    766.2961     13.8703     50.4238
  1128.2500      0.0000    769.6050     13.9755     48.6432
  1128.5000      0.0000    773.6489     14.1292     47.2184
  1128.7500      0.0000    773.8358     14.3589     47.0771
  1129.0000      0.0000    764.9209     14.6827     48.4635
  1129.2500      0.0000    746.1393     15.0782     50.6983
  1129.5000      0.0000    725.6110     15.4675     52.5738
  1129.7500      0.0000    716.5328     15.7380     53.1681
  1130.0000      0.0000    725.5602     15.7924     52.4931
  1130.2500      0.0000    746.0640     15.5975     51.4095
  1130.5000      0.0000    764.9116     15.2038     50.7966
  1130.7500      0.0000    774.1608     14.7232     50.7794
  1131.0000      0.0000    774.9332     14.2757     50.8729
  1131.2500      0.0000    772.9033     13.9391     50.7471
  1131.5000      0.0000    772.6814     13.7384     50.4738
  1131.7500      0.0000    775.4301     13.6708     50.1051
  1132.0000      0.0000    779.5645     13.7299     49.6246
  1132.2500      0.0000    782.8103     13.8964     49.5281
  1132.5000      0.0000    783.7838     14.1154     50.8061
  1132.7500      0.0000    782.0717     14.3070     53.8056
  1133.0000      0.0000    777.9197     14.4181     57.3967
  1133.2500      0.0000    772.4776     14.4678     59.8004
  1133.5000      0.0000    767.8668     14.5301     60.2797
  1133.7500      0.0000    766.2666     14.6633     59.7190
  1134.0000      0.0000    768.7371     14.8540     59.4359
  1134.2500      0.0000    774.7074     15.0291     59.5964
  1134.5000      0.0000    782.2750     15.1188     59.0384
  1134.7500      0.0000    789.1927     15.1091     56.7532
  1135.0000      0.0000    794.0670     15.0348     53.3515
  1135.2500      0.0000    796.8385     14.9248     50.7606
  1135.5000      0.0000    798.2061     14.7650     50.5741
  1135.7500      0.0000    798.7256     14.5229     53.1161
  1136.0000      0.0000    798.3235     14.1989     57.9676
  1136.2500      0.0000    796.3471     13.8360     64.5193
  1136.5000      0.0000    792.0680     13.4864     71.7168
  1136.7500      0.0000    785.4901     13.1829     78.0381
  1137.0000      0.0000    777.8439     12.9407     82.3462
  1137.2500      0.0000    771.0316     12.7706     84.6478
  1137.5000      0.0000    766.3253     12.6907     85.9574
  1137.7500      0.0000    763.5556     12.7232     87.6213
  1138.0000      0.0000    761.2612     12.8697     90.5598
  1138.2500      0.0000    757.2199     13.0858     94.6656
  1138.5000      0.0000    749.0484     13.2960     98.8314
  1138.7500      0.0000    735.1398     13.4414    101.7081
  1139.0000      0.0000    715.9047     13.5039    102.4815
  1139.2500      0.0000    693.8010     13.4930    101.0969
  1139.5000      0.0000    671.4021     13.4291     98.2838
  1139.7500      0.0000    650.2134     13.3228     95.4702
  1140.0000      0.0000    632.6884     13.1386     93.9652
  1140.2500      0.0000    623.4922     12.8051     93.6957
  1140.5000      0.0000    625.6517     12.3122     93.1055
  1140.7500      0.0000    636.8349     11.7677     90.7355
  1141.0000      0.0000    652.1179     11.3021     86.7443
  1141.2500      0.0000    668.8137     10.9481     82.6277
  1141.5000      0.0000    687.1954     10.6552     79.7356
  1141.7500     -2.0000    708.2313     10.3833     78.4064
  1142.0000      0.0000    731.2357     10.1497     78.2942
  1142.2500      0.0000    753.0759     10.0110     79.0685
  1142.5000      0.0000    770.3449     10.0063     80.5938
  1142.7500      0.0000    782.8109     10.0852     82.4587
  1143.0000      0.0000    794.4959     10.0939     83.7318
  1143.2500      0.0000    810.9746      9.8798     83.6267
  1143.5000      0.0000    834.4044      9.4133     82.2744
  1143.7500      0.0000    859.4625      8.7833     80.4638
  1144.0000      0.0000    875.4468      8.1056     78.8006
  1144.2500      0.0000    875.1060      7.4749     77.4016
  1144.5000      0.0000    860.7075      6.9751     76.2526
  1144.7500      0.0000    840.1279      6.6761     75.5316
  1145.0000      0.0000    819.5245      6.6035     75.4363
  1145.2500      0.0000    801.3402      6.7261     75.7793
  1145.5000      0.0000    785.9287      6.9847     76.1575
  1145.7500      0.0000    772.1411      7.3415     76.7342
  1146.0000      0.0000    758.2386      7.8087     78.3813
  1146.2500      0.0000    744.4077      8.4362     81.8242
  1146.5000      0.0000    732.9067      9.2800     87.1495
  1146.7500      0.0000    722.9596     10.3879     94.1478
  1147.0000      0.0000    705.6833     11.8003    102.3704
  1147.2500      0.0000    667.3704     13.5203    110.7116
  1147.5000      0.0000    601.4372     15.4433    117.5632
  1147.7500      0.0000    517.6650     17.3160    121.4970
  1148.0000      0.0000    437.5640     18.8083    121.6359
  1148.2500      0.0000    379.5074     19.6838    117.8389
  1148.5000      0.0000    348.3996     19.9352    111.0473
  1148.7500      0.0000    337.5267     19.7669    103.1908
  1149.0000      0.0000    336.8887     19.4522     96.3005
  1149.2500      0.0000    339.4036     19.1978     91.5753
  1149.5000      0.0000    342.2012     19.0935     89.1875
  1149.7500      0.0000    344.9644     19.1338     88.6346
  1150.0000      0.0000    347.8231     19.2736     89.0599
  1150.2500      0.0000    350.1638     19.4751     89.4943
  1150.5000      0.0000    350.8466     19.7124     89.2398
  1150.7500      0.0000    349.2647     19.9521     88.2738
  1151.0000      0.0000    345.8873     20.1585     87.2587
  1151.2500      0.0000    341.6010     20.3191     87.0146
  1151.5000      0.0000    336.8661     20.4472     87.8349
  1151.7500      0.0000    331.7269     20.5568     89.2844
  1152.0000      0.0000    326.2607     20.6517     90.7405
  1152.2500      0.0000    320.7411     20.7349     92.1021
  1152.5000      0.0000    315.6405     20.8056     93.9079
  1152.7500      0.0000    311.7025     20.8442     96.7816
  1153.0000      0.0000    309.9073     20.8177    100.6004
  1153.2500      0.0000    311.5687     20.7017    104.0277
  1153.5000      0.0000    319.0192     20.4862    105.2331
  1153.7500      0.0000    336.8434     20.1637    103.5534
  1154.0000      0.0000    372.2946     19.7231    100.4209
  1154.2500      0.0000    432.2382     19.1574     98.2709
  1154.5000      0.0000    515.9721     18.4725     98.3271
  1154.7500      0.0000    610.0477     17.6892     99.5342
  1155.0000      0.0000    693.2856     16.8366     99.7052
  1155.2500      0.0000    749.7145     15.9508     97.5762
  1155.5000      0.0000    776.9254     15.0801     93.6334
  1155.7500      0.0000    783.0162     14.2762     89.2633
  1156.0000      0.0000    778.1660     13.5657     85.6231
  1156.2500      0.0000    769.4944     12.9339     83.2826
  1156.5000      0.0000    760.8405     12.3543     82.3538
  1156.7500      0.0000    753.8502     11.8368     82.5404
  1157.0000      0.0000    748.3029     11.4318     83.0920
  1157.2500      0.0000    742.9827     11.1782     83.0131
  1157.5000      0.0000    737.5898     11.0581     81.6488
  1157.7500      0.0000    733.7608     11.0074     79.1542
  1158.0000      0.0000    734.2171     10.9684     76.3130
  1158.2500      0.0000    741.3506     10.9260     74.0168
  1158.5000      0.0000    756.0625     10.8970     73.1115
  1158.7500      0.0000    776.4976     10.8951     74.3449
  1159.0000      0.0000    797.2308     10.9144     77.7834
  1159.2500      0.0000    810.4237     10.9441     82.2887
  1159.5000      0.0000    809.7971     10.9846     86.1274
  1159.7500      0.0000    795.6150     11.0344     88.2865
  1160.0000      0.0000    775.5308     11.0697     88.9925
