~Version Information
VERS.                      2.0: CWLS Log ASCII Standard - VERSION 2.0
WRAP.                       NO: One line per depth step
~Well Information Block
STRT.FT               745.0000: 
STOP.FT              1985.0000: 
STEP.FT                 0.1000: 
NULL.                -999.2500: 
COMP.          Pioneer Natural Resources: COMPANY
WELL.          Lorencito 15-36-33-67: WELL
FLD.           Purgatoire River: FIELD
LOC.           38' FSL & 1446' FEL: LOCATION
STAT.                 Colorado: State
CNTY.               Las Animas: COUNTY
CTRY. USA : Country
SECT. 36 : Section
TOWN. 33S : Township
RANG. 67W : Range
SRVC.                Patterson: SERVICE COMPANY
DATE.          Thu Oct 13 10:16:17 2005: LOG DATE
API.           05 071 08515 00: UNIQUE WELL ID
~Curve Information Block
DEPT.FT            0 000 00 00: Depth
DCAL.in                       : CDL Caliper
RHOB.g/cc                     : CDL Bulk Density
RHOC.g/cc                     : CDL Density Correction
DPOR.pu                       : CDL Density Porosity
GR.GAPI                       : Gamma Ray
NPOR.pu                       : Neutron Porosity
~Parameter Information Block
~A  Depth       DCAL        RHOB        RHOC        DPOR         GR         NPOR    
# ...
  1561.0000      8.1661      2.4793      0.0800     10.3431     84.6028     26.8607
  1561.1000      8.1661      2.4684      0.0469     11.0065     86.9599     28.1259
  1561.2000      8.1661      2.4614     -0.0040     11.4299     88.0436     27.7360
  1561.3000      8.1672      2.4600      0.0356     11.5165     87.9775     26.6433
  1561.4000      8.1672      2.4693      0.0059     10.9536     86.7573     26.8575
  1561.5000      8.1658      2.4940      0.0626      9.4564     85.5880     27.5082
  1561.6000      8.1658      2.5198      0.0852      7.8935     89.0200     26.9917
  1561.7000      8.1658      2.5291      0.0961      7.3244     95.3843     26.5814
  1561.8000      8.1674      2.5219      0.0700      7.7641     99.9890     27.2897
  1561.9000      8.1674      2.5051      0.0757      8.7798    102.7435     27.9824
  1562.0000      8.1673      2.4783      0.0918     10.4061    101.7685     28.0227
  1562.1000      8.1673      2.4453      0.0374     12.4044     97.7317     28.0889
  1562.2000      8.1673      2.4268      0.0191     13.5260     94.8783     28.4827
  1562.3000      8.1636      2.4383      0.0222     12.8280     91.9882     28.3860
  1562.4000      8.1636      2.4700      0.0609     10.9085     89.6714     27.0444
  1562.5000      8.1706      2.4977      0.0927      9.2316     91.5216     25.3101
  1562.6000      8.1706      2.5085      0.0663      8.5743     94.9447     23.8066
  1562.7000      8.1706      2.5078      0.0650      8.6168     96.8046     22.1130
  1562.8000      8.1737      2.5020      0.0622      8.9667     98.1445     21.4633
  1562.9000      8.1737      2.4930      0.0549      9.5135     98.4657     22.9735
  1563.0000      8.1715      2.4778      0.0770     10.4382     95.5585     24.9274
  1563.1000      8.1715      2.4524      0.0482     11.9761     88.5393     25.8394
  1563.2000      8.1715      2.4272      0.0113     13.5041     82.9909     26.6177
  1563.3000      8.1708      2.4115      0.0450     14.4529     86.3444     27.2771
  1563.4000      8.1708      2.3964      0.0454     15.3692     95.7119     26.9791
  1563.5000      8.1748      2.3796      0.0045     16.3864    102.1327     26.6347
  1563.6000      8.1748      2.3721     -0.0129     16.8433    102.2112     26.9365
  1563.7000      8.1748      2.3693      0.0045     17.0111     97.7608     26.9331
  1563.8000      8.1808      2.3493      0.0421     18.2233     91.3693     26.4495
  1563.9000      8.1808      2.3062     -0.0103     20.8360     87.2178     26.6490
  1564.0000      8.1743      2.2578     -0.0141     23.7727     85.6802     27.7878
  1564.1000      8.1743      2.2089      0.0258     26.7336     83.6856     28.2899
  1564.2000      8.1743      2.1437      0.0298     30.6867     81.6968     27.2618
  1564.3000      8.1740      2.0556     -0.0136     36.0229     82.7749     26.7890
  1564.4000      8.1740      1.9482     -0.0463     42.5347     88.6899     28.4758
  1564.5000      8.1748      1.8247     -0.0735     50.0183     95.4947     30.6026
  1564.6000      8.1748      1.7045     -0.1152     57.3010     95.8983     31.0800
  1564.7000      8.1748      1.6175     -0.0666     62.5780     90.9051     30.6314
  1564.8000      8.1738      1.5704     -0.0504     65.4318     88.0066     30.7067
  1564.9000      8.1738      1.5422     -0.0027     67.1396     87.7145     31.2728
  1565.0000      8.1767      1.5134     -0.0430     68.8832     85.4846     32.1624
  1565.1000      8.1767      1.4879     -0.0042     70.4294     79.8037     33.3311
  1565.2000      8.1767      1.4718      0.0691     71.4047     72.3704     34.0306
  1565.3000      8.1783      1.4554      0.0604     72.3971     64.5997     33.7419
  1565.4000      8.1783      1.4334      0.0495     73.7330     57.2797     33.3350
  1565.5000      8.1662      1.4123      0.0442     75.0125     53.1849     33.7874
  1565.6000      8.1662      1.3954      0.0432     76.0354     52.5267     34.1005
  1565.7000      8.1662      1.3852      0.0087     76.6544     51.4415     33.7336
  1565.8000      8.1646      1.3900      0.0201     76.3666     49.8716     32.9833
  1565.9000      8.1646      1.4163      0.0389     74.7710     49.6301     31.6752
  1566.0000      8.1665      1.4703      0.0310     71.4957     47.6637     31.0587
  1566.1000      8.1665      1.5577      0.0145     66.2027     42.1589     32.2236
  1566.2000      8.1665      1.6708      0.1076     59.3466     36.9298     33.6641
  1566.3000      8.1615      1.7959      0.1620     51.7607     35.8108     34.2225
  1566.4000      8.1615      1.9299      0.1707     43.6432     39.1733     33.7123
  1566.5000      8.1596      2.0643      0.2407     35.4964     44.5434     31.0275
  1566.6000      8.1596      2.1810      0.2440     28.4245     48.2142     27.2971
  1566.7000      8.1596      2.2853      0.2129     22.1019     50.0305     25.4857
  1566.8000      8.1535      2.3945      0.2491     15.4872     52.5704     25.7471
  1566.9000      8.1535      2.4895      0.2304      9.7252     56.8189     26.1891
  1567.0000      8.1514      2.5359      0.1360      6.9144     61.2487     26.2221
  1567.1000      8.1514      2.5371      0.0594      6.8427     64.7295     26.4264
  1567.2000      8.1514      2.5242      0.0729      7.6256     67.7238     26.8249
  1567.3000      8.1503      2.5151      0.0582      8.1775     71.5665     26.6687
  1567.4000      8.1503      2.5108      0.0478      8.4386     75.4073     24.3971
  1567.5000      8.1480      2.5086      0.0482      8.5717     77.7524     20.5763
  1567.6000      8.1480      2.5108      0.0494      8.4380     80.8884     18.4300
  1567.7000      8.1480      2.5224      0.0537      7.7303     84.8483     18.8337
  1567.8000      8.1504      2.5416      0.0488      6.5676     86.0211     19.3371
  1567.9000      8.1504      2.5587      0.0897      5.5308     83.7968     18.6712
  1568.0000      8.1477      2.5655      0.0640      5.1211     81.4466     18.6482
  1568.1000      8.1477      2.5595      0.0814      5.4823     79.8736     19.8834
  1568.2000      8.1477      2.5460      0.0292      6.3057     77.3675     20.8281
  1568.3000      8.1504      2.5342      0.0519      7.0152     75.2058     21.0017
  1568.4000      8.1504      2.5262      0.0580      7.5005     77.1728     21.3486
  1568.5000      8.1502      2.5238      0.0186      7.6509     83.0202     21.8769
  1568.6000      8.1502      2.5315      0.0185      7.1833     87.6636     21.6176
  1568.7000      8.1502      2.5460      0.0127      6.3007     88.7842     20.5044
  1568.8000      8.1493      2.5586      0.0210      5.5414     90.2824     19.7389
  1568.9000      8.1493      2.5635      0.0207      5.2415     94.0856     19.6428
  1569.0000      8.1501      2.5638      0.0532      5.2215     96.2811     19.9402
  1569.1000      8.1501      2.5677      0.0326      4.9871     94.0859     20.7223
  1569.2000      8.1501      2.5739      0.0742      4.6100     89.8643     21.0479
  1569.3000      8.1505      2.5706      0.0751      4.8150     85.1854     20.4468
  1569.4000      8.1505      2.5615      0.0347      5.3632     82.5074     20.3431
  1569.5000      8.1533      2.5604      0.0570      5.4273     83.5744     21.0537
  1569.6000      8.1533      2.5630      0.0649      5.2713     82.9296     21.6298
  1569.7000      8.1533      2.5630      0.0300      5.2752     76.7812     21.5156
  1569.8000      8.1555      2.5695      0.0255      4.8793     69.9658     20.5406
  1569.9000      8.1555      2.5846      0.0634      3.9614     65.9418     19.7439
  1570.0000      8.1484      2.5950      0.0662      3.3334     63.9065     20.1738
  1570.1000      8.1484      2.5918      0.0773      3.5295     64.0440     20.9077
  1570.2000      8.1484      2.5794      0.0418      4.2814     65.6086     20.7824
  1570.3000      8.1508      2.5673      0.0403      5.0113     65.7240     20.4759
  1570.4000      8.1508      2.5562      0.0803      5.6842     65.2716     20.7145
  1570.5000      8.1490      2.5411      0.0382      6.5980     66.0404     20.8523
