~Version Information
 VERS.                                  2.0 : CWLS LAS VERSION
 WRAP.                                   NO : WRAPING MODE
 SWARE .                 MController 2.5.0N : SOFTWARE VERSION
~Well Information
 WELL.                       Screamin 12-29 : WELL
 COMP.       Pioneer Natural Resources, USA : COMPANY
 FLD.                       Purgatory River : FIELD
 LOC.                 SW/NW Sec29 T32S R65W : LOCATION
 DATE.                    3/28/06 - 3/29/06 : DATE(S) LOGGED
 SRVC.      Blanco Geological Services, LLC : SERVICE COMPANY
 STAT.                             Colorado : STATE
 CNTY.                           Las Animas : COUNTY
 CTRY.                                  USA : COUNTRY
 API.                          05-071-08660 : API NUMBER
 STRT.FT                             599.00 : START DEPTH
 STOP.FT                            1583.00 : STOP DEPTH
 STEP.FT                               1.00 : DEPTH INCREMENT
 NULL.                                -9999 : NULL VALUE
~Curve information
 DEPTH.FT                                   :
 ROP.MIN/FT                                 :
 GAS.UNITS                                  :
~ASCII Log data
# ...
      1399.0         0.33        361.2 
      1400.0         0.33        351.7 
      1401.0         0.28        347.4 
      1402.0         3.85       1160.8 
      1403.0         0.30        823.9 
      1404.0         0.23        692.9 
      1405.0         0.17        741.0 
      1406.0         0.13        811.5 
      1407.0         0.17        856.9 
      1408.0         0.33        894.7 
      1409.0         0.43       1011.2 
      1410.0         0.40       1198.9 
      1411.0         0.37       1228.9 
      1412.0         0.42       1178.4 
      1413.0         0.47        891.0 
      1414.0         0.47        801.0 
      1415.0         0.47        777.1 
      1416.0         0.47        716.4 
      1417.0         0.47        644.7 
      1418.0         0.47        633.2 
      1419.0         0.55        617.4 
      1420.0         0.53        622.8 
      1421.0         0.47        618.7 
      1422.0         0.33        569.9 
      1423.0         0.40        547.0 
      1424.0         0.43        543.9 
      1425.0         0.43        571.2 
      1426.0         0.43        566.9 
      1427.0         0.38        566.5 
      1428.0         0.30        551.7 
      1429.0         0.40        627.2 
      1430.0         0.40        697.9 
      1431.0         0.50        770.3 
      1432.0         4.42       1327.3 
      1433.0         0.52       1136.6 
      1434.0         0.47       1180.4 
      1435.0         0.43       1125.8 
      1436.0         0.43        975.5 
      1437.0         0.47        942.2 
      1438.0         0.37        939.5 
      1439.0         0.40        904.1 
      1440.0         0.40        843.5 
      1441.0         0.38        792.2 
      1442.0         0.37        753.8 
      1443.0         0.43        711.1 
      1444.0         0.37        667.3 
      1445.0         0.33        648.4 
      1446.0         0.43        623.8 
      1447.0         0.37        614.0 
      1448.0         0.37        603.2 
      1449.0         0.40        586.4 
      1450.0         0.42        583.4 
      1451.0         0.33        592.1 
      1452.0         0.33        587.4 
      1453.0         0.33        568.9 
      1454.0         0.30        581.7 
      1455.0         0.33        606.3 
      1456.0         0.33        621.8 
      1457.0         0.30        619.1 
      1458.0         0.30        608.3 
      1459.0         0.23        577.3 
      1460.0         0.35        565.8 
      1461.0         0.33        547.6 
      1462.0         3.15       1235.6 
      1463.0         0.37       1009.9 
      1464.0         0.33        801.7 
      1465.0         0.27        868.4 
      1466.0         0.30       1021.7 
      1467.0         0.30       1021.7 
      1468.0         0.30       1008.9 
      1469.0         0.47        972.2 
      1470.0         0.33       1026.1 
      1471.0         0.37       1020.0 
      1472.0         0.32        949.2 
      1473.0         0.30        848.8 
      1474.0         0.30        790.6 
      1475.0         0.23        886.6 
      1476.0         0.27        947.9 
      1477.0         0.33        930.4 
      1478.0         0.30       1053.7 
      1479.0         0.30       1174.0 
      1480.0         0.33       1179.0 
      1481.0         0.30       1155.1 
      1482.0         0.35       1082.0 
      1483.0         0.37       1020.3 
      1484.0         0.33        996.1 
      1485.0         0.33       1002.1 
      1486.0         0.33        989.0 
      1487.0         0.33        924.0 
      1488.0         0.35        887.3 
      1489.0         0.33        871.4 
      1490.0         0.33        863.7 
      1491.0         0.30        852.6 
      1492.0         4.45       1890.2 
      1493.0         0.50       1338.7 
      1494.0         0.43       1397.3 
      1495.0         0.38       1336.7 
      1496.0         0.40       1226.5 
      1497.0         0.43       1120.4 
      1498.0         0.40       1118.0 
      1499.0         0.43       1030.1 
      1500.0         0.43        944.9 
      1501.0         0.40        887.9 
      1502.0         0.40        851.9 
      1503.0         0.45        828.3 
      1504.0         0.40        810.8 
      1505.0         0.40        788.9 
      1506.0         0.40        777.8 
      1507.0         0.43        776.7 
      1508.0         0.40        769.0 
      1509.0         0.43        762.6 
      1510.0         0.40        763.9 
      1511.0         0.45        765.3 
      1512.0         0.50        763.3 
      1513.0         0.47        762.3 
      1514.0         0.40        763.9 
      1515.0         0.47        762.3 
      1516.0         0.43        767.3 
      1517.0         0.43        747.4 
      1518.0         0.47        745.1 
      1519.0         0.45        767.3 
      1520.0         0.47        769.0 
      1521.0         0.47        784.8 
      1522.0         3.75       1554.3 
      1523.0         0.43       1183.7 
      1524.0         0.37       1319.5 
      1525.0         0.40       1321.2 
      1526.0         0.50       1244.0 
      1527.0         0.45       1171.9 
      1528.0         0.43       1159.8 
      1529.0         0.40       1101.5 
      1530.0         0.40       1034.8 
      1531.0         0.40        903.4 
      1532.0         0.37        834.0 
      1533.0         0.40        811.8 
      1534.0         0.37        790.6 
      1535.0         0.42        786.9 
      1536.0         0.43        774.7 
      1537.0         0.40        768.7 
      1538.0         0.43        761.6 
      1539.0         0.40        757.2 
      1540.0         0.43        750.8 
      1541.0         0.40        734.3 
      1542.0         0.40        737.0 
      1543.0         0.42        734.0 
      1544.0         0.43        734.3 
      1545.0         0.47        736.7 
      1546.0         0.43        739.4 
      1547.0         0.43        740.0 
      1548.0         0.43        745.8 
      1549.0         0.43        743.7 
      1550.0         0.43        743.4 
      1551.0         0.55        752.2 
      1552.0         3.15       1633.5 
      1553.0         0.43       1448.2 
      1554.0         0.50       1071.9 
      1555.0         0.43       1293.6 
      1556.0         0.50       1349.5 
      1557.0         0.47       1198.6 
      1558.0         0.53       1037.9 
      1559.0         0.58       1043.2 
      1560.0         0.60       1019.0 
      1561.0         0.63        917.9 
      1562.0         0.77        854.6 
      1563.0         0.77        803.4 
      1564.0         0.65        750.1 
      1565.0         0.57        737.0 
      1566.0         0.57        729.9 
      1567.0         0.57        711.7 
      1568.0         0.57        710.4 
      1569.0         0.57        713.4 
      1570.0         0.58        715.8 
      1571.0         0.60        717.8 
      1572.0         0.47        716.1 
      1573.0         0.53        740.0 
      1574.0         0.57        750.1 
      1575.0         0.72        724.2 
      1576.0         0.53        684.4 
      1577.0         0.43        672.3 
      1578.0         0.40        701.6 
      1579.0         0.40        704.0 
      1580.0         0.37        693.2 
      1581.0         0.30        683.8 
      1582.0         0.33        805.4 
      1583.0         0.30       1090.4 
