~Version Information
VERS.                      2.0: CWLS Log ASCII Standard - VERSION 2.0
WRAP.                       NO: One line per depth step
~Well Information Block
STRT.FT                -2.7500: 
STOP.FT               973.2500: 
STEP.FT                 0.2500: 
NULL.                -999.2500: 
COMP.          Pioneer Natural Resources: COMPANY
WELL.          Red Raider 22-15: WELL
FLD.           Purgatoire River: FIELD
LOC.           1809' FNL & 2107' FWL: LOCATION
CNTY.               Las Animas: COUNTY
SRVC.                Patterson: SERVICE COMPANY
DATE.          Mon Apr 17 16:50:50 2006: LOG DATE
UWI.           05 071 08718 00: UNIQUE WELL ID
STAT.                 Colorado: STATE
~Curve Information Block
DEPT.FT            0 000 00 00: Depth
GR.GAPI                       : Gamma Ray
CCL.                          : Casing Collar Locator
TT3.usec                      : CBL 3' Travel Time
AMP3.mV                       : CBL 3' Amplitude
~Parameter Information Block
~A  Depth        GR         CCL         TT3         AMP3    
# ...
   198.2500    118.9574      0.0000    255.2492     78.9387
   198.5000    124.9499      0.0000    255.2408     78.7745
   198.7500    128.9174      0.0000    255.2295     78.5888
   199.0000    130.3537      0.0000    255.2206     78.3905
   199.2500    129.1444      0.0000    255.2203     78.2051
   199.5000    125.4712      0.0000    255.2324     78.0569
   199.7500    119.9199      0.0000    255.2536     77.9584
   200.0000    113.3084      0.0000    255.2759     77.9031
   200.2500    106.0579      0.0000    255.2922     77.8577
   200.5000     97.9513      0.0000    255.3004     77.7696
   200.7500     88.9053      0.0000    255.3035     77.5974
   201.0000     79.8980      0.0000    255.3100     77.3373
   201.2500     72.9098      0.0000    255.3302     77.0197
   201.5000     69.8722      0.0000    255.3682     76.6935
   201.7500     71.5731      0.0000    255.4193     76.4130
   202.0000     77.4652      0.0000    255.4741     76.2134
   202.2500     86.2972      0.0000    255.5251     76.0760
   202.5000     96.5175      0.0000    255.5691     75.9242
   202.7500    106.0086      0.0000    255.6083     75.6653
   203.0000    112.2525      0.0000    255.6501     75.2422
   203.2500    113.6988      0.0000    255.7014     74.6722
   203.5000    111.1478      0.0000    255.7620     74.0617
   203.7500    107.3205      0.0000    255.8235     73.5735
   204.0000    104.8532      0.0000    255.8757     73.3459
   204.2500    104.6710      0.0000    255.9123     73.4236
   204.5000    105.8402      0.0000    255.9303     73.7516
   204.7500    106.5187      0.0000    255.9287     74.2109
   205.0000    105.3925      0.0000    255.9092     74.6541
   205.2500    102.8695      0.0000    255.8792     74.9401
   205.5000    100.8269      0.0000    255.8535     74.9774
   205.7500    100.8031      0.0000    255.8510     74.7640
   206.0000    102.5398      0.0000    255.8834     74.3939
   206.2500    104.6058      0.0000    255.9446     74.0181
   206.5000    106.2970      0.0000    256.0108     73.7769
   206.7500    108.3913      0.0000    256.0566     73.7365
   207.0000    111.8794      0.0000    256.0711     73.8632
   207.2500    116.3868      0.0000    256.0600     74.0571
   207.5000    120.1341      0.0000    256.0356     74.2236
   207.7500    121.1227      0.0000    256.0105     74.3205
   208.0000    118.2110      0.0000    255.9941     74.3556
   208.2500    111.5673      0.0000    255.9909     74.3676
   208.5000    102.7623      0.0000    255.9991     74.4112
   208.7500     94.3964      0.0000    256.0114     74.5316
   209.0000     89.0915      0.0000    256.0186     74.7268
   209.2500     88.2935      0.0000    256.0151     74.9376
   209.5000     91.6310      0.0000    256.0040     75.0795
   209.7500     97.1619      0.0000    255.9959     75.0913
   210.0000    102.4755      0.0000    255.9997     74.9729
   210.2500    106.0765      0.0000    256.0145     74.7885
   210.5000    108.0551      0.0000    256.0308     74.6292
   210.7500    109.5123      0.0000    256.0396     74.5598
   211.0000    111.3391      0.0000    256.0393     74.5893
   211.2500    113.4151      0.0000    256.0339     74.6775
   211.5000    114.8261      0.0000    256.0270     74.7618
   211.7500    114.8600      0.0000    256.0215     74.7856
   212.0000    113.7169      0.0000    256.0253     74.7176
   212.2500    112.1553      0.0000    256.0498     74.5631
   212.5000    110.6637      0.0000    256.0946     74.3733
   212.7500    109.3413      0.0000    256.1363     74.2362
   213.0000    108.4321      0.0000    256.1443     74.2301
   213.2500    108.4064      0.0000    256.1083     74.3657
   213.5000    109.4938      0.0000    256.0469     74.5773
   213.7500    111.4702      0.0000    255.9895     74.7682
   214.0000    113.7048      0.0000    255.9546     74.8613
   214.2500    115.0827      0.0000    255.9438     74.8278
   214.5000    114.2614      0.0000    255.9478     74.6985
   214.7500    110.3704      0.0000    255.9555     74.5500
   215.0000    103.4201      0.0000    255.9597     74.4625
   215.2500     94.2486      0.0000    255.9582     74.4746
   215.5000     84.4769      0.0000    255.9527     74.5610
   215.7500     76.2469      0.0000    255.9463     74.6515
   216.0000     71.2511      0.0000    255.9397     74.6821
   216.2500     69.7640      0.0000    255.9307     74.6406
   216.5000     70.8241      0.0000    255.9165     74.5636
   216.7500     73.3855      0.0000    255.8998     74.5010
   217.0000     77.1377      0.0000    255.8948     74.4814
   217.2500     82.3489      0.0000    255.9556     74.4603
   217.5000     89.1628      0.0000    256.2324     74.2410
   217.7500     96.8983      0.0000    257.0537     73.4278
   218.0000    103.7340      0.0000    258.8929     71.5712
   218.2500    107.4073      0.0000    262.0504     68.5314
   218.5000    106.7822      0.0000    266.1695     64.7392
   218.7500    102.7519      0.0000    270.1146     60.9607
   219.0000     97.3922      0.0000    272.5423     57.7641
   219.2500     92.3129      0.0000    272.7607     55.3192
   219.5000     87.8323      0.0000    271.1567     53.6091
   219.7500     83.3806      0.0000    268.8603     52.5763
   220.0000     78.5101      0.0000    266.9705     52.0827
   220.2500     73.8313      0.0000    266.0248     51.9499
   220.5000     71.0738      3.0000    266.0852     52.1038
   220.7500     71.8049      0.0000    267.0295     52.6725
   221.0000     75.6950      0.0000    268.4768     53.9509
   221.2500     80.2324      0.0000    269.5172     56.1932
   221.5000     82.6493      0.0000    269.0085     59.3189
   221.7500     82.4404      0.0000    266.5408     62.8374
   222.0000     81.8739      0.0000    262.9521     66.1620
   222.2500     83.8106      0.0000    259.6349     68.9448
   222.5000     89.0302      0.0000    257.4427     71.0830
   222.7500     95.7783      0.0000    256.3691     72.5767
   223.0000    101.7083      0.0000    255.9827     73.5026
   223.2500    105.8538      0.0000    255.8915     74.0093
   223.5000    108.7326      0.0000    255.8876     74.2304
   223.7500    110.9932      0.0000    255.8952     74.2273
   224.0000    112.3114      0.0000    255.8970     74.0358
   224.2500    111.6721      0.0000    255.8922     73.7368
   224.5000    108.6969      0.0000    255.8859     73.4579
   224.7500    104.5948      0.0000    255.8849     73.3242
   225.0000    101.5618      0.0000    255.8936     73.3969
   225.2500    101.1643      0.0000    255.9107     73.6364
   225.5000    103.2598      0.0000    255.9301     73.9169
   225.7500    106.2468      0.0000    255.9468     74.0988
   226.0000    108.1723      0.0000    255.9597     74.1152
   226.2500    107.9368      0.0000    255.9694     74.0027
   226.5000    105.8503      0.0000    255.9762     73.8583
   226.7500    102.9628      0.0000    255.9801     73.7710
   227.0000     99.8402      0.0000    255.9827     73.7780
   227.2500     96.2174      0.0000    255.9863     73.8569
   227.5000     91.7991      0.0000    255.9933     73.9431
   227.7500     86.8087      0.0000    256.0046     73.9745
   228.0000     81.4963      0.0000    256.0186     73.9361
   228.2500     75.6294      0.0000    256.0328     73.8660
   228.5000     69.0556      0.0000    256.0463     73.8176
   228.7500     62.6169      0.0000    256.0590     73.8248
   229.0000     58.0162      0.0000    256.0685     73.8937
   229.2500     56.6482      0.0000    256.0705     74.0023
   229.5000     58.6216      0.0000    256.0637     74.1037
   229.7500     62.7840      0.0000    256.0522     74.1492
   230.0000     67.4948      0.0000    256.0420     74.1213
   230.2500     71.5041      0.0000    256.0370     74.0403
   230.5000     74.4506      0.0000    256.0374     73.9415
   230.7500     76.7074      0.0000    256.0405     73.8569
   231.0000     78.7820      0.0000    256.0406     73.8119
   231.2500     80.9135      0.0000    256.0332     73.8195
   231.5000     83.2721      0.0000    256.0189     73.8653
