~Version Information
VERS.                      2.0: CWLS Log ASCII Standard - VERSION 2.0
WRAP.                       NO: One line per depth step
~Well Information Block
STRT.FT               597.2500: 
STOP.FT              1567.2500: 
STEP.FT                 0.2500: 
NULL.                -999.2500: 
COMP.          Pioneer Natural Resources: COMPANY
WELL.           Butch 33-10 Tr: WELL
FLD.           Purgatoire River: FIELD
LOC.           2309' FSL & 1337' FEL--: LOCATION
PROV.                 Colorado: PROVINCE
CNTY.               Las Animas: COUNTRY
SRVC.                Patterson: SERVICE COMPANY
DATE.          Sat Jan 14 05:18:29 2006: LOG DATE
UWI.           05 071 08649 00: UNIQUE WELL ID
~Curve Information Block
DEPT.FT            0 000 00 00: Depth
SN.Ohm-m                      : IEL Short Normal
SP.mV                         : IEL Spontaneous Potential
DIR.Ohm-m                     : IEL Induction Resistivity
GR.GAPI                       : Gamma Ray
~Parameter Information Block
~A  Depth        SN          SP         DIR          GR     
# ...
   999.2500     16.7248    -24.7398     14.1133    116.9400
   999.5000     16.9053    -24.6559     14.3746    114.6180
   999.7500     17.0621    -24.5607     14.5932    113.5033
  1000.0000     17.1543    -24.4554     14.7465    112.1203
  1000.2500     17.1528    -24.3405     14.8136    111.0100
  1000.5000     17.0563    -24.2165     14.7829    108.7464
  1000.7500     16.8862    -24.0838     14.6578    107.0840
  1001.0000     16.6735    -23.9436     14.4573    105.3240
  1001.2500     16.4508    -23.7983     14.2104    105.2797
  1001.5000     16.2498    -23.6512     13.9485    107.7230
  1001.7500     16.0920    -23.5061     13.6991    111.1522
  1002.0000     15.9785    -23.3660     13.4827    118.3814
  1002.2500     15.8901    -23.2329     13.3094    123.7283
  1002.5000     15.7980    -23.1065     13.1785    130.5723
  1002.7500     15.6786    -22.9848     13.0782    133.4517
  1003.0000     15.5215    -22.8640     12.9912    135.2547
  1003.2500     15.3298    -22.7402     12.9022    135.7491
  1003.5000     15.1149    -22.6101     12.8052    137.3351
  1003.7500     14.8904    -22.4720     12.7060    139.2306
  1004.0000     14.6697    -22.3262     12.6178    141.9896
  1004.2500     14.4663    -22.1747     12.5534    142.7410
  1004.5000     14.2923    -22.0215     12.5203    141.7122
  1004.7500     14.1545    -21.8713     12.5186    140.0542
  1005.0000     14.0568    -21.7299     12.5419    137.1118
  1005.2500     14.0095    -21.6029     12.5807    135.1244
  1005.5000     14.0379    -21.4946     12.6265    132.0939
  1005.7500     14.1764    -21.4073     12.6766    129.9571
  1006.0000     14.4482    -21.3391     12.7372    126.7478
  1006.2500     14.8453    -21.2842     12.8229    125.0912
  1006.5000     15.3244    -21.2331     12.9546    124.5013
  1006.7500     15.8288    -21.1761     13.1545    125.6675
  1007.0000     16.3203    -21.1066     13.4431    128.8181
  1007.2500     16.8010    -21.0254     13.8363    130.7099
  1007.5000     17.3148    -20.9439     14.3450    131.5244
  1007.7500     17.9389    -20.8842     14.9765    130.3355
  1008.0000     18.7694    -20.8774     15.7376    126.2174
  1008.2500     19.9039    -20.9588     16.6374    122.2839
  1008.5000     21.4270    -21.1621     17.6878    115.2886
  1008.7500     23.4088    -21.5134     18.9008    110.2654
  1009.0000     25.9105    -22.0258     20.2825    102.3341
  1009.2500     28.9790    -22.6973     21.8280     96.3588
  1009.5000     32.6184    -23.5102     23.5215     85.3535
  1009.7500     36.7536    -24.4344     25.3424     76.6594
  1010.0000     41.2132    -25.4316     27.2718     63.2973
  1010.2500     45.7483    -26.4601     29.2925     55.6363
  1010.5000     50.0803    -27.4793     31.3801     47.6002
  1010.7500     53.9507    -28.4514     33.4948     44.5192
  1011.0000     57.1453    -29.3420     35.5734     42.3059
  1011.2500     59.4926    -30.1183     37.5160     41.8566
  1011.5000     60.8542    -30.7487     39.1646     42.0460
  1011.7500     61.1299    -31.2029     40.2971     42.4047
  1012.0000     60.2816    -31.4552     40.6719     42.8183
  1012.2500     58.3685    -31.4884     40.1258     43.0119
  1012.5000     55.5784    -31.2997     38.6788     43.7559
  1012.7500     52.2273    -30.9044     36.5605     45.0236
  1013.0000     48.6981    -30.3373     34.1232     48.7522
  1013.2500     45.3233    -29.6506     31.7038     52.7607
  1013.5000     42.2848    -28.9070     29.5298     61.4910
  1013.7500     39.6040    -28.1717     27.7050     69.1809
  1014.0000     37.2124    -27.5020     26.2412     82.8077
  1014.2500     35.0251    -26.9398     25.0944     92.3413
  1014.5000     32.9710    -26.5065     24.1901    105.1985
  1014.7500     30.9954    -26.2028     23.4400    111.5301
  1015.0000     29.0711    -26.0121     22.7588    115.6789
  1015.2500     27.2285    -25.9070     22.0871    114.1467
  1015.5000     25.5832    -25.8574     21.4108    105.8423
  1015.7500     24.3234    -25.8362     20.7661     97.7514
  1016.0000     23.6371    -25.8244     20.2201     85.4929
  1016.2500     23.5982    -25.8126     19.8393     79.3541
  1016.5000     24.0699    -25.7998     19.6603     75.5197
  1016.7500     24.7089    -25.7908     19.6732     76.7728
  1017.0000     25.1047    -25.7924     19.8167     83.0295
  1017.2500     24.9823    -25.8098     19.9876     88.8709
  1017.5000     24.3242    -25.8432     20.0679     98.0700
  1017.7500     23.3376    -25.8865     19.9665    103.4679
  1018.0000     22.3117    -25.9273     19.6555    109.2177
  1018.2500     21.4726    -25.9493     19.1707    111.3098
  1018.5000     20.9041    -25.9354     18.5759    112.6562
  1018.7500     20.5478    -25.8722     17.9222    113.2769
  1019.0000     20.2592    -25.7527     17.2301    115.4782
  1019.2500     19.8870    -25.5780     16.4977    118.4436
  1019.5000     19.3399    -25.3571     15.7209    124.9117
  1019.7500     18.6099    -25.1038     14.9072    129.5695
  1020.0000     17.7477    -24.8344     14.0771    135.0137
  1020.2500     16.8222    -24.5635     13.2560    137.1093
  1020.5000     15.8974    -24.3021     12.4660    138.7121
  1020.7500     15.0263    -24.0561     11.7246    139.4499
  1021.0000     14.2462    -23.8264     11.0457    140.3323
  1021.2500     13.5701    -23.6102     10.4414    140.4740
  1021.5000     12.9855    -23.4032      9.9225    139.8432
  1021.7500     12.4661    -23.2015      9.4955    139.2212
  1022.0000     11.9883    -23.0036      9.1606    138.7972
  1022.2500     11.5412    -22.8109      8.9099    139.0218
  1022.5000     11.1234    -22.6271      8.7280    139.7787
  1022.7500     10.7376    -22.4568      8.5956    140.2285
  1023.0000     10.3934    -22.3032      8.4944    140.2304
  1023.2500     10.1160    -22.1669      8.4121    139.4084
  1023.5000      9.9465    -22.0447      8.3444    136.5072
  1023.7500      9.9271    -21.9310      8.2942    133.6322
  1024.0000     10.0728    -21.8192      8.2677    129.1270
  1024.2500     10.3491    -21.7045      8.2705    126.9250
  1024.5000     10.6761    -21.5855      8.3049    125.7007
  1024.7500     10.9667    -21.4652      8.3701    125.9313
  1025.0000     11.1715    -21.3504      8.4639    126.2421
  1025.2500     11.2971    -21.2501      8.5855    125.7747
  1025.5000     11.3850    -21.1732      8.7363    124.6304
  1025.7500     11.4756    -21.1268      8.9185    124.4578
  1026.0000     11.5865    -21.1156      9.1320    125.7392
  1026.2500     11.7144    -21.1432      9.3733    127.2102
  1026.5000     11.8526    -21.2129      9.6359    129.3068
  1026.7500     12.0042    -21.3287      9.9127    130.1681
  1027.0000     12.1824    -21.4956     10.1974    129.7828
  1027.2500     12.3978    -21.7170     10.4842    127.9717
  1027.5000     12.6467    -21.9898     10.7654    123.3261
  1027.7500     12.9095    -22.2991     11.0285    119.9771
  1028.0000     13.1602    -22.6143     11.2557    116.4789
  1028.2500     13.3749    -22.8888     11.4277    115.6390
  1028.5000     13.5331    -23.0661     11.5291    116.2441
  1028.7500     13.6195    -23.0929     11.5544    117.3804
  1029.0000     13.6314    -22.9348     11.5102    119.4176
  1029.2500     13.5863    -22.5896     11.4145    120.7339
  1029.5000     13.5154    -22.0943     11.2946    122.6163
  1029.7500     13.4456    -21.5189     11.1807    124.1280
  1030.0000     13.3807    -20.9512     11.0989    127.6471
  1030.2500     13.2953    -20.4757     11.0653    130.9856
  1030.5000     13.1458    -20.1548     11.0843    136.2758
  1030.7500     12.8935    -20.0183     11.1526    138.7726
  1031.0000     12.5336    -20.0644     11.2659    139.8980
  1031.2500     12.1208    -20.2684     11.4251    139.4056
  1031.5000     11.7785    -20.5946     11.6382    138.4992
  1031.7500     11.6773    -21.0065     11.9176    138.2985
  1032.0000     11.9760    -21.4720     12.2734    138.2257
  1032.2500     12.7445    -21.9638     12.7063    137.8680
  1032.5000     13.9051    -22.4582     13.2017    136.4861
