~Version Information
VERS.                      2.0: CWLS Log ASCII Standard - VERSION 2.0
WRAP.                       NO: One line per depth step
~Well Information Block
STRT.FT               555.0000: 
STOP.FT              2322.2000: 
STEP.FT                 0.1000: 
NULL.                -999.2500: 
COMP.          Pioneer Natural Resources: COMPANY
WELL.          Fittipaldi 21-12: WELL
FLD.           Purgatoire River: FIELD
LOC.           207' FNL & 2110' FWL--: LOCATION
CNTY.               Las Animas: COUNTY
SRVC.                Patterson: SERVICE COMPANY
DATE.          Wed Mar 22 07:11:06 2006: LOG DATE
UWI.           05 071 08492 00: UNIQUE WELL ID
STAT.                 Colorado: STATE
~Curve Information Block
DEPT.FT            0 000 00 00: Depth
DCAL.in                       : CDL Caliper
RHOB.g/cc                     : CDL Bulk Density
RHOC.g/cc                     : CDL Density Correction
DPOR.pu                       : CDL Density Porosity
NPOR.pu                       : Neutron Porosity
GR.GAPI                       : Gamma Ray
~Parameter Information Block
~A  Depth       DCAL        RHOB        RHOC        DPOR        NPOR         GR     
# ...
  1015.8000      8.1124      2.4672      0.0077     11.0762     26.7618    122.1374
  1015.9000      8.1124      2.4633     -0.0057     11.3133     27.0878    120.8426
  1016.0000      8.1180      2.4631      0.0377     11.3244     27.6104    122.3887
  1016.1000      8.1180      2.4532      0.0410     11.9245     27.9109    128.6489
  1016.2000      8.1180      2.4285      0.0600     13.4260     27.4318    133.7645
  1016.3000      8.0882      2.4157      0.0213     14.2018     26.2750    132.6016
  1016.4000      8.0882      2.4434      0.0774     12.5202     25.0044    125.6179
  1016.5000      8.0460      2.5010      0.1539      9.0279     24.0273    116.8691
  1016.6000      8.0460      2.5523      0.1724      5.9206     23.4898    111.0283
  1016.7000      8.0460      2.5766      0.1772      4.4498     23.2210    106.7474
  1016.8000      8.0260      2.5815      0.1508      4.1518     23.0965    102.7497
  1016.9000      8.0260      2.5833      0.1335      4.0411     23.2118    103.0694
  1017.0000      8.0266      2.5778      0.1658      4.3751     23.6866    105.6376
  1017.1000      8.0266      2.5516      0.1706      5.9607     24.2840    105.4756
  1017.2000      8.0266      2.5187      0.0813      7.9562     24.5696    105.4770
  1017.3000      8.0404      2.5079      0.0690      8.6130     24.5134    108.9797
  1017.4000      8.0404      2.5157      0.0857      8.1367     24.4033    115.1773
  1017.5000      8.0774      2.5169      0.0693      8.0679     24.4446    123.4923
  1017.6000      8.0774      2.5062      0.0390      8.7174     24.4749    132.5528
  1017.7000      8.0774      2.4899      0.0630      9.7006     24.1488    137.9218
  1017.8000      8.1294      2.4654      0.0661     11.1881     23.6229    137.1242
  1017.9000      8.1294      2.4372     -0.0087     12.8947     23.2589    135.2597
  1018.0000      8.1616      2.4158      0.0465     14.1954     22.9720    135.9300
  1018.1000      8.1616      2.4076     -0.0047     14.6927     22.7773    136.2703
  1018.2000      8.1616      2.4212      0.0412     13.8674     22.9289    135.9464
  1018.3000      8.1664      2.4390      0.1145     12.7863     23.2384    135.2313
  1018.4000      8.1664      2.4234      0.0708     13.7327     23.1356    133.4789
  1018.5000      8.1557      2.3745      0.0160     16.6984     22.4349    133.6774
  1018.6000      8.1557      2.3217      0.0475     19.8957     21.4920    135.4436
  1018.7000      8.1557      2.2789      0.0363     22.4937     20.7500    134.9264
  1018.8000      8.1474      2.2526      0.0464     24.0859     20.4094    133.5730
  1018.9000      8.1474      2.2505      0.0260     24.2135     20.2431    132.7296
  1019.0000      8.1560      2.2637      0.0480     23.4133     19.7884    127.7465
  1019.1000      8.1560      2.2678      0.0561     23.1642     19.1912    118.7456
  1019.2000      8.1560      2.2401      0.0330     24.8439     18.8742    114.3408
  1019.3000      8.1754      2.1695      0.0339     29.1213     18.5645    118.1962
  1019.4000      8.1754      2.0606      0.0130     35.7196     18.0828    124.3444
  1019.5000      8.1900      1.9398     -0.0317     43.0428     17.6525    126.3322
  1019.6000      8.1900      1.8411     -0.0209     49.0226     17.1179    125.3242
  1019.7000      8.1900      1.7737      0.0273     53.1119     16.1320    123.1182
  1019.8000      8.1922      1.7227      0.0559     56.2006     14.7373    115.4112
  1019.9000      8.1922      1.6836      0.0250     58.5711     13.3639    100.9743
  1020.0000      8.1824      1.6773      0.0054     58.9537     12.1558     89.0407
  1020.1000      8.1824      1.7340      0.0544     55.5150     11.0648     87.3149
  1020.2000      8.1824      1.8606      0.2170     47.8405     10.4119     93.1673
  1020.3000      8.1728      2.0209      0.3829     38.1250     10.3919    100.7605
  1020.4000      8.1728      2.1652      0.4345     29.3794     10.8296    108.2759
  1020.5000      8.1716      2.2767      0.4122     22.6223     11.5567    116.2495
  1020.6000      8.1716      2.3697      0.3720     16.9858     12.4868    122.2546
  1020.7000      8.1716      2.4503      0.3883     12.1027     13.6827    123.7270
  1020.8000      8.1738      2.5045      0.3036      8.8160     15.4619    124.9117
  1020.9000      8.1738      2.5259      0.1692      7.5193     17.7784    128.8673
  1021.0000      8.1660      2.5251      0.0942      7.5676     20.0481    131.8174
  1021.1000      8.1660      2.5167      0.0527      8.0788     22.0659    133.7390
  1021.2000      8.1660      2.5092      0.0157      8.5362     23.6335    134.2882
  1021.3000      8.1563      2.4973      0.0157      9.2545     24.2724    131.8958
  1021.4000      8.1563      2.4773      0.0144     10.4681     24.1822    130.2219
  1021.5000      8.1548      2.4621     -0.0092     11.3851     23.9435    128.7969
  1021.6000      8.1548      2.4646     -0.0042     11.2355     23.7529    124.6393
  1021.7000      8.1548      2.4796      0.0203     10.3244     23.4874    122.9633
  1021.8000      8.1616      2.4909      0.0201      9.6408     23.1774    128.1809
  1021.9000      8.1616      2.4926      0.0260      9.5375     23.2920    137.0884
  1022.0000      8.1700      2.4931      0.0024      9.5094     23.7620    143.8994
  1022.1000      8.1700      2.4975      0.0465      9.2408     23.7530    143.4908
  1022.2000      8.1700      2.5062      0.0403      8.7125     23.1118    137.7305
  1022.3000      8.1734      2.5206      0.0596      7.8451     22.5286    131.5036
  1022.4000      8.1734      2.5356      0.0436      6.9335     22.6238    127.4106
  1022.5000      8.1761      2.5559      0.0131      5.7045     23.2938    127.7574
  1022.6000      8.1761      2.5934      0.0191      3.4327     24.0023    129.7970
  1022.7000      8.1761      2.6387      0.1253      0.6822     24.4589    127.7822
  1022.8000      8.1800      2.6746      0.1034     -1.4879     24.5647    122.3776
  1022.9000      8.1800      2.6977      0.1016     -2.8904     24.6010    118.5395
  1023.0000      8.1810      2.7071      0.1242     -3.4630     24.8034    119.0902
  1023.1000      8.1810      2.7007      0.1112     -3.0727     25.0534    123.3092
  1023.2000      8.1810      2.6814      0.1038     -1.9012     25.3749    128.3330
  1023.3000      8.1794      2.6575      0.0471     -0.4529     25.7064    133.7283
  1023.4000      8.1794      2.6372      0.0435      0.7740     25.9142    138.7021
  1023.5000      8.1758      2.6185      0.0657      1.9061     26.2251    137.9646
  1023.6000      8.1758      2.6055     -0.0717      2.6963     26.7274    131.7714
  1023.7000      8.1758      2.6048      0.0104      2.7371     27.0658    127.3337
  1023.8000      8.1695      2.5991      0.0414      3.0865     27.0798    128.6694
  1023.9000      8.1695      2.5843     -0.0736      3.9797     26.8423    132.1208
  1024.0000      8.1611      2.5819     -0.0104      4.1262     26.6787    130.4862
  1024.1000      8.1611      2.5892      0.0032      3.6823     27.0323    122.4525
  1024.2000      8.1611      2.5832      0.0089      4.0496     27.9617    113.2414
  1024.3000      8.1538      2.5578     -0.0516      5.5874     28.9231    108.6259
  1024.4000      8.1538      2.5300      0.0194      7.2697     29.0826    108.6174
  1024.5000      8.1511      2.5121      0.0157      8.3572     28.2687    111.3278
  1024.6000      8.1511      2.4888      0.0428      9.7714     27.1720    115.7607
  1024.7000      8.1511      2.4398      0.0403     12.7379     26.3632    119.9885
  1024.8000      8.1553      2.3872     -0.0791     15.9271     25.8024    124.2150
  1024.9000      8.1553      2.3721     -0.0152     16.8400     25.1534    127.6711
  1025.0000      8.1801      2.3920      0.0721     15.6338     24.3076    127.4899
  1025.1000      8.1801      2.4154      0.1135     14.2170     23.4277    126.7358
  1025.2000      8.1801      2.4221      0.1189     13.8094     22.5932    129.3546
  1025.3000      8.2502      2.4123      0.0810     14.4078     21.8153    131.9374
