~Version Information
VERS.                      2.0: CWLS Log ASCII Standard - VERSION 2.0
WRAP.                       NO: One line per depth step
~Well Information Block
STRT.FT               240.0000: 
STOP.FT              1456.0000: 
STEP.FT                 0.1000: 
NULL.                -999.2500: 
COMP.          Pioneer Natural Resources: COMPANY
WELL.              Darren 11-7: WELL
FLD.           Purgatoire River: FIELD
LOC.           230' FNL & 596' FWL: LOCATION
CNTY.               Las Animas: COUNTY
SRVC.                Patterson: SERVICE COMPANY
DATE.          Mon Mar 20 07:16:06 2006: LOG DATE
UWI.           05 071 08720 00: UNIQUE WELL ID
STAT.                 Colorado: STATE
~Curve Information Block
DEPT.FT            0 000 00 00: Depth
DCAL.in                       : CDL Caliper
RHOB.g/cc                     : CDL Bulk Density
RHOC.g/cc                     : CDL Density Correction
DPOR.pu                       : CDL Density Porosity
GR.GAPI                       : Gamma Ray
NPOR.pu                       : Neutron Porosity
~Parameter Information Block
~A  Depth       DCAL        RHOB        RHOC        DPOR         GR         NPOR    
# ...
   960.0000      7.8763      2.6157      0.0522      2.0783    138.1464     29.8046
   960.1000      7.8763      2.6147      0.0681      2.1380    137.4577     29.6644
   960.2000      7.8763      2.6005      0.0087      2.9989    132.3443     29.6248
   960.3000      7.8812      2.5756      0.0247      4.5074    126.6304     29.7526
   960.4000      7.8812      2.5572     -0.0213      5.6264    124.9523     29.8862
   960.5000      7.8945      2.5704      0.0176      4.8214    123.8740     29.6266
   960.6000      7.8945      2.6121      0.0532      2.2990    119.6020     29.2510
   960.7000      7.8945      2.6463      0.0918      0.2258    114.9561     29.1124
   960.8000      7.8759      2.6371      0.1456      0.7825    111.6849     28.7380
   960.9000      7.8759      2.5790      0.1006      4.3028    108.7573     27.9535
   961.0000      7.8674      2.5101      0.0207      8.4766    108.3606     27.2177
   961.1000      7.8674      2.4752     -0.0040     10.5919    110.1309     26.6361
   961.2000      7.8674      2.4775      0.0039     10.4569    109.0638     26.0919
   961.3000      7.8712      2.4835      0.0333     10.0904    104.8214     25.5783
   961.4000      7.8712      2.4696     -0.0345     10.9314    104.8619     25.0018
   961.5000      7.8645      2.4429      0.0041     12.5495    111.3524     24.3452
   961.6000      7.8645      2.4224     -0.0048     13.7932    115.2146     23.8857
   961.7000      7.8645      2.4273      0.0273     13.4987    111.3240     23.8948
   961.8000      7.8900      2.4577      0.1062     11.6563    107.8452     24.2480
   961.9000      7.8900      2.4834      0.1539     10.0954    111.1531     24.5385
   962.0000      7.8922      2.4853      0.1485      9.9847    116.3430     24.6125
   962.1000      7.8922      2.4784      0.1563     10.4021    119.4133     24.7243
   962.2000      7.8922      2.4779      0.1454     10.4305    123.1022     25.0183
   962.3000      7.8634      2.4881      0.1667      9.8122    129.3539     25.3176
   962.4000      7.8634      2.5077      0.1971      8.6225    135.7100     25.5754
   962.5000      7.8952      2.5291      0.2198      7.3284    138.5512     25.8799
   962.6000      7.8952      2.5452      0.1782      6.3523    136.3372     26.0280
   962.7000      7.8952      2.5521      0.1439      5.9341    130.0541     26.0366
   962.8000      7.9602      2.5492      0.1337      6.1109    122.2841     26.1118
   962.9000      7.9602      2.5386      0.1354      6.7525    116.9356     26.1460
   963.0000      8.0388      2.5156      0.1805      8.1478    115.7890     26.1712
   963.1000      8.0388      2.4744      0.1133     10.6403    117.1789     26.4285
   963.2000      8.0388      2.4311      0.0792     13.2693    120.3519     26.8773
   963.3000      8.0779      2.4122      0.0335     14.4146    125.1104     27.2544
   963.4000      8.0779      2.4240      0.0857     13.6945    129.2269     27.6367
   963.5000      8.1340      2.4484      0.1136     12.2187    131.5571     28.1800
   963.6000      8.1340      2.4713      0.1026     10.8332    131.3890     28.4996
   963.7000      8.1340      2.4891      0.1001      9.7537    130.6613     28.3971
   963.8000      8.1022      2.4928      0.1537      9.5298    132.0093     28.1914
   963.9000      8.1022      2.4881      0.1036      9.8094    132.1633     28.1932
   964.0000      7.9714      2.5002      0.1418      9.0777    132.3233     28.5254
   964.1000      7.9714      2.5293      0.2077      7.3172    137.6315     29.0499
   964.2000      7.9714      2.5534      0.1763      5.8520    144.9487     29.3952
   964.3000      7.9371      2.5667      0.1461      5.0479    146.3322     29.3092
   964.4000      7.9371      2.5757      0.1787      4.5034    140.5367     28.8128
   964.5000      7.9936      2.5790      0.1427      4.3023    135.2565     28.2580
   964.6000      7.9936      2.5762      0.0764      4.4731    137.7410     28.1966
   964.7000      7.9936      2.5701      0.1152      4.8410    145.8678     28.6689
   964.8000      8.0283      2.5487      0.1282      6.1379    149.3400     29.2118
   964.9000      8.0283      2.5028      0.0743      8.9218    142.8695     29.7241
   965.0000      8.0628      2.4562      0.0294     11.7448    134.1343     30.2477
   965.1000      8.0628      2.4471      0.0193     12.2980    129.4598     30.4438
   965.2000      8.0628      2.4844      0.0850     10.0372    127.1380     30.1965
   965.3000      8.0062      2.5394      0.1616      6.7013    126.1424     29.8683
   965.4000      8.0062      2.5811      0.1705      4.1760    129.3765     29.8471
   965.5000      7.9504      2.6020      0.1778      2.9114    136.5039     30.0844
   965.6000      7.9504      2.6077      0.1624      2.5651    142.3204     30.3394
   965.7000      7.9504      2.6030      0.1858      2.8509    142.0611     30.4674
   965.8000      7.9705      2.5926      0.1788      3.4817    137.6793     30.3235
   965.9000      7.9705      2.5747      0.1979      4.5610    134.9752     30.0008
   966.0000      8.0134      2.5386      0.1366      6.7500    134.4429     29.8482
   966.1000      8.0134      2.4840      0.1246     10.0618    134.5351     29.7968
   966.2000      8.0134      2.4322      0.0175     13.2013    137.9613     29.4916
   966.3000      8.0154      2.4089     -0.0065     14.6107    143.6309     29.0645
   966.4000      8.0154      2.4127      0.0415     14.3848    144.5019     28.7458
   966.5000      7.9867      2.4247      0.0646     13.6574    136.3947     28.4722
   966.6000      7.9867      2.4432      0.0223     12.5305    125.5172     28.2625
   966.7000      7.9867      2.4676      0.1362     11.0566    121.4690     28.1824
   966.8000      7.9950      2.4837      0.1203     10.0806    124.5565     28.2383
   966.9000      7.9950      2.4937      0.1304      9.4741    129.2971     28.4135
   967.0000      7.9407      2.5099      0.1482      8.4923    132.2046     28.5795
   967.1000      7.9407      2.5336      0.1644      7.0537    133.0883     28.6658
   967.2000      7.9407      2.5559      0.1772      5.7018    132.8489     28.7690
   967.3000      7.8923      2.5679      0.1587      4.9746    133.4548     28.7097
   967.4000      7.8923      2.5727      0.1671      4.6879    135.3978     28.3292
   967.5000      7.8893      2.5778      0.1792      4.3782    135.9465     28.0474
   967.6000      7.8893      2.5847      0.1435      3.9563    134.7408     28.2058
   967.7000      7.8893      2.5884      0.1514      3.7347    135.5616     28.5094
   967.8000      7.8973      2.5815      0.1385      4.1498    137.8684     28.5994
   967.9000      7.8973      2.5648      0.1074      5.1654    136.1587     28.4784
   968.0000      7.8870      2.5440      0.0940      6.4271    130.5549     28.3860
   968.1000      7.8870      2.5308      0.0823      7.2241    126.0487     28.6237
   968.2000      7.8870      2.5339      0.0764      7.0352    124.4347     28.9494
   968.3000      7.9280      2.5418      0.1218      6.5547    123.6949     28.7728
   968.4000      7.9280      2.5427      0.1225      6.5000    122.3913     28.2356
   968.5000      7.9213      2.5428      0.1292      6.4949    123.6909     28.0538
   968.6000      7.9213      2.5480      0.0755      6.1789    127.5280     28.1992
   968.7000      7.9213      2.5494      0.0914      6.0950    127.7880     28.1265
   968.8000      7.8976      2.5379      0.0655      6.7929    123.1431     27.9585
   968.9000      7.8976      2.5223      0.1010      7.7373    116.1660     27.8769
   969.0000      7.8974      2.5105      0.0951      8.4559    110.6887     27.6617
   969.1000      7.8974      2.4988      0.0704      9.1651    112.6500     27.4968
   969.2000      7.8974      2.4904      0.0569      9.6735    119.9115     27.5250
   969.3000      7.9043      2.4883      0.0985      9.8019    125.5165     27.3159
   969.4000      7.9043      2.4773      0.1029     10.4658    129.1582     26.7731
   969.5000      7.8969      2.4494      0.0303     12.1554    129.4525     26.3310
