~Version Information
VERS.                      2.0: CWLS Log ASCII Standard - VERSION 2.0
WRAP.                       NO: One line per depth step
~Well Information Block
STRT.FT               370.0000: 
STOP.FT              1282.5000: 
STEP.FT                 0.1000: 
NULL.                -999.2500: 
COMP.          Pioneer Natural Resources: COMPANY
WELL.          Irish Eyes 33-21: WELL
FLD.           Purgatoire River: FIELD
LOC.           1379' FSL & 2544' FEL: LOCATION
PROV.                 Colorado: PROVINCE
CNTY.               Las Animas: COUNTRY
SRVC.                Patterson: SERVICE COMPANY
DATE.          Mon Jan 16 13:31:01 2006: LOG DATE
UWI.           05 071 08658 00: UNIQUE WELL ID
~Curve Information Block
DEPT.FT            0 000 00 00: Depth
DCAL.in                       : CDL Caliper
RHOB.g/cc                     : CDL Bulk Density
RHOC.g/cc                     : CDL Density Correction
DPOR.pu                       : CDL Density Porosity
GR.GAPI                       : Gamma Ray
NPOR.pu                       : Neutron Porosity
~Parameter Information Block
~A  Depth       DCAL        RHOB        RHOC        DPOR         GR         NPOR    
# ...
  1090.0000      7.8771      2.5298      0.0449      7.2862     95.6446     21.1328
  1090.1000      7.8771      2.5526      0.0146      5.9035     95.8075     20.3531
  1090.2000      7.8771      2.5780      0.0843      4.3622     95.7162     20.4088
  1090.3000      7.8880      2.5838      0.0883      4.0146     93.5667     21.1813
  1090.4000      7.8880      2.5662      0.0810      5.0778     87.5578     22.0198
  1090.5000      7.8812      2.5412      0.0582      6.5940     80.6932     22.1531
  1090.6000      7.8812      2.5191      0.0229      7.9321     77.2031     22.2052
  1090.7000      7.8812      2.5030      0.0175      8.9102     77.9135     23.0986
  1090.8000      7.8677      2.4974      0.0454      9.2511     81.9079     24.2346
  1090.9000      7.8677      2.5074      0.0145      8.6407     86.2315     24.4790
  1091.0000      7.9146      2.5313      0.0689      7.1944     84.1237     23.8974
  1091.1000      7.9146      2.5539      0.0794      5.8246     75.9392     23.3000
  1091.2000      7.9146      2.5556      0.1425      5.7219     73.8461     23.1042
  1091.3000      7.9115      2.5337      0.0917      7.0498     82.6305     23.0423
  1091.4000      7.9115      2.5086      0.0458      8.5709     92.0555     22.9006
  1091.5000      7.8680      2.4982      0.0790      9.2023     98.9968     23.0779
  1091.6000      7.8680      2.5011      0.0968      9.0243    106.6475     23.5390
  1091.7000      7.8680      2.5060      0.0846      8.7259    109.4293     24.0827
  1091.8000      7.8653      2.4993      0.1213      9.1306    105.5585     24.4725
  1091.9000      7.8653      2.4781      0.0592     10.4169    100.7295     24.5389
  1092.0000      7.8685      2.4595      0.0023     11.5458     96.6312     24.9303
  1092.1000      7.8685      2.4539      0.1016     11.8834     90.1899     25.8459
  1092.2000      7.8685      2.4596     -0.0089     11.5369     84.2485     26.6851
  1092.3000      7.8860      2.4791      0.0572     10.3559     87.7310     27.1455
  1092.4000      7.8860      2.4968      0.1305      9.2861     97.3671     27.4169
  1092.5000      7.8912      2.4912      0.0702      9.6238    102.5894     27.8102
  1092.6000      7.8912      2.4763      0.0358     10.5303    103.4001     28.3187
  1092.7000      7.8912      2.4769      0.0277     10.4894    103.6439     28.6265
  1092.8000      7.8993      2.4842      0.1114     10.0500    103.7032     28.4793
  1092.9000      7.8993      2.4723      0.0814     10.7699    103.5998     27.7457
  1093.0000      7.9024      2.4505     -0.0568     12.0913    102.9020     26.5415
  1093.1000      7.9024      2.4446      0.0543     12.4483    101.5329     25.5742
  1093.2000      7.9024      2.4557      0.0350     11.7763    102.1792     25.5469
  1093.3000      7.8990      2.4721      0.0955     10.7835    106.3054     26.2663
  1093.4000      7.8990      2.4798      0.0683     10.3176    107.6966     26.5725
  1093.5000      7.9031      2.4744      0.0677     10.6424    103.9339     26.1602
  1093.6000      7.9031      2.4742      0.0260     10.6538    102.0673     26.3035
  1093.7000      7.9031      2.4963      0.0068      9.3153    102.5939     27.2008
  1093.8000      7.9033      2.5200      0.1133      7.8811    101.9023     27.4874
  1093.9000      7.9033      2.5090      0.0618      8.5432    102.6724     26.9666
  1094.0000      7.9064      2.4601      0.0438     11.5085    101.4834     26.6494
  1094.1000      7.9064      2.3800      0.0385     16.3607     93.6507     26.8914
  1094.2000      7.9064      2.2656     -0.0087     23.2992     84.4922     27.4482
  1094.3000      7.9121      2.1292     -0.0421     31.5609     82.1576     27.9726
  1094.4000      7.9121      1.9940     -0.0736     39.7595     83.6127     28.5447
  1094.5000      7.9213      1.8685     -0.0776     47.3659     78.4088     29.5604
  1094.6000      7.9213      1.7507     -0.1159     54.5057     65.0424     30.7388
  1094.7000      7.9213      1.6410     -0.1395     61.1503     51.2140     31.5362
  1094.8000      7.9360      1.5397     -0.1050     67.2879     43.9632     31.6030
  1094.9000      7.9360      1.4538     -0.1237     72.4973     41.9857     31.3385
  1095.0000      7.9348      1.4039     -0.0128     75.5215     39.7304     31.6701
  1095.1000      7.9348      1.4061      0.0414     75.3877     36.3490     32.4833
  1095.2000      7.9348      1.4606      0.0536     72.0818     33.8974     32.9545
  1095.3000      7.9532      1.5505      0.1169     66.6360     34.1182     33.0982
  1095.4000      7.9532      1.6482      0.1283     60.7130     37.5310     33.4448
  1095.5000      7.9659      1.7455      0.1219     54.8199     44.1837     34.0641
  1095.6000      7.9659      1.8513      0.1491     48.4044     54.6293     34.5831
  1095.7000      7.9659      1.9574      0.1964     41.9732     66.5656     34.8945
  1095.8000      8.0529      2.0444      0.1783     36.7016     75.4773     34.9624
  1095.9000      8.0529      2.0979      0.2056     33.4584     79.2440     34.5407
  1096.0000      8.1759      2.0976      0.1861     33.4812     81.6218     34.2588
  1096.1000      8.1759      2.0363      0.0649     37.1912     86.8741     34.8643
  1096.2000      8.1759      1.9404     -0.0195     43.0039     91.8524     35.3691
  1096.3000      8.1515      1.8469     -0.0296     48.6741     92.2914     34.5553
  1096.4000      8.1515      1.7786     -0.0510     52.8122     93.3207     33.2088
  1096.5000      8.0108      1.7365     -0.0409     55.3642     99.2027     32.4164
  1096.6000      8.0108      1.7166     -0.0330     56.5720    104.2513     32.2843
  1096.7000      8.0108      1.7341     -0.0625     55.5079    105.8790     32.7508
  1096.8000      7.9577      1.8111      0.0683     50.8452    107.0652     33.3844
  1096.9000      7.9577      1.9412      0.1896     42.9563    108.2636     33.2967
  1097.0000      7.9159      2.0834      0.2450     34.3403    106.2170     32.8232
  1097.1000      7.9159      2.1913      0.2791     27.7976    101.9880     33.0555
  1097.2000      7.9159      2.2634      0.1756     23.4311    100.8326     33.8040
  1097.3000      7.9337      2.3373      0.1653     18.9538    102.0102     33.9493
  1097.4000      7.9337      2.4204      0.1531     13.9137    100.4027     32.7304
  1097.5000      7.9910      2.4829      0.1552     10.1270     93.7404     30.5603
  1097.6000      7.9910      2.5071      0.1189      8.6591     86.4245     29.2204
  1097.7000      7.9910      2.5051      0.0964      8.7836     86.3311     29.6135
  1097.8000      7.9517      2.4986      0.0285      9.1764     91.8429     29.9648
  1097.9000      7.9517      2.5018      0.0144      8.9795     93.5068     28.6609
  1098.0000      7.8916      2.5186      0.0431      7.9655     89.4040     26.6151
  1098.1000      7.8916      2.5472      0.0406      6.2306     82.3879     25.2642
  1098.2000      7.8916      2.5802      0.0445      4.2302     74.2598     24.6744
  1098.3000      7.8984      2.6006      0.0571      2.9949     68.8508     24.3689
  1098.4000      7.8984      2.5937      0.0928      3.4109     67.0301     24.4665
  1098.5000      7.9010      2.5682     -0.0016      4.9556     67.4790     25.1302
  1098.6000      7.9010      2.5520      0.0258      5.9407     69.1173     25.5514
  1098.7000      7.9010      2.5574      0.0109      5.6108     69.3154     25.4653
  1098.8000      7.8870      2.5754      0.0113      4.5198     67.0582     25.8829
  1098.9000      7.8870      2.5908      0.0395      3.5890     63.1487     26.7744
  1099.0000      7.8859      2.5936      0.0428      3.4182     60.2171     27.1429
  1099.1000      7.8859      2.5914     -0.0420      3.5494     59.9721     26.9074
  1099.2000      7.8859      2.5958      0.0212      3.2877     63.0699     26.7396
  1099.3000      7.8737      2.6001      0.0296      3.0260     71.3864     26.7409
  1099.4000      7.8737      2.5953      0.0544      3.3157     81.5766     26.4534
  1099.5000      7.8331      2.5850      0.0547      3.9374     86.1405     26.0155
