~Version Information
VERS.                      2.0: CWLS Log ASCII Standard - VERSION 2.0
WRAP.                       NO: One line per depth step
~Well Information Block
STRT.FT               294.3000: 
STOP.FT              1461.0000: 
STEP.FT                 0.1000: 
NULL.                -999.2500: 
COMP.          Pioneer Natural Resources: COMPANY
WELL.              Lucky 21-36: WELL
FLD.           Purgatoire River: FIELD
CDN. :
PROV. :
UWI. :
STAT. :
CNTY. :
CTRY. :
API. :
COMP. :
WELL. :
FLD. :
LOC. :
DATE. :
SRVC. :
LOC.           799' FNL & 1578' FWL--: LOCATION
CNTY.               Las Animas: COUNTY
SRVC.          Superior Well Services: SERVICE COMPANY
DATE.          Tue Jul 08 08-29-33 2008: LOG DATE
UWI.           05 071 08456 00: UNIQUE WELL ID
STAT.                 Colorado: STATE
~Curve Information Block
DEPT.FT            0 000 00 00: Depth
DCAL.in                       : CDL Caliper
RHOB.g/cc                     : CDL Bulk Density
RHOC.g/cc                     : CDL Density Correction
DPOR.pu                       : CDL Density Porosity
NPOR.pu                       : Neutron Porosity
GR.GAPI                       : Gamma Ray
~Parameter Information Block
~A  Depth       DCAL        RHOB        RHOC        DPOR        NPOR         GR     
# ...
   601.5000      7.9545      2.4890     -0.0365      9.7586     24.8832    114.4491
   601.6000      7.9540      2.4761     -0.0102     10.5377     24.6313    110.3919
   601.7000      7.9539      2.4795      0.0437     10.3312     24.1653    110.8420
   601.8000      7.9540      2.4866      0.0351      9.9046     23.7550    118.3413
   601.9000      7.9542      2.4939      0.0571      9.4604     23.4952    126.5127
   602.0000      7.9545      2.4990      0.0695      9.1498     23.1602    127.4936
   602.1000      7.9548      2.4990      0.0552      9.1512     22.6139    120.8490
   602.2000      7.9549      2.4920      0.0241      9.5738     22.1966    113.7806
   602.3000      7.9549      2.4693      0.0366     10.9529     22.3493    111.5988
   602.4000      7.9547      2.4374     -0.0169     12.8875     22.9400    113.9333
   602.5000      7.9542      2.4242      0.0118     13.6876     23.4111    118.3938
   602.6000      7.9535      2.4346      0.0547     13.0540     23.4373    120.9851
   602.7000      7.9527      2.4484      0.0251     12.2189     23.2863    122.4418
   602.8000      7.9520      2.4560      0.0340     11.7554     23.3415    125.8099
   602.9000      7.9514      2.4628      0.0443     11.3439     23.5518    126.6148
   603.0000      7.9511      2.4709      0.0649     10.8521     23.7443    121.8972
   603.1000      7.9507      2.4777      0.0443     10.4427     23.8296    118.1876
   603.2000      7.9502      2.4836      0.0421     10.0829     23.8837    119.0762
   603.3000      7.9497      2.4838      0.0496     10.0733     23.8373    121.5637
   603.4000      7.9492      2.4676      0.0678     11.0569     23.5145    124.0674
   603.5000      7.9488      2.4390      0.0243     12.7894     23.1855    127.1560
   603.6000      7.9486      2.4213      0.0166     13.8614     23.2055    129.3587
   603.7000      7.9485      2.4229      0.0400     13.7614     23.4830    129.4716
   603.8000      7.9482      2.4245      0.0413     13.6689     23.6500    129.7013
   603.9000      7.9475      2.4177      0.0117     14.0787     23.5438    132.0340
   604.0000      7.9464      2.4208      0.0075     13.8923     23.3793    133.4159
   604.1000      7.9449      2.4404      0.0666     12.7057     23.1267    130.4561
   604.2000      7.9433      2.4558      0.0621     11.7670     22.6085    124.6079
   604.3000      7.9416      2.4516      0.0909     12.0247     22.1298    118.5300
   604.4000      7.9399      2.4383      0.0663     12.8287     22.0555    114.6501
   604.5000      7.9383      2.4480      0.0653     12.2452     22.2653    114.3222
   604.6000      7.9369      2.5101      0.1126      8.4818     22.3730    115.5082
   604.7000      7.9357      2.6282      0.1259      1.3236     22.4838    113.8297
   604.8000      7.9349      2.7791      0.2007     -7.8242     23.1158    109.0130
   604.9000      7.9349      2.9281      0.2694    -16.8521     24.2449    104.6044
   605.0000      7.9356      3.0410      0.3291    -23.6990     25.4275    102.8140
   605.1000      7.9371      3.0995      0.3004    -27.2417     26.5991    103.6846
   605.2000      7.9397      3.1056      0.3116    -27.6133     27.8660    105.8728
   605.3000      7.9432      3.0630      0.2282    -25.0330     29.0882    107.2794
   605.4000      7.9477      2.9795      0.1546    -19.9695     29.9810    106.7760
   605.5000      7.9527      2.8724      0.0062    -13.4760     30.3703    104.4637
   605.6000      7.9580      2.7524     -0.1181     -6.2059     30.1907    101.8645
   605.7000      7.9631      2.6255     -0.2348      1.4831     29.6831    102.6829
   605.8000      7.9679      2.5071     -0.3416      8.6612     29.1532    106.9124
   605.9000      7.9726      2.4111     -0.3125     14.4785     28.5452    109.0232
   606.0000      7.9774      2.3407     -0.2100     18.7474     27.7407    108.5030
   606.1000      7.9821      2.3087     -0.2069     20.6872     26.7276    109.8977
   606.2000      7.9865      2.3402     -0.0841     18.7735     25.4986    115.1291
   606.3000      7.9901      2.4182      0.1442     14.0511     24.0485    122.1525
   606.4000      7.9929      2.4785      0.2140     10.3957     22.6885    126.6652
   606.5000      7.9950      2.4876      0.1634      9.8445     21.7452    126.0292
   606.6000      7.9967      2.4630      0.1469     11.3334     21.1763    123.0506
   606.7000      7.9983      2.4333      0.1033     13.1313     20.7773    121.5405
   606.8000      7.9995      2.4176      0.1265     14.0852     20.3473    121.7050
   606.9000      8.0004      2.4097      0.1726     14.5664     19.8202    121.8834
   607.0000      8.0010      2.3861      0.1614     15.9929     19.2668    121.7167
   607.1000      8.0011      2.3525      0.0693     18.0322     18.8802    123.2101
   607.2000      8.0009      2.3465      0.0673     18.3951     18.8084    126.5844
   607.3000      8.0003      2.3765      0.1387     16.5741     18.9301    128.8395
   607.4000      7.9993      2.4099      0.1672     14.5493     19.1673    128.3331
   607.5000      7.9980      2.4293      0.1494     13.3737     19.5413    125.3312
   607.6000      7.9968      2.4447      0.1765     12.4432     19.9624    119.5290
   607.7000      7.9960      2.4574      0.1726     11.6726     20.3107    112.9696
   607.8000      7.9959      2.4558      0.1608     11.7711     20.5766    112.3839
   607.9000      7.9966      2.4399      0.1338     12.7309     20.7575    118.8932
   608.0000      7.9980      2.4262      0.1197     13.5649     20.9899    127.0543
   608.1000      7.9996      2.4245      0.1450     13.6656     21.5326    134.7905
   608.2000      8.0010      2.4270      0.1348     13.5156     22.3130    141.4449
   608.3000      8.0017      2.4271      0.0836     13.5094     22.9471    145.5182
   608.4000      8.0015      2.4319      0.0854     13.2190     23.1905    148.4766
   608.5000      8.0002      2.4463      0.1129     12.3458     23.1105    151.5089
   608.6000      7.9983      2.4599      0.1231     11.5233     22.7874    149.5840
   608.7000      7.9964      2.4577      0.0986     11.6551     22.1985    142.6385
   608.8000      7.9952      2.4369      0.0947     12.9157     21.3106    139.7975
   608.9000      7.9949      2.4043      0.0642     14.8924     20.0570    143.3470
   609.0000      7.9956      2.3641      0.0622     17.3253     18.6514    147.6631
   609.1000      7.9969      2.3230     -0.0201     19.8210     17.5174    148.1841
   609.2000      7.9981      2.2988     -0.0039     21.2867     16.6673    141.9167
   609.3000      7.9991      2.2979     -0.0077     21.3406     15.9913    133.9546
   609.4000      7.9996      2.3007      0.0463     21.1672     15.5804    131.6551
   609.5000      7.9994      2.2930      0.0784     21.6350     15.4393    132.1163
   609.6000      7.9982      2.2978      0.0530     21.3441     15.6920    131.2615
   609.7000      7.9955      2.3579      0.0854     17.7005     16.4812    128.2269
   609.8000      7.9903      2.4911      0.1340      9.6307     17.6209    121.3985
   609.9000      7.9819      2.6738      0.2686     -1.4454     19.1033    113.6232
   610.0000      7.9701      2.8654      0.3399    -13.0566     21.2911    108.4007
   610.1000      7.9558      3.0336      0.4058    -23.2503     24.1468    101.8710
   610.2000      7.9408      3.1644      0.4118    -31.1771     27.1159     89.4322
   610.3000      7.9277      3.2654      0.3647    -37.2948     29.8476     75.4674
   610.4000      7.9180      3.3418      0.3821    -41.9270     32.1685     65.0013
   610.5000      7.9124      3.3781      0.3279    -44.1273     33.9800     58.3295
   610.6000      7.9101      3.3550      0.2259    -42.7289     35.5424     55.5115
   610.7000      7.9101      3.2760      0.0295    -37.9387     36.8920     54.8808
   610.8000      7.9113      3.1656     -0.0594    -31.2461     37.5943     55.1311
   610.9000      7.9128      3.0417     -0.1869    -23.7378     37.3221     56.5769
   611.0000      7.9143      2.9175     -0.2534    -16.2097     35.9625     60.6935
