~Version Information
 VERS.                                  2.0 : CWLS LAS VERSION
 WRAP.                                   NO : WRAPING MODE
 SWARE .                 MController 2.5.0N : SOFTWARE VERSION
~Well Information
 WELL.                          Gough 14-29 : WELL
 COMP.    Pioneer Natural Resouces USA Inc. : COMPANY
 FLD.                      Purgatoire River : FIELD
 LOC.             SW/SW Sec 29, T33S, R65W  : LOCATION
 DATE.                             12/22/05 : DATE(S) LOGGED
 SRVC.       BLANCO Geological Services LLC : SERVICE COMPANY
 STAT.                                   CO : STATE
 CNTY.                           Las Animas : COUNTY
 CTRY.                                  USA : COUNTRY
 API.                          05-071-08612 : API NUMBER
 STRT.FT                             190.00 : START DEPTH
 STOP.FT                            1026.00 : STOP DEPTH
 STEP.FT                               1.00 : DEPTH INCREMENT
 NULL.                                -9999 : NULL VALUE
~Curve information
 DEPTH.FT                                   :
 ROP.MIN/FT                                 :
 GAS.UNITS                                  :
~ASCII Log data
# ...
       390.0         0.23          6.7 
       391.0         0.23          6.6 
       392.0         0.23          6.6 
       393.0         0.23          6.2 
       394.0         0.23          6.2 
       395.0         0.20          6.0 
       396.0         0.23          6.6 
       397.0         0.30          6.3 
       398.0         0.27          6.3 
       399.0         0.27          6.0 
       400.0         0.30          6.3 
       401.0         0.27          6.1 
       402.0         0.27          6.3 
       403.0         0.28          6.6 
       404.0         0.27          6.2 
       405.0         0.30          6.3 
       406.0         0.27          6.4 
       407.0         0.27          6.4 
       408.0         0.30          6.6 
       409.0         0.33          6.5 
       410.0         0.43          6.5 
       411.0         0.70          6.9 
       412.0         2.08          6.8 
       413.0         0.20          6.7 
       414.0         0.23          6.9 
       415.0         0.27          7.0 
       416.0         0.27          6.8 
       417.0         0.17          6.8 
       418.0         0.27          6.5 
       419.0         0.32          6.8 
       420.0         0.23          7.1 
       421.0         0.20          6.4 
       422.0         0.23          6.9 
       423.0         0.30          6.9 
       424.0         0.27          6.2 
       425.0         0.20          6.2 
       426.0         0.23          6.8 
       427.0         0.30          7.7 
       428.0         0.27          8.5 
       429.0         0.30          8.0 
       430.0         0.27          6.3 
       431.0         0.27          6.6 
       432.0         0.28          6.1 
       433.0         0.27          6.6 
       434.0         0.33          6.6 
       435.0         0.27          6.8 
       436.0         0.30          7.0 
       437.0         0.33          6.5 
       438.0         0.23          6.5 
       439.0         0.33          6.9 
       440.0         0.27          6.2 
       441.0         4.67          7.9 
       442.0         0.33          6.5 
       443.0         0.37          6.4 
       444.0         0.23          6.5 
       445.0         0.23          6.4 
       446.0         0.20          6.4 
       447.0         0.20          6.3 
       448.0         0.20          6.2 
       449.0         0.20          6.6 
       450.0         0.20          6.2 
       451.0         0.20          6.3 
       452.0         0.20          6.3 
       453.0         0.28          6.4 
       454.0         0.30          6.4 
       455.0         0.23          6.4 
       456.0         0.23          6.4 
       457.0         0.27          6.6 
       458.0         0.30          6.3 
       459.0         0.27          6.5 
       460.0         0.23          6.3 
       461.0         0.23          6.3 
       462.0         0.27          7.2 
       463.0         0.30          6.9 
       464.0         0.30          6.9 
       465.0         0.27          6.8 
       466.0         0.28          6.9 
       467.0         0.23          6.6 
       468.0         0.27          7.1 
       469.0         0.27          7.4 
       470.0         0.70          7.5 
       471.0         2.62          7.2 
       472.0         0.37          7.5 
       473.0         0.33          7.5 
       474.0         0.33          6.3 
       475.0         0.30          7.6 
       476.0         0.27          8.1 
       477.0         0.35          6.9 
       478.0         0.27          6.5 
       479.0         0.30          6.5 
       480.0         0.27          6.4 
       481.0         0.27          6.8 
       482.0         0.27          6.7 
       483.0         0.23          6.6 
       484.0         0.27          7.2 
       485.0         0.23          7.4 
       486.0         0.37          6.7 
       487.0         0.23          7.2 
       488.0         0.27          7.7 
       489.0         0.32          8.3 
       490.0         0.27          6.7 
       491.0         0.27          6.4 
       492.0         0.27          6.9 
       493.0         0.27          6.4 
       494.0         0.30          7.0 
       495.0         0.27          6.3 
       496.0         0.23          7.0 
       497.0         0.30          6.3 
       498.0         0.37          7.5 
       499.0         0.10          6.8 
       500.0         0.17          6.4 
       501.0         3.22          7.3 
       502.0         0.37          6.6 
       503.0         0.32          6.8 
       504.0         0.27          6.9 
       505.0         0.27          7.0 
       506.0         0.27          7.1 
       507.0         0.27          7.1 
       508.0         0.27          6.6 
       509.0         0.27          7.2 
       510.0         0.27          7.2 
       511.0         0.30          7.1 
       512.0         0.27          7.2 
       513.0         0.30          6.8 
       514.0         0.30          6.9 
       515.0         0.28          7.0 
       516.0         0.27          6.6 
       517.0         0.30          6.8 
       518.0         0.27          6.9 
       519.0         0.27          6.8 
       520.0         0.27          6.8 
       521.0         0.30          6.6 
       522.0         0.27          6.9 
       523.0         0.37          6.7 
       524.0         0.23          7.3 
       525.0         0.23          7.6 
       526.0         0.48          6.8 
       527.0         0.23          7.0 
       528.0         0.27          6.8 
       529.0         0.33          6.6 
       530.0         0.10          6.6 
       531.0         3.75          7.4 
       532.0         0.27          7.3 
       533.0         0.43          7.0 
       534.0         0.40          6.9 
       535.0         0.37          7.0 
       536.0         0.30          7.2 
       537.0         0.35          6.8 
       538.0         0.27          7.2 
       539.0         0.30          7.0 
       540.0         0.37          7.2 
       541.0         0.27          7.0 
       542.0         0.27          7.9 
       543.0         0.27          8.1 
       544.0         0.27          8.1 
       545.0         0.30          7.6 
       546.0         0.27          6.9 
       547.0         0.27          6.9 
       548.0         0.27          7.1 
       549.0         0.32          7.6 
       550.0         0.27          7.4 
       551.0         0.27          7.4 
       552.0         0.27          7.1 
       553.0         0.33          7.6 
       554.0         0.23          7.1 
       555.0         0.30          7.3 
       556.0         0.30          7.4 
       557.0         0.33          7.6 
       558.0         0.27          6.9 
       559.0         0.33          7.9 
       560.0         0.13          6.9 
       561.0         3.57        237.8 
       562.0         0.47         24.2 
       563.0         0.43         12.3 
       564.0         0.40          7.5 
       565.0         0.43          7.8 
       566.0         0.43          7.4 
       567.0         0.43          7.4 
       568.0         0.50          7.6 
       569.0         0.45          7.5 
       570.0         0.40          7.1 
       571.0         0.37          7.5 
       572.0         0.33          7.7 
       573.0         0.33          7.2 
       574.0         0.33          7.3 
       575.0         0.33          7.6 
       576.0         0.37          7.1 
       577.0         0.40          7.5 
       578.0         0.42          7.2 
       579.0         0.40          7.1 
       580.0         0.37         11.7 
       581.0         0.33          7.2 
       582.0         0.37          7.5 
       583.0         0.37          7.5 
       584.0         0.43          7.3 
       585.0         0.37          7.4 
       586.0         0.48          7.1 
       587.0         0.27          7.3 
       588.0         0.53          7.3 
       589.0         0.10          7.3 
