~Version Information
VERS.                      2.0: CWLS Log ASCII Standard - VERSION 2.0
WRAP.                       NO: One line per depth step
~Well Information Block
STRT.FT               440.0000: 
STOP.FT              1300.5000: 
STEP.FT                 0.1000: 
NULL.                -999.2500: 
COMP.          Pioneer Natural Resources: COMPANY
WELL.              Yoshi 14-30: WELL
FLD.           Purgatoire River: FIELD
LOC.           993' FSL & 823' FWL: LOCATION
CNTY.               Las Animas: COUNTY
SRVC.                Patterson: SERVICE COMPANY
DATE.          Fri Feb 17 14:59:28 2006: LOG DATE
UWI.           05 071 08699 00: UNIQUE WELL ID
STAT.                 Colorado: STATE
~Curve Information Block
DEPT.FT            0 000 00 00: Depth
DCAL.in                       : CDL Caliper
RHOB.g/cc                     : CDL Bulk Density
RHOC.g/cc                     : CDL Density Correction
DPOR.pu                       : CDL Density Porosity
GR.GAPI                       : Gamma Ray
NPOR.pu                       : Neutron Porosity
~Parameter Information Block
~A  Depth       DCAL        RHOB        RHOC        DPOR         GR         NPOR    
# ...
  1064.0000      8.0274      2.5040      0.0689      8.8479    130.5209     25.5566
  1064.1000      8.0274      2.5252      0.0858      7.5633    130.3656     25.3823
  1064.2000      8.0274      2.5350      0.1168      6.9703    131.5978     25.1279
  1064.3000      8.0388      2.5314      0.0965      7.1883    137.5303     24.7861
  1064.4000      8.0388      2.5228      0.0712      7.7095    142.3989     24.0705
  1064.5000      8.0409      2.5133      0.0843      8.2836    138.5194     23.0893
  1064.6000      8.0409      2.5030      0.0604      8.9089    127.4174     22.7913
  1064.7000      8.0409      2.4970      0.0467      9.2744    119.7283     23.4561
  1064.8000      8.0407      2.4907      0.0452      9.6519    121.0665     24.1064
  1064.9000      8.0407      2.4800      0.0033     10.3048    124.4305     24.1639
  1065.0000      8.0407      2.4823      0.0054     10.1637    123.6268     23.9031
  1065.1000      8.0407      2.5104      0.0532      8.4586    119.4624     23.5529
  1065.2000      8.0407      2.5386      0.0883      6.7534    116.0119     23.1423
  1065.3000      8.0404      2.5399      0.0618      6.6753    116.0176     22.7401
  1065.4000      8.0404      2.5255      0.0512      7.5476    115.7564     22.5623
  1065.5000      8.0397      2.5181      0.0249      7.9944    110.6220     22.7461
  1065.6000      8.0397      2.5234      0.0751      7.6716    104.6140     23.1546
  1065.7000      8.0397      2.5324      0.0700      7.1275    106.6330     23.5005
  1065.8000      8.0390      2.5350      0.0803      6.9719    119.4271     23.4355
  1065.9000      8.0390      2.5322      0.0213      7.1372    132.7178     23.1381
  1066.0000      8.0394      2.5330      0.0738      7.0932    137.3270     23.2521
  1066.1000      8.0394      2.5390      0.0667      6.7296    136.3554     23.8106
  1066.2000      8.0394      2.5498      0.0735      6.0727    133.9570     24.3113
  1066.3000      8.0428      2.5565      0.1024      5.6666    129.5784     24.5926
  1066.4000      8.0428      2.5415      0.0865      6.5750    123.7044     24.7188
  1066.5000      8.0484      2.5091      0.0162      8.5423    121.5392     24.9450
  1066.6000      8.0484      2.4808      0.0053     10.2537    125.5056     25.6710
  1066.7000      8.0484      2.4697     -0.0073     10.9288    128.5728     26.6251
  1066.8000      8.0520      2.4803      0.0006     10.2842    124.3751     27.0785
  1066.9000      8.0520      2.5051      0.0322      8.7808    117.2429     26.9131
  1067.0000      8.0523      2.5248      0.0333      7.5869    114.7060     26.4178
  1067.1000      8.0523      2.5319      0.0515      7.1559    115.7493     25.8995
  1067.2000      8.0523      2.5356      0.0454      6.9303    114.9458     25.5091
  1067.3000      8.0495      2.5441      0.0287      6.4161    111.0132     25.0986
  1067.4000      8.0495      2.5526      0.0348      5.9016    109.1275     24.7641
  1067.5000      8.0470      2.5590     -0.0075      5.5145    110.4409     24.5750
  1067.6000      8.0470      2.5666      0.0318      5.0526    110.5563     24.0938
  1067.7000      8.0470      2.5638     -0.0109      5.2216    110.3111     23.4125
  1067.8000      8.0487      2.5473     -0.0523      6.2219    110.1310     22.9436
  1067.9000      8.0487      2.5341     -0.0017      7.0223    108.8019     22.3956
  1068.0000      8.0513      2.5279      0.0274      7.3987    108.5214     21.8659
  1068.1000      8.0513      2.5191      0.0054      7.9353    110.5383     22.2080
  1068.2000      8.0513      2.5049      0.0521      8.7917    114.6091     23.0086
  1068.3000      8.0489      2.4911      0.0299      9.6313    121.2291     23.0087
  1068.4000      8.0489      2.4842      0.0675     10.0467    128.7325     22.5032
  1068.5000      8.0462      2.4776      0.0709     10.4500    133.7106     22.8198
  1068.6000      8.0462      2.4638      0.0336     11.2830    137.4606     24.0734
  1068.7000      8.0462      2.4539     -0.0085     11.8826    143.7934     25.0014
  1068.8000      8.0466      2.4521      0.0429     11.9953    148.3017     25.1396
  1068.9000      8.0466      2.4455      0.0276     12.3941    144.9212     24.8412
  1069.0000      8.0506      2.4353      0.0245     13.0124    136.3671     24.1779
  1069.1000      8.0506      2.4338      0.0138     13.1045    130.0526     23.6671
  1069.2000      8.0506      2.4447     -0.0001     12.4417    129.1762     23.7649
  1069.3000      8.0574      2.4583      0.0491     11.6199    128.7553     24.0635
  1069.4000      8.0574      2.4607      0.0264     11.4741    124.2264     24.2525
  1069.5000      8.0617      2.4598     -0.0158     11.5244    121.4793     24.4425
  1069.6000      8.0617      2.4726     -0.0033     10.7525    126.8482     24.4720
  1069.7000      8.0617      2.4847      0.0483     10.0195    137.0004     24.3637
  1069.8000      8.0628      2.4689     -0.0171     10.9781    145.2928     24.5181
  1069.9000      8.0628      2.4356     -0.0291     12.9962    148.7916     24.6474
  1070.0000      8.0620      2.4170     -0.0140     14.1189    146.6600     24.1454
  1070.1000      8.0620      2.4221      0.0140     13.8118    137.9941     23.2968
  1070.2000      8.0620      2.4342      0.0315     13.0766    128.9714     22.8459
  1070.3000      8.0611      2.4329      0.0491     13.1557    126.5486     22.8640
  1070.4000      8.0611      2.4124      0.0133     14.3971    126.3357     22.8998
  1070.5000      8.0612      2.3912     -0.0127     15.6866    123.8617     22.8081
  1070.6000      8.0612      2.3979     -0.0285     15.2791    121.1577     22.8652
  1070.7000      8.0612      2.4390      0.0359     12.7889    120.4105     23.2714
  1070.8000      8.0617      2.4819      0.0924     10.1880    125.1139     23.7459
  1070.9000      8.0617      2.4948      0.0995      9.4045    133.6261     23.9589
  1071.0000      8.0615      2.4857      0.0613      9.9546    136.8233     24.4235
  1071.1000      8.0615      2.4759      0.0722     10.5489    131.1166     25.3918
  1071.2000      8.0615      2.4691      0.0384     10.9652    122.0442     26.0164
  1071.3000      8.0610      2.4640      0.0301     11.2706    117.7325     26.0045
  1071.4000      8.0610      2.4617      0.0517     11.4142    119.3470     26.0368
  1071.5000      8.0628      2.4622      0.0247     11.3834    121.5012     26.0529
  1071.6000      8.0628      2.4704      0.0335     10.8862    121.2187     25.4921
  1071.7000      8.0628      2.4819      0.0541     10.1877    119.4879     24.8274
  1071.8000      8.0635      2.4874      0.0247      9.8521    119.9424     24.8726
  1071.9000      8.0635      2.4901      0.0218      9.6881    122.6205     25.3016
  1072.0000      8.0575      2.4896      0.0618      9.7187    125.5948     25.3056
  1072.1000      8.0575      2.4825      0.0052     10.1524    129.5009     24.8712
  1072.2000      8.0575      2.4801      0.0345     10.2961    132.1380     24.2958
  1072.3000      8.0495      2.4854      0.0904      9.9776    130.5638     23.6572
  1072.4000      8.0495      2.4872      0.1069      9.8642    125.4138     23.0718
  1072.5000      8.0447      2.4836      0.0694     10.0829    121.3520     22.6379
  1072.6000      8.0447      2.4758      0.0942     10.5580    121.8831     22.1505
  1072.7000      8.0447      2.4642      0.0388     11.2634    125.7951     21.6584
  1072.8000      8.0437      2.4559      0.0136     11.7634    128.6395     21.4100
  1072.9000      8.0437      2.4504      0.0462     12.0990    126.0348     21.3656
  1073.0000      8.0467      2.4348      0.0515     13.0398    119.7655     21.3969
  1073.1000      8.0467      2.4081      0.0227     14.6595    117.7337     21.5411
  1073.2000      8.0467      2.3851      0.0152     16.0567    122.5590     21.6900
  1073.3000      8.0497      2.3744      0.0315     16.7046    130.7719     21.4220
  1073.4000      8.0497      2.3700      0.0435     16.9701    136.8558     20.6698
  1073.5000      8.0500      2.3709      0.0073     16.9142    130.6181     20.0513
