~Version Information
VERS.                      2.0: CWLS Log ASCII Standard - VERSION 2.0
WRAP.                       NO: One line per depth step
~Well Information Block
STRT.FT               245.0000: 
STOP.FT              1208.2000: 
STEP.FT                 0.1000: 
NULL.                -999.2500: 
COMP.          Pioneer Natural Resources: COMPANY
WELL.              Davida 34-8: WELL
FLD.           Purgatoire River: FIELD
LOC.           418' FSL & 1923' FEL--: LOCATION
CNTY.               Las Animas: COUNTY
SRVC.                Patterson: SERVICE COMPANY
DATE.          Mon Mar 20 08:22:01 2006: LOG DATE
UWI.           05 071 08722 00: UNIQUE WELL ID
STAT.                 Colorado: STATE
~Curve Information Block
DEPT.FT            0 000 00 00: Depth
DCAL.in                       : CDL Caliper
RHOB.g/cc                     : CDL Bulk Density
RHOC.g/cc                     : CDL Density Correction
DPOR.pu                       : CDL Density Porosity
NPOR.pu                       : Neutron Porosity
GR.GAPI                       : Gamma Ray
~Parameter Information Block
~A  Depth       DCAL        RHOB        RHOC        DPOR        NPOR         GR     
# ...
   302.6000      8.0173      2.5951      0.0809      3.3298     23.1575    102.3590
   302.7000      8.0173      2.6005      0.0280      3.0003     23.6732    101.2075
   302.8000      8.0158      2.5963      0.0356      3.2570     24.1432    101.7193
   302.9000      8.0158      2.5855      0.0178      3.9120     24.5337    103.8293
   303.0000      8.0206      2.5688      0.0030      4.9205     24.7869    104.0586
   303.1000      8.0206      2.5525     -0.0102      5.9106     24.8028    102.2597
   303.2000      8.0206      2.5393      0.0319      6.7121     24.6061    103.3649
   303.3000      8.0272      2.5340     -0.0097      7.0319     24.3524    109.1206
   303.4000      8.0272      2.5469      0.0002      6.2500     24.1708    116.2114
   303.5000      8.0332      2.5702      0.0462      4.8353     24.1811    122.8573
   303.6000      8.0332      2.5830      0.0051      4.0578     24.4904    124.9324
   303.7000      8.0332      2.5794      0.0290      4.2771     24.9433    119.7784
   303.8000      8.0364      2.5747     -0.0313      4.5611     25.3456    115.1372
   303.9000      8.0364      2.5852      0.0138      3.9291     25.5986    117.0706
   304.0000      8.0366      2.5971      0.0451      3.2055     25.5992    120.4982
   304.1000      8.0366      2.5905      0.0049      3.6033     25.5006    120.5703
   304.2000      8.0366      2.5664      0.0042      5.0679     25.6798    119.7327
   304.3000      8.0339      2.5325      0.0003      7.1186     26.2163    122.1837
   304.4000      8.0339      2.5108     -0.0527      8.4373     26.5862    129.6061
   304.5000      8.0270      2.5240     -0.0150      7.6337     26.4162    137.4253
   304.6000      8.0270      2.5581      0.0427      5.5719     26.0278    139.1044
   304.7000      8.0270      2.5844      0.0269      3.9781     25.7230    135.5348
   304.8000      8.0185      2.5985      0.0639      3.1189     25.6028    130.3738
   304.9000      8.0185      2.6045      0.0548      2.7589     25.8730    126.8039
   305.0000      8.0133      2.5988      0.0822      3.1021     26.4559    125.3087
   305.1000      8.0133      2.5898     -0.0011      3.6483     27.1006    123.9811
   305.2000      8.0133      2.5910      0.0384      3.5752     27.6133    124.7866
   305.3000      8.0105      2.5950      0.0408      3.3336     27.8435    130.3764
   305.4000      8.0105      2.5922      0.0382      3.5043     27.9473    136.2439
   305.5000      8.0090      2.5836      0.0280      4.0226     28.1743    136.2813
   305.6000      8.0090      2.5678      0.0309      4.9840     28.3242    132.9055
   305.7000      8.0090      2.5505      0.0095      6.0329     27.9628    130.7906
   305.8000      8.0085      2.5483      0.0448      6.1662     27.2391    129.6369
   305.9000      8.0085      2.5635      0.0451      5.2442     26.7244    129.9908
   306.0000      8.0093      2.5840      0.0406      4.0004     26.5900    133.6961
   306.1000      8.0093      2.6009      0.0452      2.9775     26.6444    136.8060
   306.2000      8.0093      2.6067      0.0859      2.6227     26.8503    135.0591
   306.3000      8.0070      2.5899      0.0965      3.6441     27.0618    130.9517
   306.4000      8.0070      2.5552      0.0208      5.7465     26.8523    129.5511
   306.5000      7.9997      2.5276     -0.0011      7.4155     26.2648    131.1174
   306.6000      7.9997      2.5201      0.0138      7.8711     25.6857    133.5222
   306.7000      7.9997      2.5277      0.0115      7.4107     25.2819    134.3256
   306.8000      7.9934      2.5395      0.0411      6.6994     25.1482    130.9938
   306.9000      7.9934      2.5473      0.0314      6.2256     25.2432    126.3502
   307.0000      7.9981      2.5525      0.0490      5.9117     25.1990    125.4341
   307.1000      7.9981      2.5562      0.0238      5.6871     24.7987    126.2197
   307.2000      7.9981      2.5575      0.0212      5.6040     24.1709    124.8374
   307.3000      8.0201      2.5554      0.0198      5.7315     23.5030    120.8241
   307.4000      8.0201      2.5458      0.0477      6.3134     23.0970    116.1336
   307.5000      8.0466      2.5351     -0.0105      6.9646     23.1292    114.8441
   307.6000      8.0466      2.5378      0.0255      6.8029     23.2484    117.6462
   307.7000      8.0466      2.5509      0.0536      6.0046     23.2771    120.5637
   307.8000      8.0549      2.5628      0.0529      5.2871     23.4479    121.9527
   307.9000      8.0549      2.5725     -0.0013      4.6962     23.6400    124.5748
   308.0000      8.0467      2.5817      0.0557      4.1395     23.6977    130.8687
   308.1000      8.0467      2.5890      0.0021      3.6960     23.8595    138.4461
   308.2000      8.0467      2.5993      0.0529      3.0733     24.2298    140.7514
   308.3000      8.0408      2.6105      0.0489      2.3967     24.4561    134.6670
   308.4000      8.0408      2.6144      0.0557      2.1565     24.2676    127.1021
   308.5000      8.0399      2.6103      0.0444      2.4089     23.8240    125.3906
   308.6000      8.0399      2.6023      0.0653      2.8921     23.2375    127.9392
   308.7000      8.0399      2.5931      0.0373      3.4509     22.4898    130.2397
   308.8000      8.0380      2.5858      0.0230      3.8895     21.7384    130.0896
   308.9000      8.0380      2.5848      0.0149      3.9500     21.0527    128.0359
   309.0000      8.0367      2.5894      0.0641      3.6724     20.3149    125.4625
   309.1000      8.0367      2.5929      0.0279      3.4625     19.4605    122.0813
   309.2000      8.0367      2.5866      0.0455      3.8447     18.6845    115.7688
   309.3000      8.0400      2.5699     -0.0077      4.8571     18.3769    105.2649
   309.4000      8.0400      2.5512      0.0062      5.9898     18.3654     93.7838
   309.5000      8.0458      2.5357     -0.0313      6.9301     18.0756     85.6897
   309.6000      8.0458      2.5253      0.0122      7.5564     17.6066     82.1255
   309.7000      8.0458      2.5220     -0.0034      7.7554     17.4357     79.1307
   309.8000      8.0459      2.5248      0.0078      7.5887     17.6305     72.5432
   309.9000      8.0459      2.5290      0.0145      7.3337     18.0327     63.8016
   310.0000      8.0302      2.5342      0.0059      7.0191     18.4163     56.8200
   310.1000      8.0302      2.5403      0.0410      6.6468     18.3306     54.5479
   310.2000      8.0302      2.5446      0.0488      6.3901     17.6726     55.7941
   310.3000      8.0083      2.5451      0.0414      6.3582     17.1375     57.6998
   310.4000      8.0083      2.5360      0.0491      6.9070     17.2190     59.8188
   310.5000      7.9868      2.5145      0.0687      8.2108     17.4795     60.0549
   310.6000      7.9868      2.4959     -0.0217      9.3400     17.4541     57.0150
   310.7000      7.9868      2.4919      0.0224      9.5832     17.1935     53.4777
   310.8000      7.9686      2.4934      0.0238      9.4902     16.7698     50.7475
   310.9000      7.9686      2.4947      0.0175      9.4120     16.2809     48.7919
   311.0000      7.9647      2.4974      0.0343      9.2497     15.9536     47.6759
   311.1000      7.9647      2.5034      0.0492      8.8824     15.9932     46.8608
   311.2000      7.9647      2.5198      0.0437      7.8939     16.2055     47.1068
   311.3000      7.9710      2.5450      0.0838      6.3645     16.1004     48.3598
   311.4000      7.9710      2.5651      0.0773      5.1450     15.6331     49.3084
   311.5000      7.9772      2.5726      0.1044      4.6880     15.3066     52.3501
   311.6000      7.9772      2.5719      0.0854      4.7335     15.3940     57.7743
   311.7000      7.9772      2.5707      0.0679      4.8081     15.7951     60.0145
   311.8000      7.9781      2.5701      0.0637      4.8442     16.3244     56.5444
   311.9000      7.9781      2.5637      0.0738      5.2325     16.7117     51.2277
   312.0000      7.9799      2.5501      0.0584      6.0567     16.9820     47.1070
   312.1000      7.9799      2.5352      0.0267      6.9585     17.4202     45.2500
