~Version Information
VERS.                      2.0: CWLS Log ASCII Standard - VERSION 2.0
WRAP.                       NO: One line per depth step
~Well Information Block
STRT.FT                -9.5000: 
STOP.FT              1401.5000: 
STEP.FT                 0.2500: 
NULL.                -999.2500: 
COMP.          Pioneer Natural Resources: COMPANY
WELL.             John K 12-28: WELL
FLD.           Purgatorie River: FIELD
LOC.           1476' FNL & 465' FWL--: LOCATION
CNTY.               Las Animas: COUNTY
SRVC.          Patterson Wireline: SERVICE COMPANY
DATE.          Fri Apr 28 08:36:46 2006: LOG DATE
UWI.           05 071 08723 00: UNIQUE WELL ID
STAT.                       CO: STATE
~Curve Information Block
DEPT.FT            0 000 00 00: Depth
CCL.                          : Casing Collar Locator
TT3.usec                      : CBL 3' Travel Time
AMP3.mV                       : CBL 3' Amplitude
GR.GAPI                       : Gamma Ray
~Parameter Information Block
~A  Depth       CCL         TT3         AMP3         GR     
# ...
  1364.0000      0.0000    714.3022      1.8907     66.5512
  1364.2500      0.0000    714.9820      1.9555     68.0915
  1364.5000      0.0000    716.9139      2.0589     70.1694
  1364.7500      0.0000    716.2274      2.1857     72.5419
  1365.0000      0.0000    710.1537      2.3022     75.2167
  1365.2500      0.0000    699.7797      2.3762     78.2456
  1365.5000      0.0000    688.7415      2.3983     80.8263
  1365.7500      0.0000    679.9426      2.3857     81.2354
  1366.0000      0.0000    674.0464      2.3648     78.1992
  1366.2500      2.0000    670.6000      2.3511     72.3218
  1366.5000      0.0000    669.7966      2.3436     65.9468
  1366.7500      0.0000    672.7909      2.3351     61.4693
  1367.0000      0.0000    680.6382      2.3222     59.6909
  1367.2500      0.0000    693.0754      2.3004     59.8686
  1367.5000      0.0000    707.4340      2.2551     61.3083
  1367.7500      0.0000    718.5278      2.1682     64.4593
  1368.0000      0.0000    721.4108      2.0413     70.0930
  1368.2500      0.0000    715.5941      1.9047     77.7428
  1368.5000      0.0000    705.7318      1.7948     85.5091
  1368.7500      0.0000    697.8356      1.7284     91.3461
  1369.0000      0.0000    695.8998      1.7004     94.3067
  1369.2500      0.0000    701.8870      1.6974     94.6899
  1369.5000      0.0000    716.3817      1.7076     93.2582
  1369.7500      0.0000    737.3135      1.7248     90.3574
  1370.0000      0.0000    758.8105      1.7488     85.9125
  1370.2500      0.0000    773.4244      1.7837     80.3752
  1370.5000      0.0000    776.3651      1.8313     75.3413
  1370.7500      0.0000    767.5114      1.8867     72.6818
  1371.0000      0.0000    750.1965      1.9418     72.9677
  1371.2500      0.0000    729.0753      1.9922     75.0242
  1371.5000      0.0000    708.5382      2.0418     77.0592
  1371.7500      0.0000    691.7460      2.0998     77.9926
  1372.0000      0.0000    680.3352      2.1754     77.6746
  1372.2500      0.0000    674.7123      2.2751     76.2230
  1372.5000      0.0000    674.5964      2.4030     73.7835
  1372.7500      0.0000    679.3220      2.5580     71.0312
  1373.0000      0.0000    687.6148      2.7299     69.1710
  1373.2500      0.0000    697.3716      2.9001     68.8055
  1373.5000      0.0000    706.2474      3.0489     69.2948
  1373.7500      0.0000    712.7779      3.1629     69.8988
  1374.0000      0.0000    716.8438      3.2365     70.9848
  1374.2500      0.0000    719.1710      3.2690     73.2663
  1374.5000      0.0000    720.6589      3.2639     76.3278
  1374.7500      0.0000    721.8443      3.2292     78.6773
  1375.0000      0.0000    722.0215      3.1770     79.0001
  1375.2500      0.0000    718.1659      3.1199     76.9487
  1375.5000      0.0000    705.3021      3.0685     73.1727
  1375.7500      0.0000    679.6923      3.0323     69.0090
  1376.0000      0.0000    642.8583      3.0183     65.7696
  1376.2500      0.0000    602.0215      3.0279     63.8850
  1376.5000      0.0000    565.8566      3.0539     62.8531
  1376.7500      0.0000    540.5790      3.0817     62.0066
  1377.0000      0.0000    530.3202      3.0935     61.0870
  1377.2500      0.0000    538.0862      3.0749     60.1561
  1377.5000      0.0000    562.9390      3.0217     59.4252
  1377.7500      0.0000    597.4192      2.9433     59.2764
  1378.0000      0.0000    631.1155      2.8571     60.0321
  1378.2500      0.0000    657.4758      2.7758     61.5086
  1378.5000      0.0000    676.1686      2.7005     63.1666
  1378.7500      0.0000    689.4873      2.6254     64.8878
  1379.0000      0.0000    698.1582      2.5475     67.1658
  1379.2500      0.0000    700.8912      2.4695     70.2208
  1379.5000      0.0000    696.9407      2.3931     73.4106
  1379.7500      0.0000    688.1647      2.3145     75.9220
  1380.0000      0.0000    678.5418      2.2287     77.5837
  1380.2500      0.0000    672.2419      2.1396     78.5499
  1380.5000      0.0000    671.8734      2.0617     78.5722
  1380.7500      0.0000    677.2008      2.0094     77.0738
  1381.0000      0.0000    684.9114      1.9850     73.9073
  1381.2500      0.0000    690.6647      1.9781     69.9157
  1381.5000      0.0000    692.2314      1.9762     66.7678
  1381.7500      0.0000    690.4747      1.9743     66.1002
  1382.0000      0.0000    687.4016      1.9783     68.5456
  1382.2500      0.0000    683.9813      1.9976     73.3709
  1382.5000      0.0000    679.9855      2.0387     78.9252
  1382.7500      0.0000    675.3072      2.1057     83.5355
  1383.0000      0.0000    670.8170      2.2052     86.2859
  1383.2500      0.0000    667.9066      2.3507     87.1489
  1383.5000      0.0000    667.7461      2.5589     86.5103
  1383.7500      0.0000    671.3683      2.8417     84.8447
  1384.0000      0.0000    679.9237      3.2029     82.9481
  1384.2500      0.0000    694.1630      3.6399     81.8591
  1384.5000      0.0000    713.6774      4.1450     81.8130
  1384.7500      0.0000    736.4111      4.7025     81.5984
  1385.0000      0.0000    758.2053      5.2860     79.8079
  1385.2500      0.0000    773.3380      5.8627     76.6089
  1385.5000      0.0000    777.5527      6.3976     73.5270
  1385.7500      0.0000    771.7090      6.8505     71.8218
  1386.0000      0.0000    761.5394      7.1727     71.8807
  1386.2500      0.0000    752.8690      7.3168     73.6856
  1386.5000      0.0000    747.5527      7.2592     76.9245
  1386.7500      0.0000    744.3930      7.0180     80.8323
  1387.0000      0.0000    742.6687      6.6481     84.0627
  1387.2500      0.0000    743.2000      6.2118     84.2512
  1387.5000      0.0000    746.3615      5.7492     78.2545
  1387.7500      0.0000    750.6750      5.2731     64.4561
  1388.0000      0.0000    753.7615      4.7915     45.3050
  1388.2500      0.0000    753.8052      4.3272     26.4138
  1388.5000      0.0000    749.8455      3.9097     12.5285
  1388.7500      0.0000    741.5532      3.5534      4.7725
  1389.0000      0.0000    729.6151      3.2518      1.4474
  1389.2500      0.0000    716.3652      2.9950      0.3470
  1389.5000      0.0000    705.3246      2.7817      0.0651
  1389.7500      0.0000    699.2234      2.6109      0.0088
  1390.0000      0.0000    698.0016      2.4694      0.0000
  1390.2500      0.0000    698.9727      2.3370   -999.2500
  1390.5000      0.0000    699.2206      2.2038   -999.2500
  1390.7500      0.0000    697.5955      2.0754   -999.2500
  1391.0000      0.0000    694.3577      1.9629   -999.2500
  1391.2500      0.0000    689.6164      1.8718   -999.2500
  1391.5000      0.0000    682.6679      1.8031   -999.2500
  1391.7500      0.0000    672.1147      1.7550   -999.2500
  1392.0000      0.0000    655.1091      1.7193   -999.2500
  1392.2500      0.0000    625.1335      1.6769   -999.2500
  1392.5000      0.0000    571.3994      1.5994   -999.2500
  1392.7500      0.0000    484.6024      1.4625   -999.2500
  1393.0000      0.0000    367.8385      1.2663   -999.2500
  1393.2500      0.0000    241.6089      1.0452   -999.2500
  1393.5000      0.0000    133.5686      0.8505   -999.2500
  1393.7500      0.0000     60.8486      0.7168   -999.2500
  1394.0000      0.0000     22.4912      0.6453   -999.2500
  1394.2500      0.0000      6.6688      0.6155   -999.2500
  1394.5000      0.0000      1.5709      0.6058   -999.2500
  1394.7500      0.0000      0.2891      0.6034   -999.2500
  1395.0000      0.0000      0.0380      0.6029   -999.2500
  1395.2500      0.0000   -999.2500   -999.2500   -999.2500
  1395.5000      0.0000   -999.2500   -999.2500   -999.2500
  1395.7500      0.0000   -999.2500   -999.2500   -999.2500
  1396.0000      0.0000   -999.2500   -999.2500   -999.2500
  1396.2500      0.0000   -999.2500   -999.2500   -999.2500
  1396.5000      0.0000   -999.2500   -999.2500   -999.2500
  1396.7500      0.0000   -999.2500   -999.2500   -999.2500
  1397.0000      0.0000   -999.2500   -999.2500   -999.2500
  1397.2500      0.0000   -999.2500   -999.2500   -999.2500
