~Version Information
VERS.                      2.0: CWLS Log ASCII Standard - VERSION 2.0
WRAP.                       NO: One line per depth step
~Well Information Block
STRT.FT               845.0000: 
STOP.FT              2103.2000: 
STEP.FT                 0.1000: 
NULL.                -999.2500: 
COMP.          Petrogulf Corporation: COMPANY
WELL.               YWAM 7-32R: WELL
FLD.           Purgatorie River: FIELD
LOC.           2355' FNL & 2376' FEL: LOCATION
PROV.                 Colorado: PROVINCE
CNTY.               Las Animas: COUNTRY
SRVC.                Patterson: SERVICE COMPANY
DATE.          Thu Sep 29 23:12:08 2005: LOG DATE
UWI.                          : UNIQUE WELL ID
~Curve Information Block
DEPT.FT            0 000 00 00: Depth
SP.mV                         : DIL Spontaneous Potential
RILD.Ohm-m                    : DIL Deep Resistivity
RILM.Ohm-m                    : DIL Medium Resistivity
RLL3.Ohm-m                    : DIL Shallow Resistivity
GR.GAPI                       : Gamma Ray
~Parameter Information Block
~A  Depth        SP         RILD        RILM        RLL3         GR     
   845.0000    153.8214      8.4273   -999.2500      0.2143     69.9966
   845.1000    153.8214      8.4273   -999.2500      0.2143     68.7094
   845.2000    153.8214      8.4273   -999.2500      0.2143     67.5713
   845.3000    155.5363      8.5820   -999.2500      0.1992     66.6845
   845.4000    155.5363      8.5820   -999.2500      0.1992     66.1184
   845.5000    156.7444      8.7491   -999.2500      0.1756     65.9045
   845.6000    156.7444      8.7491   -999.2500      0.1756     66.0371
   845.7000    156.7444      8.7491   -999.2500      0.1756     66.4735
   845.8000    157.0088      8.9223   -999.2500      0.1566     67.1457
   845.9000    157.0088      8.9223   -999.2500      0.1566     67.9715
   846.0000    156.0872      9.0979   -999.2500      0.1619     68.8653
   846.1000    156.0872      9.0979   -999.2500      0.1619     69.7445
   846.2000    156.0872      9.0979   -999.2500      0.1619     70.5402
   846.3000    154.0527      9.2759   -999.2500      0.2046     71.1985
   846.4000    154.0527      9.2759   -999.2500      0.2046     71.6790
   846.5000    151.2831      9.4593   -999.2500      0.2758     71.9592
   846.6000    151.2831      9.4593   -999.2500      0.2758     72.0298
   846.7000    151.2831      9.4593   -999.2500      0.2758     71.8961
   846.8000    148.3050      9.6499   -999.2500      0.3457     71.5769
   846.9000    148.3050      9.6499   -999.2500      0.3457     71.1068
   847.0000    145.5560      9.8440   -999.2500      0.3852     70.5305
   847.1000    145.5560      9.8440   -999.2500      0.3852     69.9045
   847.2000    145.5560      9.8440   -999.2500      0.3852     69.2931
   847.3000    143.2048     10.0302   -999.2500      0.3862     68.7594
   847.4000    143.2048     10.0302   -999.2500      0.3862     68.3599
   847.5000    141.1348     10.1900   -999.2500      0.3599     68.1414
   847.6000    141.1348     10.1900   -999.2500      0.3599     68.1330
   847.7000    141.1348     10.1900   -999.2500      0.3599     68.3460
   847.8000    139.0865     10.3009   -999.2500      0.3217     68.7813
   847.9000    139.0865     10.3009   -999.2500      0.3217     69.4307
   848.0000    136.8564     10.3429   -999.2500      0.2837     70.2769
   848.1000    136.8564     10.3429   -999.2500      0.2837     71.3027
   848.2000    136.8564     10.3429   -999.2500      0.2837     72.4874
   848.3000    134.4241     10.3089   -999.2500      0.2569     73.8049
   848.4000    134.4241     10.3089   -999.2500      0.2569     75.2157
   848.5000    131.9296     10.2202 100000.0000      0.2494     76.6681
   848.6000    131.9296     10.2202 100000.0000      0.2494     78.0946
   848.7000    131.9296     10.2202 100000.0000      0.2494     79.4216
   848.8000    129.5292     10.1365 100000.0000      0.2595     80.5756
   848.9000    129.5292     10.1365 100000.0000      0.2595     81.4971
   849.0000    127.2538     10.1474 100000.0000      0.2765     82.1531
   849.1000    127.2538     10.1474 100000.0000      0.2765     82.5386
   849.2000    127.2538     10.1474 100000.0000      0.2765     82.6799
   849.3000    124.9889     10.3466 100000.0000      0.2918     82.6259
   849.4000    124.9889     10.3466 100000.0000      0.2918     82.4363
   849.5000    122.5882     10.7981 100000.0000      0.3054     82.1696
   849.6000    122.5882     10.7981 100000.0000      0.3054     81.8692
   849.7000    122.5882     10.7981 100000.0000      0.3054     81.5621
   849.8000    120.0095     11.5001 100000.0000      0.3211     81.2535
   849.9000    120.0095     11.5001 100000.0000      0.3211     80.9334
   850.0000    117.3673     12.3527 100000.0000      0.3397     80.5798
   850.1000    117.3673     12.3527 100000.0000      0.3397     80.1690
   850.2000    117.3673     12.3527 100000.0000      0.3397     79.6801
   850.3000    114.8970     13.1585 100000.0000      0.3572     79.0996
   850.4000    114.8970     13.1585 100000.0000      0.3572     78.4257
   850.5000    112.8645     13.7066 100000.0000      0.3675     77.6680
   850.6000    112.8645     13.7066 100000.0000      0.3675     76.8507
   850.7000    112.8645     13.7066 100000.0000      0.3675     76.0079
   850.8000    111.4434     13.9113 100000.0000      0.3674     75.1832
   850.9000    111.4434     13.9113 100000.0000      0.3674     74.4207
   851.0000    110.6165     13.8730 100000.0000      0.3592     73.7615
   851.1000    110.6165     13.8730 100000.0000      0.3592     73.2401
   851.2000    110.6165     13.8730 100000.0000      0.3592     72.8737
   851.3000    110.1949     13.8099 100000.0000      0.3491     72.6684
   851.4000    110.1949     13.8099 100000.0000      0.3491     72.6177
   851.5000    109.9696     13.9586 100000.0000      0.3463     72.7108
   851.6000    109.9696     13.9586 100000.0000      0.3463     72.9322
   851.7000    109.9696     13.9586 100000.0000      0.3463     73.2682
   851.8000    109.8898     14.5174 100000.0000      0.3676     73.7088
   851.9000    109.8898     14.5174 100000.0000      0.3676     74.2421
   852.0000    110.1148     15.5946 100000.0000      0.4378     74.8549
   852.1000    110.1148     15.5946 100000.0000      0.4378     75.5339
   852.2000    110.1148     15.5946 100000.0000      0.4378     76.2597
   852.3000    110.8697     17.0724 100000.0000      0.5739     77.0100
   852.4000    110.8697     17.0724 100000.0000      0.5739     77.7666
   852.5000    112.1861     18.3720 100000.0000      0.7550     78.5125
   852.6000    112.1861     18.3720 100000.0000      0.7550     79.2360
   852.7000    112.1861     18.3720 100000.0000      0.7550     79.9304
   852.8000    113.7253     18.5280 100000.0000      0.9079     80.5893
   852.9000    113.7253     18.5280 100000.0000      0.9079     81.2078
   853.0000    114.8480     17.1162 100000.0000      0.9443     81.7754
   853.1000    114.8480     17.1162 100000.0000      0.9443     82.2781
   853.2000    114.8480     17.1162 100000.0000      0.9443     82.7012
   853.3000    114.9090     14.8595 100000.0000      0.8263     83.0239
   853.4000    114.9090     14.8595 100000.0000      0.8263     83.2259
   853.5000    113.5720     12.7245 100000.0000      0.5981     83.2909
   853.6000    113.5720     12.7245 100000.0000      0.5981     83.2044
   853.7000    113.5720     12.7245 100000.0000      0.5981     82.9652
   853.8000    110.9537     11.1513 100000.0000      0.3516     82.5805
   853.9000    110.9537     11.1513 100000.0000      0.3516     82.0743
   854.0000    107.5407     10.1806 100000.0000      0.1604     81.4903
   854.1000    107.5407     10.1806 100000.0000      0.1604     80.8896
   854.2000    107.5407     10.1806 100000.0000      0.1604     80.3428
   854.3000    103.9203      9.7560 100000.0000      0.0443     79.9288
   854.4000    103.9203      9.7560 100000.0000      0.0443     79.7178
   854.5000    100.4367      9.8929 100000.0000     -0.0150     79.7621
   854.6000    100.4367      9.8929 100000.0000     -0.0150     80.0918
   854.7000    100.4367      9.8929 100000.0000     -0.0150     80.7026
   854.8000     97.0068     10.7782 100000.0000     -0.0419     81.5642
   854.9000     97.0068     10.7782 100000.0000     -0.0419     82.6229
   855.0000     93.3041     12.8942 100000.0000     -0.0666     83.8080
   855.1000     93.3041     12.8942 100000.0000     -0.0666     85.0471
   855.2000     93.3041     12.8942 100000.0000     -0.0666     86.2733
   855.3000     89.2127     17.1740 100000.0000     -0.1351     87.4277
   855.4000     89.2127     17.1740 100000.0000     -0.1351     88.4665
   855.5000     85.1548     24.2265 100000.0000     -0.2640     89.3649
   855.6000     85.1548     24.2265 100000.0000     -0.2640     90.1068
   855.7000     85.1548     24.2265 100000.0000     -0.2640     90.6916
   855.8000     81.9768     28.5525 100000.0000     -0.3713     91.1316
   855.9000     81.9768     28.5525 100000.0000     -0.3713     91.4435
   856.0000     80.4303     21.8450 100000.0000     -0.3102     91.6543
   856.1000     80.4303     21.8450 100000.0000     -0.3102     91.7954
