~Version Information
VERS.                      2.0: CWLS Log ASCII Standard - VERSION 2.0
WRAP.                       NO: One line per depth step
~Well Information Block
STRT.FT               360.0000: 
STOP.FT              1349.5000: 
STEP.FT                 0.1000: 
NULL.                -999.2500: 
COMP.          Pioneer Natural Resources: COMPANY
WELL.          Challenger 31-29: WELL
FLD.           Purgatoire River: FIELD
LOC.           51' FNL & 1923' FEL: LOCATION
STAT.                 Colorado: State
CNTY.               Las Animas: COUNTY
CTRY. USA : Country
SECT. 29 : Section
TOWN. 33S : Township
RANG. 65W : Range
SRVC.                Patterson: SERVICE COMPANY
DATE.          Thu Sep 15 13:35:50 2005: LOG DATE
API.           05 071 08514 00: UNIQUE WELL ID
~Curve Information Block
DEPT.FT            0 000 00 00: Depth
DCAL.in                       : CDL Caliper
RHOB.g/cc                     : CDL Bulk Density
RHOC.g/cc                     : CDL Density Correction
DPOR.pu                       : CDL Density Porosity
GR.GAPI                       : Gamma Ray
NPOR.pu                       : Neutron Porosity
~Parameter Information Block
~A  Depth       DCAL        RHOB        RHOC        DPOR         GR         NPOR    
# ...
   820.8000      8.0164      2.4282      0.0362     13.4397    155.4478     26.1518
   820.9000      8.0164      2.4451      0.0456     12.4170    157.0263     26.4028
   821.0000      8.0730      2.4660      0.0755     11.1510    154.8285     26.5150
   821.1000      8.0730      2.4820      0.0807     10.1826    152.4165     26.6906
   821.2000      8.0730      2.4911      0.1114      9.6326    156.0851     27.3165
   821.3000      8.0835      2.4926      0.0816      9.5376    164.7985     28.0133
   821.4000      8.0835      2.4906      0.0937      9.6585    171.0313     28.0745
   821.5000      8.1147      2.4849      0.1047     10.0057    169.5528     27.6231
   821.6000      8.1147      2.4682      0.0734     11.0210    162.8092     27.2143
   821.7000      8.1147      2.4463      0.0419     12.3435    156.8530     26.7911
   821.8000      8.0877      2.4384      0.0024     12.8221    153.7708     26.3519
   821.9000      8.0877      2.4500      0.0623     12.1206    153.9359     26.2831
   822.0000      8.0792      2.4681      0.0688     11.0216    159.3707     27.0218
   822.1000      8.0792      2.4795      0.0931     10.3320    166.7511     28.4368
   822.2000      8.0792      2.4818      0.0703     10.1935    168.4203     29.1357
   822.3000      8.0685      2.4863      0.0407      9.9203    164.3360     28.3756
   822.4000      8.0685      2.5008      0.1022      9.0443    161.6053     27.3162
   822.5000      8.0705      2.5207      0.0471      7.8361    164.5294     27.0990
   822.6000      8.0705      2.5443      0.0735      6.4055    169.7725     27.3170
   822.7000      8.0705      2.5657      0.1299      5.1077    171.2517     27.0057
   822.8000      8.0727      2.5675      0.1585      5.0025    164.5862     26.5792
   822.9000      8.0727      2.5392      0.0848      6.7151    152.6982     26.6652
   823.0000      8.0747      2.4998      0.0235      9.1012    141.2892     26.5833
   823.1000      8.0747      2.4789      0.0155     10.3692    131.0102     26.0450
   823.2000      8.0747      2.4782      0.0336     10.4110    125.9852     25.9477
   823.3000      8.0676      2.4803      0.0486     10.2877    130.0339     26.8375
   823.4000      8.0676      2.4807      0.0566     10.2629    136.3481     27.9621
   823.5000      8.0668      2.4874      0.0402      9.8574    138.8252     28.3226
   823.6000      8.0668      2.5062      0.0641      8.7130    140.0720     27.9640
   823.7000      8.0668      2.5351      0.0922      6.9619    144.1212     27.0726
   823.8000      8.0629      2.5651      0.1358      5.1439    148.6961     25.8499
   823.9000      8.0629      2.5901      0.0864      3.6298    151.1546     24.7947
   824.0000      8.0451      2.6012      0.1569      2.9593    152.0593     24.2429
   824.1000      8.0451      2.5794      0.1727      4.2808    148.4790     24.3139
   824.2000      8.0451      2.5312      0.0888      7.2021    142.4061     24.5279
   824.3000      8.0285      2.4944      0.0862      9.4326    142.5194     24.8033
   824.4000      8.0285      2.4844      0.0921     10.0338    151.6725     25.6324
   824.5000      8.0350      2.4817      0.0791     10.1970    164.3519     26.7210
   824.6000      8.0350      2.4784      0.0288     10.4013    171.6526     27.8358
   824.7000      8.0350      2.4937      0.0380      9.4722    169.8021     28.8951
   824.8000      8.0460      2.5256      0.1151      7.5413    163.0184     29.2649
   824.9000      8.0460      2.5420      0.1505      6.5430    158.1211     29.0449
   825.0000      8.0627      2.5434      0.0429      6.4585    155.8665     28.8777
   825.1000      8.0627      2.5625      0.1139      5.3045    152.0233     28.7505
   825.2000      8.0627      2.6006      0.1543      2.9926    147.6993     28.5538
   825.3000      8.0690      2.6319      0.1319      1.0940    142.6231     28.4109
   825.4000      8.0690      2.6442      0.0849      0.3507    135.7287     28.0119
   825.5000      8.0696      2.6339      0.1106      0.9769    130.9764     27.2630
   825.6000      8.0696      2.6011      0.0637      2.9649    128.8376     26.5637
   825.7000      8.0696      2.5717      0.0273      4.7436    123.3413     26.1281
   825.8000      8.0616      2.5715      0.0003      4.7556    113.6605     25.8786
   825.9000      8.0616      2.5912      0.0228      3.5613    104.6379     25.2372
   826.0000      8.0227      2.6177      0.0145      1.9553     98.9579     23.9504
   826.1000      8.0227      2.6498      0.0788      0.0151     95.0820     22.7800
   826.2000      8.0227      2.6641      0.1135     -0.8574     90.6634     22.0546
   826.3000      7.9978      2.6440      0.0747      0.3626     86.1374     21.2621
   826.4000      7.9978      2.6176      0.0801      1.9656     84.5808     20.5750
   826.5000      7.9987      2.6070      0.1292      2.6064     86.1564     20.4884
   826.6000      7.9987      2.5988      0.1111      3.1031     89.6310     20.6087
   826.7000      7.9987      2.5818      0.0623      4.1313     97.0985     20.6884
   826.8000      7.9962      2.5610      0.0596      5.3913    108.2304     21.2372
   826.9000      7.9962      2.5361      0.0874      6.9020    118.5499     22.2944
   827.0000      7.9986      2.5076      0.0408      8.6283    124.0051     23.2800
   827.1000      7.9986      2.4917      0.0024      9.5925    126.7483     23.9630
   827.2000      7.9986      2.4998      0.0347      9.1029    133.3676     24.0735
   827.3000      8.0157      2.5279      0.0595      7.3978    139.3598     23.2792
   827.4000      8.0157      2.5614      0.1173      5.3669    134.2599     22.1392
   827.5000      8.0719      2.5807      0.1114      4.1993    123.1593     21.3895
   827.6000      8.0719      2.5767      0.1326      4.4448    119.6674     21.1583
   827.7000      8.0719      2.5523      0.1039      5.9184    122.9266     21.2503
   827.8000      8.1252      2.5181      0.0878      7.9931    126.3653     21.2014
   827.9000      8.1252      2.4882      0.0521      9.8037    129.1754     20.8153
   828.0000      8.1061      2.4726      0.0123     10.7523    128.7584     20.2849
   828.1000      8.1061      2.4677      0.0350     11.0494    124.7885     19.7565
   828.2000      8.1061      2.4567      0.0644     11.7146    125.9167     19.3580
   828.3000      8.0025      2.4332      0.0157     13.1409    136.1018     19.0407
   828.4000      8.0025      2.4113      0.0350     14.4674    147.6883     18.7305
   828.5000      8.0362      2.4024      0.0717     15.0047    157.0173     18.6115
   828.6000      8.0362      2.4033      0.0763     14.9528    167.1880     18.8854
   828.7000      8.0362      2.4071      0.0933     14.7236    177.1905     19.4752
   828.8000      8.1305      2.4076      0.1634     14.6907    181.4420     20.2787
   828.9000      8.1305      2.3951      0.1415     15.4482    179.6697     21.3382
   829.0000      8.1450      2.3753      0.0607     16.6469    174.9853     22.5771
   829.1000      8.1450      2.3681      0.0836     17.0862    168.2870     23.8331
   829.2000      8.1450      2.3695      0.1051     17.0027    160.8731     24.9383
   829.3000      8.1490      2.3595      0.0788     17.6049    155.3186     25.2641
   829.4000      8.1490      2.3417      0.0605     18.6861    152.6411     24.5813
   829.5000      8.1468      2.3403      0.0305     18.7684    150.6120     24.1695
   829.6000      8.1468      2.3665      0.0605     17.1837    148.6899     25.0244
   829.7000      8.1468      2.4009      0.1034     15.0966    145.6249     26.3701
   829.8000      8.1500      2.4226      0.0934     13.7795    140.5458     26.9761
   829.9000      8.1500      2.4349      0.1072     13.0340    137.0654     26.8149
   830.0000      8.1513      2.4483      0.0283     12.2223    136.3491     26.4472
   830.1000      8.1513      2.4669      0.0617     11.0997    135.3788     25.6712
   830.2000      8.1513      2.4905      0.0622      9.6638    132.3291     24.5671
   830.3000      8.1361      2.5184      0.0470      7.9759    130.7472     23.9990
