~Version Information
VERS.                      2.0: CWLS Log ASCII Standard - VERSION 2.0
WRAP.                       NO: One line per depth step
~Well Information Block
STRT.FT                -6.5000: 
STOP.FT              1317.5000: 
STEP.FT                 0.2500: 
NULL.                -999.2500: 
COMP.          Pioneer Natural Resources: COMPANY
WELL.              Dicks 32-5R: WELL
FLD.           Purgatorie River: FIELD
LOC.           1485' FNL & 1684' FEL--: LOCATION
PROV.                       CO: PROVINCE
CNTY.               Las Animas: COUNTRY
SRVC.          Patterson Wireline: SERVICE COMPANY
DATE.          Tue Dec 13 09:33:22 2005: LOG DATE
UWI.           05 071 08596 00: UNIQUE WELL ID
~Curve Information Block
DEPT.FT            0 000 00 00: Depth
CCL.                          : Casing Collar Locator
TT3.usec                      : CBL 3' Travel Time
AMP3.mV                       : CBL 3' Amplitude
GR.GAPI                       : Gamma Ray
~Parameter Information Block
~A  Depth       CCL         TT3         AMP3         GR     
# ...
   328.5000      0.0000    279.8900     82.3131    112.3752
   328.7500      0.0000    279.8968     82.2857    115.7394
   329.0000      0.0000    279.9038     82.2638    117.5086
   329.2500      0.0000    279.9124     82.2605    116.5096
   329.5000      0.0000    279.9218     82.2699    113.4607
   329.7500      0.0000    279.9297     82.2779    110.4554
   330.0000      0.0000    279.9334     82.2819    108.7926
   330.2500      0.0000    279.9335     82.2985    108.0959
   330.5000      0.0000    279.9334     82.3483    107.9593
   330.7500      0.0000    279.9367     82.4305    109.1809
   331.0000      0.0000    279.9446     82.5171    112.4666
   331.2500      0.0000    279.9555     82.5728    116.6087
   331.5000      0.0000    279.9666     82.5816    118.8212
   331.7500      0.0000    279.9760     82.5559    116.9545
   332.0000      0.0000    279.9828     82.5238    111.2453
   332.2500      0.0000    279.9861     82.5085    103.9637
   332.5000      0.0000    279.9845     82.5148     97.3864
   332.7500      0.0000    279.9754     82.5329     92.2545
   333.0000      0.0000    279.9590     82.5515     88.1550
   333.2500      0.0000    279.9369     82.5630     84.8104
   333.5000      0.0000    279.9074     82.5606     82.5325
   333.7500      0.0000    279.8431     82.5392     81.8160
   334.0000      0.0000    279.6494     82.5027     82.9134
   334.2500      0.0000    279.1289     82.4630     85.6641
   334.5000      0.0000    278.0576     82.4307     89.6260
   334.7500      0.0000    276.4644     82.4086     94.3944
   335.0000      0.0000    274.9051     82.3934     99.6175
   335.2500      0.0000    274.2408     82.3823    104.5927
   335.5000      0.0000    274.9036     82.3798    108.2785
   335.7500      0.0000    276.4608     82.3945    109.9461
   336.0000      0.0000    278.0566     82.4249    109.5698
   336.2500      0.0000    279.1556     82.4443    107.5472
   336.5000      0.0000    279.8188     82.3564    104.4258
   336.7500      0.0000    280.5218     81.9022    101.0498
   337.0000      0.0000    281.9394     80.5707     98.4368
   337.2500      0.0000    284.6306     77.7913     96.9948
   337.5000      0.0000    288.3903     73.5626     96.0899
   337.7500      0.0000    291.8146     68.9612     94.7549
   338.0000      0.0000    293.1398     65.6091     92.5684
   338.2500      0.0000    291.9371     64.3495     89.6308
   338.5000      0.0000    289.5654     64.6590     86.2350
   338.7500      0.0000    287.6980     65.4139     83.0269
   339.0000      0.0000    286.9064     65.8866     80.9815
   339.2500      2.0000    286.7900     65.9619     80.5067
   339.5000      0.0000    286.8099     65.8049     80.8463
   339.7500      0.0000    286.6476     65.5308     81.0594
   340.0000      0.0000    286.0552     65.0946     81.4935
   340.2500      0.0000    284.7283     64.4503     83.4901
   340.5000      0.0000    282.5233     63.8784     87.4485
   340.7500      0.0000    279.8474     64.0639     91.8287
   341.0000      0.0000    277.6530     65.6240     94.3886
   341.2500      0.0000    276.7333     68.5142     94.1159
   341.5000      0.0000    277.0498     71.9565     91.8692
   341.7500      0.0000    277.9014     74.9367     89.5281
   342.0000      0.0000    278.6373     76.7846     88.7033
   342.2500      0.0000    279.0439     77.4312     89.8999
   342.5000      0.0000    279.2082     77.2565     92.3554
   342.7500      0.0000    279.2637     76.7294     94.4871
   343.0000      0.0000    279.2856     76.1456     94.8067
   343.2500      0.0000    279.3008     75.5898     92.8658
   343.5000      0.0000    279.3141     75.0316     89.5769
   343.7500      0.0000    279.3243     74.4053     86.6516
   344.0000      0.0000    279.3262     73.6488     85.6638
   344.2500      0.0000    279.3162     72.7284     87.4500
   344.5000      0.0000    279.2960     71.6643     91.8821
   344.7500      0.0000    279.2725     70.5302     97.7626
   345.0000      0.0000    279.2530     69.4247    103.0033
   345.2500      0.0000    279.2408     68.4404    105.3252
   345.5000      0.0000    279.2362     67.6422    103.3594
   345.7500      0.0000    279.2390     67.0510     97.6166
   346.0000      0.0000    279.2483     66.6381     90.4897
   346.2500      0.0000    279.2612     66.3365     84.9248
   346.5000      0.0000    279.2747     66.0601     82.5635
   346.7500      0.0000    279.2879     65.7247     82.8709
   347.0000      0.0000    279.2998     65.2721     83.9360
   347.2500      0.0000    279.3067     64.6937     84.0189
   347.5000      0.0000    279.3034     64.0335     82.4242
   347.7500      0.0000    279.2886     63.3640     79.3588
   348.0000      0.0000    279.2663     62.7462     75.4219
   348.2500      0.0000    279.2448     62.1980     71.3580
   348.5000      0.0000    279.2346     61.6957     68.1123
   348.7500      0.0000    279.2453     61.2083     66.8804
   349.0000      0.0000    279.2807     60.7246     68.6240
   349.2500      0.0000    279.3372     60.2430     72.9863
   349.5000      0.0000    279.4074     59.7409     77.8084
   349.7500      0.0000    279.4836     59.1722     80.5241
   350.0000      0.0000    279.5591     58.4996     80.3874
   350.2500      0.0000    279.6297     57.7267     78.9891
   350.5000      0.0000    279.6956     56.8997     78.4969
   350.7500      0.0000    279.7597     56.0806     79.7167
   351.0000      0.0000    279.8245     55.3155     81.8351
   351.2500      0.0000    279.8893     54.6165     83.5929
   351.5000      0.0000    279.9526     53.9686     84.4786
   351.7500      0.0000    280.0146     53.3556     84.9395
   352.0000      0.0000    280.0769     52.7813     85.6662
   352.2500      0.0000    280.1400     52.2649     86.8052
   352.5000      0.0000    280.2000     51.8184     87.9229
   352.7500      0.0000    280.2516     51.4361     88.6626
   353.0000      0.0000    280.2973     51.1100     89.3079
   353.2500      0.0000    280.3547     50.8481     90.6780
   353.5000      0.0000    280.4494     50.6704     93.2978
   353.7500      0.0000    280.5836     50.5847     96.4755
   354.0000      0.0000    280.7047     50.5696     98.3250
   354.2500      0.0000    280.7274     50.5860     97.0998
   354.5000      0.0000    280.6103     50.6059     92.8133
   354.7500      0.0000    280.4020     50.6262     87.5669
   355.0000      0.0000    280.1967     50.6506     83.9951
   355.2500      0.0000    280.0563     50.6677     83.1997
   355.5000      0.0000    279.9847     50.6504     84.2743
   355.7500      0.0000    279.9549     50.5773     85.7621
   356.0000      0.0000    279.9405     50.4475     87.0723
   356.2500      0.0000    279.9266     50.2765     88.2398
   356.5000      0.0000    279.9074     50.0835     89.0503
   356.7500      0.0000    279.8826     49.8858     89.1633
   357.0000      0.0000    279.8553     49.7011     88.8991
   357.2500      0.0000    279.8298     49.5500     89.3175
   357.5000      0.0000    279.8087     49.4520     91.3692
   357.7500      0.0000    279.7917     49.4166     95.0369
   358.0000      0.0000    279.7768     49.4306     99.1538
   358.2500      0.0000    279.7613     49.4581    102.0461
   358.5000      0.0000    279.7443     49.4661    102.6126
   358.7500      0.0000    279.7282     49.4526    100.8538
   359.0000      0.0000    279.7188     49.4395     97.3469
   359.2500      0.0000    279.7213     49.4349     92.6260
   359.5000      0.0000    279.7359     49.4159     87.3260
   359.7500      0.0000    279.7578     49.3519     82.6018
   360.0000      0.0000    279.7804     49.2339     79.9901
   360.2500      0.0000    279.8003     49.0754     80.5953
   360.5000      0.0000    279.8183     48.8942     84.0978
   360.7500      0.0000    279.8378     48.6986     88.3848
   361.0000      0.0000    279.8620     48.4844     90.6211
   361.2500      0.0000    279.8926     48.2425     89.2867
   361.5000      0.0000    279.9306     47.9735     85.2391
   361.7500      0.0000    279.9769     47.6943     80.6952
