~Version Information
VERS.                      2.0: CWLS Log ASCII Standard - VERSION 2.0
WRAP.                       NO: One line per depth step
~Well Information Block
STRT.FT                -7.0000: 
STOP.FT              3030.2500: 
STEP.FT                 0.2500: 
NULL.                -999.2500: 
COMP.          Pioneer Natural Resources: COMPANY
WELL.            Cleaver 24-12: WELL
FLD.           Purgatorie River: FIELD
LOC.           204' FSL & 2351' FWL--: LOCATION
CNTY.               Las Animas: COUNTY
SRVC.          Patterson Wireline: SERVICE COMPANY
DATE.          Thu Feb 02 12:17:57 2006: LOG DATE
UWI.           05 071 08634 00: UNIQUE WELL ID
STAT.                       CO: STATE
~Curve Information Block
DEPT.FT            0 000 00 00: Depth
CCL.                          : Casing Collar Locator
TT3.usec                      : CBL 3' Travel Time
AMP3.mV                       : CBL 3' Amplitude
GR.GAPI                       : Gamma Ray
~Parameter Information Block
~A  Depth       CCL         TT3         AMP3         GR     
# ...
  2405.0000      0.0000    627.4386     13.1221    133.0852
  2405.2500      0.0000    596.5363     13.8165    129.6542
  2405.5000      0.0000    553.8562     14.3756    127.5376
  2405.7500      0.0000    510.1827     14.7133    126.5376
  2406.0000      0.0000    476.1127     14.7932    126.2128
  2406.2500      0.0000    462.3988     14.6517    126.3845
  2406.5000      0.0000    477.1658     14.3647    127.2713
  2406.7500      0.0000    518.7818     13.9942    129.1692
  2407.0000      0.0000    573.1517     13.5706    131.8576
  2407.2500      0.0000    621.5899     13.1078    134.3038
  2407.5000      0.0000    652.8869     12.6162    135.2023
  2407.7500      0.0000    667.8247     12.1056    134.0250
  2408.0000      0.0000    673.8749     11.5900    131.5219
  2408.2500      0.0000    677.7394     11.0962    129.1745
  2408.5000      0.0000    681.9518     10.6599    128.0343
  2408.7500      0.0000    685.8490     10.3071    127.7856
  2409.0000      0.0000    688.3237     10.0393    126.9798
  2409.2500      0.0000    689.7753      9.8379    124.5790
  2409.5000      0.0000    691.5820      9.6824    121.2184
  2409.7500      0.0000    694.0349      9.5622    118.5363
  2410.0000      0.0000    695.5453      9.4734    117.3211
  2410.2500      0.0000    694.0839      9.4092    117.0753
  2410.5000      0.0000    689.1270      9.3585    117.5319
  2410.7500      0.0000    682.1683      9.3122    119.5756
  2411.0000      0.0000    675.5614      9.2688    124.0001
  2411.2500      0.0000    670.9417      9.2329    130.0262
  2411.5000      0.0000    668.5805      9.2096    135.9239
  2411.7500      0.0000    667.8633      9.2028    140.8069
  2412.0000      0.0000    668.0369      9.2155    144.9650
  2412.2500      0.0000    668.5521      9.2456    148.5868
  2412.5000      0.0000    669.0577      9.2833    151.0434
  2412.7500      0.0000    669.3506      9.3143    151.6520
  2413.0000      0.0000    669.3799      9.3294    150.7584
  2413.2500      0.0000    669.2338      9.3294    149.8071
  2413.5000      0.0000    669.0627      9.3220    150.2160
  2413.7500      0.0000    668.9758      9.3153    152.0559
  2414.0000      0.0000    668.9984      9.3146    153.8681
  2414.2500      0.0000    669.1050      9.3223    154.0599
  2414.5000      0.0000    669.2725      9.3343    152.5641
  2414.7500      0.0000    669.4902      9.3394    150.8192
  2415.0000      0.0000    669.7386      9.3253    150.2330
  2415.2500      0.0000    669.9841      9.2884    151.2925
  2415.5000      0.0000    670.1982      9.2366    153.8227
  2415.7500      0.0000    670.3677      9.1838    156.9795
  2416.0000      0.0000    670.4853      9.1436    159.1691
  2416.2500      0.0000    670.5453      9.1230    159.0593
  2416.5000      0.0000    670.5001      9.1202    156.7363
  2416.7500      0.0000    670.1188      9.1292    153.4483
  2417.0000      0.0000    668.8257      9.1474    150.6164
  2417.2500      0.0000    665.9205      9.1761    149.2509
  2417.5000      0.0000    661.5908      9.2137    149.4663
  2417.7500      0.0000    658.0347      9.2532    150.1355
  2418.0000      0.0000    658.7896      9.2859    149.7089
  2418.2500      0.0000    665.6770      9.3070    147.6579
  2418.5000      0.0000    676.3727      9.3171    144.7469
  2418.7500      0.0000    685.9127      9.3206    142.0540
  2419.0000      0.0000    690.7010      9.3213    140.2400
  2419.2500      0.0000    690.6420      9.3192    139.4941
  2419.5000      0.0000    687.9406      9.3116    139.4947
  2419.7500      0.0000    684.8099      9.2983    139.4499
  2420.0000      0.0000    682.1714      9.2823    138.5091
  2420.2500      0.0000    679.7223      9.2642    136.0350
  2420.5000      0.0000    676.9041      9.2389    131.5172
  2420.7500      0.0000    673.8041      9.2033    124.6999
  2421.0000      0.0000    671.1265      9.1644    115.9659
  2421.2500      0.0000    669.5970      9.1367    106.3713
  2421.5000      0.0000    669.6893      9.1300     97.1684
  2421.7500      0.0000    671.6961      9.1415     89.2532
  2422.0000      0.0000    675.5871      9.1598     82.9011
  2422.2500      0.0000    680.5692      9.1743     77.7656
  2422.5000      0.0000    685.1887      9.1827     73.1465
  2422.7500      0.0000    688.4235      9.1895     68.6143
  2423.0000      0.0000    690.5644      9.1984     64.5375
  2423.2500      0.0000    692.4778      9.2059     61.7304
  2423.5000      0.0000    694.1513      9.2045     60.4912
  2423.7500      0.0000    694.5211      9.1956     60.3288
  2424.0000      0.0000    692.5406      9.1934     60.6039
  2424.2500      0.0000    688.0901      9.2158     60.8840
  2424.5000      0.0000    682.1661      9.2708     60.5493
  2424.7500      0.0000    676.3859      9.3512     58.7060
  2425.0000      0.0000    672.0324      9.4378     55.0022
  2425.2500      0.0000    669.4306      9.5059     50.3636
  2425.5000      0.0000    668.1734      9.5348     46.5123
  2425.7500      0.0000    667.7141      9.5191     44.7307
  2426.0000      0.0000    667.7140      9.4728     45.1750
  2426.2500      0.0000    668.0974      9.4205     47.0919
  2426.5000      0.0000    669.0722      9.3817     49.3630
  2426.7500      0.0000    671.0848      9.3600     50.9535
  2427.0000      0.0000    674.5595      9.3460     51.3094
  2427.2500      0.0000    679.5186      9.3303     50.6076
  2427.5000      0.0000    685.4808      9.3124     49.6425
  2427.7500      0.0000    691.7282      9.2976     49.3124
  2428.0000      0.0000    697.5290      9.2884     50.0495
  2428.2500      0.0000    702.2001      9.2800     51.7321
  2428.5000      0.0000    705.3187      9.2663     54.1381
  2428.7500      0.0000    707.0153      9.2453     57.1435
  2429.0000      0.0000    707.9634      9.2178     60.2897
  2429.2500      0.0000    709.0744      9.1827     62.5861
  2429.5000      0.0000    711.1190      9.1396     63.0971
  2429.7500      0.0000    714.2126      9.0949     61.5823
  2430.0000      0.0000    717.1996      9.0619     58.6763
  2430.2500      0.0000    717.6866      9.0515     55.8488
  2430.5000      0.0000    713.5002      9.0652     54.9858
  2430.7500      0.0000    704.7845      9.0987     57.2425
  2431.0000      0.0000    694.7321      9.1498     61.9304
  2431.2500      0.0000    688.1497      9.2196     66.7204
  2431.5000      0.0000    689.1249      9.3068     69.2261
  2431.7500      0.0000    698.7872      9.4020     68.6258
  2432.0000      0.0000    713.4530      9.4893     65.9725
  2432.2500      0.0000    725.0938      9.5532     63.0564
  2432.5000      0.0000    726.2232      9.5861     61.0135
  2432.7500      0.0000    716.0303      9.5932     59.8870
  2433.0000      0.0000    701.0096      9.5922     59.1195
  2433.2500      0.0000    689.3628      9.6060     58.0952
  2433.5000      0.0000    685.4756      9.6512     56.4309
  2433.7500      0.0000    688.5486      9.7287     54.3195
  2434.0000      0.0000    694.0891      9.8262     52.6019
  2434.2500      0.0000    696.8639      9.9327     52.0778
  2434.5000      0.0000    694.6780     10.0517     52.7971
  2434.7500      0.0000    690.0777     10.1955     54.3139
  2435.0000      0.0000    687.6901     10.3633     56.3787
  2435.2500      0.0000    689.9058     10.5302     58.9218
  2435.5000      0.0000    695.3189     10.6620     61.6008
  2435.7500      0.0000    700.5002     10.7383     64.1622
  2436.0000      0.0000    702.5285     10.7579     67.5026
  2436.2500      0.0000    700.3398     10.7301     73.6718
  2436.5000      0.0000    694.8660     10.6661     83.9903
  2436.7500      0.0000    688.4570     10.5754     97.0544
  2437.0000      0.0000    683.6614     10.4643    109.1466
  2437.2500      0.0000    681.8419     10.3385    117.2415
  2437.5000      0.0000    682.6749     10.2079    121.6894
  2437.7500      0.0000    685.0605     10.0887    125.5030
  2438.0000      0.0000    688.4122      9.9953    130.9327
  2438.2500      0.0000    692.7830      9.9297    137.2911
