~Version Information
 VERS.                                  2.0 : CWLS LAS VERSION
 WRAP.                                   NO : WRAPING MODE
 SWARE .                 MController 2.5.0J : SOFTWARE VERSION
~Well Information
 WELL.                         Kraft 17-23R : WELL
 COMP.                Petrogulf Corporation : COMPANY
 FLD.                      Purgatoire River : FIELD
 LOC.                NE/SW Sec 17 T33S R67W : LOCATION
 DATE.                          10/10-11/05 : DATE(S) LOGGED
 SRVC.       BLANCO Geological Services LLC : SERVICE COMPANY
 STAT.                                   CO : STATE
 CNTY.                           Las Animas : COUNTY
 CTRY.                                  USA : COUNTRY
 API.                       05-071-08560-00 : API NUMBER
 STRT.FT                             101.00 : START DEPTH
 STOP.FT                            1920.00 : STOP DEPTH
 STEP.FT                               1.00 : DEPTH INCREMENT
 NULL.                                -9999 : NULL VALUE
~Curve information
 DEPTH.FT                                   :
 ROP.MIN/FT                                 :
 GAS.UNITS                                  :
~ASCII Log data
       101.0     -9999.00         22.8 
       102.0         0.10         20.0 
       103.0         0.27         16.2 
       104.0         0.30          5.1 
       105.0         0.27          4.8 
       106.0         0.23          4.7 
       107.0         0.35          4.3 
       108.0         0.30          4.5 
       109.0         0.43          4.5 
       110.0         0.27          4.7 
       111.0         0.27          4.3 
       112.0         0.30          4.7 
       113.0         0.27          4.2 
       114.0         0.27         51.3 
       115.0         1.05        105.5 
       116.0         0.23         23.4 
       117.0         0.23         12.5 
       118.0         0.33          6.5 
       119.0         0.17          2.2 
       120.0         0.27          0.8 
       121.0         0.23          0.2 
       122.0         0.23          0.2 
       123.0         0.23          0.2 
       124.0         0.20          0.1 
       125.0         0.23          0.3 
       126.0         0.28          0.6 
       127.0         0.27          0.6 
       128.0         0.23          1.0 
       129.0         0.23          1.3 
       130.0         0.27          1.6 
       131.0         0.23          1.6 
       132.0         0.27          1.9 
       133.0         0.30          2.1 
       134.0         0.37          2.4 
       135.0         0.30          2.2 
       136.0         0.38          2.6 
       137.0         0.27          2.6 
       138.0         0.33          2.9 
       139.0         0.27          2.7 
       140.0         0.30          2.8 
       141.0         0.23          3.1 
       142.0         0.30          3.2 
       143.0         0.27          2.9 
       144.0         0.20          3.0 
       145.0         0.33          3.0 
       146.0         1.25          3.2 
       147.0         0.27          3.2 
       148.0         0.20          3.3 
       149.0         0.20          3.3 
       150.0         0.23          3.3 
       151.0         0.20          3.3 
       152.0         0.30          3.3 
       153.0         0.33          3.2 
       154.0         0.35          3.3 
       155.0         0.23          3.3 
       156.0         0.27          3.5 
       157.0         0.27          3.4 
       158.0         0.20          3.3 
       159.0         0.23          3.5 
       160.0         0.27          3.5 
       161.0         0.23          3.4 
       162.0         0.23          3.5 
       163.0         0.27          3.8 
       164.0         0.23          3.5 
       165.0         0.23          3.4 
       166.0         0.25          3.6 
       167.0         0.23          3.4 
       168.0         0.23          3.5 
       169.0         0.27          3.4 
       170.0         0.23          3.6 
       171.0         0.23          3.5 
       172.0         0.23          3.5 
       173.0         0.23          3.8 
       174.0         0.23          3.7 
       175.0         0.23          3.5 
       176.0         1.08          3.7 
       177.0         0.20          3.5 
       178.0         0.20          3.7 
       179.0         0.23          3.9 
       180.0         0.20          3.7 
       181.0         0.20          3.7 
       182.0         0.23          3.9 
       183.0         0.27          3.9 
       184.0         0.23          3.6 
       185.0         0.30          3.6 
       186.0         0.23          3.7 
       187.0         0.23          3.6 
       188.0         0.23          3.7 
       189.0         0.25          3.6 
       190.0         0.27          4.0 
       191.0         0.23          3.9 
       192.0         0.23          3.8 
       193.0         0.20          3.7 
       194.0         0.17          3.5 
       195.0         0.10          3.6 
       196.0         0.20          3.7 
       197.0         0.27          3.5 
       198.0         0.23          3.6 
       199.0         0.27          3.8 
       200.0         0.27          3.7 
       201.0         0.27          3.5 
       202.0         0.28          4.0 
       203.0         0.23          3.6 
       204.0         0.27          3.5 
       205.0         0.17          3.4 
       206.0         1.37          3.7 
       207.0         0.30          3.3 
       208.0         0.22          3.6 
       209.0         0.27          3.6 
       210.0         0.30          3.9 
       211.0         0.27          3.7 
       212.0         0.30          4.0 
       213.0         0.27          3.7 
       214.0         0.23          4.1 
       215.0         0.27          3.9 
       216.0         0.23          3.8 
       217.0         0.27          3.8 
       218.0         0.35          3.8 
       219.0         0.33          4.0 
       220.0         0.33          3.7 
       221.0         0.30          3.7 
       222.0         0.33          4.0 
       223.0         0.33          3.6 
       224.0         0.33          3.7 
       225.0         0.33          3.7 
       226.0         0.40          3.8 
       227.0         0.38          3.7 
       228.0         0.27          3.5 
       229.0         0.27          3.5 
       230.0         0.23          3.6 
       231.0         0.23          3.6 
       232.0         0.23          3.6 
       233.0         0.27          3.7 
       234.0         0.20          3.9 
       235.0         0.27          3.4 
       236.0         1.75          3.7 
       237.0         0.20          3.3 
       238.0         0.20          3.7 
       239.0         0.20          3.6 
       240.0         0.20          3.9 
       241.0         0.20          3.7 
       242.0         0.20          3.5 
       243.0         0.20          3.6 
       244.0         0.23          3.9 
       245.0         0.23          3.7 
       246.0         0.20          3.7 
       247.0         0.25          3.8 
       248.0         0.20          3.8 
       249.0         0.23          3.6 
       250.0         0.23          3.6 
       251.0         0.23          3.9 
       252.0         0.27          3.7 
       253.0         0.20          3.8 
       254.0         0.33          3.6 
       255.0         0.37          3.6 
       256.0         0.40          3.7 
       257.0         0.40          3.7 
       258.0         0.25          3.7 
       259.0         0.23          3.7 
       260.0         0.23          3.9 
       261.0         0.23          4.1 
       262.0         0.20          3.9 
       263.0         0.20          4.1 
       264.0         0.23          4.0 
       265.0         0.27          4.0 
       266.0         1.37          4.0 
       267.0         0.25          3.7 
       268.0         0.27          4.0 
       269.0         0.27          3.8 
       270.0         0.27          4.0 
       271.0         0.23          3.7 
       272.0         0.37          4.0 
       273.0         0.30          3.9 
       274.0         0.23          4.0 
       275.0         0.23          3.8 
       276.0         0.23          4.0 
       277.0         0.20          3.8 
       278.0         0.20          4.1 
       279.0         0.17          3.9 
       280.0         0.20          3.8 
       281.0         0.18          3.9 
       282.0         0.20          4.1 
       283.0         0.17          3.9 
       284.0         0.23          3.7 
       285.0         0.20          4.0 
       286.0         0.20          4.0 
       287.0         0.23          4.1 
       288.0         0.20          3.9 
       289.0         0.20          4.0 
       290.0         0.20          4.0 
       291.0         0.23          4.2 
       292.0         0.20          4.2 
       293.0         0.13          4.1 
       294.0         0.20          4.3 
       295.0         0.25          4.1 
       296.0         1.27          4.5 
       297.0         0.10          4.3 
       298.0         0.30          4.0 
       299.0         0.40          4.3 
       300.0         0.33          4.3 
