~Version Information
VERS.                      2.0: CWLS Log ASCII Standard - VERSION 2.0
WRAP.                       NO: One line per depth step
~Well Information Block
STRT.FT                10.0000: 
STOP.FT              1380.7500: 
STEP.FT                 0.2500: 
NULL.                -999.2500: 
COMP.          Pioneer Natural Resources: COMPANY
WELL.          Baa Baa 34-1 Tr: WELL
FLD.           Purgatoire River: FIELD
LOC.           785' FSL & 2304' FEL: LOCATION
CNTY.               Las Animas: COUNTY
SRVC.                Patterson: SERVICE COMPANY
DATE.          Tue Mar 07 13:08:19 2006: LOG DATE
UWI.           05 071 08710 00: UNIQUE WELL ID
STAT.                 Colorado: STATE
~Curve Information Block
DEPT.FT            0 000 00 00: Depth
GR.GAPI                       : Gamma Ray
CCL.                          : Casing Collar Locator
TT3.usec                      : CBL 3' Travel Time
AMP3.mV                       : CBL 3' Amplitude
~Parameter Information Block
~A  Depth        GR         CCL         TT3         AMP3    
# ...
  1082.0000     72.1338      0.0000    800.5758     12.2216
  1082.2500     79.7781      0.0000    800.7333     12.7235
  1082.5000     86.5802      0.0000    800.9313     13.2539
  1082.7500     92.2579      0.0000    801.1658     13.7775
  1083.0000     97.4109      0.0000    801.4018     14.2474
  1083.2500    102.8212      0.0000    801.6033     14.6033
  1083.5000    108.7069      0.0000    801.7640     14.7871
  1083.7500    114.5671      0.0000    801.9049     14.7734
  1084.0000    119.6178      0.0000    802.0468     14.5859
  1084.2500    123.3798      0.0000    802.1874     14.2872
  1084.5000    125.9308      0.0000    802.3017     13.9570
  1084.7500    127.4697      0.0000    802.3622     13.6655
  1085.0000    127.8206      0.0000    802.3560     13.4467
  1085.2500    126.9419      0.0000    802.2832     13.2860
  1085.5000    125.8833      0.0000    802.1476     13.1399
  1085.7500    126.4018      0.0000    801.9581     12.9718
  1086.0000    129.2404      0.0000    801.7397     12.7723
  1086.2500    133.2822      0.0000    801.5295     12.5539
  1086.5000    136.6589      0.0000    801.3588     12.3382
  1086.7500    138.2602      0.0000    801.2371     12.1480
  1087.0000    137.8886      0.0000    801.1496     12.0023
  1087.2500    135.4576      0.0000    801.0674     11.9059
  1087.5000    130.7570      0.0000    800.9693     11.8422
  1087.7500    123.8203      0.0000    800.8604     11.7794
  1088.0000    114.8097      0.0000    800.7695     11.6887
  1088.2500    103.6378      0.0000    800.7227     11.5597
  1088.5000     90.4702      0.0000    800.7206     11.4042
  1088.7500     76.6057      0.0000    800.7408     11.2461
  1089.0000     64.1692      0.0000    800.7635     11.1076
  1089.2500     54.7388      0.0000    800.7893     11.0004
  1089.5000     48.5690      0.0000    800.8300     10.9268
  1089.7500     44.9708      0.0000    800.8848     10.8889
  1090.0000     42.9345      0.0000    800.9338     10.8896
  1090.2500     41.5253      0.0000    800.9568     10.9210
  1090.5000     40.3195      0.0000    800.9540     10.9568
  1090.7500     39.7191      0.0000    800.9435     10.9668
  1091.0000     40.5141      0.0000    800.9468     10.9411
  1091.2500     42.9378      0.0000    800.9826     10.8956
  1091.5000     46.3347      0.0000    801.0646     10.8542
  1091.7500     49.7503      0.0000    801.1898     10.8250
  1092.0000     52.5321      0.0000    801.3279     10.7949
  1092.2500     54.3977      0.0000    801.4324     10.7458
  1092.5000     55.3892      0.0000    801.4668     10.6716
  1092.7500     55.8201      0.0000    801.4217     10.5807
  1093.0000     55.8520      0.0000    801.3113     10.4850
  1093.2500     55.1523      0.0000    801.1659     10.3921
  1093.5000     53.4518      0.0000    801.0208     10.3067
  1093.7500     51.3578      0.0000    800.9012     10.2345
  1094.0000     49.9809      0.0000    800.8124     10.1819
  1094.2500     49.6722      0.0000    800.7402     10.1540
  1094.5000     49.7291      0.0000    800.6513     10.1551
  1094.7500     49.4768      0.0000    800.4677     10.1882
  1095.0000     49.0592      0.0000    799.9957     10.2510
  1095.2500     48.9542      0.0000    798.8267     10.3348
  1095.5000     49.2005      0.0000    796.3836     10.4323
  1095.7500     49.4873      0.0000    792.4114     10.5430
  1096.0000     49.7178      0.0000    787.7666     10.6708
  1096.2500     50.1486      0.0000    784.5017     10.8174
  1096.5000     51.1546      0.0000    784.4895     10.9799
  1096.7500     53.1168      0.0000    787.7244     11.1521
  1097.0000     56.3716      0.0000    792.2866     11.3217
  1097.2500     60.9884      0.0000    795.9764     11.4637
  1097.5000     66.5478      0.0000    797.6456     11.5455
  1097.7500     72.2399      0.0000    797.2316     11.5461
  1098.0000     77.2013      0.0000    795.3737     11.4706
  1098.2500     80.7199      0.0000    793.3137     11.3389
  1098.5000     82.3224      0.0000    792.5307     11.1595
  1098.7500     81.8946      0.0000    793.7610     10.9136
  1099.0000     79.6365      0.0000    796.4828     10.5507
  1099.2500     75.8206      0.0000    799.7305      9.9875
  1099.5000     70.8114      0.0000    803.3965      9.1256
  1099.7500     65.4208      0.0000    808.4541      7.9279
  1100.0000     60.9834      0.0000    815.7429      6.5204
  1100.2500     58.7677      0.0000    824.5261      5.1844
  1100.5000     59.1109      0.0000    832.5529      4.1763
  1100.7500     61.0045      0.0000    837.7704      3.5543
  1101.0000     62.5770      0.0000    839.7349      3.2233
  1101.2500     62.3147      0.0000    839.4669      3.1035
  1101.5000     60.1578      0.0000    838.6598      3.1748
  1101.7500     57.4695      0.0000    838.9812      3.3953
  1102.0000     55.8422      0.0000    841.2118      3.6819
  1102.2500     55.8699      3.0000    844.8209      3.9975
  1102.5000     57.0172      0.0000    848.7468      4.4420
  1102.7500     58.5384      0.0000    852.3328      5.2491
  1103.0000     60.3244      0.0000    854.9438      6.6400
  1103.2500     62.7566      0.0000    854.8611      8.5800
  1103.5000     65.9011      0.0000    849.5298     10.6881
  1103.7500     69.1394      0.0000    837.6033     12.4963
  1104.0000     71.5511      0.0000    820.7846     13.8158
  1104.2500     72.4309      0.0000    803.4915     14.7897
  1104.5000     71.6056      0.0000    790.6819     15.6199
  1104.7500     69.5526      0.0000    785.3104     16.3403
  1105.0000     67.1164      0.0000    786.8165     16.8536
  1105.2500     64.9148      0.0000    791.8306     17.0926
  1105.5000     63.0992      0.0000    796.7499     17.0891
  1105.7500     61.6330      0.0000    799.8248     16.9338
  1106.0000     60.5729      0.0000    801.1740     16.7241
  1106.2500     60.0259      0.0000    801.5952     16.5387
  1106.5000     59.8885      0.0000    801.7006     16.4196
  1106.7500     59.5754      0.0000    801.7530     16.3599
  1107.0000     58.1300      0.0000    801.8101     16.3186
  1107.2500     54.9481      0.0000    801.8618     16.2536
  1107.5000     50.4874      0.0000    801.8920     16.1420
  1107.7500     46.1212      0.0000    801.8871     15.9752
  1108.0000     43.2328      0.0000    801.8370     15.7503
  1108.2500     42.4212      0.0000    801.7355     15.4769
  1108.5000     43.3491      0.0000    801.5856     15.1881
  1108.7500     45.1232      0.0000    801.4061     14.9354
  1109.0000     46.8300      0.0000    801.2353     14.7651
  1109.2500     47.9991      0.0000    801.1203     14.6949
  1109.5000     49.0242      0.0000    801.0876     14.7074
  1109.7500     51.3437      0.0000    801.1220     14.7680
  1110.0000     56.8365      0.0000    801.1786     14.8480
  1110.2500     66.4891      0.0000    801.2191     14.9327
  1110.5000     79.4898      0.0000    801.2308     15.0125
  1110.7500     93.6965      0.0000    801.2157     15.0781
  1111.0000    106.9597      0.0000    801.1702     15.1283
  1111.2500    118.0294      0.0000    801.0841     15.1732
  1111.5000    126.5517      0.0000    800.9540     15.2205
  1111.7500    132.6585      0.0000    800.7913     15.2577
  1112.0000    136.5692      0.0000    800.6198     15.2562
  1112.2500    138.2607      0.0000    800.4694     15.1969
  1112.5000    137.5045      0.0000    800.3663     15.0913
  1112.7500    134.5576      0.0000    800.3225     14.9759
  1113.0000    130.8006      0.0000    800.3312     14.8907
  1113.2500    128.1772      0.0000    800.3710     14.8604
  1113.5000    127.7232      0.0000    800.4174     14.8867
  1113.7500    129.0346      0.0000    800.4570     14.9527
  1114.0000    131.4070      0.0000    800.4958     15.0370
  1114.2500    134.8626      0.0000    800.5471     15.1260
  1114.5000    139.5114      0.0000    800.6115     15.2127
  1114.7500    144.5282      0.0000    800.6707     15.2860
  1115.0000    148.5664      0.0000    800.7059     15.3251
  1115.2500    150.8020      0.0000    800.7170     15.3090
