~Version Information
VERS.                      2.0: CWLS Log ASCII Standard - VERSION 2.0
WRAP.                       NO: One line per depth step
~Well Information Block
STRT.FT                 0.0000: 
STOP.FT              1507.7500: 
STEP.FT                 0.2500: 
NULL.                -999.2500: 
COMP.          Pioneer Natural Resources: COMPANY
WELL.          Pioneer 34-27 Tr: WELL
FLD.           Purgatorie River: FIELD
LOC.           243' FSL & 1593' FEL: LOCATION
STAT.                 Colorado: State
CNTY.               Las Animas: COUNTY
CTRY. USA : Country
SECT. 27 : Section
TOWN. 32S : Township
RANG. 67W : Range
SRVC.                Patterson: SERVICE COMPANY
DATE.          Wed Oct 12 09:30:25 2005: LOG DATE
API.                          : UNIQUE WELL ID
~Curve Information Block
DEPT.FT            0 000 00 00: Depth
GR.GAPI                       : Gamma Ray
CCL.                          : Casing Collar Locator
TT3.usec                      : CBL 3' Travel Time
AMP3.mV                       : CBL 3' Amplitude
~Parameter Information Block
~A  Depth        GR         CCL         TT3         AMP3    
# ...
   201.0000     70.5630      0.0000    655.4987     15.9965
   201.2500     68.1213      0.0000    664.8253     15.6123
   201.5000     64.2647      0.0000    694.1920     14.7375
   201.7500     59.4256      0.0000    725.4122     13.8509
   202.0000     53.9736      0.0000    742.1269     13.5356
   202.2500     48.5287      0.0000    748.4101     13.6539
   202.5000     44.0066      0.0000    757.6104     13.8943
   202.7500     41.0715     -2.0000    769.4930     14.1440
   203.0000     39.6827     -2.0000    770.0164     14.3693
   203.2500     39.3084      0.0000    744.5854     14.6634
   203.5000     39.5259      0.0000    688.5818     15.4176
   203.7500     40.3340      0.0000    624.4695     16.9601
   204.0000     41.8931      0.0000    597.5432     18.8181
   204.2500     44.0918      0.0000    622.4227     20.2296
   204.5000     46.3955      0.0000    663.6938     21.1832
   204.7500     48.0381      0.0000    694.5164     21.8845
   205.0000     48.4052      0.0000    721.8842     22.1946
   205.2500     47.3788      0.0000    749.9128     22.1071
   205.5000     45.3058      0.0000    769.8896     21.8926
   205.7500     42.6398      0.0000    778.5371     21.7435
   206.0000     39.6716      0.0000    779.5294     21.6561
   206.2500     36.5583      0.0000    775.3550     21.5837
   206.5000     33.4671      0.0000    767.0532     21.5131
   206.7500     30.6414      0.0000    758.3245     21.4500
   207.0000     28.3668      0.0000    753.3682     21.4226
   207.2500     26.9158      0.0000    750.9246     21.4325
   207.5000     26.5393      0.0000    747.1814     21.4166
   207.7500     27.5454      0.0000    742.6602     21.3269
   208.0000     30.4136      0.0000    740.8412     21.1763
   208.2500     35.7530      0.0000    743.9892     20.9907
   208.5000     43.9118      0.0000    751.5500     20.7894
   208.7500     54.3838      0.0000    758.8751     20.5768
   209.0000     65.5942      0.0000    760.5830     20.3310
   209.2500     75.5810      0.0000    757.7549     20.0351
   209.5000     83.1626      0.0000    756.1602     19.7155
   209.7500     88.3724      0.0000    757.3929     19.4356
   210.0000     91.8027      0.0000    758.2070     19.2337
   210.2500     93.9353      0.0000    755.9228     19.0852
   210.5000     95.1734      0.0000    750.7303     18.9517
   210.7500     95.9884      0.0000    745.3114     18.8104
   211.0000     96.7130      0.0000    742.0267     18.6313
   211.2500     97.3647      0.0000    740.7819     18.4035
   211.5000     97.7750      0.0000    740.5671     18.1648
   211.7500     97.8365      0.0000    741.4088     17.9707
   212.0000     97.6547      0.0000    744.2160     17.8541
   212.2500     97.4600      0.0000    748.4377     17.8139
   212.5000     97.3235      0.0000    750.6407     17.8185
   212.7500     96.9841      0.0000    748.3748     17.8175
   213.0000     95.9459      0.0000    743.7953     17.7874
   213.2500     93.7405      0.0000    740.2708     17.7524
   213.5000     90.3569      0.0000    738.6789     17.7282
   213.7500     86.5380      0.0000    738.3088     17.6895
   214.0000     83.3786      0.0000    738.3776     17.6237
   214.2500     81.4822      0.0000    738.3831     17.5591
   214.5000     80.7090      0.0000    738.1962     17.5245
   214.7500     80.6921      0.0000    737.9542     17.5292
   215.0000     81.2391      0.0000    737.7620     17.5576
   215.2500     82.0513      0.0000    737.5897     17.5647
   215.5000     82.2986      0.0000    737.4363     17.5053
   215.7500     80.8887      0.0000    737.4076     17.3798
   216.0000     77.3607      0.0000    737.5490     17.2386
   216.2500     72.3919      0.0000    737.7297     17.1233
   216.5000     67.2462      0.0000    737.7997     17.0354
   216.7500     62.7772      0.0000    737.7505     16.9793
   217.0000     59.0853      0.0000    737.6490     16.9663
   217.2500     56.0231      0.0000    737.5438     16.9819
   217.5000     53.7219      0.0000    737.4795     17.0000
   217.7500     52.4619      0.0000    737.4813     17.0120
   218.0000     52.2477      0.0000    737.4932     17.0245
   218.2500     52.7949      0.0000    737.4311     17.0386
   218.5000     53.8708      0.0000    737.3091     17.0496
   218.7500     55.3939      0.0000    737.2286     17.0810
   219.0000     57.2032      0.0000    737.2304     17.1681
   219.2500     58.9881      0.0000    737.2341     17.2835
   219.5000     60.5101      0.0000    737.1763     17.3604
   219.7500     61.7210      0.0000    737.1161     17.3944
   220.0000     62.6717      0.0000    737.1160     17.4364
   220.2500     63.4479      0.0000    737.1486     17.5112
   220.5000     64.0746      0.0000    737.1859     17.5959
   220.7500     64.2890      0.0000    737.2317     17.6438
   221.0000     63.5155      0.0000    737.2674     17.6135
   221.2500     61.3174      0.0000    737.2967     17.4975
   221.5000     57.8723      0.0000    737.3853     17.3439
   221.7500     53.8472      0.0000    737.5715     17.2575
   222.0000     49.8054      0.0000    737.8218     17.3372
   222.2500     45.8736      0.0000    738.1540     17.5592
   222.5000     41.9828      0.0000    738.6398     17.7781
   222.7500     38.2998      0.0000    739.1100     17.8843
   223.0000     35.3743      0.0000    739.1646     17.8891
   223.2500     33.8481      0.0000    738.7000     17.8676
   223.5000     33.9485      0.0000    738.0758     17.8795
   223.7500     35.2476      0.0000    737.6626     17.9382
   224.0000     36.9919      0.0000    737.5544     18.0217
   224.2500     38.7065      0.0000    737.6790     18.1006
   224.5000     40.3963      0.0000    737.8951     18.1704
   224.7500     42.1783      0.0000    738.0137     18.2354
   225.0000     43.9272      0.0000    737.9297     18.2372
   225.2500     45.3165      0.0000    737.7155     18.0884
   225.5000     46.0200      0.0000    737.4830     17.8131
   225.7500     45.8353      0.0000    737.1204     17.5686
   226.0000     44.8464      0.0000    736.0046     17.4923
   226.2500     43.6291      0.0000    733.2110     17.5738
   226.5000     43.1204      0.0000    729.2650     17.6998
   226.7500     44.0206      0.0000    727.2715     17.7830
   227.0000     46.2968      0.0000    729.3715     17.8115
   227.2500     49.3084      0.0000    733.4292     17.8007
   227.5000     52.2356      0.0000    736.3171     17.7606
   227.7500     54.3239      0.0000    737.4600     17.7117
   228.0000     55.1004      0.0000    737.7427     17.6799
   228.2500     54.6626      0.0000    737.8115     17.6714
   228.5000     53.5980      0.0000    737.8865     17.6809
   228.7500     52.4647      0.0000    737.9771     17.7051
   229.0000     51.4294      0.0000    737.9973     17.7372
   229.2500     50.4352      0.0000    737.8913     17.7601
   229.5000     49.6064      0.0000    737.7123     17.7532
   229.7500     49.3472      0.0000    737.5494     17.7255
   230.0000     49.8830      0.0000    737.4541     17.7319
   230.2500     50.7565      0.0000    737.4302     17.8263
   230.5000     51.2776      0.0000    737.4240     18.0050
   230.7500     51.7382      0.0000    737.3610     18.2086
   231.0000     53.6393      0.0000    737.2336     18.3805
   231.2500     58.2288      0.0000    737.1040     18.5063
   231.5000     65.0155      0.0000    737.0351     18.5955
   231.7500     71.8326      0.0000    737.0470     18.6555
   232.0000     76.0736      0.0000    737.1124     18.6926
   232.2500     76.0316      0.0000    737.1868     18.7047
   232.5000     71.7727      0.0000    737.2378     18.6953
   232.7500     65.1857      0.0000    737.2276     18.7114
   233.0000     59.0224      0.0000    737.1331     18.8077
   233.2500     55.3406      0.0000    737.0103     18.9520
   233.5000     54.3854      0.0000    736.9617     19.0316
   233.7500     54.7946      0.0000    737.0358     18.9823
   234.0000     54.9704      0.0000    737.1889     18.8613
   234.2500     54.3545      0.0000    737.3147     18.7708
