~Version Information
VERS.                      2.0: CWLS Log ASCII Standard - VERSION 2.0
WRAP.                       NO: One line per depth step
~Well Information Block
STRT.FT               370.0000: 
STOP.FT              1282.5000: 
STEP.FT                 0.1000: 
NULL.                -999.2500: 
COMP.          Pioneer Natural Resources: COMPANY
WELL.          Irish Eyes 33-21: WELL
FLD.           Purgatoire River: FIELD
LOC.           1379' FSL & 2544' FEL: LOCATION
PROV.                 Colorado: PROVINCE
CNTY.               Las Animas: COUNTRY
SRVC.                Patterson: SERVICE COMPANY
DATE.          Mon Jan 16 13:31:01 2006: LOG DATE
UWI.           05 071 08658 00: UNIQUE WELL ID
~Curve Information Block
DEPT.FT            0 000 00 00: Depth
DCAL.in                       : CDL Caliper
RHOB.g/cc                     : CDL Bulk Density
RHOC.g/cc                     : CDL Density Correction
DPOR.pu                       : CDL Density Porosity
GR.GAPI                       : Gamma Ray
NPOR.pu                       : Neutron Porosity
~Parameter Information Block
~A  Depth       DCAL        RHOB        RHOC        DPOR         GR         NPOR    
# ...
   974.8000      7.9583      2.6181      0.1057      1.9338     62.5238     16.4587
   974.9000      7.9583      2.6414      0.0885      0.5239     68.2987     16.7775
   975.0000      7.9626      2.6439      0.0938      0.3673     67.0022     16.8749
   975.1000      7.9626      2.6267      0.1008      1.4130     61.3398     16.5818
   975.2000      7.9626      2.6048      0.0334      2.7370     56.8357     16.1878
   975.3000      7.9628      2.5908      0.0629      3.5854     56.3386     16.1827
   975.4000      7.9628      2.5801      0.0245      4.2365     61.5896     16.5440
   975.5000      7.9648      2.5804     -0.0140      4.2185     69.3324     16.8620
   975.6000      7.9648      2.5936      0.0833      3.4211     69.6017     17.1292
   975.7000      7.9648      2.5936      0.0810      3.4189     60.8707     17.3729
   975.8000      7.9696      2.5766      0.0175      4.4513     54.1142     17.4287
   975.9000      7.9696      2.5600      0.0066      5.4575     56.3232     17.2603
   976.0000      7.9839      2.5449      0.0133      6.3719     63.1432     16.8413
   976.1000      7.9839      2.5267      0.0744      7.4740     68.6291     16.5814
   976.2000      7.9839      2.5124      0.0196      8.3408     71.7483     16.8089
   976.3000      7.9849      2.5154     -0.0248      8.1575     71.4951     17.2800
   976.4000      7.9849      2.5336      0.0346      7.0542     67.1656     17.7662
   976.5000      7.9899      2.5444      0.0832      6.4030     64.3682     18.2494
   976.6000      7.9899      2.5423      0.0244      6.5272     66.8864     18.5135
   976.7000      7.9899      2.5464     -0.0345      6.2806     71.2858     18.5981
   976.8000      8.0065      2.5550      0.0432      5.7580     75.3226     18.7963
   976.9000      8.0065      2.5446     -0.0012      6.3884     77.7650     18.8624
   977.0000      7.9923      2.5221     -0.0236      7.7502     74.9461     18.5861
   977.1000      7.9923      2.5160      0.0039      8.1231     69.1071     18.2933
   977.2000      7.9923      2.5189      0.0735      7.9479     67.6260     18.3187
   977.3000      7.9959      2.4910      0.0162      9.6339     71.3331     18.5713
   977.4000      7.9959      2.4108      0.0463     14.4975     75.1659     18.8734
   977.5000      8.0112      2.2908     -0.0255     21.7696     74.7569     19.5564
   977.6000      8.0112      2.1537     -0.0497     30.0784     71.9798     20.9356
   977.7000      8.0112      2.0102     -0.0968     38.7767     71.2479     22.6476
   977.8000      8.0132      1.8684     -0.1563     47.3708     72.6284     23.9696
   977.9000      8.0132      1.7359     -0.1452     55.4009     72.1640     24.7611
   978.0000      8.0071      1.6101     -0.1665     63.0254     67.9568     25.5892
   978.1000      8.0071      1.5006     -0.1813     69.6617     62.1344     26.9052
   978.2000      8.0071      1.4367     -0.1754     73.5322     55.7074     28.4823
   978.3000      8.0137      1.4207      0.0045     74.5007     49.5528     29.6743
   978.4000      8.0137      1.4182      0.0292     74.6535     46.2594     30.1126
   978.5000      8.0454      1.4084      0.0045     75.2455     45.2898     30.1974
   978.6000      8.0454      1.3923      0.0242     76.2220     43.3791     30.6495
   978.7000      8.0454      1.3701      0.0030     77.5721     40.5984     31.3439
   978.8000      8.0730      1.3432      0.0090     79.2025     39.8457     31.6188
   978.9000      8.0730      1.3197     -0.0303     80.6255     41.4628     31.7089
   979.0000      8.1198      1.3077     -0.0287     81.3496     44.2098     32.0203
   979.1000      8.1198      1.3058     -0.0168     81.4666     49.3457     32.3209
   979.2000      8.1198      1.3104     -0.0390     81.1896     53.8705     32.8815
   979.3000      8.1505      1.3199      0.0016     80.6092     52.5979     33.7134
   979.4000      8.1505      1.3251      0.0088     80.2965     47.9233     33.7867
   979.5000      8.1342      1.3193      0.0103     80.6469     43.2814     33.2989
   979.6000      8.1342      1.3146     -0.0212     80.9322     39.2492     33.5267
   979.7000      8.1342      1.3261     -0.0101     80.2337     36.3624     34.5410
   979.8000      8.1174      1.3505      0.0267     78.7583     35.5159     35.2371
   979.9000      8.1174      1.3831     -0.0492     76.7819     37.5654     35.2937
   980.0000      8.1501      1.4279      0.0771     74.0652     40.5633     35.2617
   980.1000      8.1501      1.4888      0.0278     70.3759     42.8071     34.8801
   980.2000      8.1501      1.5791      0.0191     64.9035     46.4472     33.8040
   980.3000      8.1251      1.6979      0.1130     57.7013     55.7576     32.7936
   980.4000      8.1251      1.8222      0.1467     50.1711     71.2432     32.6242
   980.5000      8.1399      1.9453      0.1267     42.7065     87.8630     33.0587
   980.6000      8.1399      2.0724      0.1722     35.0075    101.9940     33.1753
   980.7000      8.1399      2.1878      0.2106     28.0097    110.0251     32.3559
   980.8000      8.1593      2.2739      0.1780     22.7938    110.1279     31.1937
   980.9000      8.1593      2.3378      0.1434     18.9183    110.8243     30.4572
   981.0000      8.1676      2.3929      0.1356     15.5817    118.5111     29.9480
   981.1000      8.1676      2.4347      0.0828     13.0460    128.3810     29.3674
   981.2000      8.1676      2.4565      0.0615     11.7288    136.2049     29.1728
   981.3000      8.0750      2.4593      0.0693     11.5593    141.2642     29.3826
   981.4000      8.0750      2.4480      0.0463     12.2436    142.3340     29.1090
   981.5000      8.0236      2.4384      0.0557     12.8264    139.1118     28.4835
   981.6000      8.0236      2.4431      0.0398     12.5394    136.2188     28.8296
   981.7000      8.0236      2.4570      0.0542     11.6988    143.8871     29.8018
   981.8000      7.9687      2.4684      0.0733     11.0073    155.7721     29.7938
   981.9000      7.9687      2.4733      0.1128     10.7065    155.4617     29.0195
   982.0000      7.9556      2.4809      0.0712     10.2495    146.5936     28.0210
   982.1000      7.9556      2.4984      0.1224      9.1857    141.2529     26.7337
   982.2000      7.9556      2.5179      0.1251      8.0049    138.6823     25.9230
   982.3000      7.9338      2.5254      0.1190      7.5500    132.3461     25.8393
   982.4000      7.9338      2.5146      0.0890      8.2085    125.4614     25.8966
   982.5000      7.9283      2.4947      0.0629      9.4126    128.6127     25.9666
   982.6000      7.9283      2.4877      0.0162      9.8371    142.2967     25.8442
   982.7000      7.9283      2.5019      0.0811      8.9728    152.6729     25.4376
   982.8000      7.9335      2.5282     -0.0186      7.3824    152.7227     25.6383
   982.9000      7.9335      2.5551      0.0852      5.7489    150.0279     26.5499
   983.0000      7.9312      2.5656      0.0767      5.1171    148.9214     27.1786
   983.1000      7.9312      2.5543      0.0415      5.8011    146.5770     27.2877
   983.2000      7.9312      2.5311      0.0572      7.2091    142.3972     27.3706
   983.3000      7.9374      2.5112     -0.0058      8.4145    136.6634     27.2344
   983.4000      7.9374      2.5109     -0.0306      8.4283    128.5199     26.7571
   983.5000      7.9408      2.5199      0.0662      7.8830    121.4120     26.4101
   983.6000      7.9408      2.5110      0.0171      8.4271    122.0384     26.5629
   983.7000      7.9408      2.4796     -0.0008     10.3286    129.4208     27.1723
   983.8000      7.9548      2.4448     -0.0420     12.4339    137.3070     27.6140
   983.9000      7.9548      2.4230     -0.0610     13.7568    144.2341     27.8329
   984.0000      7.9678      2.4092      0.0085     14.5957    153.0181     28.1438
   984.1000      7.9678      2.3963     -0.0346     15.3751    161.2266     28.1590
   984.2000      7.9678      2.3999     -0.0144     15.1568    163.6490     27.8093
   984.3000      7.9502      2.4296      0.0141     13.3560    162.9627     27.3615
