~Version Information
VERS.                      2.0: CWLS Log ASCII Standard - VERSION 2.0
WRAP.                       NO: One line per depth step
~Well Information Block
STRT.FT                -6.7500: 
STOP.FT              2034.2500: 
STEP.FT                 0.2500: 
NULL.                -999.2500: 
COMP.          Evergreen Operating Corp.: COMPANY
WELL.           Big Pine 32-15: WELL
FLD.           Purgatorie River: FIELD
LOC.           2590 FNL & 1442 FEL--: LOCATION
STAT.                       CO: State
CNTY.               Las Animas: COUNTY
CTRY. USA : Country
SECT. 15 : Section
TOWN. 33S : township
RANG. 67W : Range
SRVC.          Patterson Wireline, Inc.: SERVICE COMPANY
DATE.          Mon Mar 24 12:45:01 2003: LOG DATE
API.           05 071 07772 00: UNIQUE WELL ID
~Curve Information Block
DEPT.FT            0 000 00 00: Depth
HVOLTA.V                      : Head Voltage Apparent
CCL.                          : Casing Collar Locator
TT3.usec                      : CBL 3' Travel Time
AMP3.mV                       : CBL 3' Amplitude
GR.GAPI                       : Gamma Ray
~Parameter Information Block
~A  Depth      HVOLTA       CCL         TT3         AMP3         GR     
# ...
   385.2500    121.3406      0.0000    735.3894      4.1444     97.0490
   385.5000    121.3337      0.0000    735.0713      4.0198     87.9487
   385.7500    121.3859      0.0000    734.7275      3.6850     80.7935
   386.0000    121.2286      0.0000    734.4734      3.3477     75.1805
   386.2500    121.2568      0.0000    734.3251      3.1239     70.0390
   386.5000    121.3612      0.0000    734.3832      3.0303     64.5321
   386.7500    121.2740      0.0000    735.0660      3.0863     58.5832
   387.0000    121.4751      0.0000    737.5181      3.2881     53.3651
   387.2500    121.2801      0.0000    743.5770      3.5339     50.9358
   387.5000    121.4964      0.0000    753.6117      3.6435     52.6682
   387.7500    121.2211      0.0000    765.1288      3.5325     57.9796
   388.0000    122.9597      0.0000    776.5290      3.3522     64.8161
   388.2500    121.3035      0.0000    788.2441      3.2921     71.2861
   388.5000    121.2774      0.0000    798.3626      3.3457     76.7005
   388.7500    121.2760      0.0000    803.8918      3.4267     81.3699
   389.0000    121.2781      0.0000    804.1047      3.5342     85.9315
   389.2500    121.2726      0.0000    798.7576      3.6699     90.8209
   389.5000    121.2794      0.0000    787.5087      3.7085     95.8039
   389.7500    121.3859      0.0000    771.1698      3.5050     99.9689
   390.0000    121.3605      0.0000    750.8615      3.1548    102.8924
   390.2500    121.1696      0.0000    731.8854      2.9337    105.8347
   390.5000    121.2534      0.0000    726.5930      2.8992    110.7915
   390.7500    121.2458      0.0000    741.9341      2.8550    117.9595
   391.0000    121.3055      0.0000    770.5014      2.7958    124.8657
   391.2500    121.2273      0.0000    800.8907      2.9233    128.6156
   391.5000    121.3879      0.0000    828.0144      3.1763    128.9619
   391.7500    121.3062      0.0000    850.3381      3.3050    128.8589
   392.0000    121.1957      5.0000    864.3061      3.3511    131.7016
   392.2500    121.2733      4.8642    866.3019      3.5181    137.8437
   392.5000    121.1655      0.0000    855.7251      3.7106    143.9435
   392.7500    121.3371      0.0000    827.9435      3.6794    146.0066
   393.0000    121.3948      0.0000    775.5760      3.4788    143.0984
   393.2500    121.1366      0.0000    714.2507      3.3948    137.9083
   393.5000    121.3364      0.0000    679.1529      3.5335    133.8784
   393.7500    121.2238      0.0000    673.1090      3.7253    132.2902
   394.0000    121.2458      0.0000    658.9113      3.8302    132.2009
   394.2500    121.3049      0.0000    618.3133      3.8839    132.3821
   394.5000    121.4202      0.0000    574.0142      3.8737    132.4587
   394.7500    121.3371      0.0000    549.5475      3.7153    132.5039
   395.0000    121.5232      0.0000    547.9728      3.4942    132.6404
   395.2500    121.2774      0.0000    568.2879      3.4364    133.3622
   395.5000    121.2781      0.0000    612.9734      3.6057    135.5210
   395.7500    121.3879      0.0000    673.7022      3.7952    139.3680
   396.0000    121.3646      0.0000    726.4840      3.8232    143.6818
   396.2500    121.3879      0.0000    752.6874      3.8053    146.2977
   396.5000    121.3323      0.0000    755.0545      3.9420    145.9665
   396.7500    121.3618      0.0000    747.9681      4.1594    143.8309
   397.0000    121.4429      0.0000    743.3815      4.2249    142.7712
   397.2500    121.4470      0.0000    747.7477      4.1210    144.8942
   397.5000    121.3055      0.0000    762.4735      4.0507    149.4622
   397.7500    121.4697      0.0000    782.3277      4.1204    153.2539
   398.0000    121.3886      0.0000    798.4635      4.1704    153.1160
   398.2500    121.3625      0.0000    806.3745      4.0341    148.4326
   398.5000    121.2499      0.0000    807.0307      3.8692    141.4173
   398.7500    121.2005      0.0000    801.7559      3.9439    135.2121
   399.0000    121.3900      0.0000    791.6719      4.1966    131.6794
   399.2500    121.5260      0.0000    780.0989      4.3309    130.7887
   399.5000    121.3035      0.0000    770.1603      4.2502    131.7541
   399.7500    121.2760      0.0000    763.3930      4.1313    134.3317
   400.0000    121.3577      0.0000    761.0136      4.1569    138.6221
   400.2500    121.3618      0.0000    760.8149      4.3080    143.7631
   400.5000    121.3859      0.0000    759.7565      4.4405    147.5727
   400.7500    121.3309      0.0000    758.8541      4.5517    148.1828
   401.0000    121.3083      0.0000    756.9957      4.7673    145.9008
   401.2500    121.3879      0.0000    750.6049      4.9939    142.8107
   401.5000    121.2513      0.0000    741.8347      4.9735    140.4168
   401.7500    121.2781      0.0000    736.0063      4.7479    138.2160
   402.0000    121.3866      0.0000    735.6377      4.6479    134.6866
   402.2500    121.3873      0.0000    741.7186      4.8346    129.0283
   402.5000    121.3062      0.0000    753.5366      5.1012    121.7835
   402.7500    121.3090      0.0000    765.8286      5.2062    114.2638
   403.0000    121.3351      0.0000    772.8535      5.2226    107.5118
   403.2500    121.4182      0.0000    773.7164      5.2926    101.5874
   403.5000    121.3914      0.0000    769.2898      5.3109     95.8417
   403.7500    121.3639      0.0000    760.6060      5.1036     89.8446
   404.0000    121.3055      0.0000    750.7216      4.7134     84.0587
   404.2500    121.3069      0.0000    742.5980      4.3438     80.0098
   404.5000    121.3138      0.0000    737.5085      4.0587     79.8549
   404.7500    121.2767      0.0000    735.3428      3.7966     85.1541
   405.0000    121.4436      0.0000    734.8535      3.6589     95.5349
   405.2500    121.2774      0.0000    734.7818      3.7964    108.6418
   405.5000    121.2499      0.0000    734.6251      4.0631    121.5929
   405.7500    121.2534      0.0000    734.4019      4.1760    132.6174
   406.0000    121.3035      0.0000    734.2720      4.1381    141.6461
   406.2500    121.1572      0.0000    734.3025      4.1602    149.7228
   406.5000    121.2788      0.0000    734.4297      4.2837    157.8148
   406.7500    121.5280      0.0000    734.5886      4.3333    165.9005
   407.0000    121.3323      0.0000    734.7773      4.2265    173.0485
   407.2500    121.3337      0.0000    734.9837      4.1468    178.2464
   407.5000    121.2554      0.0000    735.1400      4.2564    180.7783
   407.7500    121.4120      0.0000    735.1501      4.4383    179.9794
   408.0000    121.4154      0.0000    735.0076      4.5119    175.6851
   408.2500    121.2781      0.0000    734.8870      4.4540    169.3042
   408.5000    121.4188      0.0000    734.9684      4.3270    163.4901
   408.7500    121.3042      0.0000    735.2216      4.2417    160.1191
   409.0000    121.3344      0.0000    735.4515      4.2855    158.9857
   409.2500    121.2801      0.0000    735.5065      4.3713    158.6719
   409.5000    121.0858      0.0000    735.4241      4.3687    158.3710
   409.7500    121.4415      0.0000    735.3311      4.3784    158.6667
   410.0000    121.4964      0.0000    735.2459      4.6088    160.6217
   410.2500    121.3062      0.0000    735.1703      5.0004    164.1109
   410.5000    121.2293      0.0000    735.2476      5.2555    167.1863
   410.7500    121.3598      0.0000    735.5654      5.2480    167.4966
   411.0000    121.2273      0.0000    735.9559      5.1482    164.3228
   411.2500    121.1710      0.0000    736.1766      5.1620    158.8659
   411.5000    121.3103      0.0000    736.1456      5.3033    152.7097
   411.7500    121.3097      0.0000    735.9257      5.4229    146.7389
   412.0000    121.3076      0.0000    735.6030      5.4205    141.6750
   412.2500    121.3062      0.0000    735.3071      5.3962    138.8501
   412.5000    121.2561      0.0000    735.2124      5.5703    139.6573
   412.7500    121.0899      0.0000    735.3184      6.0290    144.3661
   413.0000    121.3612      0.0000    735.4153      6.5402    151.8701
