~Version Information
VERS.                      2.0: CWLS Log ASCII Standard - VERSION 2.0
WRAP.                       NO: One line per depth step
~Well Information Block
STRT.FT               -12.0000: 
STOP.FT              1728.0000: 
STEP.FT                 0.2500: 
NULL.                -999.2500: 
COMP.          XTO Energy Inc.: COMPANY
WELL.          Apache Canyon 35-06: WELL
FLD.              Vermejo Coal: FIELD
LOC.           2422' FNL & 1889' FWL--: LOCATION
STAT.                       CO: State
CNTY.               Las Animas: COUNTY
CTRY. USA : Country
SECT.  : Section
TOWN.  : Township
RANG.  : Range
SRVC.          Patterson Wireline: SERVICE COMPANY
DATE.          Fri Jan 06 08:11:44 2006: LOG DATE
API.              05 071 08540: UNIQUE WELL ID
~Curve Information Block
DEPT.FT            0 000 00 00: Depth
CCL.                          : Casing Collar Locator
TT3.usec                      : CBL 3' Travel Time
AMP3.mV                       : CBL 3' Amplitude
GR.GAPI                       : Gamma Ray
~Parameter Information Block
~A  Depth       CCL         TT3         AMP3         GR     
# ...
  1696.5000      0.0000    665.3009      2.9149     70.9649
  1696.7500      0.0000    666.5832      2.9259     70.0812
  1697.0000      0.0000    670.0940      2.9302     71.2329
  1697.2500      0.0000    672.8260      2.9336     74.2700
  1697.5000      0.0000    674.2549      2.9352     78.5472
  1697.7500      0.0000    675.4368      2.9288     83.0370
  1698.0000      0.0000    677.0125      2.9117     87.0366
  1698.2500      0.0000    678.8629      2.8909     90.5611
  1698.5000      0.0000    681.1003      2.8786     93.7794
  1698.7500      0.0000    684.3625      2.8801     96.5077
  1699.0000      0.0000    688.9154      2.8859     98.5919
  1699.2500      0.0000    693.7072      2.8783    100.2496
  1699.5000      0.0000    696.6284      2.8476    101.7433
  1699.7500      0.0000    696.1674      2.8015    103.2005
  1700.0000      0.0000    693.0831      2.7582    104.8674
  1700.2500      0.0000    690.1911      2.7328    106.9596
  1700.5000      0.0000    690.2353      2.7299    109.0807
  1700.7500      0.0000    693.8804      2.7476    110.0535
  1701.0000      0.0000    699.5024      2.7828    108.5261
  1701.2500      0.0000    704.4899      2.8314    104.0147
  1701.5000      0.0000    706.6372      2.8835     97.7079
  1701.7500      0.0000    704.7454      2.9247     92.0676
  1702.0000      0.0000    698.7749      2.9451     89.0802
  1702.2500      0.0000    690.0093      2.9469     88.6502
  1702.5000      0.0000    680.7841      2.9409     88.9279
  1702.7500      0.0000    673.3707      2.9347     88.2301
  1703.0000      0.0000    668.9948      2.9275     86.3234
  1703.2500      0.0000    668.1650      2.9150     84.0965
  1703.5000      0.0000    671.4000      2.8975     82.7970
  1703.7500      0.0000    678.4313      2.8823     83.5790
  1704.0000      0.0000    686.6391      2.8770     86.7747
  1704.2500      0.0000    691.6226      2.8815     91.1262
  1704.5000      0.0000    690.0648      2.8876     94.3467
  1704.7500      0.0000    681.7925      2.8849     94.9646
  1705.0000      0.0000    669.1002      2.8678     93.4851
  1705.2500      0.0000    654.9784      2.8354     91.6611
  1705.5000      0.0000    642.7395      2.7923     90.8844
  1705.7500      0.0000    636.7566      2.7568     91.3146
  1706.0000      0.0000    641.2790      2.7688     92.0668
  1706.2500      0.0000    656.5820      2.8737     91.7925
  1706.5000      0.0000    677.2238      3.0695     89.3630
  1706.7500      0.0000    696.1119      3.2667     84.6216
  1707.0000      0.0000    710.0379      3.3281     78.7706
  1707.2500      0.0000    720.2761      3.1758     73.9709
  1707.5000      0.0000    728.7852      2.8566     72.2689
  1707.7500      0.0000    735.1423      2.4982     74.3769
  1708.0000      0.0000    736.7313      2.2114     79.0934
  1708.2500      0.0000    730.7604      2.0386     83.8878
  1708.5000      0.0000    716.1075      1.9721     86.3250
  1708.7500      0.0000    694.0028      1.9976     85.2684
  1709.0000      0.0000    667.0740      2.1136     81.0700
  1709.2500      0.0000    638.0731      2.3278     75.0155
  1709.5000      0.0000    610.1593      2.6545     68.7907
  1709.7500      0.0000    587.5981      3.1123     64.1802
  1710.0000      0.0000    574.5427      3.6869     62.6380
  1710.2500      0.0000    573.6007      4.2701     64.6347
  1710.5000      0.0000    586.3713      4.6633     69.1777
  1710.7500      0.0000    612.9180      4.6921     74.1699
  1711.0000      0.0000    648.5900      4.3395     77.8328
  1711.2500      0.0000    683.8121      3.7662     80.0106
  1711.5000      0.0000    709.6299      3.2032     81.7978
  1711.7500      0.0000    722.9224      2.8163     84.0383
  1712.0000      0.0000    726.0973      2.6455     86.6741
  1712.2500      0.0000    723.4742      2.6341     89.3302
  1712.5000      0.0000    718.6441      2.6948     91.8174
  1712.7500      0.0000    714.0166      2.7588     93.9701
  1713.0000      0.0000    711.2367      2.7913     95.4557
  1713.2500      0.0000    711.2366      2.7872     95.8003
  1713.5000      0.0000    714.1552      2.7598     94.1181
  1713.7500      0.0000    719.8159      2.7297     88.7028
  1714.0000      0.0000    728.1514      2.7144     77.6372
  1714.2500      0.0000    738.6512      2.7219     60.7494
  1714.5000      0.0000    749.4584      2.7484     41.0147
  1714.7500      0.0000    757.6169      2.7822     23.2193
  1715.0000      0.0000    760.6767      2.8122     10.7905
  1715.2500      0.0000    758.2349      2.8364      4.0546
  1715.5000      0.0000    751.8862      2.8624      1.2184
  1715.7500      0.0000    743.7510      2.8974      0.2903
  1716.0000      0.0000    735.4102      2.9375      0.0540
  1716.2500      0.0000    728.0615      2.9717      0.0073
  1716.5000      0.0000    722.4343      2.9950   -999.2500
  1716.7500      0.0000    718.1267      3.0144   -999.2500
  1717.0000      0.0000    714.1256      3.0418   -999.2500
  1717.2500      0.0000    710.4733      3.0828   -999.2500
  1717.5000      0.0000    708.4965      3.1320   -999.2500
  1717.7500      0.0000    708.7816      3.1761   -999.2500
  1718.0000      0.0000    709.3199      3.2023   -999.2500
  1718.2500      0.0000    706.5758      3.2042   -999.2500
  1718.5000      0.0000    698.7260      3.1796   -999.2500
  1718.7500      0.0000    686.4739      3.1261   -999.2500
  1719.0000      0.0000    667.5344      3.0376   -999.2500
  1719.2500      0.0000    629.8609      2.9036   -999.2500
  1719.5000      0.0000    555.6500      2.7124   -999.2500
  1719.7500      0.0000    438.7646      2.4671   -999.2500
  1720.0000      0.0000    298.3554      2.2010   -999.2500
  1720.2500      0.0000    169.6377      1.9678   -999.2500
  1720.5000      0.0000     78.9839      1.8065   -999.2500
  1720.7500      0.0000     29.6838      1.7192   -999.2500
  1721.0000      0.0000      8.9136      1.6825   -999.2500
  1721.2500      0.0000      2.1211      1.6704   -999.2500
  1721.5000      0.0000      0.3945      1.6674   -999.2500
  1721.7500      0.0000   -999.2500   -999.2500   -999.2500
  1722.0000      0.0000   -999.2500   -999.2500   -999.2500
  1722.2500      0.0000   -999.2500   -999.2500   -999.2500
  1722.5000      0.0000   -999.2500   -999.2500   -999.2500
  1722.7500      0.0000   -999.2500   -999.2500   -999.2500
  1723.0000      0.0000   -999.2500   -999.2500   -999.2500
  1723.2500      0.0000   -999.2500   -999.2500   -999.2500
  1723.5000      0.0000   -999.2500   -999.2500   -999.2500
  1723.7500      0.0000   -999.2500   -999.2500   -999.2500
  1724.0000      0.0000   -999.2500   -999.2500   -999.2500
  1724.2500      0.0000   -999.2500   -999.2500   -999.2500
  1724.5000      0.0000   -999.2500   -999.2500   -999.2500
  1724.7500      0.0000   -999.2500   -999.2500   -999.2500
  1725.0000      0.0000   -999.2500   -999.2500   -999.2500
  1725.2500      0.0000   -999.2500   -999.2500   -999.2500
  1725.5000      0.0000   -999.2500   -999.2500   -999.2500
  1725.7500      0.0000   -999.2500   -999.2500   -999.2500
  1726.0000      0.0000   -999.2500   -999.2500   -999.2500
  1726.2500      0.0000   -999.2500   -999.2500   -999.2500
  1726.5000      0.0000   -999.2500   -999.2500   -999.2500
  1726.7500      0.0000   -999.2500   -999.2500   -999.2500
  1727.0000      0.0000   -999.2500   -999.2500   -999.2500
  1727.2500      0.0000   -999.2500   -999.2500   -999.2500
  1727.5000   -999.2500   -999.2500   -999.2500   -999.2500
  1727.7500   -999.2500   -999.2500   -999.2500   -999.2500
  1728.0000   -999.2500   -999.2500   -999.2500   -999.2500
