~Version Information
VERS.                      2.0: CWLS Log ASCII Standard - VERSION 2.0
WRAP.                       NO: One line per depth step
~Well Information Block
STRT.FT               -12.0000: 
STOP.FT              1266.5000: 
STEP.FT                 0.2500: 
NULL.                -999.2500: 
COMP.          Pioneer Natural Resources: COMPANY
WELL.          Hot Tomatoes 22-20: WELL
FLD.           Purgatorie River: FIELD
LOC.           2120' FNL & 2585' FWL: LOCATION
CNTY.               Las Animas: COUNTY
SRVC.                Patterson: SERVICE COMPANY
DATE.          Thu Mar 02 13:59:39 2006: LOG DATE
UWI.           05 071 08701 00: UNIQUE WELL ID
STAT.                       CO: STATE
~Curve Information Block
DEPT.FT            0 000 00 00: Depth
GR.GAPI                       : Gamma Ray
CCL.                          : Casing Collar Locator
TT3.usec                      : CBL 3' Travel Time
AMP3.mV                       : CBL 3' Amplitude
~Parameter Information Block
~A  Depth        GR         CCL         TT3         AMP3    
   -12.0000   -999.2500   -999.2500   -999.2500   -999.2500
   -11.7500   -999.2500   -999.2500   -999.2500   -999.2500
   -11.5000   -999.2500   -999.2500   -999.2500   -999.2500
   -11.2500   -999.2500   -999.2500   -999.2500   -999.2500
   -11.0000   -999.2500   -999.2500   -999.2500   -999.2500
   -10.7500   -999.2500   -999.2500   -999.2500   -999.2500
   -10.5000   -999.2500   -999.2500   -999.2500   -999.2500
   -10.2500   -999.2500   -999.2500   -999.2500   -999.2500
   -10.0000   -999.2500   -999.2500   -999.2500   -999.2500
    -9.7500   -999.2500   -999.2500   -999.2500   -999.2500
    -9.5000   -999.2500   -999.2500   -999.2500   -999.2500
    -9.2500   -999.2500   -999.2500   1494.0000     -2.4327
    -9.0000   -999.2500   -999.2500   1494.0000     -2.4341
    -8.7500   -999.2500   -999.2500   1494.0000     -2.4372
    -8.5000   -999.2500   -999.2500   1494.0000     -2.4369
    -8.2500   -999.2500   -999.2500   1494.0000     -2.4312
    -8.0000   -999.2500   -999.2500   1494.0000     -2.4229
    -7.7500   -999.2500   -999.2500   1494.0000     -2.4165
    -7.5000   -999.2500   -999.2500   1494.0000     -2.4149
    -7.2500   -999.2500   -999.2500   1494.0000     -2.4186
    -7.0000   -999.2500   -999.2500   1494.0000     -2.4243
    -6.7500   -999.2500   -999.2500   1494.0000     -2.4270
    -6.5000   -999.2500   -999.2500   1494.0000     -2.4235
    -6.2500   -999.2500   -999.2500   1494.0000     -2.4157
    -6.0000   -999.2500   -999.2500   1494.0000     -2.4079
    -5.7500   -999.2500   -999.2500   1494.0000     -2.4033
    -5.5000   -999.2500   -999.2500   1494.0000     -2.4017
    -5.2500   -999.2500   -999.2500   1494.0000     -2.4010
    -5.0000   -999.2500   -999.2500   1494.0000     -2.4010
    -4.7500   -999.2500   -999.2500   1494.0000     -2.4042
    -4.5000   -999.2500   -999.2500   1494.0000     -2.4133
    -4.2500   -999.2500   -999.2500   1494.0000     -2.4264
    -4.0000   -999.2500   -999.2500   1494.0000     -2.4394
    -3.7500   -999.2500      0.0000   1494.0000     -2.4500
    -3.5000   -999.2500      0.0000   1494.0000     -2.4591
    -3.2500   -999.2500      0.0000   1494.0000     -2.4685
    -3.0000   -999.2500      0.0000   1494.0000     -2.4777
    -2.7500   -999.2500      0.0000   1494.0000     -2.4833
    -2.5000   -999.2500      0.0000   1494.0000     -2.4828
    -2.2500   -999.2500      0.0000   1494.0000     -2.4780
    -2.0000   -999.2500      0.0000   1494.0000     -2.4740
    -1.7500   -999.2500      0.0000   1494.0000     -2.4735
    -1.5000   -999.2500      0.0000   1494.0000     -2.4741
    -1.2500   -999.2500      0.0000   1494.0000     -2.4712
    -1.0000   -999.2500      0.0000   1494.0000     -2.4616
    -0.7500   -999.2500      0.0000   1494.0000     -2.4465
    -0.5000   -999.2500      0.0000   1494.0000     -2.4310
    -0.2500   -999.2500      0.0000   1494.0000     -2.4209
     0.0000   -999.2500      0.0000   1494.0000     -2.4172
     0.2500   -999.2500      2.0000   1494.0000     -2.4225
     0.5000   -999.2500      2.0000   1494.0000     -2.4326
     0.7500   -999.2500      0.0000   1494.0000     -2.4469
     1.0000     45.2937      2.0000   1494.0000     -2.4577
     1.2500     40.1060      0.0000   1494.0000     -2.4556
     1.5000     36.0505      0.0000   1494.0000     -2.4382
     1.7500     33.7187      0.0000   1494.0000     -2.4127
     2.0000     33.3391      0.0000   1494.0000     -2.3905
     2.2500     34.4646      0.0000   1494.0000     -2.3789
     2.5000     36.5066      0.0000   1494.0000     -2.3792
     2.7500     39.3878      0.0000   1494.0000     -2.3903
     3.0000     43.4248     -1.0129   1494.0000     -2.4111
     3.2500     48.6810      0.0000   1494.0000     -2.4383
     3.5000     54.5574      0.0000   1493.9722     -2.4641
     3.7500     59.9766      0.0000   1493.7678     -2.4771
     4.0000     63.9598      0.0000   1492.6661     -2.4611
     4.2500     66.1571      0.0000   1488.0582     -2.3785
     4.5000     66.9508      0.0000   1472.7885     -2.0774
     4.7500     67.0903      0.0000   1432.4813     -1.0734
     5.0000     67.1688      0.0000   1347.2336      1.7618
     5.2500     67.3183      0.0000   1201.8862      8.2596
     5.5000     67.3284      0.0000   1000.9731     20.1357
     5.7500     67.0433      0.0000    774.8888     37.3016
     6.0000     66.5594      0.0000    567.4243     56.8353
     6.2500     65.9835      0.0000    412.3174     74.2958
     6.5000     65.0811      0.0000    318.1252     86.5469
     6.7500     63.3164      0.0000    271.8470     93.2965
     7.0000     60.3735      0.0000    253.5082     96.2198
     7.2500     56.6663      0.0000    247.6405     97.2169
     7.5000     53.1882      0.0000    246.1022     97.4855
     7.7500     50.7631      0.0000    245.7540     97.5427
     8.0000     49.5015      0.0000    245.6688     97.5524
     8.2500     48.9576      0.0000    245.6329     97.5530
     8.5000     48.6451      0.0000    245.6028     97.5530
     8.7500     48.3383      0.0000    245.5794     97.5530
     9.0000     48.0938      0.0000    245.5663     97.5530
     9.2500     48.2047      0.0000    245.5625     97.5530
     9.5000     49.0504      0.0000    245.5641     97.5530
     9.7500     50.7546      0.0000    245.5660     97.5530
    10.0000     53.0207      0.0000    245.5634     97.5530
    10.2500     55.5275      0.0000    245.5537     97.5530
    10.5000     58.4714      0.0000    245.5388     97.5530
    10.7500     62.4978      0.0000    245.5246     97.5530
    11.0000     68.1044      0.0000    245.5160     97.5530
    11.2500     75.1901      0.0000    245.5141     97.5530
    11.5000     83.1363      0.0000    245.5177     97.5530
    11.7500     91.1920      0.0000    245.5250     97.5530
    12.0000     98.6664      0.0000    245.5326     97.5514
    12.2500    104.6861      0.0000    245.5365     97.5429
    12.5000    108.0797      0.0000    245.5361     97.5015
    12.7500    108.0407      0.0000    245.5367     97.3467
    13.0000    104.9633      0.0000    245.5541     96.9085
    13.2500    100.2573      0.0000    245.6287     95.9606
    13.5000     95.2996      0.0000    245.8723     94.3949
    13.7500     90.7765      0.0000    246.5418     92.3933
    14.0000     86.8114      0.0000    248.1055     90.3501
    14.2500     83.2341      0.0000    251.1907     88.6589
    14.5000     79.6459      0.0000    256.2553     87.7405
    14.7500     75.6072      0.0000    263.0496     88.0977
    15.0000     70.9862      0.0000    270.3840     89.8896
    15.2500     66.0895      0.0000    276.6855     92.4934
    15.5000     61.6502      0.0000    280.9603     94.8725
    15.7500     58.8470      0.0000    283.2011     96.3631
    16.0000     59.0261     -2.0000    283.9448     96.8951
    16.2500     62.8980     -1.0172    283.6046     96.6145
    16.5000     69.9189      0.0000    282.2634     95.5564
    16.7500     78.5463      0.0000    280.0442     93.7196
    17.0000     87.0844      0.0000    277.5820     91.3539
    17.2500     94.3775      0.0000    275.8899     89.0287
    17.5000     99.9948      0.0000    275.5709     87.1751
    17.7500    103.9430      0.0000    276.3120     85.4491
    18.0000    106.2711      0.0000    277.3445     82.7884
    18.2500    106.9276      0.0000    278.2636     78.3092
    18.5000    105.7919      0.0000    279.3976     72.0185
    18.7500    102.9012      0.0000    281.7669     64.5867
    19.0000     99.0368      0.0000    286.9417     56.7004
    19.2500     95.9152      0.0000    296.3624     48.8015
    19.5000     95.0430      0.0000    309.7405     41.2372
    19.7500     96.2658      0.0000    323.8248     34.3977
    20.0000     97.9533      0.0000    333.8033     28.6698
    20.2500     98.5802      0.0000    336.9489     24.3179
    20.5000     97.7327      0.0000    334.6451     21.3903
    20.7500     95.8469      0.0000    330.5087     19.7139
    21.0000     93.7594      0.0000    327.1988     18.9848
    21.2500     92.4487      0.0000    325.2962     18.8830
