~Version Information
 VERS.                                  2.0 : CWLS LAS VERSION
 WRAP.                                   NO : WRAPING MODE
 SWARE .                 MController 2.5.0J : SOFTWARE VERSION
~Well Information
 WELL.                     Montoya 18-11V B : WELL
 COMP.                 Petrogulf Corporation: COMPANY
 FLD.                      Purgatoire River : FIELD
 LOC.                NW/NW Sec 18 T33S R67W : LOCATION
 DATE.                            10/3-4/05 : DATE(S) LOGGED
 SRVC.       BLANCO Geological Services LLC : SERVICE COMPANY
 STAT.                                   CO : STATE
 CNTY.                           Las Animas : COUNTY
 CTRY.                                  USA : COUNTRY
 API.                       05-071-08539-00 : API NUMBER
 STRT.FT                              86.00 : START DEPTH
 STOP.FT                            2495.00 : STOP DEPTH
 STEP.FT                               1.00 : DEPTH INCREMENT
 NULL.                                9999 : NULL VALUE
~Curve information
 DEPTH.FT                                   :
 ROP.MIN/FT                                 :
 GAS.UNITS                                  :
~ASCII Log data 
# ...
      1686.0         0.60         12.1 
      1687.0         0.63         11.9 
      1688.0         0.50         12.2 
      1689.0         0.37         12.2 
      1690.0         0.40         11.4 
      1691.0         0.40         11.8 
      1692.0         0.35         11.5 
      1693.0         0.40         11.4 
      1694.0         0.37         11.6 
      1695.0         0.23         11.7 
      1696.0         0.20         11.0 
      1697.0         0.23         11.3 
      1698.0         0.20         11.4 
      1699.0         0.20         11.4 
      1700.0         0.23         11.1 
      1701.0         0.23         12.0 
      1702.0         0.23         11.5 
      1703.0         0.27         11.8 
      1704.0         0.27         11.6 
      1705.0         0.45         11.8 
      1706.0         0.23         12.0 
      1707.0         0.33         12.0 
      1708.0         0.40         12.1 
      1709.0         0.30         12.2 
      1710.0         0.20         12.5 
      1711.0         0.13         12.9 
      1712.0         3.85         13.6 
      1713.0         0.22         12.9 
      1714.0         0.30         12.8 
      1715.0         0.30         12.6 
      1716.0         0.47         11.5 
      1717.0         0.47         12.3 
      1718.0         0.33         12.3 
      1719.0         0.43         12.3 
      1720.0         0.63         12.1 
      1721.0         0.38         11.7 
      1722.0         0.47         12.0 
      1723.0         0.47         11.9 
      1724.0         0.57         12.2 
      1725.0         0.47         12.1 
      1726.0         0.30         12.0 
      1727.0         0.27         12.1 
      1728.0         0.30         11.9 
      1729.0         0.32         12.2 
      1730.0         0.30         12.1 
      1731.0         0.33         12.0 
      1732.0         0.37         11.9 
      1733.0         0.40         12.1 
      1734.0         0.47         12.0 
      1735.0         0.47         11.5 
      1736.0         0.53         12.4 
      1737.0         0.55         12.3 
      1738.0         0.53         12.3 
      1739.0         0.43         11.9 
      1740.0         0.47         12.1 
      1741.0         0.40         12.3 
      1742.0         3.05         14.0 
      1743.0         0.50         13.1 
      1744.0         0.37         13.1 
      1745.0         0.48         12.9 
      1746.0         0.63         12.7 
      1747.0         0.53         12.6 
      1748.0         0.57         12.4 
      1749.0         0.60         12.2 
      1750.0         0.50         12.8 
      1751.0         0.30         12.5 
      1752.0         0.28         12.6 
      1753.0         0.27         12.7 
      1754.0         0.33         12.6 
      1755.0         0.33         12.7 
      1756.0         0.33         12.4 
      1757.0         0.43         12.3 
      1758.0         0.43         12.0 
      1759.0         0.40         12.6 
      1760.0         0.40         12.5 
      1761.0         0.45         11.9 
      1762.0         0.43         12.4 
      1763.0         0.43         16.2 
      1764.0         0.33         20.2 
      1765.0         0.30         22.0 
      1766.0         0.27         22.3 
      1767.0         0.23         21.3 
      1768.0         0.20         20.2 
      1769.0         0.23         17.9 
      1770.0         0.37         17.0 
      1771.0         0.45         19.3 
      1772.0         3.25         30.4 
      1773.0         0.47         23.9 
      1774.0         0.60         23.0 
      1775.0         0.50         19.8 
      1776.0         0.60         18.3 
      1777.0         0.57         16.5 
      1778.0         0.58         16.6 
      1779.0         0.50         16.6 
      1780.0         0.53         16.5 
      1781.0         0.53         16.6 
      1782.0         0.53         15.8 
      1783.0         0.73         15.0 
      1784.0         0.55         14.9 
      1785.0         0.60         15.1 
      1786.0         0.67         14.4 
      1787.0         0.53         14.2 
      1788.0         0.47         14.7 
      1789.0         0.43         14.8 
      1790.0         0.55         14.9 
      1791.0         0.53         14.5 
      1792.0         0.57         14.1 
      1793.0         0.50         13.9 
      1794.0         0.43         13.9 
      1795.0         0.37         14.2 
      1796.0         0.50         13.9 
      1797.0         0.55         13.7 
      1798.0         0.50         13.7 
      1799.0         0.47         14.1 
      1800.0         0.60         13.8 
      1801.0         0.57         15.1 
      1802.0         3.05         25.8 
      1803.0         0.57         23.2 
      1804.0         0.48         22.2 
      1805.0         0.43         20.3 
      1806.0         0.47         18.8 
      1807.0         0.40         17.4 
      1808.0         0.47         16.9 
      1809.0         0.43         15.9 
      1810.0         0.57         16.0 
      1811.0         0.38         15.8 
      1812.0         0.30         15.2 
      1813.0         0.37         14.9 
      1814.0         0.47         15.3 
      1815.0         0.53         24.7 
      1816.0         0.47         40.5 
      1817.0         0.37         49.2 
      1818.0         0.27         52.5 
      1819.0         0.27         53.2 
      1820.0         0.28         53.1 
      1821.0         0.30         52.4 
      1822.0         0.40         51.1 
      1823.0         0.47         49.7 
      1824.0         0.43         49.3 
      1825.0         0.43         50.0 
      1826.0         0.37         49.7 
      1827.0         0.40         47.9 
      1828.0         0.45         46.4 
      1829.0         0.37         44.2 
      1830.0         0.40         38.0 
      1831.0         0.37         37.8 
      1832.0         4.08         87.9 
      1833.0         0.60         65.4 
      1834.0         0.50         53.3 
      1835.0         0.52         44.5 
      1836.0         0.37         38.4 
      1837.0         0.40         37.0 
      1838.0         0.37         34.9 
      1839.0         0.40         33.1 
      1840.0         0.37         31.1 
      1841.0         0.40         29.9 
      1842.0         0.37         29.5 
      1843.0         0.42         27.8 
      1844.0         0.50         26.2 
      1845.0         0.43         25.3 
      1846.0         0.50         23.5 
      1847.0         0.50         23.8 
      1848.0         0.47         24.4 
      1849.0         0.50         25.6 
      1850.0         0.52         25.5 
      1851.0         0.47         24.9 
      1852.0         0.47         23.8 
      1853.0         0.43         23.0 
      1854.0         0.47         21.9 
      1855.0         0.43         21.0 
      1856.0         0.47         20.5 
      1857.0         0.32         19.4 
      1858.0         0.40         18.3 
      1859.0         0.43         15.8 
      1860.0         0.43         21.0 
      1861.0         0.47         33.4 
      1862.0         2.85         59.9 
      1863.0         0.60         44.1 
      1864.0         0.40         43.0 
      1865.0         0.70         39.6 
      1866.0         0.62         31.4 
      1867.0         0.57         25.4 
      1868.0         0.43         23.6 
      1869.0         0.47         21.9 
      1870.0         0.47         20.5 
      1871.0         0.50         20.5 
      1872.0         0.58         21.1 
      1873.0         0.53         20.4 
      1874.0         0.50         19.9 
      1875.0         0.50         19.0 
      1876.0         0.53         18.0 
      1877.0         0.57         17.4 
      1878.0         0.52         17.4 
      1879.0         0.50         16.9 
      1880.0         0.70         16.6 
      1881.0         0.47         16.6 
      1882.0         0.40         16.6 
      1883.0         0.40         16.4 
      1884.0         0.40         16.0 
      1885.0         0.45         17.2 
