~Version Information
VERS.                      2.0: CWLS Log ASCII Standard - VERSION 2.0
WRAP.                       NO: One line per depth step
~Well Information Block
STRT.FT               710.0000: 
STOP.FT              1983.0000: 
STEP.FT                 0.1000: 
NULL.                -999.2500: 
COMP.          Petrogulf Corporation: COMPANY
WELL.           State 16-23R-X: WELL
FLD.           Purgatorie River: FIELD
LOC.           2381' FSL & 2072' FWL: LOCATION
PROV.                 Colorado: PROVINCE
CNTY.               Las Animas: COUNTRY
SRVC.                Patterson: SERVICE COMPANY
DATE.          Mon Aug 08 07:36:34 2005: LOG DATE
UWI.                          : UNIQUE WELL ID
~Curve Information Block
DEPT.FT            0 000 00 00: Depth
DCAL.in                       : CDL Caliper
RHOB.g/cc                     : CDL Bulk Density
RHOC.g/cc                     : CDL Density Correction
DPOR.pu                       : CDL Density Porosity
GR.GAPI                       : Gamma Ray
NPOR.pu                       : Neutron Porosity
~Parameter Information Block
~A  Depth       DCAL        RHOB        RHOC        DPOR         GR         NPOR    
# ...
  1622.0000      7.7156      2.6999      0.1916     -3.0261    108.1190     28.5743
  1622.1000      7.7156      2.6832      0.1550     -2.0111    111.8434     28.0648
  1622.2000      7.7156      2.6710      0.1495     -1.2737    116.2311     27.2282
  1622.3000      7.7157      2.6627      0.1402     -0.7709    119.1521     26.4872
  1622.4000      7.7157      2.6488      0.1237      0.0755    121.2111     26.1494
  1622.5000      7.7511      2.6286      0.1191      1.2941    124.0754     26.0551
  1622.6000      7.7511      2.6059      0.1221      2.6699    129.0076     26.0864
  1622.7000      7.7511      2.5859      0.0920      3.8831    136.0354     26.1645
  1622.8000      7.7652      2.5687      0.0927      4.9244    143.0343     26.0177
  1622.9000      7.7652      2.5485      0.0459      6.1507    147.5731     25.7823
  1623.0000      7.7963      2.5209      0.0792      7.8231    149.6101     25.8828
  1623.1000      7.7963      2.4861      0.0513      9.9326    151.4058     26.2265
  1623.2000      7.7963      2.4615     -0.0290     11.4237    151.9851     26.3569
  1623.3000      7.8024      2.4607      0.0414     11.4700    149.3527     26.2421
  1623.4000      7.8024      2.4696      0.0550     10.9339    146.9584     26.2877
  1623.5000      7.8098      2.4748      0.0603     10.6179    149.2947     26.4161
  1623.6000      7.8098      2.4767      0.0365     10.5020    154.9909     26.2073
  1623.7000      7.8098      2.4754      0.0734     10.5839    160.8517     25.9516
  1623.8000      7.8196      2.4702      0.1287     10.8942    165.5942     26.1569
  1623.9000      7.8196      2.4642      0.1887     11.2599    166.7398     26.6223
  1624.0000      7.7820      2.4608      0.1564     11.4684    165.3783     27.0339
  1624.1000      7.7820      2.4667      0.1579     11.1063    165.7093     27.4803
  1624.2000      7.7820      2.4885      0.1633      9.7878    167.6183     28.0039
  1624.3000      7.7752      2.5241      0.2075      7.6274    169.0131     28.4478
  1624.4000      7.7752      2.5644      0.2265      5.1859    170.1092     28.7465
  1624.5000      7.7757      2.5965      0.2647      3.2417    170.3018     29.0197
  1624.6000      7.7757      2.6157      0.2549      2.0771    168.7525     29.3326
  1624.7000      7.7757      2.6272      0.2755      1.3793    166.1510     29.4748
  1624.8000      7.7917      2.6273      0.2639      1.3760    165.5360     29.1071
  1624.9000      7.7917      2.6128      0.1799      2.2560    169.0013     28.2772
  1625.0000      7.8132      2.5988      0.1704      3.1028    172.1414     27.5059
  1625.1000      7.8132      2.5985      0.1721      3.1189    171.8438     26.9610
  1625.2000      7.8132      2.6069      0.1850      2.6140    171.9548     26.5440
  1625.3000      7.8659      2.6145      0.1834      2.1493    174.3488     26.3288
  1625.4000      7.8659      2.6173      0.2170      1.9817    176.4211     26.5430
  1625.5000      7.9000      2.6195      0.1341      1.8495    175.7691     27.1468
  1625.6000      7.9000      2.6275      0.1875      1.3607    172.0313     27.6188
  1625.7000      7.9000      2.6304      0.2000      1.1904    166.1236     27.7476
  1625.8000      7.9020      2.6182      0.1689      1.9261    160.9952     27.6780
  1625.9000      7.9020      2.5994      0.1180      3.0662    159.2711     27.5361
  1626.0000      7.8795      2.5820      0.1375      4.1229    159.3741     27.5975
  1626.1000      7.8795      2.5670      0.0907      5.0283    160.0781     27.8067
  1626.2000      7.8795      2.5591      0.0773      5.5102    160.3256     27.7697
  1626.3000      7.8741      2.5636      0.0575      5.2355    158.5695     27.4967
  1626.4000      7.8741      2.5713      0.0926      4.7712    158.0909     27.3363
  1626.5000      7.8775      2.5632      0.0850      5.2582    160.1924     27.4834
  1626.6000      7.8775      2.5439      0.0322      6.4324    160.0372     27.8958
  1626.7000      7.8775      2.5346      0.0561      6.9920    158.0129     28.3213
  1626.8000      7.8936      2.5386      0.0448      6.7505    158.4053     28.6210
  1626.9000      7.8936      2.5400      0.0744      6.6637    161.7527     28.7957
  1627.0000      7.8763      2.5272      0.0595      7.4432    165.2827     28.7557
  1627.1000      7.8763      2.5058      0.0227      8.7408    164.9909     28.6816
  1627.2000      7.8763      2.4846      0.0574     10.0263    162.4678     28.9112
  1627.3000      7.8667      2.4678     -0.0138     11.0437    162.8750     29.1795
  1627.4000      7.8667      2.4661     -0.0090     11.1440    164.8743     28.9677
  1627.5000      7.8888      2.4810      0.0461     10.2417    163.5619     28.5166
  1627.6000      7.8888      2.4970      0.0708      9.2726    160.0411     28.4565
  1627.7000      7.8888      2.5027      0.0689      8.9258    157.6651     28.6645
  1627.8000      7.8823      2.4995      0.0839      9.1215    157.5289     28.6734
  1627.9000      7.8823      2.4989      0.0443      9.1582    160.6174     28.5490
  1628.0000      7.8869      2.5137      0.0987      8.2607    164.8594     28.5599
  1628.1000      7.8869      2.5411      0.1583      6.6026    167.7633     28.7635
  1628.2000      7.8869      2.5682      0.1745      4.9560    169.1038     28.9937
  1628.3000      7.8909      2.5881      0.1662      3.7497    166.7760     29.0851
  1628.4000      7.8909      2.5957      0.1670      3.2939    162.8475     29.0520
  1628.5000      7.8731      2.5834      0.1712      4.0384    162.1576     29.0676
  1628.6000      7.8731      2.5543      0.1467      5.7982    162.7185     29.1039
  1628.7000      7.8731      2.5214      0.1234      7.7961    161.4284     28.8479
  1628.8000      7.8399      2.4907      0.0982      9.6543    159.7346     28.2813
  1628.9000      7.8399      2.4652      0.0752     11.1983    160.4381     27.7308
  1629.0000      7.8292      2.4528      0.0877     11.9542    163.9120     27.4309
  1629.1000      7.8292      2.4518      0.1081     12.0131    166.7926     27.4268
  1629.2000      7.8292      2.4523      0.0725     11.9833    166.5118     27.6640
  1629.3000      7.8396      2.4548      0.0796     11.8285    165.3488     27.8732
  1629.4000      7.8396      2.4660      0.0944     11.1529    167.1039     27.7446
  1629.5000      7.8575      2.4901      0.1182      9.6923    171.6827     27.3931
  1629.6000      7.8575      2.5243      0.2263      7.6164    175.1063     27.0101
  1629.7000      7.8575      2.5575      0.2716      5.6084    175.4200     26.7028
  1629.8000      7.8517      2.5826      0.3181      4.0819    174.3443     26.7016
  1629.9000      7.8517      2.5988      0.3505      3.1006    173.5549     26.9717
  1630.0000      7.8102      2.6006      0.3573      2.9935    171.8397     27.3393
  1630.1000      7.8102      2.5852      0.2434      3.9296    168.7999     27.6195
  1630.2000      7.8102      2.5649      0.2004      5.1577    167.0639     27.4757
  1630.3000      7.8023      2.5523      0.2145      5.9240    166.0767     27.1511
  1630.4000      7.8023      2.5469      0.1777      6.2501    164.1396     27.2304
  1630.5000      7.8170      2.5511      0.1636      5.9946    162.1454     27.5621
  1630.6000      7.8170      2.5666      0.1641      5.0564    161.2805     27.7152
  1630.7000      7.8170      2.5760      0.1877      4.4821    160.5710     27.7280
  1630.8000      7.8390      2.5645      0.1723      5.1824    157.4126     27.7830
  1630.9000      7.8390      2.5425      0.1245      6.5179    150.8014     27.8155
  1631.0000      7.8096      2.5264      0.1401      7.4928    143.3217     27.6359
  1631.1000      7.8096      2.5222      0.1374      7.7463    139.3840     27.1735
  1631.2000      7.8096      2.5325      0.1107      7.1236    140.0605     26.5543
  1631.3000      7.8059      2.5529      0.1444      5.8859    142.7807     26.0672
  1631.4000      7.8059      2.5710      0.1435      4.7858    143.0925     25.9031
  1631.5000      7.8103      2.5765      0.1730      4.4539    139.2487     25.8065
