~Version Information
VERS.                      2.0: CWLS Log ASCII Standard - VERSION 2.0
WRAP.                       NO: One line per depth step
~Well Information Block
STRT.FT               260.8000: 
STOP.FT              1942.0000: 
STEP.FT                 0.1000: 
NULL.                -999.2500: 
COMP.          XTO Energy Inc.: COMPANY
WELL.          Golden Eagle 19-11: WELL
FLD.           Purgatoire River: FIELD
LOC.           2351' FSL & 1926' FWL--: LOCATION
CNTY.               Las Animas: COUNTY
SRVC.                Patterson: SERVICE COMPANY
DATE.          Thu Mar 09 08:41:38 2006: LOG DATE
UWI.           05 071 08696 00: UNIQUE WELL ID
STAT.                 Colorado: STATE
~Curve Information Block
DEPT.FT            0 000 00 00: Depth
DCAL.in                       : CDL Caliper
RHOB.g/cc                     : CDL Bulk Density
RHOC.g/cc                     : CDL Density Correction
DPOR.pu                       : CDL Density Porosity
NPOR.pu                       : Neutron Porosity
GR.GAPI                       : Gamma Ray
~Parameter Information Block
~A  Depth       DCAL        RHOB        RHOC        DPOR        NPOR         GR     
# ...
  1796.8000      7.8732      2.4930      0.0721      9.5127     22.6461     93.9760
  1796.9000      7.8732      2.4992      0.0751      9.1390     22.9910     87.7925
  1797.0000      7.8887      2.4984      0.0463      9.1898     23.6179     82.6527
  1797.1000      7.8887      2.4969      0.0176      9.2799     23.8420     81.2775
  1797.2000      7.8887      2.4955      0.0548      9.3664     23.4067     82.4027
  1797.3000      7.8968      2.4920     -0.0003      9.5766     22.8942     85.1233
  1797.4000      7.8968      2.4923      0.0420      9.5546     22.6531     88.2975
  1797.5000      7.8974      2.4971      0.0589      9.2677     22.5943     90.9987
  1797.6000      7.8974      2.5009      0.0416      9.0344     22.8032     93.9027
  1797.7000      7.8974      2.4947      0.0647      9.4109     23.4072     96.2439
  1797.8000      7.8949      2.4784      0.0166     10.3988     23.7702     94.3283
  1797.9000      7.8949      2.4726      0.0409     10.7525     23.5580     89.8401
  1798.0000      7.8945      2.4852      0.0240      9.9888     23.4206     90.5212
  1798.1000      7.8945      2.5009      0.0352      9.0393     23.6619     97.5713
  1798.2000      7.8945      2.5071      0.0581      8.6625     23.9200    103.4916
  1798.3000      7.8969      2.5048      0.0406      8.7993     23.8790    102.9039
  1798.4000      7.8969      2.5023      0.0249      8.9510     23.6493     98.0745
  1798.5000      7.8994      2.5019      0.0457      8.9785     23.6525     92.9853
  1798.6000      7.8994      2.4989      0.0559      9.1587     24.0438     91.7387
  1798.7000      7.8994      2.4950      0.0168      9.3912     24.2113     95.9634
  1798.8000      7.8990      2.4966      0.0463      9.2996     23.9112     98.9954
  1798.9000      7.8990      2.5037      0.0060      8.8655     23.5627     95.2360
  1799.0000      7.8966      2.5071      0.0772      8.6601     23.0874     87.0378
  1799.1000      7.8966      2.5025      0.0163      8.9377     22.5958     80.9843
  1799.2000      7.8966      2.5104      0.0261      8.4583     22.6941     80.7954
  1799.3000      7.8961      2.5400      0.0782      6.6658     23.3747     82.5941
  1799.4000      7.8961      2.5683      0.1017      4.9500     23.8405     84.9114
  1799.5000      7.8968      2.5783      0.0697      4.3471     23.5724     89.8585
  1799.6000      7.8968      2.5745      0.0567      4.5760     23.0014     94.5197
  1799.7000      7.8968      2.5615      0.0723      5.3636     22.7274     94.7356
  1799.8000      7.8985      2.5341      0.0672      7.0261     22.6163     93.2531
  1799.9000      7.8985      2.5043     -0.0056      8.8316     22.1659     92.1780
  1800.0000      7.8991      2.4998     -0.0048      9.1038     21.7898     87.5253
  1800.1000      7.8991      2.5203      0.0332      7.8581     22.1695     79.7219
  1800.2000      7.8991      2.5356      0.0641      6.9305     22.8271     74.2693
  1800.3000      7.8993      2.5296      0.0233      7.2968     23.1874     74.7105
  1800.4000      7.8993      2.5172      0.0077      8.0510     23.3517     81.6720
  1800.5000      7.9016      2.5119      0.0447      8.3668     23.5697     92.7887
  1800.6000      7.9016      2.5087      0.0659      8.5613     23.9745    100.3743
  1800.7000      7.9016      2.5022      0.0486      8.9591     24.4079    100.4140
  1800.8000      7.9050      2.4932      0.0771      9.5049     24.4350     98.5840
  1800.9000      7.9050      2.4885     -0.0151      9.7871     24.2921     98.3803
  1801.0000      7.9108      2.5040      0.0383      8.8467     24.8205     99.3495
  1801.1000      7.9108      2.5446      0.0565      6.3863     25.8299    101.4529
  1801.2000      7.9108      2.5905      0.1079      3.6087     26.0802    103.5975
  1801.3000      7.9147      2.6063      0.1490      2.6499     25.4137    104.0367
  1801.4000      7.9147      2.5816      0.0941      4.1476     24.8838    100.3208
  1801.5000      7.9076      2.5466      0.0903      6.2658     24.6517     92.3078
  1801.6000      7.9076      2.5313      0.0591      7.1944     24.0042     83.4020
  1801.7000      7.9076      2.5377      0.0565      6.8044     23.2338     76.7919
  1801.8000      7.8889      2.5528      0.0156      5.8914     23.0280     77.7459
  1801.9000      7.8889      2.5619      0.0795      5.3376     23.0460     87.2073
  1802.0000      7.8729      2.5553      0.0654      5.7375     22.6924     92.3363
  1802.1000      7.8729      2.5423      0.0426      6.5255     22.2499     85.6907
  1802.2000      7.8729      2.5345      0.0952      6.9977     22.1508     79.1596
  1802.3000      7.8660      2.5281      0.0370      7.3876     22.3447     82.6779
  1802.4000      7.8660      2.5150      0.1005      8.1818     22.9825     92.4803
  1802.5000      7.8582      2.4925      0.0295      9.5483     24.0678    103.0802
  1802.6000      7.8582      2.4783     -0.0186     10.4066     25.1040    109.5048
  1802.7000      7.8582      2.4799      0.0359     10.3106     25.8073    108.4574
  1802.8000      7.8474      2.4756      0.0250     10.5718     26.3987    104.4857
  1802.9000      7.8474      2.4655      0.0110     11.1803     27.2176    102.8993
  1803.0000      7.8475      2.4721      0.0843     10.7798     27.9808    103.9924
  1803.1000      7.8475      2.4949      0.0868      9.3974     28.0860    109.5792
  1803.2000      7.8475      2.5178      0.1310      8.0105     27.5417    121.3225
  1803.3000      7.8690      2.5364      0.1225      6.8825     26.8107    132.3150
  1803.4000      7.8690      2.5508      0.1486      6.0105     26.3492    132.8847
  1803.5000      7.9018      2.5518      0.2121      5.9515     26.2859    120.6201
  1803.6000      7.9018      2.5415      0.1611      6.5761     26.4374    103.8448
  1803.7000      7.9018      2.5445      0.1132      6.3933     26.3979     93.9317
  1803.8000      7.9146      2.5710      0.1321      4.7869     25.7563     93.0730
  1803.9000      7.9146      2.6004      0.1747      3.0042     24.6853     96.4156
  1804.0000      7.9012      2.6140      0.1570      2.1847     23.7397     98.2034
  1804.1000      7.9012      2.6041      0.1179      2.7814     23.1699     98.2741
  1804.2000      7.9012      2.5738      0.0721      4.6196     22.5973     96.2807
  1804.3000      7.8840      2.5450      0.0363      6.3638     21.6041     88.5341
  1804.4000      7.8840      2.5343      0.0911      7.0129     20.4978     77.0218
  1804.5000      7.8772      2.5353      0.0105      6.9488     19.9629     67.4735
  1804.6000      7.8772      2.5324      0.0631      7.1278     20.1543     62.9316
  1804.7000      7.8772      2.5147      0.0432      8.2000     20.5419     62.8313
  1804.8000      7.8762      2.5009     -0.0569      9.0357     20.3887     66.3582
  1804.9000      7.8762      2.5145      0.0442      8.2110     19.6037     73.3692
  1805.0000      7.8744      2.5410      0.0772      6.6081     19.1214     82.3062
  1805.1000      7.8744      2.5540      0.0718      5.8166     19.5258     90.0209
  1805.2000      7.8744      2.5469      0.0541      6.2510     20.3974     93.8562
  1805.3000      7.8728      2.5229      0.0781      7.7010     21.4408     93.8559
  1805.4000      7.8728      2.4923      0.0310      9.5556     22.6828     92.5058
  1805.5000      7.8720      2.4776      0.0374     10.4482     23.8201     91.6003
  1805.6000      7.8720      2.4883      0.0318      9.8003     24.3712     92.2025
  1805.7000      7.8720      2.5071      0.0900      8.6625     24.3496     94.0961
  1805.8000      7.8702      2.5151      0.0696      8.1739     24.5751     95.2328
  1805.9000      7.8702      2.5095      0.0732      8.5154     25.1991     95.4522
  1806.0000      7.8693      2.5007      0.0293      9.0470     25.4070     94.9485
  1806.1000      7.8693      2.5101      0.0095      8.4804     25.0961     92.7356
  1806.2000      7.8693      2.5413      0.0950      6.5884     25.0288     90.1570
  1806.3000      7.8708      2.5647      0.1252      5.1669     25.2168     87.4495
