~Version Information
VERS.                      2.0: CWLS Log ASCII Standard - VERSION 2.0
WRAP.                       NO: One line per depth step
~Well Information Block
STRT.FT               440.0000: 
STOP.FT              1702.7500: 
STEP.FT                 0.2500: 
NULL.                -999.2500: 
COMP.          Pioneer Natural Resources: COMPANY
WELL.          Culver 14-12 Tr: WELL
FLD.           Purgatoire River: FIELD
LOC.           915' FSL & 1048' FWL--: LOCATION
STAT.                 Colorado: State
CNTY.               Las Animas: COUNTY
CTRY. USA : Country
SECT. 12 : Section
TOWN. 32S : Township
RANG. 66W : Range
SRVC.                Patterson: SERVICE COMPANY
DATE.          Tue Sep 27 23:38:23 2005: LOG DATE
API.           05 071 08520 00: UNIQUE WELL ID
~Curve Information Block
DEPT.FT            0 000 00 00: Depth
SN.Ohm-m                      : IEL Short Normal
SP.mV                         : IEL Spontaneous Potential
DIR.Ohm-m                     : IEL Induction Resistivity
GR.GAPI                       : Gamma Ray
~Parameter Information Block
~A  Depth        SN          SP         DIR          GR     
# ...
   842.0000   2000.0000   2014.0000      9.8821    108.4194
   842.2500   2000.0000   2014.0000      9.9158    110.0334
   842.5000   2000.0000   2014.0000      9.9866    116.0115
   842.7500   2000.0000   2014.0000     10.0898    121.1812
   843.0000   2000.0000   2014.0000     10.2168    128.3027
   843.2500   2000.0000   2014.0000     10.3561    131.5359
   843.5000   2000.0000   2014.0000     10.4965    133.3005
   843.7500   2000.0000   2014.0000     10.6320    132.5528
   844.0000   2000.0000   2014.0000     10.7662    129.3721
   844.2500   2000.0000   2014.0000     10.9105    126.4327
   844.5000   2000.0000   2014.0000     11.0782    121.4983
   844.7500   2000.0000   2014.0000     11.2774    117.9614
   845.0000   2000.0000   2014.0000     11.5059    112.0171
   845.2500   2000.0000   2014.0000     11.7529    107.6564
   845.5000   2000.0000   2014.0000     12.0059    101.7315
   845.7500   2000.0000   2014.0000     12.2570     99.4001
   846.0000   2000.0000   2014.0000     12.5061     99.8436
   846.2500   2000.0000   2014.0000     12.7567    102.7091
   846.5000   2000.0000   2014.0000     13.0087    109.2753
   846.7500   2000.0000   2014.0000     13.2527    113.9518
   847.0000   2000.0000   2014.0000     13.4721    119.9674
   847.2500   2000.0000   2014.0000     13.6521    123.0890
   847.5000   2000.0000   2014.0000     13.7874    126.7463
   847.7500   2000.0000   2014.0000     13.8855    128.6814
   848.0000   2000.0000   2014.0000     13.9611    130.7466
   848.2500   2000.0000   2014.0000     14.0295    131.3903
   848.5000   2000.0000   2014.0000     14.1032    131.1510
   848.7500   2000.0000   2014.0000     14.1914    130.3378
   849.0000   2000.0000   2014.0000     14.3002    128.5114
   849.2500   2000.0000   2014.0000     14.4303    126.9475
   849.5000   2000.0000   2014.0000     14.5740    123.9141
   849.7500   2000.0000   2014.0000     14.7140    121.4942
   850.0000   2000.0000   2014.0000     14.8244    118.0182
   850.2500   2000.0000   2014.0000     14.8718    116.3215
   850.5000   2000.0000   2014.0000     14.8197    114.8200
   850.7500   2000.0000   2014.0000     14.6396    114.0799
   851.0000   2000.0000   2014.0000     14.3275    112.6967
   851.2500   2000.0000   2014.0000     13.9142    111.7528
   851.5000   2000.0000   2014.0000     13.4583    111.4072
   851.7500   2000.0000   2014.0000     13.0240    112.4569
   852.0000   2000.0000   2014.0000     12.6586    115.7049
   852.2500   2000.0000   2014.0000     12.3816    118.0612
   852.5000   2000.0000   2014.0000     12.1879    120.0842
   852.7500   2000.0000   2014.0000     12.0617    120.0264
   853.0000   2000.0000   2014.0000     11.9927    118.5925
   853.2500   2000.0000   2014.0000     11.9854    117.5261
   853.5000   2000.0000   2014.0000     12.0561    116.4301
   853.7500   2000.0000   2014.0000     12.2200    115.7330
   854.0000   2000.0000   2014.0000     12.4773    113.7026
   854.2500   2000.0000   2014.0000     12.8027    111.5599
   854.5000   2000.0000   2014.0000     13.1461    108.3614
   854.7500   2000.0000   2014.0000     13.4424    107.2193
   855.0000   2000.0000   2014.0000     13.6315    107.6392
   855.2500   2000.0000   2014.0000     13.6789    108.9721
   855.5000   2000.0000   2014.0000     13.5865    111.6937
   855.7500   2000.0000   2014.0000     13.3879    113.9203
   856.0000   2000.0000   2014.0000     13.1327    118.3275
   856.2500   2000.0000   2014.0000     12.8697    121.9197
   856.5000   2000.0000   2014.0000     12.6363    126.7965
   856.7500   2000.0000   2014.0000     12.4549    128.3683
   857.0000   2000.0000   2014.0000     12.3334    126.7148
   857.2500   2000.0000   2014.0000     12.2694    123.0892
   857.5000   2000.0000   2014.0000     12.2543    115.7276
   857.7500   2000.0000   2014.0000     12.2773    111.1342
   858.0000   2000.0000   2014.0000     12.3268    107.2674
   858.2500   2000.0000   2014.0000     12.3897    107.4812
   858.5000   2000.0000   2014.0000     12.4512    111.5998
   858.7500   2000.0000   2014.0000     12.4961    115.9378
   859.0000   2000.0000   2014.0000     12.5098    123.0507
   859.2500   2000.0000   2014.0000     12.4764    127.4505
   859.5000   2000.0000   2014.0000     12.3775    132.9465
   859.7500   2000.0000   2014.0000     12.1983    135.9139
   860.0000   2000.0000   2014.0000     11.9390    139.9264
   860.2500   2000.0000   2014.0000     11.6240    142.7035
   860.5000   2000.0000   2014.0000     11.2963    147.0726
   860.7500   2000.0000   2014.0000     11.0042    149.7235
   861.0000   2000.0000   2014.0000     10.7867    152.3639
   861.2500   2000.0000   2014.0000     10.6683    152.6946
   861.5000   2000.0000   2014.0000     10.6601    150.2354
   861.7500   2000.0000   2014.0000     10.7648    146.4276
   862.0000   2000.0000   2014.0000     10.9796    138.0026
   862.2500   2000.0000   2014.0000     11.2967    131.3109
   862.5000   2000.0000   2014.0000     11.7006    121.0320
   862.7500   2000.0000   2014.0000     12.1656    114.6687
   863.0000   2000.0000   2014.0000     12.6570    106.7947
   863.2500   2000.0000   2014.0000     13.1357    103.2149
   863.5000   2000.0000   2014.0000     13.5639    101.0209
   863.7500   2000.0000   2014.0000     13.9087    101.6496
   864.0000   2000.0000   2014.0000     14.1433    105.2527
   864.2500   2000.0000   2014.0000     14.2490    109.2342
   864.5000   2000.0000   2014.0000     14.2184    117.1025
   864.7500   2000.0000   2014.0000     14.0595    122.7783
   865.0000   2000.0000   2014.0000     13.7968    129.8658
   865.2500   2000.0000   2014.0000     13.4681    132.8524
   865.5000   2000.0000   2014.0000     13.1172    135.0156
   865.7500   2000.0000   2014.0000     12.7870    135.7266
   866.0000   2000.0000   2014.0000     12.5141    136.7857
   866.2500   2000.0000   2014.0000     12.3284    137.3631
   866.5000   2000.0000   2014.0000     12.2544    136.6958
   866.7500   2000.0000   2014.0000     12.3119    134.5443
   867.0000   2000.0000   2014.0000     12.5150    129.0884
   867.2500   2000.0000   2014.0000     12.8701    124.9860
   867.5000   2000.0000   2014.0000     13.3754    119.9015
   867.7500   2000.0000   2014.0000     14.0203    117.4682
   868.0000   2000.0000   2014.0000     14.7864    114.0080
   868.2500   2000.0000   2014.0000     15.6481    110.7973
   868.5000   2000.0000   2014.0000     16.5760    104.0813
   868.7500   2000.0000   2014.0000     17.5401     98.9556
   869.0000   2000.0000   2014.0000     18.5121     91.5705
   869.2500   2000.0000   2014.0000     19.4615     87.0490
   869.5000   2000.0000   2014.0000     20.3511     80.7781
   869.7500   2000.0000   2014.0000     21.1383     77.2361
   870.0000   2000.0000   2014.0000     21.7859     73.8740
   870.2500   2000.0000   2014.0000     22.2775     73.2173
   870.5000   2000.0000   2014.0000     22.6234     74.1258
   870.7500   2000.0000   2014.0000     22.8494     75.4634
   871.0000   2000.0000   2014.0000     22.9756     77.9645
   871.2500   2000.0000   2014.0000     23.0013     79.7854
   871.5000   2000.0000   2014.0000     22.9059     82.2647
   871.7500   2000.0000   2014.0000     22.6591     83.3430
   872.0000   2000.0000   2014.0000     22.2308     83.8053
   872.2500   2000.0000   2014.0000     21.6009     83.6617
   872.5000   2000.0000   2014.0000     20.7734     83.9477
   872.7500   2000.0000   2014.0000     19.7876     85.2191
   873.0000   2000.0000   2014.0000     18.7105     89.5660
   873.2500   2000.0000   2014.0000     17.6123     94.0306
   873.5000   2000.0000   2014.0000     16.5436    101.8563
   873.7500   2000.0000   2014.0000     15.5305    106.7738
   874.0000   2000.0000   2014.0000     14.5816    112.5958
   874.2500   2000.0000   2014.0000     13.6975    115.7248
   874.5000   2000.0000   2014.0000     12.8750    120.9051
   874.7500   2000.0000   2014.0000     12.1099    125.3968
   875.0000   2000.0000   2014.0000     11.4001    133.2565
   875.2500   2000.0000   2014.0000     10.7476    138.1895
