~Version Information
VERS.                      2.0: CWLS Log ASCII Standard - VERSION 2.0
WRAP.                       NO: One line per depth step
~Well Information Block
STRT.FT                -8.0000: 
STOP.FT              1060.7500: 
STEP.FT                 0.2500: 
NULL.                -999.2500: 
COMP.          Pioneer Natural Resources: COMPANY
WELL.          Pavillion 44-25: WELL
FLD.           Purgatorie River: FIELD
LOC.           719' FSL & 650' FEL--: LOCATION
PROV.                       CO: PROVINCE
CNTY.               Las Animas: COUNTRY
SRVC.          Patterson Wireline: SERVICE COMPANY
DATE.          Mon Dec 19 11:59:26 2005: LOG DATE
UWI.           05 071 08624 00: UNIQUE WELL ID
~Curve Information Block
DEPT.FT            0 000 00 00: Depth
CCL.                          : Casing Collar Locator
TT3.usec                      : CBL 3' Travel Time
AMP3.mV                       : CBL 3' Amplitude
GR.GAPI                       : Gamma Ray
~Parameter Information Block
~A  Depth       CCL         TT3         AMP3         GR     
# ...
    59.0000      0.0000    523.2977      2.4573    102.5726
    59.2500      0.0000    533.7234      2.5378    100.6498
    59.5000      0.0000    551.8285      2.5719    100.9612
    59.7500      0.0000    565.4921      2.5273    102.9242
    60.0000      0.0000    564.9603      2.3972    105.1224
    60.2500      0.0000    549.8285      2.2128    106.3232
    60.5000      0.0000    528.5812      2.0392    106.3345
    60.7500      0.0000    510.6526      1.9461    105.9554
    61.0000      0.0000    500.0211      1.9679    105.7509
    61.2500      0.0000    495.4248      2.0852    105.0370
    61.5000      0.0000    493.8943      2.2464    102.5981
    61.7500      0.0000    493.0777      2.4143     98.2993
    62.0000      0.0000    491.7390      2.5938     93.4822
    62.2500      0.0000    489.8229      2.8139     89.7462
    62.5000      0.0000    488.8356      3.0868     87.6844
    62.7500      0.0000    492.3056      3.3886     86.7379
    63.0000      0.0000    505.9340      3.6761     85.8955
    63.2500      0.0000    536.7490      3.9219     84.5249
    63.5000      0.0000    589.6373      4.1354     82.8618
    63.7500      0.0000    661.6815      4.3462     81.7352
    64.0000      0.0000    740.4308      4.5661     81.5115
    64.2500      0.0000    810.4626      4.7736     81.2559
    64.5000      0.0000    861.4274      4.9394     79.4752
    64.7500      0.0000    889.4210      5.0645     76.0619
    65.0000      0.0000    896.1080      5.1838     73.0835
    65.2500      0.0000    890.5558      5.3314     73.1139
    65.5000      0.0000    886.5200      5.5074     76.9067
    65.7500      0.0000    892.3795      5.6815     82.8426
    66.0000      0.0000    905.8008      5.8230     88.3101
    66.2500      0.0000    919.7784      5.9243     91.4081
    66.5000      0.0000    930.1918      5.9994     91.7746
    66.7500      0.0000    935.5860      6.0655     90.4178
    67.0000      0.0000    933.1686      6.1297     88.7663
    67.2500      0.0000    919.9102      6.1922     87.5440
    67.5000      0.0000    898.9357      6.2583     86.4945
    67.7500      0.0000    880.9225      6.3358     85.2093
    68.0000      0.0000    874.7621      6.4183     83.9414
    68.2500      0.0000    877.2645      6.4788     83.5019
    68.5000      0.0000    875.8041      6.4877     84.4939
    68.7500      0.0000    862.0982      6.4387     86.5333
    69.0000      0.0000    840.4730      6.3585     88.1952
    69.2500      0.0000    820.9801      6.2887     88.1800
    69.5000      0.0000    807.3973      6.2510     86.7751
    69.7500      0.0000    795.1394      6.2329     85.7382
    70.0000      0.0000    779.5993      6.2097     86.5033
    70.2500      0.0000    763.1377      6.1753     88.8149
    70.5000      0.0000    753.1484      6.1468     91.1518
    70.7500      0.0000    754.9562      6.1438     92.0078
    71.0000      0.0000    767.3721      6.1703     90.6506
    71.2500      0.0000    784.3103      6.2103     87.2397
    71.5000      0.0000    799.3614      6.2378     82.5664
    71.7500      0.0000    808.4688      6.2314     77.5621
    72.0000      0.0000    810.1168      6.1872     72.9254
    72.2500      0.0000    805.2598      6.1160     69.0754
    72.5000      0.0000    797.5474      6.0326     66.1895
    72.7500      0.0000    792.2131      5.9513     64.1902
    73.0000      0.0000    793.8874      5.8884     62.7968
    73.2500      0.0000    804.6575      5.8571     61.7921
    73.5000      0.0000    821.9036      5.8595     61.2893
    73.7500      0.0000    836.7389      5.8844     61.5002
    74.0000      0.0000    837.7538      5.9147     62.1962
    74.2500      0.0000    820.1033      5.9342     62.7198
    74.5000      0.0000    790.2661      5.9320     62.6053
    74.7500      0.0000    760.1655      5.9041     61.9478
    75.0000      0.0000    737.8232      5.8475     61.1731
    75.2500      0.0000    723.8610      5.7547     60.7402
    75.5000      0.0000    714.1235      5.6188     61.0284
    75.7500      0.0000    704.0764      5.4492     62.3179
    76.0000      0.0000    691.5364      5.2735     64.7553
    76.2500      0.0000    676.5396      5.1231     68.0791
    76.5000      0.0000    660.2600      5.0159     71.2988
    76.7500      0.0000    645.2104      4.9521     73.0765
    77.0000      0.0000    635.6445      4.9235     72.7390
    77.2500      0.0000    635.5668      4.9261     70.8580
    77.5000      0.0000    645.8568      4.9624     68.7299
    77.7500      0.0000    664.0172      5.0323     67.3570
    78.0000      0.0000    685.8546      5.1224     66.9558
    78.2500      0.0000    706.2053      5.2094     67.0968
    78.5000      0.0000    719.6555      5.2734     66.8315
    78.7500      0.0000    723.2239      5.3067     64.9636
    79.0000      0.0000    718.4882      5.3127     61.1020
    79.2500      0.0000    710.0009      5.3128     56.7329
    79.5000      0.0000    702.1246      5.3603     54.6324
    79.7500      0.0000    698.4575      5.5144     56.6453
    80.0000      0.0000    704.0378      5.7582     61.9504
    80.2500      0.0000    725.8591      5.9681     67.5822
    80.5000      0.0000    768.4281      6.0239     70.7367
    80.7500      0.0000    826.5579      5.9407     70.6188
    81.0000      0.0000    882.7480      5.8408     68.3574
    81.2500      0.0000    915.2204      5.8139     65.8140
    81.5000     -2.0000    913.1318      5.8492     64.6175
    81.7500      0.0000    884.8156      5.8805     65.4812
    82.0000      0.0000    849.7260      5.8651     67.7627
    82.2500      0.0000    822.9977      5.8230     70.0040
    82.5000      0.0000    808.4042      5.8078     71.3416
    82.7500      0.0000    802.4536      5.8281     72.1717
    83.0000      0.0000    800.4624      5.8144     73.3229
    83.2500      0.0000    799.0543      5.6981     75.1752
    83.5000      0.0000    796.5470      5.4973     77.9081
    83.7500      0.0000    792.6660      5.2825     82.0233
    84.0000      0.0000    787.3112      5.0862     88.0702
    84.2500      0.0000    779.5527      4.8845     95.9913
    84.5000      0.0000    768.8657      4.6486    104.8490
    84.7500      0.0000    756.7592      4.3862    112.9632
    85.0000      0.0000    745.8994      4.1470    118.3718
    85.2500      0.0000    738.3252      4.0026    119.7373
    85.5000      0.0000    736.0090      4.0064    117.3039
    85.7500      0.0000    742.6049      4.1574    112.9226
    86.0000      0.0000    763.2794      4.4021    108.7253
    86.2500      0.0000    801.1081      4.6755    105.5229
    86.5000      0.0000    851.6742      4.9375    102.7326
    86.7500      0.0000    901.2769      5.1782     99.8369
    87.0000      0.0000    933.2353      5.4031     97.2306
    87.2500      0.0000    938.7556      5.6202     95.3611
    87.5000      0.0000    923.9656      5.8364     93.7897
    87.7500      0.0000    907.3067      6.0563     91.6910
    88.0000      0.0000    906.3484      6.2796     88.9512
    88.2500      0.0000    923.3585      6.4961     86.3394
    88.5000      0.0000    944.7419      6.6796     84.5939
    88.7500      0.0000    955.0970      6.7900     83.5589
    89.0000      0.0000    947.7332      6.7917     82.3997
    89.2500      0.0000    921.1683      6.6787     80.6913
    89.5000      0.0000    873.6399      6.4867     79.0837
    89.7500      0.0000    807.6945      6.2805     78.6892
    90.0000      0.0000    736.5121      6.1191     79.8088
    90.2500      0.0000    677.7499      6.0211     81.5319
    90.5000      0.0000    639.7437      5.9555     82.7932
    90.7500      0.0000    617.8337      5.8708     83.6063
    91.0000      0.0000    604.8668      5.7399     84.9608
    91.2500      0.0000    601.8221      5.5809     87.6259
    91.5000      0.0000    617.4338      5.4375     91.3599
    91.7500      0.0000    659.5063      5.3432     95.1830
    92.0000      0.0000    726.8359      5.3054     97.9118
    92.2500      0.0000    807.3412      5.3164     98.2810
