~Version Information
VERS.                      2.0: CWLS Log ASCII Standard - VERSION 2.0
WRAP.                       NO: One line per depth step
~Well Information Block
STRT.FT                -7.5000: 
STOP.FT              1517.5000: 
STEP.FT                 0.2500: 
NULL.                -999.2500: 
COMP.          Pioneer Natural Resources: COMPANY
WELL.          McClaren 13-34 Tr: WELL
FLD.           Purgatorie River: FIELD
LOC.           1934' FSL & 826' WL--: LOCATION
PROV.                       CO: PROVINCE
CNTY.               Las Animas: COUNTRY
SRVC.          Patterson Wireline: SERVICE COMPANY
DATE.          Fri Jul 15 13:10:35 2005: LOG DATE
UWI.           05 071 08437 00: UNIQUE WELL ID
~Curve Information Block
DEPT.FT            0 000 00 00: Depth
CCL.                          : Casing Collar Locator
TT3.usec                      : CBL 3' Travel Time
AMP3.mV                       : CBL 3' Amplitude
GR.GAPI                       : Gamma Ray
~Parameter Information Block
~A  Depth       CCL         TT3         AMP3         GR     
# ...
   495.0000      0.0000    305.8241     20.7780     91.9654
   495.2500      0.0000    305.7991     20.7618     90.1436
   495.5000      0.0000    305.7649     20.7391     87.0194
   495.7500      0.0000    305.7311     20.7158     84.0082
   496.0000      0.0000    305.7008     20.6952     82.7883
   496.2500      0.0000    305.6988     20.6708     84.1240
   496.5000      0.0000    305.8275     20.6206     87.4545
   496.7500      0.0000    306.6409     20.4981     91.4471
   497.0000      0.0000    309.8628     20.2236     94.6658
   497.2500      0.0000    319.5319     19.6867     95.9377
   497.5000      0.0000    342.1552     18.8056     94.8583
   497.7500      0.0000    384.3286     17.6354     92.2392
   498.0000      0.0000    448.4245     16.3992     89.6388
   498.2500      0.0000    529.6116     15.3367     88.1955
   498.5000      0.0000    615.3730     14.5305     87.7548
   498.7500      0.0000    686.0352     13.9438     86.8904
   499.0000      0.0000    718.5948     13.5674     84.0655
   499.2500      0.0000    697.6896     13.4211     79.3128
   499.5000      0.0000    628.1922     13.4536     74.5291
   499.7500     -2.0000    536.0046     13.5533     71.8211
   500.0000     -1.9073    452.5833     13.6472     71.9339
   500.2500      0.0000    396.2684     13.7510     74.1681
   500.5000      0.0000    366.5459     13.9526     76.9955
   500.7500      0.0000    352.2088     14.3792     78.7219
   501.0000      0.0000    342.3383     15.1316     78.4400
   501.2500      0.0000    332.0037     16.1871     76.7677
   501.5000      0.0000    321.6557     17.3702     75.3839
   501.7500      0.0000    313.5279     18.4413     75.7089
   502.0000      0.0000    308.6607     19.2165     77.9138
   502.2500      0.0000    306.4910     19.6248     80.8273
   502.5000      0.0000    305.9048     19.7074     82.7911
   502.7500      0.0000    306.0249     19.5837     83.0861
   503.0000      0.0000    306.3296     19.3950     82.6740
   503.2500      0.0000    306.5271     19.2471     83.2900
   503.5000      0.0000    306.5001     19.1799     85.6484
   503.7500      0.0000    306.2869     19.1795     88.6286
   504.0000      0.0000    306.0155     19.2143     90.3179
   504.2500      0.0000    305.7897     19.2682     89.8294
   504.5000      0.0000    305.6357     19.3463     87.9594
   504.7500      0.0000    305.5331     19.4579     86.1649
   505.0000      0.0000    305.4645     19.5970     85.3537
   505.2500      0.0000    305.4295     19.7412     85.8758
   505.5000      0.0000    305.4313     19.8683     88.0898
   505.7500      0.0000    305.4634     19.9742     92.1110
   506.0000      0.0000    305.5067     20.0721     97.0082
   506.2500      0.0000    305.5326     20.1776    100.9372
   506.5000      0.0000    305.5117     20.2975    102.4514
   506.7500      0.0000    305.4257     20.4274    101.6623
   507.0000      0.0000    305.2805     20.5576    100.1689
   507.2500      0.0000    305.1031     20.6815     99.8640
   507.5000      0.0000    304.9246     20.8026    101.4639
   507.7500      0.0000    304.7625     20.9334    103.9071
   508.0000      0.0000    304.6203     21.0859    105.3232
   508.2500      0.0000    304.4964     21.2629    104.7639
   508.5000      0.0000    304.3920     21.4606    102.7331
   508.7500      0.0000    304.3080     21.6732     99.9663
   509.0000      0.0000    304.2383     21.8930     96.3352
   509.2500      0.0000    304.1723     22.1102     91.3945
   509.5000      0.0000    304.1043     22.3173     85.6079
   509.7500      0.0000    304.0354     22.5105     80.5634
   510.0000      0.0000    303.9670     22.6856     77.8791
   510.2500      0.0000    303.8975     22.8317     77.7886
   510.5000      0.0000    303.8249     22.9346     78.7387
   510.7500      0.0000    303.7535     22.9829     78.6369
   511.0000      0.0000    303.7022     22.9690     76.6833
   511.2500      0.0000    303.7025     22.8847     73.8663
   511.5000      0.0000    303.7859     22.7179     71.7460
   511.7500      0.0000    303.9720     22.4581     71.0398
   512.0000      0.0000    304.2667     22.1069     71.3955
   512.2500      0.0000    304.6808     21.6870     72.2327
   512.5000      0.0000    305.2582     21.2409     73.5263
   512.7500      0.0000    306.2400     20.8180     75.6596
   513.0000      0.0000    308.4281     20.4555     78.7569
   513.2500      0.0000    313.7325     20.1635     82.4885
   513.5000      0.0000    325.0240     19.9275     86.3046
   513.7500      0.0000    344.1180     19.7258     89.3445
   514.0000      0.0000    368.4271     19.5500     90.3712
   514.2500      0.0000    389.8405     19.4115     88.5431
   514.5000      0.0000    398.9994     19.3296     84.3597
   514.7500      0.0000    392.7423     19.3094     79.5690
   515.0000      0.0000    378.4306     19.3267     76.2537
   515.2500      0.0000    370.8247     19.3373     76.0926
   515.5000      0.0000    383.0816     19.3067     79.7944
   515.7500      0.0000    418.2015     19.2339     86.4326
   516.0000      0.0000    467.7079     19.1470     93.6414
   516.2500      0.0000    518.3190     19.0763     99.2589
   516.5000      0.0000    559.5255     19.0341    102.7269
   516.7500      0.0000    584.6184     19.0199    104.4405
   517.0000      0.0000    587.2876     19.0411    104.3733
   517.2500      0.0000    562.1973     19.1184    102.4250
   517.5000      0.0000    511.1436     19.2627     99.7755
   517.7500      0.0000    446.9755     19.4504     98.5333
   518.0000      0.0000    388.4025     19.6254     99.6975
   518.2500      0.0000    349.6289     19.7252    101.9786
   518.5000      0.0000    334.6468     19.7073    102.6583
   518.7500      0.0000    339.0700     19.5727     99.5974
   519.0000      0.0000    353.9913     19.3758     92.9241
   519.2500      0.0000    368.5410     19.2049     85.1459
   519.5000      0.0000    373.4070     19.1335     79.4888
   519.7500      0.0000    365.4315     19.1861     77.7488
   520.0000      0.0000    348.9317     19.3397     79.2733
   520.2500      0.0000    331.5775     19.5448     81.8366
   520.5000      0.0000    318.8409     19.7407     83.8576
   520.7500      0.0000    311.8162     19.8728     85.8976
   521.0000      0.0000    308.8340     19.9150     89.5565
   521.2500      0.0000    307.8737     19.8780     94.7421
   521.5000      0.0000    307.6809     19.7918     98.6208
   521.7500      0.0000    307.7211     19.6865     97.8691
   522.0000      0.0000    307.8058     19.5953     91.9462
   522.2500      0.0000    307.8562     19.5609     83.7576
   522.5000      0.0000    307.8151     19.6204     77.0457
   522.7500      0.0000    307.6584     19.7802     73.4020
   523.0000      0.0000    307.4131     20.0103     71.7720
   523.2500      0.0000    307.1455     20.2582     70.2918
   523.5000      0.0000    306.9205     20.4692     68.1797
   523.7500      0.0000    306.7685     20.6071     66.0729
   524.0000      0.0000    306.6810     20.6691     65.0475
   524.2500      0.0000    306.6281     20.6790     65.4475
   524.5000      0.0000    306.5805     20.6630     66.4339
   524.7500      0.0000    306.5255     20.6371     66.5615
   525.0000      0.0000    306.4693     20.6195     64.9495
   525.2500      0.0000    306.4199     20.6381     61.9423
   525.5000      0.0000    306.3690     20.7134     58.6906
   525.7500      0.0000    306.2943     20.8385     56.3888
   526.0000      0.0000    306.1863     20.9844     55.8517
   526.2500      0.0000    306.0677     21.1187     57.0691
   526.5000      0.0000    305.9771     21.2158     58.8854
   526.7500      0.0000    305.9341     21.2583     59.7220
   527.0000      0.0000    305.9256     21.2417     58.9054
   527.2500      0.0000    305.9277     21.1820     56.8912
   527.5000      0.0000    305.9275     21.1086     54.2738
   527.7500      0.0000    305.9240     21.0423     51.1847
   528.0000      0.0000    305.9202     20.9815     47.6765
   528.2500      0.0000    305.9201     20.9129     44.1820
