~Version Information
VERS.                      2.0: CWLS Log ASCII Standard - VERSION 2.0
WRAP.                       NO: One line per depth step
~Well Information Block
STRT.FT               491.0000: 
STOP.FT              1909.5000: 
STEP.FT                 0.1000: 
NULL.                -999.2500: 
COMP.          Pioneer Natural Resources: COMPANY
WELL.            Corazon 13-10: WELL
FLD.           Purgatoire River: FIELD
LOC.           2510' FSL & 439' FWL: LOCATION
PROV.                 Colorado: PROVINCE
CNTY.               Las Animas: COUNTRY
SRVC.                Patterson: SERVICE COMPANY
DATE.          Thu Dec 01 07:28:46 2005: LOG DATE
UWI.           05 071 08613 00: UNIQUE WELL ID
~Curve Information Block
DEPT.FT            0 000 00 00: Depth
DCAL.in                       : CDL Caliper
RHOB.g/cc                     : CDL Bulk Density
RHOC.g/cc                     : CDL Density Correction
DPOR.pu                       : CDL Density Porosity
GR.GAPI                       : Gamma Ray
NPOR.pu                       : Neutron Porosity
~Parameter Information Block
~A  Depth       DCAL        RHOB        RHOC        DPOR         GR         NPOR    
# ...
  1796.6000      7.9925      1.6254     -0.1773     62.0967    106.1802     29.0086
  1796.7000      7.9925      1.4807     -0.1548     70.8660     90.6815     30.1464
  1796.8000      7.9908      1.3939     -0.0849     76.1243     82.6592     31.3375
  1796.9000      7.9908      1.3676      0.0154     77.7213     82.5914     31.9290
  1797.0000      8.0162      1.3635      0.0655     77.9725     81.7058     32.2165
  1797.1000      8.0162      1.3515      0.0531     78.6962     75.1458     32.8866
  1797.2000      8.0162      1.3342      0.0641     79.7454     64.9327     33.3559
  1797.3000      8.2712      1.3203      0.0603     80.5880     56.2388     32.8576
  1797.4000      8.2712      1.3076      0.0591     81.3571     52.2453     32.3300
  1797.5000      8.4373      1.2964      0.0386     82.0362     52.1606     32.6088
  1797.6000      8.4373      1.2990      0.0079     81.8766     54.3868     32.8138
  1797.7000      8.4373      1.3225      0.0499     80.4569     56.8698     32.6314
  1797.8000      8.5115      1.3568      0.0712     78.3780     55.8423     33.2984
  1797.9000      8.5115      1.4015      0.0232     75.6667     51.2895     34.5988
  1798.0000      8.6557      1.4677      0.1099     71.6525     48.3300     34.9100
  1798.1000      8.6557      1.5471      0.1530     66.8441     51.0124     34.1298
  1798.2000      8.6557      1.6217      0.1214     62.3190     58.6080     33.2959
  1798.3000      8.8882      1.6848      0.1170     58.4988     67.5380     32.7944
  1798.4000      8.8882      1.7433      0.1236     54.9540     74.4537     32.6448
  1798.5000      9.0162      1.8260      0.1017     49.9402     80.1726     32.6730
  1798.6000      9.0162      1.9525      0.1345     42.2724     87.4299     32.4475
  1798.7000      9.0162      2.0862      0.1804     34.1727     93.9726     31.6589
  1798.8000      8.5613      2.1718      0.1292     28.9841     97.9061     30.5016
  1798.9000      8.5613      2.2071      0.1127     26.8404    101.8602     29.8692
  1799.0000      8.2586      2.2319      0.0686     25.3423    107.0984     30.0280
  1799.1000      8.2586      2.2682      0.0868     23.1373    113.5981     30.1611
  1799.2000      8.2586      2.3113      0.0688     20.5288    123.0879     29.8785
  1799.3000      8.1536      2.3494      0.1153     18.2166    132.8253     29.3600
  1799.4000      8.1536      2.3655      0.0954     17.2447    138.6587     28.5816
  1799.5000      8.1388      2.3664      0.0322     17.1886    140.9489     27.4468
  1799.6000      8.1388      2.3868      0.0728     15.9524    137.9021     26.2836
  1799.7000      8.1388      2.4329      0.1075     13.1593    131.1630     25.5610
  1799.8000      8.1198      2.4751      0.1100     10.5985    130.0992     25.6673
  1799.9000      8.1198      2.4897      0.1337      9.7175    136.2520     26.6851
  1800.0000      8.1154      2.4838      0.0547     10.0750    141.2664     27.7790
  1800.1000      8.1154      2.4811      0.0630     10.2366    141.0212     27.8730
  1800.2000      8.1154      2.4836      0.0702     10.0858    138.0138     27.0267
  1800.3000      8.0802      2.4806      0.0476     10.2696    137.0551     25.9121
  1800.4000      8.0802      2.4727      0.0554     10.7468    137.9953     25.0896
  1800.5000      8.0612      2.4696      0.0131     10.9348    136.1979     25.4902
  1800.6000      8.0612      2.4758      0.0095     10.5602    134.8362     26.9455
  1800.7000      8.0612      2.4864      0.0282      9.9155    138.6326     28.0887
  1800.8000      8.0260      2.4997      0.0296      9.1068    144.1287     28.4428
  1800.9000      8.0260      2.5148      0.0929      8.1928    146.0991     28.1325
  1801.0000      8.0015      2.5255      0.0554      7.5482    140.5423     27.3967
  1801.1000      8.0015      2.5259      0.0889      7.5241    129.7411     26.7911
  1801.2000      8.0015      2.5164      0.0535      8.0947    122.4606     26.4288
  1801.3000      7.9976      2.5102      0.0411      8.4701    119.4192     25.7186
  1801.4000      7.9976      2.5185      0.0531      7.9672    116.5651     24.4682
  1801.5000      7.9831      2.5352      0.0856      6.9561    115.4145     23.4356
  1801.6000      7.9831      2.5467      0.0465      6.2605    117.6255     23.5157
  1801.7000      7.9831      2.5484      0.0689      6.1578    120.8893     24.6450
  1801.8000      7.9626      2.5430      0.0816      6.4878    124.3394     25.7153
  1801.9000      7.9626      2.5339      0.0708      7.0336    127.0776     26.1395
  1802.0000      7.9563      2.5293     -0.0052      7.3169    124.8170     26.3728
  1802.1000      7.9563      2.5337      0.0958      7.0510    120.2179     26.5471
  1802.2000      7.9563      2.5371      0.0691      6.8454    119.6004     26.2814
  1802.3000      7.9451      2.5361      0.0349      6.9015    118.7264     25.5047
  1802.4000      7.9451      2.5429      0.0248      6.4939    114.3210     24.6934
  1802.5000      7.9165      2.5581      0.0827      5.5667    111.2980     24.4991
  1802.6000      7.9165      2.5720      0.0178      4.7255    111.4768     24.7977
  1802.7000      7.9165      2.5904      0.0392      3.6120    108.9314     24.8254
  1802.8000      7.8979      2.6144      0.0987      2.1594     99.0895     23.7178
  1802.9000      7.8979      2.6283      0.0603      1.3127     87.3638     21.1920
  1803.0000      7.8772      2.6253      0.0676      1.4951     81.2782     18.5073
  1803.1000      7.8772      2.6128      0.0434      2.2538     79.4934     17.0598
  1803.2000      7.8772      2.6043      0.0106      2.7710     75.9818     16.7008
  1803.3000      7.8721      2.6054     -0.0161      2.7057     73.7103     16.4569
  1803.4000      7.8721      2.6048      0.0405      2.7419     77.6224     15.9077
  1803.5000      7.8578      2.5958     -0.0052      3.2827     81.9395     15.2480
  1803.6000      7.8578      2.5867      0.0672      3.8361     79.1113     14.6988
  1803.7000      7.8578      2.5818     -0.0061      4.1309     72.8387     14.3854
  1803.8000      7.8659      2.5847      0.0390      3.9553     72.2164     14.6481
  1803.9000      7.8659      2.5864      0.0426      3.8522     78.6627     15.6309
  1804.0000      7.8838      2.5706      0.0143      4.8151     85.8007     17.0203
  1804.1000      7.8838      2.5498     -0.0389      6.0725     89.6132     18.2043
  1804.2000      7.8838      2.5479     -0.0052      6.1892     92.1983     18.7891
  1804.3000      7.8829      2.5589      0.0287      5.5225     95.4476     19.0359
  1804.4000      7.8829      2.5639      0.0362      5.2172     99.7104     18.9621
  1804.5000      7.8802      2.5659      0.0085      5.0958    106.2782     18.6267
  1804.6000      7.8802      2.5712      0.0708      4.7770    110.0427     18.7568
  1804.7000      7.8802      2.5671      0.0748      5.0242    106.9068     19.4494
  1804.8000      7.9098      2.5521      0.0214      5.9331    104.6587     19.8473
  1804.9000      7.9098      2.5435     -0.0027      6.4537    106.8323     19.5718
  1805.0000      7.9157      2.5531     -0.0114      5.8748    105.8406     18.8651
  1805.1000      7.9157      2.5761     -0.0049      4.4795     97.2417     18.2796
  1805.2000      7.9157      2.5958      0.0548      3.2875     84.3585     18.1067
  1805.3000      7.9065      2.6062      0.0104      2.6561     76.2472     18.0351
  1805.4000      7.9065      2.6166      0.0570      2.0241     78.2194     17.8086
  1805.5000      7.8826      2.6247      0.0513      1.5346     83.7507     17.3758
  1805.6000      7.8826      2.6224      0.0478      1.6730     87.6677     16.9861
  1805.7000      7.8826      2.6136      0.0050      2.2046     90.1907     17.4165
  1805.8000      7.8805      2.6091      0.0205      2.4770     89.9644     18.7583
  1805.9000      7.8805      2.6106      0.0516      2.3886     89.8170     20.0318
  1806.0000      7.8842      2.6135      0.0039      2.2150     93.0714     20.7632
  1806.1000      7.8842      2.6189      0.0361      1.8826     95.7807     21.1821
