~Version Information
 VERS.                                  2.0 : CWLS LAS VERSION
 WRAP.                                   NO : WRAPING MODE
 SWARE .                 MController 2.5.0N : SOFTWARE VERSION
~Well Information
 WELL.                         Mahalo 12-20 : WELL
 COMP.    Pioneer Natural Resources USA Inc : COMPANY
 FLD.                      Purgatoire River : FIELD
 LOC.                  SWNW Sec20 T33S R65W : LOCATION
 DATE.                             02/23/06 : DATE(S) LOGGED
 SRVC.       Blanco Geological Services LLC : SERVICE COMPANY
 STAT.                             Colorado : STATE
 CNTY.                           Las Animas : COUNTY
 CTRY.                                  USA : COUNTRY
 API.                       05-071-08700-00 : API NUMBER
 STRT.FT                             198.00 : START DEPTH
 STOP.FT                            1220.00 : STOP DEPTH
 STEP.FT                               1.00 : DEPTH INCREMENT
 NULL.                                -9999 : NULL VALUE
~Curve information
 DEPTH.FT                                   :
 ROP.MIN/FT                                 :
 GAS.UNITS                                  :
~ASCII Log data
       198.0     -9999.00          0.9 
       199.0         3.38          1.5 
       200.0         0.20          8.3 
       201.0         0.17          8.1 
       202.0         0.17          7.5 
       203.0         0.20          7.6 
       204.0         0.08          7.6 
       205.0         0.10          7.7 
       206.0         0.10          7.0 
       207.0         0.10          7.0 
       208.0         0.17          7.5 
       209.0         0.17          7.5 
       210.0         0.17          8.1 
       211.0         0.17          7.8 
       212.0         0.23          7.5 
       213.0         0.23          7.8 
       214.0         0.30          7.1 
       215.0         0.30          7.2 
       216.0         0.43          7.8 
       217.0         1.58          7.7 
       218.0         0.40          7.3 
       219.0         0.37          7.4 
       220.0         0.17          6.9 
       221.0         0.30          6.6 
       222.0         0.30          6.8 
       223.0         0.27          7.1 
       224.0         0.27          6.2 
       225.0         0.30          6.2 
       226.0         0.28          6.8 
       227.0         0.27          6.5 
       228.0         0.27          7.6 
       229.0         0.27          7.5 
       230.0         0.27          6.8 
       231.0         2.25          6.9 
       232.0         0.17          6.8 
       233.0         0.17          6.8 
       234.0         0.20          6.7 
       235.0         0.20          7.0 
       236.0         0.20          6.9 
       237.0         0.20          6.3 
       238.0         0.20          6.5 
       239.0         0.20          6.9 
       240.0         0.20          6.3 
       241.0         0.20          6.1 
       242.0         0.20          6.5 
       243.0         0.17          6.6 
       244.0         0.20          6.7 
       245.0         0.17          6.9 
       246.0         0.17          7.1 
       247.0         0.17          7.1 
       248.0         0.20          6.3 
       249.0         0.22          6.5 
       250.0         0.17          6.6 
       251.0         0.17          6.9 
       252.0         0.20          6.7 
       253.0         0.17          6.1 
       254.0         0.20          6.4 
       255.0         0.17          6.9 
       256.0         0.20          6.7 
       257.0         0.17          6.4 
       258.0         0.20          6.4 
       259.0         0.20          6.6 
       260.0         0.20          6.1 
       261.0         2.25          7.2 
       262.0         0.13          6.3 
       263.0         0.17          5.7 
       264.0         0.17          5.8 
       265.0         0.13          5.8 
       266.0         0.17          6.1 
       267.0         0.17          6.3 
       268.0         0.13          6.3 
       269.0         0.17          6.4 
       270.0         0.17          6.2 
       271.0         0.17          6.2 
       272.0         0.20          6.5 
       273.0         0.17          5.6 
       274.0         0.17          5.6 
       275.0         0.17          5.6 
       276.0         0.22          6.7 
       277.0         0.20          7.1 
       278.0         0.23          5.9 
       279.0         0.17          6.3 
       280.0         0.17          6.2 
       281.0         0.17          6.0 
       282.0         0.17          5.3 
       283.0         0.17          5.8 
       284.0         0.17          5.4 
       285.0         0.17          5.6 
       286.0         0.17          6.1 
       287.0         0.20          6.1 
       288.0         0.20          6.1 
       289.0         0.13          5.5 
       290.0         0.20          5.7 
       291.0         1.85          6.8 
       292.0         0.23          6.9 
       293.0         0.23          7.2 
       294.0         0.20          6.8 
       295.0         0.20          7.2 
       296.0         0.20          7.5 
       297.0         0.27          7.5 
       298.0         0.20          7.3 
       299.0         0.17          7.6 
       300.0         0.20         10.4 
       301.0         0.17         11.3 
       302.0         0.15         11.2 
       303.0         0.17         11.9 
       304.0         0.13         10.3 
       305.0         0.17          9.4 
       306.0         0.17          8.8 
       307.0         0.17          8.3 
       308.0         0.13          8.4 
       309.0         0.17          9.0 
       310.0         0.13         10.3 
       311.0         0.17          9.8 
       312.0         0.20          9.0 
       313.0         0.23          8.7 
       314.0         0.17          8.1 
       315.0         0.17          8.2 
       316.0         0.23          8.9 
       317.0         0.23          8.1 
       318.0         0.20          8.4 
       319.0         0.20          8.9 
       320.0         0.23          8.6 
       321.0         2.15         10.8 
       322.0         0.37          9.6 
       323.0         0.27          8.8 
       324.0         0.23          8.7 
       325.0         0.30          8.7 
       326.0         0.32          8.4 
       327.0         0.27          8.5 
       328.0         0.27          8.6 
       329.0         0.30          8.0 
       330.0         0.30          8.3 
       331.0         0.30          8.4 
       332.0         0.27          8.1 
       333.0         0.23          8.1 
       334.0         0.27          8.5 
       335.0         0.27          8.7 
       336.0         0.27          8.2 
       337.0         0.30          8.2 
       338.0         0.32          7.9 
       339.0         0.37          8.2 
       340.0         0.30          8.1 
       341.0         0.27          7.7 
       342.0         0.27          8.6 
       343.0         0.23          8.1 
       344.0         0.37          7.8 
       345.0         0.27          7.3 
       346.0         0.23          8.2 
       347.0         0.27          8.3 
       348.0         0.23          7.4 
       349.0         0.23          7.7 
       350.0         0.25          7.7 
       351.0         1.67         11.4 
       352.0         0.37          9.6 
       353.0         0.13          8.6 
       354.0         0.23          8.5 
       355.0         0.33          8.1 
       356.0         0.30          7.8 
       357.0         0.35          7.3 
       358.0         0.20          7.5 
       359.0         0.27          7.7 
       360.0         0.27          7.9 
       361.0         0.23          7.2 
       362.0         0.23          7.6 
       363.0         0.23          6.9 
       364.0         0.20          6.8 
       365.0         0.20          7.5 
       366.0         0.20          6.7 
       367.0         0.20          7.5 
       368.0         0.20          7.5 
       369.0         0.17          8.7 
       370.0         0.17          9.6 
       371.0         0.17         10.1 
       372.0         0.17         10.8 
       373.0         0.22         10.7 
       374.0         0.17          9.8 
       375.0         0.13          9.5 
       376.0         0.17         10.3 
       377.0         0.20         11.6 
       378.0         0.17         10.2 
       379.0         0.17         10.2 
       380.0         0.20          9.0 
       381.0         3.15         10.5 
       382.0         0.43          7.8 
       383.0         0.33          7.2 
       384.0         0.30          7.4 
       385.0         0.33          7.3 
       386.0         0.40          7.2 
       387.0         0.33          7.1 
       388.0         0.42          6.9 
       389.0         0.37          7.1 
       390.0         0.40          6.9 
       391.0         0.37          7.1 
       392.0         0.40          7.4 
       393.0         0.40          7.6 
       394.0         0.43          7.0 
       395.0         0.33          7.1 
       396.0         0.42          6.9 
       397.0         0.40          7.3 
