~Version Information
VERS.                      2.0: CWLS Log ASCII Standard - VERSION 2.0
WRAP.                       NO: One line per depth step
~Well Information Block
STRT.FT                -7.0000: 
STOP.FT              1155.0000: 
STEP.FT                 0.2500: 
NULL.                -999.2500: 
COMP.          Pioneer Natural Resources: COMPANY
WELL.          Whitecoat 14-36: WELL
FLD.           Purgatorie River: FIELD
LOC.           606' FSL & 260' FWL--: LOCATION
PROV.                       CO: PROVINCE
CNTY.               Las Animas: COUNTRY
SRVC.          Patterson Wireline: SERVICE COMPANY
DATE.          Mon Dec 12 12:56:49 2005: LOG DATE
UWI.           08 071 08593 00: UNIQUE WELL ID
~Curve Information Block
DEPT.FT            0 000 00 00: Depth
CCL.                          : Casing Collar Locator
TT3.usec                      : CBL 3' Travel Time
AMP3.mV                       : CBL 3' Amplitude
GR.GAPI                       : Gamma Ray
~Parameter Information Block
~A  Depth       CCL         TT3         AMP3         GR     
# ...
   294.5000      0.0000    698.4634      6.7560    110.2557
   294.7500      0.0000    698.6968      6.6798    107.8732
   295.0000      0.0000    699.0125      6.6237    107.3204
   295.2500      0.0000    699.5429      6.5569    110.0671
   295.5000      0.0000    700.2708      6.4311    116.3490
   295.7500      0.0000    700.8029      6.2275    124.9996
   296.0000      0.0000    701.1143      6.0058    133.8744
   296.2500      0.0000    703.8652      5.8842    141.0486
   296.5000      0.0000    715.7259      5.9288    146.2010
   296.7500      0.0000    742.9913      6.0736    150.5309
   297.0000      0.0000    783.2143      6.1889    154.7581
   297.2500      0.0000    823.8475      6.2142    157.4976
   297.5000      0.0000    852.6696      6.1862    156.3923
   297.7500      2.0000    867.4398      6.1616    150.9862
   298.0000     -2.0000    873.1359      6.1635    143.8069
   298.2500      0.0000    873.6354      6.1943    138.0237
   298.5000      0.0000    868.6517      6.2717    134.2791
   298.7500      0.0000    855.3508      6.4410    130.4587
   299.0000      0.0000    831.5128      6.7370    124.6428
   299.2500      0.0000    799.2797      7.1120    117.8037
   299.5000      0.0000    765.5611      7.4215    113.1957
   299.7500      0.0000    737.5661      7.5302    113.1866
   300.0000      0.0000    718.5853      7.4344    116.8980
   300.2500      0.0000    708.0058      7.2481    121.0063
   300.5000      0.0000    703.7231      7.0845    122.7022
   300.7500      0.0000    704.2231      6.9816    121.9002
   301.0000      0.0000    709.3886      6.9233    120.8795
   301.2500      0.0000    719.6862      6.8869    122.1970
   301.5000      0.0000    734.1158      6.8626    126.8949
   301.7500      0.0000    748.9895      6.8489    133.9965
   302.0000      0.0000    759.5581      6.8446    140.7891
   302.2500      0.0000    763.4311      6.8431    143.4822
   302.5000      0.0000    762.2098      6.8332    138.8816
   302.7500      0.0000    759.4623      6.8022    126.9215
   303.0000      0.0000    757.3318      6.7428    111.4323
   303.2500      0.0000    755.2980      6.6556     97.5537
   303.5000      0.0000    751.7303      6.5476     88.2462
   303.7500      0.0000    746.0147      6.4296     83.2460
   304.0000      0.0000    739.6984      6.3140     80.4660
   304.2500      0.0000    736.6877      6.2104     77.8021
   304.5000      0.0000    741.7842      6.1232     74.2298
   304.7500      0.0000    756.9921      6.0502     70.1057
   305.0000      0.0000    778.5600      5.9817     66.7056
   305.2500      0.0000    798.6938      5.9026     65.3495
   305.5000      0.0000    810.3793      5.8010     66.6717
   305.7500      0.0000    810.1952      5.6776     70.1584
   306.0000      0.0000    798.0104      5.5446     73.9577
   306.2500      0.0000    776.5107      5.4164     75.5730
   306.5000      0.0000    751.1705      5.3014     73.4912
   306.7500      0.0000    728.4662      5.2026     68.2954
   307.0000      0.0000    712.5574      5.1197     62.0636
   307.2500      0.0000    703.6848      5.0491     56.8549
   307.5000      0.0000    699.5870      4.9840     53.7114
   307.7500      0.0000    697.8291      4.9168     52.5204
   308.0000      0.0000    696.9550      4.8427     52.3729
   308.2500      0.0000    696.4051      4.7627     52.3306
   308.5000      0.0000    696.0635      4.6856     52.2563
   308.7500      0.0000    695.9408      4.6255     52.7388
   309.0000      0.0000    696.0429      4.5965     54.0122
   309.2500      0.0000    696.4267      4.6051     55.2970
   309.5000      0.0000    697.3638      4.6476     55.6002
   309.7500      0.0000    699.5694      4.7110     54.9138
   310.0000      0.0000    704.1842      4.7777     54.2547
   310.2500      0.0000    712.2122      4.8321     54.7155
   310.5000      0.0000    723.7411      4.8671     56.6977
   310.7500      0.0000    737.7980      4.8872     59.8235
   311.0000      0.0000    752.7292      4.9056     63.3054
   311.2500      0.0000    765.9295      4.9351     66.3491
   311.5000      0.0000    773.3637      4.9860     68.2806
   311.7500      0.0000    771.0978      5.0702     68.6367
   312.0000      0.0000    758.7703      5.2019     67.5320
   312.2500      0.0000    741.3470      5.3846     65.7816
   312.5000      0.0000    726.6874      5.5963     64.2855
   312.7500      0.0000    720.9542      5.7925     63.3404
   313.0000      0.0000    725.2958      5.9279     62.7343
   313.2500      0.0000    735.1609      5.9790     62.2724
   313.5000      0.0000    742.6534      5.9527     61.9963
   313.7500      0.0000    741.7040      5.8797     62.0569
   314.0000      0.0000    732.4045      5.7983     62.5343
   314.2500      0.0000    720.0365      5.7398     63.3465
   314.5000      0.0000    709.9724      5.7230     64.2733
   314.7500      0.0000    704.1334      5.7529     65.0381
   315.0000      0.0000    701.5393      5.8178     65.4710
   315.2500      0.0000    700.5588      5.8853     65.7708
   315.5000      0.0000    700.2236      5.9144     66.5343
   315.7500      0.0000    700.3134      5.8816     68.2346
   316.0000      0.0000    701.0571      5.7968     70.7268
   316.2500      0.0000    702.7911      5.6957     73.4402
   316.5000      0.0000    705.4518      5.6156     75.8022
   316.7500      0.0000    708.1186      5.5761     77.3473
   317.0000      0.0000    709.3527      5.5767     78.0478
   317.2500      0.0000    708.3923      5.6029     78.8174
   317.5000      0.0000    705.8822      5.6329     80.9288
   317.7500      0.0000    703.1932      5.6416     84.3236
   318.0000      0.0000    701.2471      5.6105     86.9642
   318.2500      0.0000    700.1630      5.5400     86.4721
   318.5000      0.0000    699.6752      5.4519     82.3445
   318.7500      0.0000    699.5320      5.3776     76.4034
   319.0000      0.0000    699.5766      5.3428     71.2948
   319.2500      0.0000    699.6888      5.3540     68.6421
   319.5000      0.0000    699.7524      5.3933     68.3183
   319.7500      0.0000    699.6666      5.4301     69.0534
   320.0000      0.0000    699.3979      5.4414     69.6887
   320.2500      0.0000    699.0107      5.4255     70.0865
   320.5000      0.0000    698.6346      5.4012     71.0438
   320.7500      0.0000    698.3943      5.3964     73.3159
   321.0000      0.0000    698.3633      5.4302     76.5640
   321.2500      0.0000    698.5410      5.4944     79.3039
   321.5000      0.0000    698.8325      5.5584     80.1644
   321.7500      0.0000    699.0731      5.5952     79.3648
   322.0000      0.0000    699.1351      5.6015     78.8307
   322.2500      0.0000    699.0264      5.5903     80.5554
   322.5000      0.0000    698.8721      5.5747     84.6093
   322.7500      0.0000    698.8074      5.5650     88.8402
   323.0000      0.0000    698.9034      5.5736     90.8058
   323.2500      0.0000    699.1630      5.6118     89.9767
   323.5000      0.0000    699.5291      5.6827     87.8177
   323.7500      0.0000    699.8967      5.7800     85.9275
   324.0000      0.0000    700.1687      5.8907     84.6777
   324.2500      0.0000    700.3214      5.9979     83.6155
   324.5000      0.0000    700.4044      6.0883     82.4629
   324.7500      0.0000    700.4777      6.1578     81.3513
   325.0000      0.0000    700.5602      6.2059     80.3715
   325.2500      0.0000    700.6274      6.2312     79.2062
   325.5000      0.0000    700.6410      6.2365     77.3292
   325.7500      0.0000    700.5950      6.2337     74.6193
   326.0000      0.0000    700.5377      6.2340     71.6346
   326.2500      0.0000    700.5425      6.2404     69.2217
   326.5000      0.0000    700.6503      6.2526     67.8774
   326.7500      0.0000    700.8386      6.2743     67.3319
   327.0000      0.0000    701.0379      6.3122     66.6684
   327.2500      0.0000    701.1761      6.3660     65.2935
   327.5000      0.0000    701.2245      6.4224     63.8882
   327.7500      0.0000    701.2105      6.4599     63.7785
