~Version Information
VERS.                      2.0: CWLS Log ASCII Standard - VERSION 2.0
WRAP.                       NO: One line per depth step
~Well Information Block
STRT.FT                -8.0000: 
STOP.FT              1060.7500: 
STEP.FT                 0.2500: 
NULL.                -999.2500: 
COMP.          Pioneer Natural Resources: COMPANY
WELL.          Pavillion 44-25: WELL
FLD.           Purgatorie River: FIELD
LOC.           719' FSL & 650' FEL--: LOCATION
PROV.                       CO: PROVINCE
CNTY.               Las Animas: COUNTRY
SRVC.          Patterson Wireline: SERVICE COMPANY
DATE.          Mon Dec 19 11:59:26 2005: LOG DATE
UWI.           05 071 08624 00: UNIQUE WELL ID
~Curve Information Block
DEPT.FT            0 000 00 00: Depth
CCL.                          : Casing Collar Locator
TT3.usec                      : CBL 3' Travel Time
AMP3.mV                       : CBL 3' Amplitude
GR.GAPI                       : Gamma Ray
~Parameter Information Block
~A  Depth       CCL         TT3         AMP3         GR     
    -8.0000   -999.2500   -999.2500   -999.2500     80.5465
    -7.7500   -999.2500   -999.2500   -999.2500     84.7989
    -7.5000   -999.2500   -999.2500   -999.2500     88.0007
    -7.2500   -999.2500   -999.2500   -999.2500     89.7624
    -7.0000   -999.2500   -999.2500   -999.2500     90.0171
    -6.7500   -999.2500   -999.2500   -999.2500     88.5388
    -6.5000   -999.2500   -999.2500   -999.2500     85.3559
    -6.2500   -999.2500   -999.2500   -999.2500     81.2364
    -6.0000   -999.2500   -999.2500   -999.2500     77.4602
    -5.7500   -999.2500   -999.2500   -999.2500     75.2312
    -5.5000   -999.2500   -999.2500   -999.2500     75.2492
    -5.2500   -999.2500   -999.2500   -999.2500     77.4636
    -5.0000   -999.2500   -999.2500   -999.2500     80.9653
    -4.7500   -999.2500   -999.2500   -999.2500     84.2727
    -4.5000   -999.2500   -999.2500   -999.2500     86.1458
    -4.2500   -999.2500   -999.2500   -999.2500     86.2938
    -4.0000   -999.2500   -999.2500   -999.2500     85.1310
    -3.7500   -999.2500   -999.2500   -999.2500     83.0569
    -3.5000   -999.2500   -999.2500   -999.2500     80.3825
    -3.2500   -999.2500   -999.2500   -999.2500     77.8034
    -3.0000   -999.2500   1149.0000      0.7898     76.2978
    -2.7500   -999.2500   1149.0000      0.7651     76.3606
    -2.5000   -999.2500   1149.0000      0.7409     77.6046
    -2.2500   -999.2500   1149.0000      0.7235     79.0859
    -2.0000   -999.2500   1149.0000      0.7189     79.7832
    -1.7500   -999.2500   1149.0000      0.7313     78.9812
    -1.5000   -999.2500   1149.0000      0.7569     76.6148
    -1.2500   -999.2500   1149.0000      0.7835     73.1639
    -1.0000   -999.2500   1149.0000      0.7977     69.0312
    -0.7500   -999.2500   1149.0000      0.7948     64.2355
    -0.5000   -999.2500   1149.0000      0.7799     58.7854
    -0.2500   -999.2500   1149.0000      0.7618     53.0851
     0.0000   -999.2500   1149.0000      0.7476     47.8631
     0.2500   -999.2500   1149.0000      0.7419     43.7496
     0.5000   -999.2500   1149.0000      0.7471     40.8008
     0.7500   -999.2500   1149.0000      0.7864     36.3142
     1.0000   -999.2500   1149.0000      0.8093     34.4341
     1.2500   -999.2500   1149.0000      0.8251     33.4461
     1.5000   -999.2500   1149.0000      0.8319     33.5701
     1.7500   -999.2500   1149.0000      0.8326     34.2954
     2.0000   -999.2500   1149.0000      0.8310     35.0145
     2.2500   -999.2500   1149.0000      0.8288     35.8225
     2.5000      0.0000   1149.0000      0.8264     37.3561
     2.7500      0.0000   1149.0000      0.8245     39.7814
     3.0000      0.0000   1148.9805      0.8251     42.1627
     3.2500      0.0000   1148.8484      0.8300     43.0943
     3.5000      0.0000   1148.1364      0.8445     42.0456
     3.7500      0.0000   1145.1979      0.8941     39.8855
     4.0000      0.0000   1135.5609      1.1038     37.8856
     4.2500      0.0000   1110.2354      1.8883     36.3968
     4.5000      0.0000   1056.3853      4.2324     34.8841
     4.7500      0.0000    962.8469      9.7274     33.1649
     5.0000      0.0000    829.1976     19.7806     32.0844
     5.2500      0.0000    671.8267     34.0626     32.7729
     5.5000      0.0000    519.7186     49.6625     35.5092
     5.7500      0.0000    400.0434     62.4175     39.4228
     6.0000      0.0000    324.2408     69.4896     43.0792
     6.2500      0.0000    286.2287     70.6560     45.3270
     6.5000      0.0000    272.0295     67.4685     45.9447
     6.7500      0.0000    269.8974     61.7602     45.7755
     7.0000      0.0000    273.6002     54.8946     46.0319
     7.2500      0.0000    280.3915     47.7654     47.1196
     7.5000      0.0000    288.4006     40.9723     48.2558
     7.7500      0.0000    295.9554     34.8868     48.6208
     8.0000      0.0000    302.2781     29.6565     48.6778
     8.2500      0.0000    307.9391     25.2421     49.8505
     8.5000      0.0000    314.1193     21.5227     53.0209
     8.7500      0.0000    321.3213     18.4029     57.7540
     9.0000      0.0000    328.7385     15.8587     62.9046
     9.2500      0.0000    334.8938     13.9020     67.6785
     9.5000      0.0000    338.8461     12.5128     72.1204
     9.7500      0.0000    340.7305     11.6040     76.7129
    10.0000      0.0000    341.3250     11.0397     81.5832
    10.2500      0.0000    341.3620     10.6834     86.1216
    10.5000      0.0000    341.2292     10.4351     89.3201
    10.7500      0.0000    341.0465     10.2371     90.5313
    11.0000      0.0000    340.8420     10.0580     90.1638
    11.2500      0.0000    340.6563      9.8772     89.5679
    11.5000      0.0000    340.5912      9.6794     89.9129
    11.7500      0.0000    340.8879      9.4532     91.2375
    12.0000      0.0000    342.0749      9.1934     92.8744
    12.2500      0.0000    345.0665      8.9064     94.4212
    12.5000      0.0000    350.9802      8.6130     95.7247
    12.7500      0.0000    360.7046      8.3423     96.2966
    13.0000      0.0000    374.7297      8.1166     95.5047
    13.2500      0.0000    393.4670      7.9425     93.2957
    13.5000      0.0000    417.4886      7.8121     90.3957
    13.7500      0.0000    447.0852      7.7105     87.8893
    14.0000      0.0000    481.1150      7.6233     86.6494
    14.2500      0.0000    515.7971      7.5412     86.8824
    14.5000      0.0000    545.6927      7.4624     88.1308
    14.7500      0.0000    568.4164      7.3900     89.8059
    15.0000      0.0000    588.3707      7.3235     91.5643
    15.2500      0.0000    612.5511      7.2495     93.0551
    15.5000      0.0000    641.7332      7.1429     93.7853
    15.7500      0.0000    668.6406      6.9817     93.6686
    16.0000      0.0000    685.4595      6.7629     93.4675
    16.2500      0.0000    690.2867      6.5056     94.1892
    16.5000      0.0000    685.3082      6.2422     95.9678
    16.7500      0.0000    671.5038      6.0035     97.6951
    17.0000      0.0000    647.6123      5.8060     97.9113
    17.2500      0.0000    614.0618      5.6457     96.2366
    17.5000      0.0000    576.1943      5.5021     93.9517
    17.7500      0.0000    542.0284      5.3524     92.9698
    18.0000      0.0000    516.6953      5.1868     94.2353
    18.2500      0.0000    499.8644      5.0123     97.2672
    18.5000      0.0000    488.4148      4.8442    100.9426
    18.7500      0.0000    480.8680      4.6940    104.0799
    19.0000      0.0000    479.2649      4.5636    105.3053
    19.2500      0.0000    486.6474      4.4491    103.2041
    19.5000      0.0000    501.8137      4.3472     97.2795
    19.7500      0.0000    517.2225      4.2532     88.7313
    20.0000      0.0000    524.2179      4.1598     80.2394
    20.2500      0.0000    520.4427      4.0589     74.9086
    20.5000      0.0000    510.6420      3.9492     74.6154
    20.7500      0.0000    500.9853      3.8357     78.4029
    21.0000      0.0000    494.3631      3.7217     82.8721
    21.2500      0.0000    490.6280      3.6022     85.0572
    21.5000      0.0000    489.9177      3.4698     84.6992
    21.7500      0.0000    494.9533      3.3279     83.2977
    22.0000      0.0000    509.6650      3.1933     81.8334
    22.2500      0.0000    535.1030      3.0828     80.4005
    22.5000      0.0000    567.2962      2.9997     79.5235
    22.7500      0.0000    600.2292      2.9399     80.5137
    23.0000      0.0000    630.5344      2.9135     84.1699
    23.2500      0.0000    658.2827      2.9551     89.6056
    23.5000      0.0000    683.9470      3.1035     94.7204
    23.7500      0.0000    706.7866      3.3659     97.7871
    24.0000      0.0000    726.7147      3.7026     98.4749
    24.2500      0.0000    745.8531      4.0530     97.4868
    24.5000      0.0000    766.3952      4.3766     95.5327
    24.7500      0.0000    787.3057      4.6656     92.8834
    25.0000      0.0000    804.8312      4.9260     89.8507
    25.2500      0.0000    816.9044      5.1631     87.1935
