~Version Information
VERS.                      2.0: CWLS Log ASCII Standard - VERSION 2.0
WRAP.                       NO: One line per depth step
~Well Information Block
STRT.FT               380.0000: 
STOP.FT              1887.5000: 
STEP.FT                 0.1000: 
NULL.                -999.2500: 
COMP.          Pioneer Natural Resources: COMPANY
WELL.          Cortina 23-25 Tr: WELL
FLD.           Purgatoire River: FIELD
LOC.           2521' FSL & 2345' FWL: LOCATION
STAT.                 Colorado: State
CNTY.               Las Animas: COUNTY
CTRY. USA : Country
SECT. 25 : Section
TOWN. 32S : Township
RANG. 67W : Range
SRVC.                Patterson: SERVICE COMPANY
DATE.          Mon Sep 26 06:09:01 2005: LOG DATE
API.           05 071 08534 00: UNIQUE WELL ID
~Curve Information Block
DEPT.FT            0 000 00 00: Depth
DCAL.in                       : CDL Caliper
RHOB.g/cc                     : CDL Bulk Density
RHOC.g/cc                     : CDL Density Correction
DPOR.pu                       : CDL Density Porosity
GR.GAPI                       : Gamma Ray
NPOR.pu                       : Neutron Porosity
~Parameter Information Block
~A  Depth       DCAL        RHOB        RHOC        DPOR         GR         NPOR    
# ...
   783.2000      7.9072      2.4526     -0.0471     11.9649    132.5608     27.8031
   783.3000      7.8954      2.4740     -0.0112     10.6661    132.9387     28.2316
   783.4000      7.8878      2.5093      0.0334      8.5301    143.6565     28.3761
   783.5000      7.8835      2.5391      0.0191      6.7213    156.7857     28.1779
   783.6000      7.8819      2.5496      0.0818      6.0850    159.2349     28.2106
   783.7000      7.8821      2.5452     -0.0095      6.3505    151.5854     28.6840
   783.8000      7.8834      2.5535     -0.0107      5.8472    143.3695     29.2041
   783.9000      7.8850      2.5845      0.0247      3.9669    141.1889     29.6453
   784.0000      7.8865      2.6243      0.0114      1.5556    141.0219     30.1032
   784.1000      7.8875      2.6615      0.0756     -0.6965    137.0889     30.3400
   784.2000      7.8878      2.6935      0.0442     -2.6344    131.6739     30.0566
   784.3000      7.8870      2.7250      0.0631     -4.5483    126.4591     29.4029
   784.4000      7.8853      2.7497      0.0284     -6.0431    122.7499     28.8106
   784.5000      7.8825      2.7479      0.0602     -5.9305    124.1914     28.5041
   784.6000      7.8789      2.7207      0.0039     -4.2866    126.1085     28.2010
   784.7000      7.8746      2.6984     -0.0305     -2.9308    119.9531     27.6848
   784.8000      7.8698      2.7007      0.0164     -3.0722    109.7863     27.1365
   784.9000      7.8649      2.7202      0.0113     -4.2568    104.4008     26.6735
   785.0000      7.8602      2.7357      0.0290     -5.1923    104.7470     26.3925
   785.1000      7.8561      2.7296     -0.0035     -4.8270    106.4557     26.3731
   785.2000      7.8529      2.6992      0.0034     -2.9839    107.1905     26.3250
   785.3000      7.8510      2.6531      0.0141     -0.1900    108.9058     25.9567
   785.4000      7.8507      2.6071     -0.0714      2.6016    112.5704     25.5816
   785.5000      7.8524      2.5691      0.0329      4.9006    117.4320     25.6465
   785.6000      7.8561      2.5342     -0.0358      7.0209    123.7125     26.1178
   785.7000      7.8620      2.5060     -0.0163      8.7290    126.5209     26.5613
   785.8000      7.8700      2.4929     -0.0212      9.5205    122.6275     26.6191
   785.9000      7.8798      2.4962     -0.0280      9.3195    121.0277     26.3586
   786.0000      7.8910      2.5093      0.0283      8.5290    126.6616     26.1312
   786.1000      7.9031      2.5209      0.0274      7.8265    131.1489     25.9922
   786.2000      7.9156      2.5314      0.0285      7.1879    128.7065     25.7770
   786.3000      7.9278      2.5474      0.0588      6.2171    122.9538     25.5823
   786.4000      7.9391      2.5673      0.0664      5.0116    118.1473     25.3349
   786.5000      7.9491      2.5873      0.0619      3.7980    113.8752     24.8762
   786.6000      7.9574      2.6031      0.1596      2.8396    107.2051     24.5931
   786.7000      7.9640      2.6110      0.1031      2.3629    101.1073     24.6750
   786.8000      7.9688      2.6184      0.1216      1.9139     99.5019     24.6844
   786.9000      7.9723      2.6298      0.0914      1.2244     99.4082     24.4100
   787.0000      7.9749      2.6344      0.1036      0.9462    100.1372     24.1059
   787.1000      7.9772      2.6161      0.0863      2.0519    101.9946     23.8146
   787.2000      7.9798      2.5806      0.0167      4.2074    101.7392     23.3921
   787.3000      7.9831      2.5564      0.0226      5.6728     98.5800     22.9652
   787.4000      7.9874      2.5570      0.0530      5.6390     94.0104     22.6428
   787.5000      7.9928      2.5696      0.0798      4.8710     87.7108     22.5799
   787.6000      7.9989      2.5779      0.1050      4.3680     81.3109     22.8577
   787.7000      8.0054      2.5858      0.0596      3.8899     76.9771     23.0406
   787.8000      8.0117      2.6099      0.1125      2.4303     74.9439     22.8260
   787.9000      8.0172      2.6449      0.1746      0.3080     76.2923     22.5390
   788.0000      8.0214      2.6694      0.1623     -1.1767     78.6741     22.5053
   788.1000      8.0239      2.6749      0.1334     -1.5066     77.8017     22.6502
   788.2000      8.0243      2.6707      0.1391     -1.2573     75.8379     22.6177
   788.3000      8.0227      2.6670      0.1341     -1.0325     76.7955     22.3458
   788.4000      8.0189      2.6655      0.1324     -0.9375     80.8840     22.3212
   788.5000      8.0133      2.6701      0.0866     -1.2178     86.0581     22.6682
   788.6000      8.0059      2.6818      0.1355     -1.9301     89.8283     23.0920
   788.7000      7.9972      2.6862      0.0979     -2.1968     91.7233     23.3625
   788.8000      7.9874      2.6710      0.0962     -1.2703     91.6683     23.3323
   788.9000      7.9770      2.6459      0.0387      0.2462     88.7912     23.1438
   789.0000      7.9663      2.6330      0.0974      1.0318     85.3404     22.9696
   789.1000      7.9557      2.6342      0.0821      0.9602     86.4371     22.7658
   789.2000      7.9458      2.6318      0.0647      1.1047     91.4022     22.5656
   789.3000      7.9371      2.6125      0.0613      2.2729     94.3189     22.4154
   789.4000      7.9301      2.5783      0.0629      4.3451     91.3388     22.2018
   789.5000      7.9252      2.5401     -0.0077      6.6576     83.0327     21.8999
   789.6000      7.9230      2.5103      0.0250      8.4692     74.8406     21.6290
   789.7000      7.9234      2.4952     -0.0306      9.3837     72.0745     21.5404
   789.8000      7.9265      2.4960     -0.0145      9.3309     74.9427     21.5116
   789.9000      7.9317      2.5098      0.0091      8.4964     79.2982     21.1652
   790.0000      7.9386      2.5290      0.0254      7.3329     79.6835     20.6141
   790.1000      7.9461      2.5402      0.0953      6.6553     74.9690     20.2729
   790.2000      7.9535      2.5421      0.0619      6.5413     69.0532     20.2667
   790.3000      7.9597      2.5580      0.0791      5.5776     64.8385     20.3865
   790.4000      7.9642      2.5958      0.1525      3.2836     64.7310     20.3223
   790.5000      7.9664      2.6289      0.1659      1.2809     68.3619     20.0327
   790.6000      7.9662      2.6309      0.1540      1.1554     70.8441     19.7568
   790.7000      7.9638      2.5978      0.0938      3.1631     71.2699     19.6797
   790.8000      7.9597      2.5462      0.0457      6.2883     70.9261     19.6835
   790.9000      7.9547      2.4983      0.0811      9.1911     68.3599     19.3599
   791.0000      7.9493      2.4627      0.0341     11.3541     64.6536     18.7574
   791.1000      7.9444      2.4448     -0.0082     12.4391     62.5340     18.4678
   791.2000      7.9406      2.4482      0.0274     12.2308     64.2069     18.6130
   791.3000      7.9383      2.4648      0.0276     11.2272     67.3218     18.8560
   791.4000      7.9375      2.4896      0.0325      9.7232     66.4608     19.1907
   791.5000      7.9383      2.5234      0.0326      7.6714     62.3755     19.4893
   791.6000      7.9405      2.5572      0.0564      5.6270     60.5616     19.4207
   791.7000      7.9439      2.5708      0.1004      4.7990     62.3447     19.2895
   791.8000      7.9481      2.5503      0.1273      6.0402     63.0688     19.4364
   791.9000      7.9528      2.5125      0.0490      8.3306     61.8441     19.7211
   792.0000      7.9579      2.4923      0.0315      9.5606     61.8405     19.8615
   792.1000      7.9630      2.4954      0.0619      9.3681     63.3429     19.7370
   792.2000      7.9678      2.5061      0.0399      8.7201     65.2287     19.4369
   792.3000      7.9721      2.5229      0.0493      7.7022     63.9250     18.9339
   792.4000      7.9756      2.5520      0.1027      5.9408     56.4164     18.5241
   792.5000      7.9780      2.5791      0.1523      4.2941     49.1537     18.7472
   792.6000      7.9790      2.5856      0.1150      3.9026     49.8716     19.4400
   792.7000      7.9785      2.5794      0.1156      4.2812     54.8797     19.9756
