~Version Information
VERS.                      2.0: CWLS Log ASCII Standard - VERSION 2.0
WRAP.                       NO: One line per depth step
~Well Information Block
STRT.FT                -2.0000: 
STOP.FT              2017.5000: 
STEP.FT                 0.2500: 
NULL.                -999.2500: 
COMP.          Pioneer Natural Resources: COMPANY
WELL.            Zink 44-10 Tr: WELL
FLD.           Purgatoire River: FIELD
LOC.           486' FSL & 554' FEL--: LOCATION
PROV.                 Colorado: PROVINCE
CNTY.               Las Animas: COUNTRY
SRVC.                Patterson: SERVICE COMPANY
DATE.          Mon Aug 01 14:01:23 2005: LOG DATE
UWI.           05 071 08446 00: UNIQUE WELL ID
~Curve Information Block
DEPT.FT            0 000 00 00: Depth
CCL.                          : Casing Collar Locator
TT3.usec                      : CBL 3' Travel Time
AMP3.mV                       : CBL 3' Amplitude
GR.GAPI                       : Gamma Ray
~Parameter Information Block
~A  Depth       CCL         TT3         AMP3         GR     
# ...
   400.0000      0.0000    865.6824     12.5722     64.3286
   400.2500      0.0000    881.2147     12.5071     68.5294
   400.5000      0.0000    899.4850     12.4141     72.2466
   400.7500      0.0000    917.8170     12.3058     75.4257
   401.0000      0.0000    934.0073     12.1994     78.7150
   401.2500      0.0000    946.8552     12.1060     82.6556
   401.5000      0.0000    956.0622     12.0303     86.7495
   401.7500      0.0000    961.4751     11.9787     89.6955
   402.0000      0.0000    962.5168     11.9619     90.5915
   402.2500      0.0000    958.6543     11.9866     89.5639
   402.5000      0.0000    950.3411     12.0485     87.2377
   402.7500      0.0000    939.3223     12.1363     84.1121
   403.0000      0.0000    928.0513     12.2398     80.6732
   403.2500      0.0000    918.5615     12.3520     77.7965
   403.5000      0.0000    911.3671     12.4670     76.7052
   403.7500      0.0000    905.2606     12.5799     78.3660
   404.0000      0.0000    898.4172     12.6886     82.6461
   404.2500      0.0000    890.0832     12.7940     87.8547
   404.5000      0.0000    881.4611     12.8977     91.4021
   404.7500      0.0000    875.3754     12.9985     91.5449
   405.0000      0.0000    875.4786     13.0909     88.8149
   405.2500      0.0000    885.9833     13.1642     85.4113
   405.5000      0.0000    910.5660     13.2083     82.8379
   405.7500      0.0000    948.1945     13.2243     80.4817
   406.0000      0.0000    988.5353     13.2264     76.9596
   406.2500      0.0000   1015.1589     13.2279     72.3083
   406.5000      0.0000   1017.9893     13.2277     68.0556
   406.7500      0.0000   1001.9546     13.2152     65.4273
   407.0000      0.0000    980.9897     13.1871     64.2855
   407.2500      0.0000    965.5012     13.1519     63.6288
   407.5000      0.0000    957.3358     13.1183     62.4122
   407.7500      0.0000    953.2963     13.0860     60.0975
   408.0000      0.0000    949.6735     13.0479     57.0474
   408.2500      0.0000    944.1676     12.9998     54.3313
   408.5000      0.0000    936.3173     12.9467     52.7937
   408.7500      0.0000    927.4129     12.9031     52.3693
   409.0000      0.0000    919.4858     12.8837     52.3589
   409.2500      0.0000    913.9005     12.8893     52.1024
   409.5000      0.0000    910.6443     12.9005     51.3606
   409.7500      0.0000    908.7434     12.8898     50.3295
   410.0000      0.0000    906.9217     12.8468     49.4084
   410.2500      0.0000    903.9001     12.7900     48.8996
   410.5000      0.0000    898.7115     12.7496     48.9820
   410.7500      0.0000    891.3933     12.7398     49.8504
   411.0000      0.0000    883.4745     12.7510     51.6431
   411.2500      0.0000    877.2726     12.7683     54.1473
   411.5000      0.0000    874.1871     12.7909     56.7361
   411.7500      0.0000    873.5540     12.8329     58.6773
   412.0000      0.0000    873.3422     12.9065     59.4520
   412.2500      0.0000    872.0516     13.0052     58.8443
   412.5000      0.0000    869.7996     13.1020     56.9646
   412.7500      0.0000    867.6326     13.1669     54.3215
   413.0000      0.0000    866.2426     13.1878     51.7550
   413.2500      0.0000    865.5574     13.1741     50.0709
   413.5000      0.0000    865.1752     13.1449     49.6187
   413.7500      0.0000    864.8127     13.1135     50.1913
   414.0000      0.0000    864.4015     13.0822     51.2394
   414.2500      0.0000    863.9911     13.0463     52.2033
   414.5000      0.0000    863.6456     13.0007     52.8664
   414.7500      0.0000    863.3848     12.9464     53.4510
   415.0000      0.0000    863.1871     12.8937     54.3261
   415.2500      0.0000    863.0194     12.8573     55.8634
   415.5000      0.0000    862.8637     12.8463     58.8502
   415.7500      0.0000    862.7181     12.8572     64.5678
   416.0000      0.0000    862.5872     12.8744     73.6312
   416.2500      0.0000    862.4756     12.8769     84.7085
   416.5000      0.0000    862.3799     12.8500     94.8883
   416.7500      0.0000    862.2792     12.7931    101.5875
   417.0000      0.0000    862.1476     12.7179    104.2280
   417.2500      0.0000    861.9822     12.6386    104.2851
   417.5000      0.0000    861.8132     12.5648    103.9101
   417.7500      0.0000    861.6776     12.5035    104.4261
   418.0000      0.0000    861.5924     12.4598    105.6979
   418.2500      0.0000    861.5528     12.4345    106.4565
   418.5000      0.0000    861.5382     12.4238    105.2063
   418.7500      0.0000    861.5131     12.4231    101.3484
   419.0000      0.0000    861.4393     12.4301     95.8072
   419.2500      0.0000    861.3068     12.4458     90.4527
   419.5000      0.0000    861.1511     12.4729     86.7092
   419.7500      0.0000    861.0323     12.5097     84.7609
   420.0000      0.0000    860.9980     12.5449     84.0105
   420.2500      0.0000    861.0582     12.5609     83.8664
   420.5000      0.0000    861.1810     12.5485     83.8946
   420.7500      0.0000    861.3044     12.5165     83.8505
   421.0000      0.0000    861.3613     12.4849     83.9723
   421.2500      0.0000    861.3132     12.4689     84.7640
   421.5000      0.0000    861.1707     12.4718     86.1899
   421.7500      0.0000    860.9819     12.4925     87.3906
   422.0000      0.0000    860.8000     12.5338     87.3194
   422.2500      0.0000    860.6559     12.5989     85.5067
   422.5000      0.0000    860.5494     12.6818     82.3047
   422.7500      0.0000    860.4587     12.7679     78.5582
   423.0000      0.0000    860.3619     12.8444     74.9295
   423.2500      0.0000    860.2570     12.9090     71.5763
   423.5000      0.0000    860.1639     12.9706     68.5806
   423.7500      0.0000    860.1063     13.0413     66.3993
   424.0000      0.0000    860.0721     13.1257     65.5351
   424.2500      0.0000    859.9541     13.2162     65.9677
   424.5000      0.0000    859.2513     13.3014     67.2082
   424.7500      0.0000    856.3021     13.3795     68.8376
   425.0000      0.0000    847.1009     13.4615     70.8064
   425.2500      0.0000    825.0453     13.5584     73.2851
   425.5000      0.0000    784.2889     13.6670     76.4778
   425.7500      0.0000    726.8790     13.7638     80.4743
   426.0000      0.0000    667.6804     13.8171     85.0418
   426.2500      0.0000    629.4890     13.8100     89.7001
   426.5000      0.0000    629.4390     13.7566     94.0434
   426.7500      0.0000    667.3502     13.6959     97.6083
   427.0000      0.0000    725.6660     13.6641     99.5800
   427.2500      0.0000    781.1082     13.6677     99.3413
   427.5000      0.0000    818.5296     13.6835     97.2854
   427.7500      0.0000    836.1873     13.6855     94.6757
   428.0000      0.0000    840.7676     13.6679     92.7495
   428.2500      0.0000    839.5552     13.6412     92.0388
   428.5000      0.0000    836.4643     13.6150     92.3043
   428.7500      0.0000    832.5687     13.5905     93.0865
   429.0000      0.0000    828.1650     13.5644     94.2701
   429.2500      0.0000    823.9684     13.5351     95.8874
   429.5000      0.0000    820.9382     13.5030     97.5749
   429.7500      0.0000    819.6666     13.4704     98.6233
   430.0000      0.0000    820.1991     13.4409     98.5645
   430.2500      0.0000    822.0326     13.4184     97.5314
   430.5000      0.0000    824.0229     13.4036     96.1093
   430.7500      0.0000    824.7475     13.3945     94.9476
   431.0000      0.0000    823.5247     13.3902     94.5848
   431.2500      0.0000    821.0247     13.3931     95.4308
   431.5000      0.0000    818.5790     13.4073     97.4814
   431.7500      0.0000    817.0813     13.4355     99.9229
   432.0000      0.0000    816.7419     13.4729    101.4561
   432.2500      0.0000    817.6872     13.5056    101.4700
   432.5000      0.0000    820.7943     13.5174    100.7065
   432.7500      0.0000    828.6415     13.5045    100.3094
   433.0000      0.0000    846.8977     13.4782    100.3771
   433.2500      0.0000    884.6428     13.4258     99.9870
