~Version Information
VERS.                      2.0: CWLS Log ASCII Standard - VERSION 2.0
WRAP.                       NO: One line per depth step
~Well Information Block
STRT.FT               460.0000: 
STOP.FT              1498.0000: 
STEP.FT                 0.1000: 
NULL.                -999.2500: 
COMP.          Pioneer Natural Resources: COMPANY
WELL.           Amore 32-09 Tr: WELL
FLD.           Purgatoire River: FIELD
LOC.           1941' FNL & 2297' FEL: LOCATION
PROV.                 Colorado: PROVINCE
CNTY.               Las Animas: COUNTRY
SRVC.                Patterson: SERVICE COMPANY
DATE.          Mon Nov 14 13:24:57 2005: LOG DATE
UWI.           05 071 08584 00: UNIQUE WELL ID
~Curve Information Block
DEPT.FT            0 000 00 00: Depth
DCAL.in                       : CDL Caliper
RHOB.g/cc                     : CDL Bulk Density
RHOC.g/cc                     : CDL Density Correction
DPOR.pu                       : CDL Density Porosity
GR.GAPI                       : Gamma Ray
NPOR.pu                       : Neutron Porosity
~Parameter Information Block
~A  Depth       DCAL        RHOB        RHOC        DPOR         GR         NPOR    
# ...
   940.0000      8.0594      2.5688      0.0470      4.9202    125.3337     24.2224
   940.1000      8.0594      2.5769      0.0794      4.4314    122.6644     23.5866
   940.2000      8.0594      2.5604      0.0312      5.4306    119.9461     23.9039
   940.3000      8.0602      2.5378      0.0096      6.8005    122.9702     24.5605
   940.4000      8.0602      2.5289      0.0471      7.3414    130.7134     24.5196
   940.5000      8.0596      2.5402      0.0224      6.6524    135.8059     24.0696
   940.6000      8.0596      2.5565      0.0878      5.6664    136.0463     24.1552
   940.7000      8.0596      2.5543      0.0495      5.8022    135.7403     24.7514
   940.8000      8.0601      2.5407      0.0575      6.6237    138.4662     25.4622
   940.9000      8.0601      2.5345      0.0580      7.0001    143.0932     26.2740
   941.0000      8.0626      2.5288      0.0491      7.3462    148.3419     26.9465
   941.1000      8.0626      2.5144      0.0136      8.2167    152.5708     27.1476
   941.2000      8.0626      2.5009      0.0245      9.0359    152.1189     26.9072
   941.3000      8.0678      2.4940      0.0173      9.4518    147.2208     26.3240
   941.4000      8.0678      2.4874      0.0538      9.8528    141.3884     25.6312
   941.5000      8.0721      2.4754      0.0734     10.5844    134.9336     25.7517
   941.6000      8.0721      2.4544      0.0795     11.8569    126.9633     27.0010
   941.7000      8.0721      2.4232      0.0491     13.7447    121.9718     27.9738
   941.8000      8.0703      2.3878      0.0294     15.8918    126.5589     27.9589
   941.9000      8.0703      2.3543      0.0333     17.9198    138.3820     28.2161
   942.0000      8.0671      2.3256      0.0467     19.6584    150.2147     28.8706
   942.1000      8.0671      2.2994      0.0455     21.2482    159.3996     28.6861
   942.2000      8.0671      2.2648      0.0549     23.3470    166.1988     28.6072
   942.3000      8.0668      2.2184      0.0319     26.1559    165.0358     29.8011
   942.4000      8.0668      2.1769      0.0308     28.6698    152.7799     30.5510
   942.5000      8.0679      2.1517      0.0348     30.1995    138.7561     29.7304
   942.6000      8.0679      2.1349      0.0152     31.2206    130.8546     29.0155
   942.7000      8.0679      2.1118      0.0242     32.6205    128.3638     29.4393
   942.8000      8.0688      2.0648     -0.0047     35.4649    126.6297     30.2048
   942.9000      8.0688      1.9827     -0.0259     40.4450    120.3738     30.8140
   943.0000      8.0694      1.8754     -0.0115     46.9432    107.8855     31.3725
   943.1000      8.0694      1.7727     -0.0721     53.1712     94.9344     31.6075
   943.2000      8.0694      1.6930     -0.0307     57.9984     86.4784     31.0639
   943.3000      8.0716      1.6224     -0.0693     62.2793     80.3088     30.1753
   943.4000      8.0716      1.5442     -0.0949     67.0166     74.4678     30.1703
   943.5000      8.0752      1.4754     -0.1606     71.1888     72.5963     31.4491
   943.6000      8.0752      1.4453     -0.0762     73.0117     74.8183     32.6335
   943.7000      8.0752      1.4485      0.0278     72.8177     75.9636     32.3668
   943.8000      8.0766      1.4639      0.0494     71.8871     75.2123     31.6775
   943.9000      8.0766      1.4868      0.0769     70.4965     76.7038     32.0908
   944.0000      8.0684      1.5127      0.0805     68.9262     81.1310     33.1085
   944.1000      8.0684      1.5379      0.0542     67.4012     83.8782     33.9222
   944.2000      8.0684      1.5689      0.0490     65.5241     85.5310     34.4420
   944.3000      8.0501      1.6116      0.0661     62.9317     91.2100     34.2635
   944.4000      8.0501      1.6680      0.1039     59.5140    101.0428     33.2223
   944.5000      8.0367      1.7358      0.1100     55.4038    110.0644     32.3553
   944.6000      8.0367      1.8047      0.1274     51.2317    114.5016     32.6486
   944.7000      8.0367      1.8655      0.1018     47.5470    117.1016     33.5525
   944.8000      8.0310      1.9257      0.0571     43.8964    121.4034     33.8834
   944.9000      8.0310      2.0017      0.0708     39.2881    123.6000     33.0851
   945.0000      8.0258      2.1003      0.1615     33.3129    120.4406     31.7899
   945.1000      8.0258      2.2172      0.1927     26.2329    118.0509     31.0660
   945.2000      8.0258      2.3384      0.2565     18.8874    123.6201     30.6640
   945.3000      8.0132      2.4426      0.2293     12.5715    133.4038     29.4237
   945.4000      8.0132      2.5189      0.1855      7.9455    139.1498     27.5160
   945.5000      7.9942      2.5671      0.1665      5.0258    140.8344     26.5626
   945.6000      7.9942      2.5815      0.1374      4.1541    141.9889     27.1548
   945.7000      7.9942      2.5601      0.0612      5.4488    140.5313     28.3273
   945.8000      7.9839      2.5238      0.0030      7.6475    138.4700     28.9972
   945.9000      7.9839      2.4997     -0.0004      9.1061    142.6512     28.9719
   946.0000      7.9823      2.4950     -0.0067      9.3924    149.9409     28.8296
   946.1000      7.9823      2.4997     -0.0023      9.1103    153.4590     29.1425
   946.2000      7.9823      2.5021      0.0185      8.9628    152.3969     29.6748
   946.3000      7.9802      2.5015      0.0203      9.0005    149.9492     29.7067
   946.4000      7.9802      2.5093      0.0055      8.5281    148.0068     28.9124
   946.5000      7.9783      2.5338      0.0761      7.0442    144.5979     27.6632
   946.6000      7.9783      2.5617      0.1188      5.3505    141.1533     26.5977
   946.7000      7.9783      2.5718      0.1198      4.7412    142.1786     25.8201
   946.8000      7.9775      2.5645      0.0982      5.1829    146.2872     25.2413
   946.9000      7.9775      2.5542      0.0881      5.8075    146.3282     25.0533
   947.0000      8.0217      2.5484      0.0536      6.1560    140.9552     24.9516
   947.1000      8.0217      2.5503      0.0240      6.0418    135.5524     24.8682
   947.2000      8.0217      2.5566      0.0866      5.6633    134.0782     25.2400
   947.3000      8.0213      2.5595      0.0970      5.4834    135.9865     26.1770
   947.4000      8.0213      2.5576      0.1278      5.6008    135.8739     27.7056
   947.5000      8.0217      2.5537      0.1198      5.8348    132.3596     29.5744
   947.6000      8.0217      2.5537      0.1476      5.8346    130.6570     30.5327
   947.7000      8.0217      2.5620      0.0998      5.3353    131.2237     30.0563
   947.8000      8.0225      2.5777      0.1398      4.3830    130.7984     29.1852
   947.9000      8.0225      2.5978      0.1282      3.1632    129.1488     28.5860
   948.0000      8.0223      2.6221      0.1639      1.6891    125.3031     28.3924
   948.1000      8.0223      2.6470      0.1559      0.1848    119.4510     28.8286
   948.2000      8.0223      2.6631      0.1305     -0.7932    114.5738     29.4718
   948.3000      8.0217      2.6654      0.1306     -0.9357    112.9209     29.3314
   948.4000      8.0217      2.6615      0.1109     -0.6953    114.2775     28.0825
   948.5000      8.0208      2.6627      0.0989     -0.7693    118.2881     26.8160
   948.6000      8.0208      2.6714      0.1031     -1.2988    121.1927     26.7877
   948.7000      8.0208      2.6809      0.0719     -1.8735    117.3759     27.2660
   948.8000      8.0206      2.6863      0.0701     -2.1971    108.3665     27.1629
   948.9000      8.0206      2.7035      0.0184     -3.2430    100.0483     27.0032
   949.0000      8.0208      2.7478      0.0824     -5.9265     97.3545     26.8754
   949.1000      8.0208      2.7949      0.1321     -8.7814     99.7734     26.5104
   949.2000      8.0208      2.8127      0.1086     -9.8635    101.4313     26.5018
   949.3000      8.0208      2.7934      0.0899     -8.6903    101.3787     26.6101
   949.4000      8.0208      2.7470      0.0253     -5.8795    100.7382     26.0762
   949.5000      8.0207      2.6963      0.0182     -2.8052     99.9685     25.5349
