~Version Information
VERS.                      2.0: CWLS Log ASCII Standard - VERSION 2.0
WRAP.                       NO: One line per depth step
~Well Information Block
STRT.FT               585.0000: 
STOP.FT              2277.5000: 
STEP.FT                 0.1000: 
NULL.                -999.2500: 
COMP.          Pioneer Natural Resources: COMPANY
WELL.          Interceptor 43-13 Tr: WELL
FLD.           Purgatoire River: FIELD
LOC.           2006' FSL & 438' FEL: LOCATION
PROV.                 Colorado: PROVINCE
CNTY.               Las Animas: COUNTRY
SRVC.                Patterson: SERVICE COMPANY
DATE.          Mon Oct 17 07:15:06 2005: LOG DATE
UWI.           05 071 08549 00: UNIQUE WELL ID
~Curve Information Block
DEPT.FT            0 000 00 00: Depth
DCAL.in                       : CDL Caliper
RHOB.g/cc                     : CDL Bulk Density
RHOC.g/cc                     : CDL Density Correction
DPOR.pu                       : CDL Density Porosity
GR.GAPI                       : Gamma Ray
NPOR.pu                       : Neutron Porosity
~Parameter Information Block
~A  Depth       DCAL        RHOB        RHOC        DPOR         GR         NPOR    
# ...
  1593.0000      8.0041      1.5346     -0.0147     67.5999     94.8172     12.6553
  1593.1000      8.0041      1.3951     -0.1339     76.0568     87.5227     11.4344
  1593.2000      8.0041      1.3294     -0.0488     80.0387     82.4821     11.1048
  1593.3000      7.9691      1.3460      0.0909     79.0321     80.3063     11.2500
  1593.4000      7.9691      1.4146      0.1103     74.8739     80.5243     11.2949
  1593.5000      7.9665      1.5129      0.2104     68.9158     78.2078     11.2406
  1593.6000      7.9665      1.6037      0.3372     63.4093     70.5304     11.3570
  1593.7000      7.9665      1.6463      0.3603     60.8287     61.8474     11.6398
  1593.8000      8.0631      1.6412      0.3156     61.1400     56.6993     11.8079
  1593.9000      8.0631      1.6114      0.3247     62.9467     56.5154     11.8947
  1594.0000      8.6770      1.5656      0.2499     65.7227     60.8396     12.3719
  1594.1000      8.6770      1.5155      0.0745     68.7558     64.8046     13.3300
  1594.2000      8.6770      1.4891     -0.0619     70.3596     64.6905     14.2114
  1594.3000      8.8638      1.4888     -0.0238     70.3761     64.6099     14.6518
  1594.4000      8.8638      1.4874     -0.0157     70.4602     69.6479     14.7575
  1594.5000      8.3401      1.4877      0.0167     70.4443     75.9924     14.6104
  1594.6000      8.3401      1.5149      0.1918     68.7930     74.9582     14.1632
  1594.7000      8.3401      1.5611      0.2609     65.9935     67.9638     13.4624
  1594.8000      8.1244      1.5892      0.3099     64.2905     64.4438     12.8930
  1594.9000      8.1244      1.5691      0.2538     65.5112     65.2395     12.8878
  1595.0000      8.3166      1.5163      0.0196     68.7072     66.3741     13.4355
  1595.1000      8.3166      1.4797     -0.0033     70.9300     68.4850     14.1228
  1595.2000      8.3166      1.4795      0.0297     70.9401     70.9966     14.7655
  1595.3000      8.3275      1.5121     -0.0019     68.9645     70.4567     15.6298
  1595.4000      8.3275      1.5650      0.1649     65.7574     67.4508     16.6073
  1595.5000      8.1680      1.5971      0.2472     63.8136     67.2754     16.8248
  1595.6000      8.1680      1.5743      0.1876     65.1918     72.1317     15.8022
  1595.7000      8.1680      1.5097      0.1397     69.1072     76.0966     14.1623
  1595.8000      8.4288      1.4295      0.1363     73.9724     73.8562     12.7218
  1595.9000      8.4288      1.3415      0.0128     79.3052     70.1648     12.0181
  1596.0000      8.4888      1.2421     -0.0560     85.3289     69.8565     12.1570
  1596.1000      8.4888      1.1290     -0.1052     92.1821     72.5924     12.7825
  1596.2000      8.4888      1.0351     -0.1349     97.8748     76.8672     13.4586
  1596.3000      8.3943      1.0318     -0.1119     98.0742     79.7796     13.7842
  1596.4000      8.3943      1.1551      0.1031     90.6023     79.8128     13.6121
  1596.5000      8.3255      1.3642      0.1965     77.9260     81.3136     13.5373
  1596.6000      8.3255      1.5877      0.2849     64.3791     87.0867     14.1566
  1596.7000      8.3255      1.7767      0.2863     52.9266     93.8243     15.5164
  1596.8000      8.4299      1.9452      0.2895     42.7166     97.8315     17.6362
  1596.9000      8.4299      2.1493      0.3433     30.3426     98.8528     20.2881
  1597.0000      8.8923      2.3843      0.4721     16.1044    100.3501     23.0306
  1597.1000      8.8923      2.5548      0.4437      5.7718    107.4592     25.8111
  1597.2000      8.8923      2.6037      0.2010      2.8081    119.4849     28.7905
  1597.3000      9.1463      2.5841      0.1221      3.9919    129.4026     31.4588
  1597.4000      9.1463      2.5626      0.1457      5.2987    134.9407     32.8879
  1597.5000      8.3918      2.5550      0.1274      5.7557    138.5960     32.7942
  1597.6000      8.3918      2.5545      0.0820      5.7883    139.9651     31.6203
  1597.7000      8.3918      2.5523      0.0581      5.9223    142.7334     30.1028
  1597.8000      8.0093      2.5521      0.0455      5.9357    152.2300     28.6872
  1597.9000      8.0093      2.5630      0.0801      5.2710    161.5600     27.5751
  1598.0000      7.8843      2.5826      0.0735      4.0819    162.0957     27.1159
  1598.1000      7.8843      2.6083      0.1031      2.5258    156.8905     26.9364
  1598.2000      7.8843      2.6363      0.1292      0.8300    154.1799     26.3308
  1598.3000      7.9080      2.6511      0.1828     -0.0643    156.2667     25.9363
  1598.4000      7.9080      2.6464      0.1464      0.2160    158.9488     26.6370
  1598.5000      7.8726      2.6344      0.1698      0.9437    160.0820     27.6829
  1598.6000      7.8726      2.6146      0.1699      2.1455    158.5241     27.8470
  1598.7000      7.8726      2.5825      0.1270      4.0934    152.5086     27.2975
  1598.8000      7.8542      2.5581      0.0765      5.5722    147.4290     26.7249
  1598.9000      7.8542      2.5638      0.0832      5.2268    148.8968     26.2417
  1599.0000      7.8349      2.5857      0.1125      3.8968    156.8015     25.8396
  1599.1000      7.8349      2.5941      0.1133      3.3900    164.9573     25.4935
  1599.2000      7.8349      2.5898      0.0822      3.6482    164.1179     25.0248
  1599.3000      7.8438      2.5866      0.1404      3.8427    158.3845     24.6115
  1599.4000      7.8438      2.5709      0.1376      4.7967    158.2079     24.6141
  1599.5000      7.8765      2.5424      0.0596      6.5236    164.7372     25.0516
  1599.6000      7.8765      2.5409      0.0495      6.6106    174.2457     25.6268
  1599.7000      7.8765      2.5814      0.1072      4.1548    179.6246     26.2031
  1599.8000      7.8903      2.6244      0.1330      1.5506    175.9995     26.8696
  1599.9000      7.8903      2.6294      0.1150      1.2460    167.3437     27.6177
  1600.0000      7.8863      2.5969      0.0478      3.2206    161.4764     28.4432
  1600.1000      7.8863      2.5553      0.0722      5.7420    160.4761     29.1959
  1600.2000      7.8863      2.5285      0.0095      7.3641    159.1275     29.7141
  1600.3000      7.8980      2.5254      0.0277      7.5522    154.7862     30.0146
  1600.4000      7.8980      2.5339      0.0123      7.0346    148.8712     30.1221
  1600.5000      7.9124      2.5382      0.0195      6.7737    141.5431     29.9754
  1600.6000      7.9124      2.5392     -0.0019      6.7150    133.6671     29.6263
  1600.7000      7.9124      2.5457      0.0209      6.3209    127.3091     29.1494
  1600.8000      7.8936      2.5672     -0.0066      5.0171    122.1408     28.4383
  1600.9000      7.8936      2.6029      0.0209      2.8563    116.8728     27.4560
  1601.0000      7.8857      2.6277      0.0683      1.3516    113.7163     26.6007
  1601.1000      7.8857      2.6201      0.0538      1.8151    112.0393     26.3595
  1601.2000      7.8857      2.6015      0.0697      2.9381    106.7325     26.8405
  1601.3000      7.8792      2.6163      0.0870      2.0417    100.0049     27.4552
  1601.4000      7.8792      2.6663      0.2478     -0.9899     96.9099     27.3180
  1601.5000      7.8485      2.7054      0.2633     -3.3582     94.7698     26.5293
  1601.6000      7.8485      2.7090      0.2520     -3.5736     89.5174     25.7741
  1601.7000      7.8485      2.7013      0.2309     -3.1088     82.1913     25.3368
  1601.8000      7.7134      2.7078      0.2657     -3.5001     76.8069     25.1751
  1601.9000      7.7134      2.7221      0.1989     -4.3717     76.6820     25.1250
  1602.0000      7.6823      2.7315      0.1857     -4.9368     81.5003     24.9970
  1602.1000      7.6823      2.7373      0.1490     -5.2891     86.3252     24.7237
  1602.2000      7.6823      2.7374      0.2228     -5.2970     88.3477     24.5670
  1602.3000      7.7196      2.7132      0.2059     -3.8297     90.1988     24.4837
  1602.4000      7.7196      2.6658      0.1569     -0.9586     92.1628     24.2123
  1602.5000      7.7727      2.6312      0.0707      1.1389     93.0900     23.9171
