~Version Information
VERS.                      2.0: CWLS Log ASCII Standard - VERSION 2.0
WRAP.                       NO: One line per depth step
~Well Information Block
STRT.FT                 0.0000: 
STOP.FT              2086.0000: 
STEP.FT                 0.2500: 
NULL.                -999.2500: 
COMP.          Petrogulf Corporation: COMPANY
WELL.               YWAM 7-32R: WELL
FLD.           Purgatorie River: FIELD
LOC.           2355' FNL & 2376' FEL: LOCATION
STAT.                 Colorado: State
CNTY.               Las Animas: COUNTY
CTRY. USA : Country
SECT. 7 : Section
TOWN. 33S : Township
RANG. 67W : Range
SRVC.                Patterson: SERVICE COMPANY
DATE.          Wed Nov 09 16:33:59 2005: LOG DATE
API. 05-071-08518                         : UNIQUE WELL ID
~Curve Information Block
DEPT.FT            0 000 00 00: Depth
CCL.                          : Casing Collar Locator
TT3.usec                      : CBL 3' Travel Time
AMP3.mV                       : CBL 3' Amplitude
GR.GAPI                       : Gamma Ray
~Parameter Information Block
~A  Depth       CCL         TT3         AMP3         GR     
# ...
   938.0000      0.0000    606.7233      5.9152    133.8073
   938.2500      0.0000    619.5583      5.9861    131.3706
   938.5000      0.0000    637.2563      6.0381    126.8764
   938.7500      0.0000    644.3790      6.0851    121.3196
   939.0000      0.0000    635.7383      6.1393    115.9522
   939.2500      0.0000    618.0504      6.2240    111.5400
   939.5000      0.0000    601.3373      6.3541    108.3037
   939.7500      0.0000    588.2610      6.5108    106.3701
   940.0000      0.0000    573.9679      6.6911    106.0340
   940.2500      0.0000    555.4868      6.9043    107.6930
   940.5000      0.0000    536.8807      7.0979    111.5870
   940.7500      0.0000    524.4797      7.1910    117.4039
   941.0000      0.0000    521.3382      7.1686    123.9373
   941.2500      0.0000    528.8538      7.0693    129.1888
   941.5000      0.0000    549.3116      6.9293    131.2413
   941.7500      0.0000    580.7185      6.7888    129.5220
   942.0000      0.0000    611.1204      6.6924    125.1994
   942.2500      0.0000    626.6822      6.6535    120.0267
   942.5000      0.0000    626.1917      6.6734    114.9913
   942.7500      0.0000    622.1003      6.7788    110.4900
   943.0000      0.0000    627.0610      6.9694    107.4593
   943.2500      0.0000    641.1060      7.1292    107.3450
   943.5000      0.0000    653.2822      7.0621    110.6451
   943.7500      0.0000    652.0848      6.7077    116.0803
   944.0000      0.0000    631.6064      6.3099    121.7010
   944.2500      0.0000    601.5886      6.1690    126.4416
   944.5000      0.0000    592.1108      6.2154    130.1250
   944.7500      0.0000    619.0318      6.2213    132.3568
   945.0000      0.0000    654.7030      6.2516    132.2314
   945.2500      0.0000    666.2552      6.4229    129.2702
   945.5000      0.0000    654.4156      6.6270    124.2757
   945.7500     -2.0000    637.1887      6.7352    119.1115
   946.0000      2.0000    629.5309      6.7010    115.6071
   946.2500      0.0000    638.8041      6.4784    114.4911
   946.5000      0.0000    655.2410      6.1291    115.2412
   946.7500      0.0000    653.2943      5.9558    116.7906
   947.0000      0.0000    620.4596      6.1967    118.0025
   947.2500      0.0000    581.6490      6.5882    117.3957
   947.5000      0.0000    573.1500      6.7276    113.2925
   947.7500      0.0000    595.7209      6.6909    105.2189
   948.0000      0.0000    622.8167      6.7269     94.9217
   948.2500      0.0000    639.2407      6.8232     85.2463
   948.5000      0.0000    645.6019      6.8819     78.0721
   948.7500      0.0000    644.1941      6.8852     73.6819
   949.0000      0.0000    638.5873      6.8416     71.8395
   949.2500      0.0000    634.2735      6.7755     72.8472
   949.5000      0.0000    631.5252      6.7364     77.2977
   949.7500      0.0000    626.9027      6.7348     84.9131
   950.0000      0.0000    620.6288      6.7075     93.8118
   950.2500      0.0000    614.8262      6.6116    101.2173
   950.5000      0.0000    610.5594      6.5251    105.2825
   950.7500      0.0000    610.9902      6.5779    106.3393
   951.0000      0.0000    619.4453      6.8066    106.2046
   951.2500      0.0000    631.0277      7.1340    106.3588
   951.5000      0.0000    634.7779      7.4730    107.0115
   951.7500      0.0000    626.4528      7.7891    107.6064
   952.0000      0.0000    610.7951      8.0589    107.6183
   952.2500      0.0000    591.7313      8.2509    106.8027
   952.5000      0.0000    568.1281      8.3658    105.0796
   952.7500      0.0000    542.9842      8.4342    102.4879
   953.0000      0.0000    531.0349      8.4915     99.3198
   953.2500      0.0000    541.9537      8.5661     96.1361
   953.5000      0.0000    563.5523      8.6409     93.5354
   953.7500      0.0000    578.8638      8.6372     92.0178
   954.0000      0.0000    584.7109      8.5015     92.0853
   954.2500      0.0000    585.8632      8.2761     94.1033
   954.5000      0.0000    585.7466      8.0386     97.7833
   954.7500      0.0000    585.1609      7.8166    101.9961
   955.0000      0.0000    583.2617      7.5983    105.2230
   955.2500      0.0000    578.0374      7.3860    106.2197
   955.5000      0.0000    568.0933      7.2004    104.7100
   955.7500      0.0000    555.7307      7.0395    101.7848
   956.0000      0.0000    546.6241      6.8604     99.1129
   956.2500      0.0000    545.5173      6.6282     97.2919
   956.5000      0.0000    553.0208      6.3687     95.4826
   956.7500      0.0000    565.0599      6.1387     93.1222
   957.0000      0.0000    575.7298      5.9907     91.4403
   957.2500      0.0000    582.1243      5.9596     92.6371
   957.5000      0.0000    585.0596      6.0263     97.7997
   957.7500      0.0000    586.2009      6.1405    105.8933
   958.0000      0.0000    586.6139      6.2783    114.4516
   958.2500      0.0000    587.2673      6.4306    120.8530
   958.5000      0.0000    590.1744      6.5555    123.2235
   958.7500      0.0000    598.8895      6.5807    120.9818
   959.0000      0.0000    615.3605      6.4616    115.1405
   959.2500      0.0000    634.6053      6.2301    107.9533
   959.5000      0.0000    647.2059      6.0041    101.7453
   959.7500      0.0000    650.0899      5.8959     97.8153
   960.0000      0.0000    649.5029      5.8949     96.3879
   960.2500      0.0000    650.8622      5.9079     97.1797
   960.5000      0.0000    651.9800      5.8811     99.5305
   960.7500      0.0000    650.1381      5.8190    102.2685
   961.0000      0.0000    648.8185      5.7341    104.2013
   961.2500      0.0000    651.8988      5.6304    105.0545
   961.5000      0.0000    657.3067      5.5205    105.6690
   961.7500      0.0000    661.2024      5.4197    106.9742
   962.0000      0.0000    662.9086      5.3505    108.8090
   962.2500      0.0000    663.5319      5.3851    109.9176
   962.5000      0.0000    663.8171      5.6513    109.1452
   962.7500      0.0000    664.0868      6.2658    106.6941
   963.0000      0.0000    664.5108      7.2467    104.4815
   963.2500      0.0000    664.8553      8.4692    105.3113
   963.5000      0.0000    663.2881      9.7165    110.9795
   963.7500      0.0000    653.2709     10.7786    120.3908
   964.0000      0.0000    621.7601     11.5460    129.7511
   964.2500      0.0000    560.0749     12.0654    135.4379
   964.5000      0.0000    482.8869     12.4780    136.7906
   964.7500      0.0000    420.8716     12.8653    135.8016
   965.0000      0.0000    388.9428     13.1997    134.4900
   965.2500      0.0000    379.7462     13.4159    133.0704
   965.5000      0.0000    385.0910     13.4280    130.3015
   965.7500      0.0000    408.2131     13.1126    125.1383
   966.0000      0.0000    454.0997     12.3834    118.1056
   966.2500      0.0000    512.3402     11.3153    111.1994
   966.5000      0.0000    559.9478     10.1665    106.4515
   966.7500      0.0000    583.4666      9.2228    104.5864
   967.0000      0.0000    586.9675      8.5949    104.9436
   967.2500      0.0000    579.8596      8.1916    106.4385
   967.5000      0.0000    566.4793      7.8900    108.4318
   967.7500      0.0000    550.6059      7.6738    110.8072
   968.0000      0.0000    542.9571      7.5704    113.4885
   968.2500      0.0000    551.4441      7.5508    116.0264
   968.5000      0.0000    570.9272      7.5577    117.6361
   968.7500      0.0000    594.7728      7.5580    117.6470
   969.0000      0.0000    622.2134      7.5549    115.9939
   969.2500      0.0000    648.2611      7.5756    113.3379
   969.5000      0.0000    664.0494      7.6219    110.7706
   969.7500      0.0000    668.7346      7.6560    109.3028
   970.0000      0.0000    668.5818      7.6498    109.3054
   970.2500      0.0000    667.9387      7.6093    110.1796
   970.5000      0.0000    667.4440      7.5575    110.7114
   970.7500      0.0000    666.4769      7.5175    110.0342
   971.0000      0.0000    663.8798      7.5051    108.4074
   971.2500      0.0000    657.5383      7.5122    107.0675
