~Version Information
 VERS.                                  2.0 : CWLS LAS VERSION
 WRAP.                                   NO : WRAPING MODE
 SWARE .                MController 2.5.0QA : SOFTWARE VERSION
~Well Information
 WELL.                        Fleming 11-02 : WELL
 COMP.    Pioneer Natural Resources USA Inc : COMPANY
 FLD.                      Purgatoire River : FIELD
 LOC.                 NW/NW Sec02 T33S R66W : LOCATION
 DATE.                          06/25-27/06 : DATE(S) LOGGED
 SRVC.       Blanco Geological Services LLC : SERVICE COMPANY
 STAT.                             Colorado : STATE
 CNTY.                           Las Animas : COUNTY
 CTRY.                                  USA : COUNTRY
 API.                       05-071-08491-00 : API NUMBER
 STRT.FT                             347.00 : START DEPTH
 STOP.FT                            2080.00 : STOP DEPTH
 STEP.FT                               1.00 : DEPTH INCREMENT
 NULL.                                -9999 : NULL VALUE
~Curve information
 DEPTH.FT                                   :
 ROP.MIN/FT                                 :
 GAS.UNITS                                  :
~ASCII Log data
# ...
      1147.0         0.47        717.1 
      1148.0         0.50        727.5 
      1149.0         0.40        723.0 
      1150.0         0.43        706.4 
      1151.0         0.40        701.5 
      1152.0         0.40        706.1 
      1153.0         0.43        705.4 
      1154.0         0.45        704.8 
      1155.0         0.43        703.1 
      1156.0         0.47        706.4 
      1157.0         0.47        711.6 
      1158.0         0.43        711.6 
      1159.0         0.27        700.2 
      1160.0         0.30        695.7 
      1161.0         0.30        670.0 
      1162.0         6.10       3324.5 
      1163.0         0.30       1026.9 
      1164.0         0.53        999.9 
      1165.0         0.32        921.3 
      1166.0         0.30        863.9 
      1167.0         0.30        811.6 
      1168.0         0.27        808.7 
      1169.0         0.33        776.5 
      1170.0         0.30        751.9 
      1171.0         0.40        742.1 
      1172.0         0.30        728.8 
      1173.0         0.33        721.0 
      1174.0         0.33        717.4 
      1175.0         0.33        707.4 
      1176.0         0.35        688.5 
      1177.0         0.33        685.3 
      1178.0         0.33        678.5 
      1179.0         0.30        677.5 
      1180.0         0.27        695.7 
      1181.0         0.27        739.5 
      1182.0         0.30        747.3 
      1183.0         0.27        756.7 
      1184.0         0.27        758.3 
      1185.0         0.30        761.6 
      1186.0         0.30        754.1 
      1187.0         0.35        759.6 
      1188.0         0.33        746.3 
      1189.0         0.27        731.1 
      1190.0         0.23        699.3 
      1191.0         0.43        669.7 
      1192.0         6.70       2818.9 
      1193.0         0.23       1050.6 
      1194.0         0.20       1093.1 
      1195.0         0.20       1093.1 
      1196.0         0.23       1145.7 
      1197.0         0.27       1193.1 
      1198.0         0.37       1202.2 
      1199.0         0.38       1140.9 
      1200.0         0.27       1093.1 
      1201.0         0.23       1044.1 
      1202.0         0.30       1028.5 
      1203.0         0.47        991.5 
      1204.0         0.53       1014.5 
      1205.0         0.50       1105.1 
      1206.0         0.50       1148.6 
      1207.0         0.62       1162.6 
      1208.0         0.53       1162.6 
      1209.0         0.57       1149.3 
      1210.0         0.57       1132.1 
      1211.0         0.57       1123.3 
      1212.0         0.63       1117.8 
      1213.0         0.68       1124.6 
      1214.0         0.73       1125.3 
      1215.0         0.87       1112.0 
      1216.0         0.80       1128.5 
      1217.0         0.40       1137.6 
      1218.0         0.42       1130.1 
      1219.0         0.43       1165.9 
      1220.0         0.60       1188.3 
      1221.0         0.50       1088.2 
      1222.0         6.17       5908.5 
      1223.0         0.13       1544.8 
      1224.0         0.40       1659.4 
      1225.0         0.40       1669.8 
      1226.0         0.37       1650.6 
      1227.0         0.30       1527.6 
      1228.0         0.30       1447.4 
      1229.0         0.32       1421.4 
      1230.0         0.33       1395.7 
      1231.0         0.37       1365.2 
      1232.0         0.43       1342.8 
      1233.0         0.37       1261.3 
      1234.0         0.40       1225.0 
      1235.0         0.40       1205.8 
      1236.0         0.37       1180.5 
      1237.0         0.40       1159.4 
      1238.0         0.38       1151.6 
      1239.0         0.47       1168.1 
      1240.0         0.43       1159.4 
      1241.0         0.37       1131.8 
      1242.0         0.33       1128.5 
      1243.0         0.40       1132.1 
      1244.0         0.50       1147.7 
      1245.0         0.47       1147.7 
      1246.0         0.55       1135.7 
      1247.0         0.57       1130.8 
      1248.0         0.53       1107.1 
      1249.0         0.57       1099.0 
      1250.0         0.67       1089.5 
      1251.0         0.88       1047.0 
      1252.0         7.17       4140.2 
      1253.0         0.17       1390.9 
      1254.0         0.80       1546.1 
      1255.0         0.63       1548.0 
      1256.0         0.40       1479.8 
      1257.0         0.30       1398.3 
      1258.0         0.35       1369.4 
      1259.0         0.27       1331.5 
      1260.0         0.37       1317.8 
      1261.0         0.40       1317.5 
      1262.0         0.40       1291.8 
      1263.0         0.43       1262.6 
      1264.0         0.47       1229.8 
      1265.0         0.47       1196.4 
      1266.0         0.37       1161.6 
      1267.0         0.45       1151.2 
      1268.0         0.47       1169.8 
      1269.0         0.47       1178.8 
      1270.0         0.50       1174.9 
      1271.0         0.53       1164.6 
      1272.0         0.50       1136.3 
      1273.0         0.58       1116.5 
      1274.0         0.53       1091.5 
      1275.0         0.47       1119.7 
      1276.0         0.53       1128.5 
      1277.0         0.60       1125.9 
      1278.0         0.67       1107.4 
      1279.0         0.85       1068.1 
      1280.0         0.80       1069.7 
      1281.0        10.18       4749.6 
      1282.0         0.30       1576.0 
      1283.0         0.57       1587.3 
      1284.0         0.43       1489.6 
      1285.0         0.40       1373.7 
      1286.0         0.33       1292.8 
      1287.0         0.35       1230.8 
      1288.0         0.30       1237.3 
      1289.0         0.33       1235.7 
      1290.0         0.33       1218.1 
      1291.0         0.30       1166.5 
      1292.0         0.33       1153.8 
      1293.0         0.30       1155.8 
      1294.0         0.43       1162.0 
      1295.0         0.47       1181.4 
      1296.0         0.48       1178.5 
      1297.0         0.50       1164.2 
      1298.0         0.50       1141.5 
      1299.0         0.50       1100.6 
      1300.0         0.33       1099.0 
      1301.0         0.37       1076.6 
      1302.0         0.40       1084.7 
      1303.0         0.40       1096.0 
      1304.0         0.48       1111.3 
      1305.0         0.47       1122.0 
      1306.0         0.57       1120.7 
      1307.0         0.53       1114.9 
      1308.0         0.53       1094.4 
      1309.0         0.60       1087.9 
      1310.0         0.65       1078.8 
      1311.0         0.80       1061.3 
      1312.0         3.78       2642.9 
      1313.0         0.37       1733.1 
      1314.0         0.40       1679.2 
      1315.0         0.33       1572.7 
      1316.0         0.33       1543.8 
      1317.0         0.52       1503.2 
      1318.0         0.40       1439.6 
      1319.0         0.37       1352.9 
      1320.0         0.30       1317.8 
      1321.0         0.40       1241.5 
      1322.0         0.40       1187.6 
      1323.0         0.53       1159.7 
      1324.0         0.43       1148.3 
      1325.0         0.45       1167.5 
      1326.0         0.40       1147.7 
      1327.0         0.37       1131.8 
      1328.0         0.37       1112.3 
      1329.0         0.33       1116.5 
      1330.0         0.50       1129.2 
      1331.0         0.43       1126.9 
      1332.0         0.40       1106.8 
      1333.0         0.37       1081.1 
      1334.0         0.35       1116.2 
      1335.0         0.40       1121.4 
      1336.0         0.30       1117.8 
      1337.0         0.37       1118.8 
      1338.0         0.40       1118.8 
      1339.0         0.50       1101.9 
      1340.0         0.50       1114.6 
      1341.0         0.47       1130.5 
      1342.0         6.47       2818.6 
      1343.0         0.42       1556.8 
      1344.0         0.27       1472.7 
      1345.0         0.30       1359.7 
      1346.0         0.23       1343.8 
