~Version Information
VERS.                      2.0: CWLS Log ASCII Standard - VERSION 2.0
WRAP.                       NO: One line per depth step
~Well Information Block
STRT.FT                -4.0000: 
STOP.FT               675.2500: 
STEP.FT                 0.2500: 
NULL.                -999.2500: 
COMP.          Pioneer Natural Resources: COMPANY
WELL.          Razor Clam 23-27: WELL
FLD.           Purgatoire River: FIELD
LOC.           2499' FSL & 2636' FWL: LOCATION
CNTY.               Las Animas: COUNTY
SRVC.                         : SERVICE COMPANY
DATE.          Thu Mar 09 13:15:19 2006: LOG DATE
UWI.           05 071 08667 00: UNIQUE WELL ID
STAT.                       CO: STATE
~Curve Information Block
DEPT.FT            0 000 00 00: Depth
GR.GAPI                       : Gamma Ray
CCL.                          : Casing Collar Locator
TT3.usec                      : CBL 3' Travel Time
AMP3.mV                       : CBL 3' Amplitude
~Parameter Information Block
~A  Depth        GR         CCL         TT3         AMP3    
# ...
   632.5000    112.7173      0.0000    760.8868     12.3789
   632.7500    114.7781      0.0000    761.0720     12.4412
   633.0000    117.7077      0.0000    762.0423     12.4710
   633.2500    120.7403      0.0000    764.6570     12.4432
   633.5000    122.8035      0.0000    769.4160     12.2997
   633.7500    122.8498      0.0000    775.2966     11.9421
   634.0000    120.2030      0.0000    778.8149     11.3272
   634.2500    115.0397      0.0000    774.6435     10.5821
   634.5000    108.5993      0.0000    758.5341      9.9537
   634.7500    102.5270      0.0000    731.2147      9.6158
   635.0000     97.8986      0.0000    700.1926      9.5589
   635.2500     95.0094      0.0000    676.6880      9.6638
   635.5000     93.8126     -2.0000    668.6827      9.8282
   635.7500     94.1311      0.0000    674.5518     10.0381
   636.0000     95.5711      0.0000    683.0245     10.3675
   636.2500     97.6052      0.0000    682.1746     10.8887
   636.5000     99.8526      0.0000    670.6685     11.5258
   636.7500    102.2771      0.0000    658.4682     12.0530
   637.0000    105.0580      0.0000    655.4084     12.3207
   637.2500    108.1141      0.0000    662.5032     12.4146
   637.5000    110.7524      0.0000    675.1959     12.5035
   637.7500    112.0876      0.0000    689.7354     12.6232
   638.0000    111.8564      0.0000    704.0259     12.6973
   638.2500    110.4512      0.0000    716.2780     12.6752
   638.5000    108.2631      0.0000    725.3794     12.5623
   638.7500    105.7413      0.0000    731.4422     12.3727
   639.0000    104.1454      0.0000    735.5132     12.1260
   639.2500    105.2019      0.0000    738.8916     11.8732
   639.5000    109.3741      0.0000    742.1352     11.6746
   639.7500    114.8333      0.0000    744.5142     11.5495
   640.0000    118.5750      0.0000    745.2608     11.4612
   640.2500    118.5531      0.0000    745.1577     11.3584
   640.5000    114.7508      0.0000    745.9858     11.2241
   640.7500    108.6227      0.0000    748.5339     11.0843
   641.0000    102.0833      0.0000    751.7814     10.9738
   641.2500     96.9756      0.0000    753.9633     10.9027
   641.5000     94.7372      0.0000    753.8729     10.8552
   641.7500     95.9127      0.0000    751.4310     10.8137
   642.0000     99.8389      0.0000    747.8421     10.7798
   642.2500    104.9154      0.0000    745.2557     10.7733
   642.5000    109.3377      0.0000    745.4739     10.8116
   642.7500    111.9213      0.0000    748.5019     10.8867
   643.0000    112.5493      0.0000    752.5815     10.9579
   643.2500    111.8882      0.0000    755.6635     10.9744
   643.5000    110.7444      0.0000    756.5272     10.9210
   643.7500    109.7140      0.0000    754.6641     10.8405
   644.0000    109.0858      0.0000    749.8870     10.7977
   644.2500    108.8004      0.0000    742.6205     10.8171
   644.5000    108.6383      0.0000    734.3181     10.8610
   644.7500    108.4782      0.0000    726.9597     10.8705
   645.0000    108.2180      0.0000    721.8772     10.8315
   645.2500    107.7163      0.0000    719.1711     10.8021
   645.5000    107.2295      0.0000    718.1669     10.8782
   645.7500    107.5961      0.0000    718.1576     11.1298
   646.0000    109.3380      0.0000    718.7519     11.5645
   646.2500    111.6664      0.0000    719.8975     12.1323
   646.5000    112.9802      0.0000    721.8925     12.7470
   646.7500    112.5289      0.0000    725.3790     13.3134
   647.0000    111.2704      0.0000    730.9533     13.7679
   647.2500    110.8660      0.0000    738.3322     14.1062
   647.5000    111.8887      0.0000    745.7946     14.3509
   647.7500    113.2032      0.0000    750.9366     14.4943
   648.0000    113.1792      0.0000    752.6038     14.5002
   648.2500    111.3967      0.0000    752.2192     14.3567
   648.5000    108.9331      0.0000    752.7539     14.0923
   648.7500    106.9872      0.0000    755.9794     13.7377
   649.0000    105.6153      0.0000    760.9155     13.2939
   649.2500    104.1243      0.0000    765.0457     12.7458
   649.5000    102.3475      0.0000    766.5798     12.1032
   649.7500    100.9709      0.0000    765.5355     11.4318
   650.0000    100.7018      0.0000    763.4006     10.8340
   650.2500    101.6501      0.0000    761.8499     10.3833
   650.5000    103.5495      0.0000    760.9211     10.0750
   650.7500    106.0741      0.0000    757.7115      9.8474
   651.0000    108.7096      0.0000    747.2014      9.6450
   651.2500    110.5981      0.0000    725.8961      9.4551
   651.5000    110.7694      0.0000    696.9004      9.2961
   651.7500    108.5454      0.0000    671.8408      9.1868
   652.0000    103.9145      0.0000    664.7595      9.1277
   652.2500     97.9464      0.0000    680.6170      9.1030
   652.5000     92.7686      0.0000    709.5728      9.0950
   652.7500     90.3331      0.0000    734.5494      9.0956
   653.0000     90.7439      0.0000    745.3090      9.1056
   653.2500     92.2725      0.0000    744.4604      9.1299
   653.5000     93.2497      0.0000    740.4326      9.1764
   653.7500     93.3401      0.0000    737.4969      9.2522
   654.0000     92.9456      0.0000    734.1987      9.3520
   654.2500     92.4207      0.0000    728.4652      9.4513
   654.5000     92.1925      0.0000    720.3533      9.5157
   654.7500     92.7069      0.0000    710.5955      9.5318
   655.0000     93.7712      0.0000    699.3122      9.5295
   655.2500     94.3654      0.0000    686.4384      9.5643
   655.5000     93.4807      0.0000    673.0066      9.6661
   655.7500     90.9895      0.0000    662.4619      9.8171
   656.0000     87.5453      0.0000    659.7753      9.9916
   656.2500     83.8354      0.0000    667.4089     10.2088
   656.5000     80.5314      0.0000    682.3560     10.5339
   656.7500     79.0868      0.0000    698.3098     11.0230
   657.0000     81.6116      0.0000    710.3990     11.6649
   657.2500     89.0596      0.0000    717.3812     12.3761
   657.5000     99.8828      0.0000    720.5215     13.0575
   657.7500    111.0318      0.0000    721.6028     13.6569
   658.0000    120.0813      0.0000    721.8607     14.1717
   658.2500    126.2624      0.0000    721.8883     14.6081
   658.5000    129.8452      0.0000    721.9111     14.9609
   658.7500    131.0828      0.0000    722.0729     15.2196
   659.0000    130.0173      0.0000    722.6194     15.3635
   659.2500    127.1306      0.0000    724.1078     15.3640
   659.5000    123.7697      0.0000    727.4205     15.2105
   659.7500    121.7049      0.0000    733.1829     14.9186
   660.0000    122.1919      0.0000    740.1370     14.4898
   660.2500    125.0554      0.0000    742.9239     13.8728
   660.5000    128.6467      0.0000    730.2426     12.9565
   660.7500    131.4055      0.0000    685.6990     11.5894
   661.0000    133.9668      0.0000    595.2738      9.6589
   661.2500    139.2803      0.0000    460.8920      7.2506
   661.5000    149.9210      0.0000    307.7771      4.7374
   661.7500    164.7915      0.0000    172.4576      2.6158
   662.0000    178.6427      0.0000     79.4141      1.1930
   662.2500    185.5807      0.0000     29.6024      0.4419
   662.5000    183.4774      0.0000      8.8350      0.1313
   662.7500    175.0478      0.0000      2.0922      0.0310
   663.0000    165.1787      0.0000      0.3872      0.0057
   663.2500    157.7888      0.0000      0.0515      0.0008
   663.5000    154.5341      0.0000   -999.2500   -999.2500
   663.7500    154.9367      0.0000   -999.2500   -999.2500
   664.0000    157.1520      0.0000   -999.2500   -999.2500
   664.2500    159.2368      0.0000   -999.2500   -999.2500
   664.5000    160.1507      0.0000   -999.2500   -999.2500
   664.7500    159.3719      0.0000   -999.2500   -999.2500
   665.0000    155.8306      0.0000   -999.2500   -999.2500
   665.2500    148.0723      0.0000   -999.2500   -999.2500
   665.5000    135.7413      0.0000   -999.2500   -999.2500
   665.7500    120.4839      0.0000   -999.2500   -999.2500
