~Version Information
VERS.                      2.0: CWLS Log ASCII Standard - VERSION 2.0
WRAP.                       NO: One line per depth step
~Well Information Block
STRT.FT               480.0000: 
STOP.FT              1817.0000: 
STEP.FT                 0.1000: 
NULL.                -999.2500: 
COMP.          Pioneer Natural Resources: COMPANY
WELL.           Bobsy 34-11 Tr: WELL
FLD.           Purgatoire River: FIELD
LOC.           514' FSL & 1784' FEL: LOCATION
PROV.                 Colorado: PROVINCE
CNTY.               Las Animas: COUNTRY
SRVC.                Patterson: SERVICE COMPANY
DATE.          Tue Jul 19 10:30:09 2005: LOG DATE
UWI.           05 071 08438 00: UNIQUE WELL ID
~Curve Information Block
DEPT.FT            0 000 00 00: Depth
DCAL.in                       : CDL Caliper
DPOR.pu                       : CDL Density Porosity
GR.GAPI                       : Gamma Ray
NPOR.pu                       : Neutron Porosity
RHOB.g/cc                     : CDL Bulk Density
RHOC.g/cc                     : CDL Density Correction
~Parameter Information Block
~A  Depth       DCAL        DPOR         GR         NPOR        RHOB        RHOC    
# ...
   652.8000      8.1212      3.4104    120.1445     23.4315      2.5937      0.1150
   652.9000      8.1212      4.0346    120.7542     23.8011      2.5834      0.1023
   653.0000      8.1189      5.2118    123.0921     24.1766      2.5640      0.0761
   653.1000      8.1189      6.2057    127.5810     24.7055      2.5476      0.0643
   653.2000      8.1189      7.4159    134.1574     25.1694      2.5276      0.0806
   653.3000      8.1222      9.2070    141.8432     25.0777      2.4981      0.0241
   653.4000      8.1222      9.9061    148.0271     24.3553      2.4865      0.0091
   653.5000      8.1229      8.0239    153.4272     23.7612      2.5176      0.0435
   653.6000      8.1229      4.8593    158.2215     23.8474      2.5698      0.1107
   653.7000      8.1229      2.7066    156.4431     23.9328      2.6053      0.1083
   653.8000      8.1184      2.4462    148.1434     23.5842      2.6096      0.1061
   653.9000      8.1184      3.8373    140.5751     23.3429      2.5867      0.1128
   654.0000      8.1292      5.9902    135.7597     23.3512      2.5512      0.0600
   654.1000      8.1292      7.7611    133.3613     23.2365      2.5219      0.0628
   654.2000      8.1292      8.4949    132.8085     23.0769      2.5098      0.0275
   654.3000      8.1334      8.3197    129.3370     23.0650      2.5127      0.0705
   654.4000      8.1334      7.8402    122.7623     23.1669      2.5206      0.0637
   654.5000      8.1328      7.6488    120.8480     23.4651      2.5238      0.0320
   654.6000      8.1328      7.4785    123.3203     24.0070      2.5266     -0.0099
   654.7000      8.1328      6.3171    123.9552     24.7058      2.5458      0.0226
   654.8000      8.1382      4.6623    123.3828     25.4665      2.5731      0.0640
   654.9000      8.1382      4.2588    124.4859     25.9879      2.5797      0.0963
   655.0000      8.1553      5.2121    126.7588     26.0394      2.5640      0.1092
   655.1000      8.1553      6.1076    127.4249     25.9704      2.5492      0.0630
   655.2000      8.1553      6.1989    125.2926     26.0894      2.5477      0.1054
   655.3000      8.1543      6.1697    124.6253     26.0986      2.5482      0.1402
   655.4000      8.1543      6.3446    126.8773     25.6439      2.5453      0.0590
   655.5000      8.1437      5.5044    125.0703     24.9954      2.5592      0.0356
   655.6000      8.1437      3.0808    115.3661     24.6818      2.5992      0.0612
   655.7000      8.1437      0.5930    104.7962     24.5496      2.6402      0.1485
   655.8000      8.1356     -0.0086    100.7862     24.2979      2.6501      0.1439
   655.9000      8.1356      1.5555    100.2045     23.9885      2.6243      0.1053
   656.0000      8.1123      3.8521     97.0953     23.6438      2.5864      0.0409
   656.1000      8.1123      5.2996     94.9884     23.3682      2.5626      0.0371
   656.2000      8.1123      5.6894     98.5705     23.2317      2.5561      0.0610
   656.3000      8.1063      5.9878    102.3957     22.8199      2.5512      0.0446
   656.4000      8.1063      6.7074     98.7579     21.9361      2.5393      0.0173
   656.5000      8.0995      7.2964     89.1543     21.3487      2.5296     -0.0201
   656.6000      8.0995      6.9713     81.7035     21.4561      2.5350     -0.0295
   656.7000      8.0995      5.8668     80.9957     21.6468      2.5532      0.0186
   656.8000      8.1106      4.8507     83.7661     21.5791      2.5700      0.0396
   656.9000      8.1106      4.6935     84.4548     21.3765      2.5726      0.0655
   657.0000      8.1253      5.5097     80.6186     21.0367      2.5591      0.0168
   657.1000      8.1253      6.1352     75.3254     20.4803      2.5488      0.0237
   657.2000      8.1253      5.6753     74.8946     19.8402      2.5564      0.0394
   657.3000      8.1220      4.6524     80.1391     19.3580      2.5732      0.0181
   657.4000      8.1220      4.0726     83.2158     19.0129      2.5828      0.0738
   657.5000      8.1243      4.5828     77.0624     18.8480      2.5744      0.0659
   657.6000      8.1243      5.6882     67.0285     18.9328      2.5561      0.0466
   657.7000      8.1243      6.7818     62.7015     19.0262      2.5381      0.0635
   657.8000      8.1240      8.5116     65.8748     19.0950      2.5096      0.0733
   657.9000      8.1240     11.1910     71.9112     19.2753      2.4653      0.0020
   658.0000      8.1337     13.4026     76.1146     19.3554      2.4289     -0.0284
   658.1000      8.1337     13.7999     77.0677     19.0167      2.4223     -0.0406
   658.2000      8.1337     13.0761     74.0702     18.2041      2.4342      0.0312
   658.3000      8.1509     12.6492     68.4225     17.1652      2.4413      0.0087
   658.4000      8.1509     12.4279     63.5102     16.3793      2.4449      0.0155
   658.5000      8.1612     12.2592     60.2218     16.3272      2.4477      0.0268
   658.6000      8.1612     12.8173     57.5974     16.9208      2.4385      0.0339
   658.7000      8.1612     14.0787     57.6547     17.3208      2.4177      0.0646
   658.8000      8.1646     15.0465     62.5948     17.0184      2.4017      0.0119
   658.9000      8.1646     14.9511     68.8536     16.4455      2.4033      0.0675
   659.0000      8.1623     14.1989     69.3487     15.9679      2.4157      0.0798
   659.1000      8.1623     13.6043     64.0717     15.5669      2.4255      0.0389
   659.2000      8.1623     13.2103     60.0310     15.1879      2.4320      0.0337
   659.3000      8.1467     12.5662     60.4939     14.9895      2.4427      0.0569
   659.4000      8.1467     11.7514     61.4077     15.3633      2.4561      0.0632
   659.5000      8.1444     11.2041     57.5941     16.1855      2.4651      0.0389
   659.6000      8.1444     11.2009     52.7630     16.8136      2.4652      0.0690
   659.7000      8.1444     11.4008     55.3264     17.1469      2.4619      0.0126
   659.8000      8.1494     10.9113     64.0400     17.8489      2.4700      0.0636
   659.9000      8.1494      9.4593     71.0741     19.0088      2.4939      0.0080
   660.0000      8.1453      7.3349     73.7767     19.8050      2.5290      0.0469
   660.1000      8.1453      4.8669     76.9004     20.1016      2.5697      0.0503
   660.2000      8.1453      2.6756     82.9982     20.4385      2.6059      0.1117
   660.3000      8.1378      1.9137     87.4514     20.7615      2.6184      0.1283
   660.4000      8.1378      3.0875     88.7979     20.9670      2.5991      0.0615
   660.5000      8.1481      5.4187     89.8819     21.4489      2.5606      0.0302
   660.6000      8.1481      7.8044     91.4112     22.2154      2.5212      0.0274
   660.7000      8.1481      9.4389     93.3845     22.5735      2.4943     -0.0127
   660.8000      8.1511      9.9050     96.1565     22.1660      2.4866      0.0060
   660.9000      8.1511      9.7268     99.9644     21.3853      2.4895      0.0398
   661.0000      8.1505      9.7905    101.2337     20.5975      2.4885      0.0361
   661.1000      8.1505     10.2185     96.2107     20.0511      2.4814      0.0137
   661.2000      8.1505     10.7617     91.9836     19.6954      2.4724      0.0122
   661.3000      8.1435     10.9015     94.0943     19.3609      2.4701     -0.0180
   661.4000      8.1435     10.3560     98.1870     19.2523      2.4791      0.0355
   661.5000      8.1348     10.1019    100.0404     19.3102      2.4833      0.0831
   661.6000      8.1348     10.6078     97.4447     19.2285      2.4750      0.0543
   661.7000      8.1348     10.7917     90.2076     19.1376      2.4719      0.0233
   661.8000      8.1458     10.2103     81.6730     19.2562      2.4815      0.0682
   661.9000      8.1458      9.8831     75.8427     19.3794      2.4869      0.1026
   662.0000      8.1378     10.4308     73.6646     19.2765      2.4779      0.0256
   662.1000      8.1378     10.9397     73.4248     19.1771      2.4695      0.0156
   662.2000      8.1378     10.4543     74.5965     19.1662      2.4775      0.0175
   662.3000      8.1328      9.3321     76.1691     19.0873      2.4960      0.0255
