~Version Information
VERS.                      2.0: CWLS Log ASCII Standard - VERSION 2.0
WRAP.                       NO: One line per depth step
~Well Information Block
STRT.FT               615.0000: 
STOP.FT              2807.0000: 
STEP.FT                 0.1000: 
NULL.                -999.2500: 
COMP.          Pioneer Natural Resources: COMPANY
WELL.              Loews 41-32: WELL
FLD.           Purgatoire River: FIELD
LOC.           751' FNL & 128' FEL: LOCATION
CNTY.               Las Animas: COUNTY
SRVC.                Patterson: SERVICE COMPANY
DATE.          Mon Feb 13 07:19:27 2006: LOG DATE
UWI.           05 071 08693 00: UNIQUE WELL ID
STAT.                 Colorado: STATE
~Curve Information Block
DEPT.FT            0 000 00 00: Depth
DCAL.in                       : CDL Caliper
RHOB.g/cc                     : CDL Bulk Density
RHOC.g/cc                     : CDL Density Correction
DPOR.pu                       : CDL Density Porosity
GR.GAPI                       : Gamma Ray
NPOR.pu                       : Neutron Porosity
~Parameter Information Block
~A  Depth       DCAL        RHOB        RHOC        DPOR         GR         NPOR    
# ...
  2362.2000      8.1309      2.5966      0.0475      3.2340    139.6374     23.8585
  2362.3000      8.1278      2.5848      0.0685      3.9545    130.8286     23.9442
  2362.4000      8.1278      2.5525     -0.0291      5.9105    118.9428     24.2235
  2362.5000      8.1218      2.5268     -0.0192      7.4655    112.7609     24.6128
  2362.6000      8.1218      2.5277      0.0045      7.4129    115.1656     24.5810
  2362.7000      8.1218      2.5417      0.0524      6.5614    116.2273     23.8547
  2362.8000      8.1226      2.5505     -0.0010      6.0274    110.1221     22.8330
  2362.9000      8.1226      2.5614      0.0195      5.3724    102.4604     22.2801
  2363.0000      8.1172      2.5760      0.0706      4.4875     97.3655     22.5052
  2363.1000      8.1172      2.5784      0.0523      4.3373     96.5783     22.8857
  2363.2000      8.1172      2.5692      0.0552      4.8948    103.6735     23.0155
  2363.3000      8.1150      2.5618      0.0197      5.3426    114.7804     23.2223
  2363.4000      8.1150      2.5623      0.0395      5.3152    121.0906     23.3242
  2363.5000      8.1243      2.5711      0.0166      4.7844    119.3797     22.9620
  2363.6000      8.1243      2.5879     -0.0024      3.7661    110.8842     22.5444
  2363.7000      8.1243      2.6034      0.0562      2.8229    102.7478     22.3453
  2363.8000      8.1515      2.5966      0.0878      3.2334    101.9827     22.3859
  2363.9000      8.1515      2.5639      0.0163      5.2179    106.2087     22.7084
  2364.0000      8.1519      2.5275     -0.0146      7.4238    108.9000     23.1074
  2364.1000      8.1519      2.5076     -0.0116      8.6299    111.3073     23.2551
  2364.2000      8.1519      2.5073      0.0007      8.6505    116.7127     22.7928
  2364.3000      8.1187      2.5202     -0.0253      7.8650    120.4251     22.1901
  2364.4000      8.1187      2.5434     -0.0261      6.4602    117.6062     22.3411
  2364.5000      8.1161      2.5640      0.0470      5.2107    108.9435     23.1861
  2364.6000      8.1161      2.5611      0.0729      5.3871     99.4662     24.1197
  2364.7000      8.1161      2.5508     -0.0356      6.0144     96.7691     24.4973
  2364.8000      8.1195      2.5646      0.0315      5.1747    102.0074     24.0274
  2364.9000      8.1195      2.5888      0.0951      3.7106    107.2879     23.4186
  2365.0000      8.1059      2.5996      0.0407      3.0546    107.7056     23.2763
  2365.1000      8.1059      2.6069      0.0049      2.6144    106.7888     23.2053
  2365.2000      8.1059      2.6169      0.0619      2.0069    102.7948     22.8409
  2365.3000      8.0992      2.6157      0.0747      2.0778     92.1341     22.6562
  2365.4000      8.0992      2.6032      0.0266      2.8382     82.3786     23.1035
  2365.5000      8.0995      2.5978      0.0283      3.1655     82.3712     23.8618
  2365.6000      8.0995      2.6001      0.0613      3.0236     89.7878     24.0266
  2365.7000      8.0995      2.5967      0.0427      3.2329     94.3294     23.4089
  2365.8000      8.1025      2.5912     -0.0013      3.5652     91.4245     22.6842
  2365.9000      8.1025      2.5949      0.0456      3.3378     85.4653     22.4573
  2366.0000      8.1045      2.6031      0.0627      2.8400     81.7537     22.7372
  2366.1000      8.1045      2.6060      0.0622      2.6657     83.2243     23.1209
  2366.2000      8.1045      2.5987      0.0204      3.1084     88.0810     23.3371
  2366.3000      8.1042      2.5813      0.0075      4.1612     89.2371     23.3830
  2366.4000      8.1042      2.5633     -0.0108      5.2533     83.5962     23.4764
  2366.5000      8.1066      2.5521      0.0279      5.9337     75.1324     23.6309
  2366.6000      8.1066      2.5401      0.0527      6.6625     69.5063     23.7189
  2366.7000      8.1066      2.5306     -0.0247      7.2349     71.9906     23.8692
  2366.8000      8.1081      2.5477     -0.0108      6.1973     81.7964     23.9512
  2366.9000      8.1081      2.5895      0.0364      3.6659     92.0654     23.7453
  2367.0000      8.1127      2.6198      0.0988      1.8295     97.0810     23.4431
  2367.1000      8.1127      2.6156      0.0913      2.0863     97.0177     23.3320
  2367.2000      8.1127      2.5911      0.0351      3.5689     94.0542     23.1395
  2367.3000      8.1158      2.5722      0.0198      4.7130     90.1787     22.6894
  2367.4000      8.1158      2.5678      0.0162      4.9827     91.9346     22.4711
  2367.5000      8.1161      2.5721      0.0253      4.7196     99.8853     22.7593
  2367.6000      8.1161      2.5778      0.0406      4.3760    105.6898     23.1590
  2367.7000      8.1161      2.5806      0.0201      4.2047    105.4371     23.3808
  2367.8000      8.1224      2.5816      0.0310      4.1447    100.2472     23.4051
  2367.9000      8.1224      2.5842      0.0374      3.9873     95.2144     23.1828
  2368.0000      8.1158      2.5858      0.0618      3.8891     93.8404     22.7364
  2368.1000      8.1158      2.5848      0.0024      3.9487     92.7926     22.2137
  2368.2000      8.1158      2.5868      0.0385      3.8307     88.2398     21.9043
  2368.3000      8.1141      2.5861      0.0584      3.8750     81.9761     21.7187
  2368.4000      8.1141      2.5740      0.0329      4.6040     79.4338     21.5858
  2368.5000      8.1142      2.5619      0.0084      5.3418     78.1603     21.8796
  2368.6000      8.1142      2.5655      0.0307      5.1235     74.1385     22.3849
  2368.7000      8.1142      2.5816      0.0290      4.1465     72.0751     22.4168
  2368.8000      8.1140      2.5888      0.0515      3.7070     72.1067     22.2093
  2368.9000      8.1140      2.5739      0.0088      4.6121     69.7335     22.6524
  2369.0000      8.1120      2.5542     -0.0179      5.8044     69.5800     23.5680
  2369.1000      8.1120      2.5497     -0.0327      6.0816     74.9157     23.7639
  2369.2000      8.1120      2.5561      0.0099      5.6885     79.7472     23.0035
  2369.3000      8.1136      2.5647      0.0250      5.1672     80.9860     22.3745
  2369.4000      8.1136      2.5747      0.0367      4.5610     81.2953     22.5142
  2369.5000      8.1153      2.5873      0.0184      3.8021     81.2903     22.9649
  2369.6000      8.1153      2.6000      0.0489      3.0308     78.4429     23.0616
  2369.7000      8.1153      2.6008      0.0416      2.9794     72.5795     22.7074
  2369.8000      8.1148      2.5859      0.0405      3.8871     68.8337     22.3884
  2369.9000      8.1148      2.5695      0.0333      4.8816     70.0102     22.4422
  2370.0000      8.1164      2.5633      0.0247      5.2566     73.1217     22.5157
  2370.1000      8.1164      2.5716     -0.0065      4.7507     75.5033     22.5068
  2370.2000      8.1164      2.5921      0.0140      3.5091     78.6781     23.0969
  2370.3000      8.1108      2.6071      0.0631      2.5994     83.7767     23.9352
  2370.4000      8.1108      2.5975      0.0638      3.1834     88.4159     24.1234
  2370.5000      8.1212      2.5733      0.0381      4.6491     90.3659     23.7430
  2370.6000      8.1212      2.5639      0.0166      5.2200     88.2232     23.0111
  2370.7000      8.1212      2.5749      0.0314      4.5489     83.7187     22.3401
  2370.8000      8.1238      2.5840      0.0617      4.0029     81.5213     22.3030
  2370.9000      8.1238      2.5812      0.0181      4.1673     81.1279     22.6699
  2371.0000      8.1252      2.5766      0.0519      4.4510     79.1441     22.9625
  2371.1000      8.1252      2.5683      0.0377      4.9520     75.7532     23.1009
  2371.2000      8.1252      2.5547      0.0455      5.7772     73.2832     23.2130
  2371.3000      8.1224      2.5405      0.0267      6.6366     71.9629     23.5434
  2371.4000      8.1224      2.5268      0.0400      7.4639     71.8007     23.8820
  2371.5000      8.1206      2.5221     -0.0340      7.7499     73.6043     23.8975
  2371.6000      8.1206      2.5370     -0.0155      6.8499     74.6791     23.9128
  2371.7000      8.1206      2.5618      0.0266      5.3450     71.9613     24.2958
