~Version Information
VERS.                      2.0: CWLS Log ASCII Standard - VERSION 2.0
WRAP.                       NO: One line per depth step
~Well Information Block
STRT.FT               -16.2500: 
STOP.FT               938.7500: 
STEP.FT                 0.2500: 
NULL.                -999.2500: 
COMP.          XTO Energy Inc.: COMPANY
WELL.          Golden Eagle 20-04: WELL
FLD.           Purgatrorie River: FIELD
LOC.           702' FNL & 487' FWL--: LOCATION
STAT.                       CO: PROVINCE
CNTY.               Las Animas: COUNTY
CTRY. USA : Country
SECT. 20 : Section 
TOWN. 33S : Township
RANG. 67W : Range
SRVC.          Patterson Wireline: SERVICE COMPANY
DATE.          Mon Dec 05 10:32:54 2005: LOG DATE
API.           05 071 08599 00: UNIQUE WELL ID
~Curve Information Block
DEPT.FT            0 000 00 00: Depth
CCL.                          : Casing Collar Locator
TT3.usec                      : CBL 3' Travel Time
AMP3.mV                       : CBL 3' Amplitude
GR.GAPI                       : Gamma Ray
~Parameter Information Block
~A  Depth       CCL         TT3         AMP3         GR     
# ...
   553.2500      0.0000    558.9182      8.5331     91.5380
   553.5000      0.0000    547.5418      8.6856     91.1450
   553.7500      0.0000    534.5276      8.8066     90.6711
   554.0000      0.0000    525.7765      8.8475     90.0734
   554.2500      0.0000    522.9553      8.7941     88.9026
   554.5000      0.0000    524.2198      8.6741     86.8583
   554.7500      0.0000    527.1504      8.5395     84.4528
   555.0000      0.0000    531.0016      8.4394     82.7180
   555.2500      0.0000    536.8938      8.4016     82.0946
   555.5000      0.0000    546.6313      8.4261     81.8741
   555.7500      0.0000    561.3719      8.4906     81.0165
   556.0000      0.0000    580.6422      8.5641     79.2738
   556.2500      0.0000    602.1680      8.6229     77.1689
   556.5000      0.0000    622.6157      8.6579     75.2598
   556.7500      0.0000    638.4408      8.6708     73.9778
   557.0000      0.0000    647.0746      8.6640     73.8264
   557.2500      0.0000    648.7338      8.6393     75.1820
   557.5000      0.0000    646.6942      8.6023     78.0899
   557.7500      0.0000    644.8560      8.5630     82.3641
   558.0000      0.0000    645.7001      8.5323     87.3968
   558.2500      0.0000    650.4213      8.5171     91.8323
   558.5000      0.0000    658.6853      8.5191     94.0402
   558.7500      0.0000    667.4643      8.5312     93.1713
   559.0000      0.0000    671.4841      8.5394     89.6438
   559.2500      0.0000    665.5018      8.5284     84.7233
   559.5000      0.0000    646.7848      8.4892     79.7609
   559.7500      0.0000    617.6038      8.4166     75.5869
   560.0000      0.0000    586.5025      8.3039     72.3524
   560.2500      0.0000    565.2748      8.1433     69.8831
   560.5000      0.0000    561.7911      7.9334     68.0403
   560.7500      0.0000    573.9804      7.6765     66.5757
   561.0000      0.0000    590.3544      7.3678     64.9781
   561.2500      0.0000    597.4337      6.9984     63.0651
   561.5000      0.0000    588.6563      6.5827     61.4971
   561.7500      0.0000    567.6463      6.1801     61.1320
   562.0000      0.0000    543.8268      5.8779     62.1232
   562.2500      0.0000    525.3939      5.7467     64.0745
   562.5000      0.0000    515.9256      5.8052     66.4445
   562.7500      0.0000    516.0620      6.0194     68.3842
   563.0000      0.0000    526.5515      6.3257     68.9438
   563.2500      0.0000    548.4805      6.6612     67.9242
   563.5000      0.0000    580.1855      6.9803     66.1781
   563.7500      0.0000    614.7065      7.2521     65.0382
   564.0000      0.0000    641.7503      7.4535     65.5275
   564.2500      0.0000    653.1420      7.5692     67.6617
   564.5000      0.0000    647.5598      7.5926     70.2874
   564.7500      0.0000    631.9179      7.5250     71.8916
   565.0000      0.0000    618.2441      7.3763     71.7578
   565.2500      0.0000    616.0966      7.1679     70.3228
   565.5000      0.0000    625.8315      6.9299     68.6279
   565.7500      0.0000    639.9733      6.6923     67.6032
   566.0000      0.0000    651.0503      6.4751     67.8636
   566.2500      0.0000    656.6877      6.2795     70.0274
   566.5000      0.0000    658.3072      6.0919     74.7453
   566.7500      0.0000    658.1542      5.9033     81.8099
   567.0000      0.0000    658.2167      5.7286     89.4132
   567.2500      0.0000    659.8225      5.5969     95.1076
   567.5000      0.0000    662.7471      5.5186     97.6555
   567.7500      0.0000    665.0953      5.4704     97.6292
   568.0000      0.0000    664.9093      5.4140     96.6977
   568.2500      0.0000    662.0816      5.3212     96.8728
   568.5000      0.0000    658.4844      5.1881     99.6980
   568.7500      0.0000    656.2635      5.0413    105.2353
   569.0000      0.0000    656.1551      4.9337    111.9261
   569.2500      0.0000    657.1827      4.9206    117.7444
   569.5000      0.0000    657.6778      5.0292    121.3585
   569.7500      0.0000    656.6987      5.2461    122.3540
   570.0000      0.0000    654.6525      5.5235    121.0238
   570.2500      0.0000    652.6731      5.7940    118.1888
   570.5000      0.0000    651.6624      5.9958    114.9039
   570.7500      0.0000    652.0101      6.1049    112.2529
   571.0000      0.0000    653.7748      6.1415    111.5098
   571.2500      0.0000    656.6313      6.1445    113.9670
   571.5000      0.0000    659.6827      6.1430    119.7840
   571.7500      0.0000    661.8474      6.1480    126.9935
   572.0000      0.0000    662.7516      6.1580    132.4139
   572.2500      0.0000    662.9391      6.1645    134.0103
   572.5000      0.0000    662.9263      6.1582    132.1129
   572.7500      0.0000    662.4466      6.1360    128.3283
   573.0000      0.0000    661.0302      6.1047    123.8465
   573.2500      0.0000    658.9306      6.0769    118.9954
   573.5000      0.0000    656.9679      6.0642    113.8885
   573.7500      0.0000    655.6534      6.0698    109.0852
   574.0000      0.0000    654.8453      6.0873    105.4322
   574.2500      0.0000    654.1518      6.1039    103.1016
   574.5000      0.0000    653.3842      6.1063    101.0735
   574.7500      0.0000    652.6372      6.0851     98.1921
   575.0000      0.0000    652.1187      6.0363     94.6403
   575.2500      0.0000    652.0205      5.9620     91.7604
   575.5000      0.0000    652.5212      5.8694     90.5432
   575.7500      0.0000    653.8879      5.7686     90.9128
   576.0000      0.0000    656.4412      5.6699     92.3556
   576.2500      0.0000    660.1346      5.5815     94.5510
   576.5000      0.0000    663.8116      5.5116     97.1556
   576.7500      0.0000    665.1572      5.4724     99.3342
   577.0000      0.0000    662.3132      5.4812     99.9705
   577.2500      0.0000    655.8530      5.5536     98.4292
   577.5000      0.0000    648.1888      5.6928     94.8278
   577.7500      0.0000    640.8434      5.8788     89.5717
   578.0000      0.0000    634.0594      6.0648     83.1922
   578.2500      0.0000    629.5255      6.1804     76.7758
   578.5000      0.0000    630.7922      6.1477     71.8679
   578.7500      0.0000    639.3956      5.9155     69.4981
   579.0000      0.0000    652.4175      5.4950     69.5911
   579.2500      0.0000    665.1164      4.9677     71.4560
   579.5000      0.0000    674.6375      4.4480     74.5793
   579.7500      0.0000    680.6562      4.0185     79.0047
   580.0000      0.0000    683.9633      3.6882     85.2936
   580.2500      0.0000    685.4621      3.4080     93.8821
   580.5000      0.0000    685.9189      3.1271    104.0100
   580.7500      0.0000    685.8992      2.8378    113.4907
   581.0000      0.0000    685.7097      2.5719    120.0402
   581.2500      0.0000    685.4417      2.3648    122.9180
   581.5000      0.0000    685.0926      2.2275    123.1050
   581.7500      0.0000    684.6678      2.1495    121.9952
   582.0000      0.0000    684.2030      2.1201    120.3130
   582.2500      0.0000    683.7120      2.1375    118.4154
   582.5000      0.0000    683.1009      2.2012    117.1902
   582.7500      0.0000    682.0428      2.3071    117.9662
   583.0000      0.0000    679.9196      2.4588    121.1573
   583.2500      0.0000    676.0936      2.6769    125.1669
   583.5000      0.0000    670.5744      2.9857    127.1622
   583.7500      0.0000    664.5082      3.3899    125.2940
   584.0000      0.0000    659.8182      3.8701    120.2448
   584.2500      0.0000    658.1899      4.3922    114.7114
   584.5000      0.0000    660.2166      4.9057    111.4625
   584.7500      0.0000    665.0659      5.3447    111.6924
   585.0000      0.0000    670.6125      5.6531    114.7775
   585.2500      0.0000    674.1880      5.8212    119.0890
   585.5000      0.0000    673.8837      5.8892    122.8489
   585.7500      0.0000    669.6315      5.9090    124.8167
   586.0000      0.0000    663.2255      5.8980    125.0071
   586.2500      0.0000    657.2232      5.8310    124.7730
   586.5000      0.0000    653.6447      5.6769    125.5151
