~Version Information
VERS.                      2.0: CWLS Log ASCII Standard - VERSION 2.0
WRAP.                       NO: One line per depth step
~Well Information Block
STRT.FT               260.0000: 
STOP.FT              1229.5000: 
STEP.FT                 0.1000: 
NULL.                -999.2500: 
COMP.          Pioneer Natural Resources: COMPANY
WELL.             Mahalo 12-20: WELL
FLD.           Purgatoire River: FIELD
LOC.           1689' FNL & 479' FWL: LOCATION
CNTY.               Las Animas: COUNTY
SRVC.                Patterson: SERVICE COMPANY
DATE.          Mon Feb 27 07:00:19 2006: LOG DATE
UWI.           05 071 08700 00: UNIQUE WELL ID
STAT.                 Colorado: STATE
~Curve Information Block
DEPT.FT            0 000 00 00: Depth
DCAL.in                       : CDL Caliper
RHOB.g/cc                     : CDL Bulk Density
RHOC.g/cc                     : CDL Density Correction
DPOR.pu                       : CDL Density Porosity
GR.GAPI                       : Gamma Ray
NPOR.pu                       : Neutron Porosity
~Parameter Information Block
~A  Depth       DCAL        RHOB        RHOC        DPOR         GR         NPOR    
# ...
   711.2000      7.9647      2.5776      0.1712      4.3864    158.7925     20.7339
   711.3000      7.9537      2.5453      0.1048      6.3428    159.7393     21.3735
   711.4000      7.9537      2.5136      0.1025      8.2636    157.7127     21.9573
   711.5000      7.9614      2.4983      0.0907      9.1940    157.9382     22.2564
   711.6000      7.9614      2.5012      0.0822      9.0189    159.9768     22.2382
   711.7000      7.9614      2.5140      0.1058      8.2439    160.8729     21.8219
   711.8000      7.9971      2.5252      0.0829      7.5617    162.6053     20.9422
   711.9000      7.9971      2.5382      0.0550      6.7766    163.0207     20.3209
   712.0000      8.0032      2.5579      0.1277      5.5812    157.0213     20.9512
   712.1000      8.0032      2.5682      0.1462      4.9594    149.4041     22.7008
   712.2000      8.0032      2.5581      0.1028      5.5678    146.7408     24.2331
   712.3000      8.0039      2.5398      0.1279      6.6766    150.7849     24.2980
   712.4000      8.0039      2.5167      0.1283      8.0791    156.7490     23.0450
   712.5000      8.0031      2.4787      0.0752     10.3824    155.1105     22.1507
   712.6000      8.0031      2.4201      0.0510     13.9344    144.6384     22.8076
   712.7000      8.0031      2.3436      0.0147     18.5672    135.4751     24.4231
   712.8000      8.0039      2.2619      0.0179     23.5203    132.9839     25.5859
   712.9000      8.0039      2.1899      0.0103     27.8856    133.4214     25.6166
   713.0000      8.0062      2.1366     -0.0359     31.1161    134.4693     25.0099
   713.1000      8.0062      2.1056     -0.0564     32.9932    136.0138     24.3158
   713.2000      8.0062      2.0934     -0.0142     33.7332    137.3423     23.4616
   713.3000      8.0080      2.0939     -0.0210     33.7035    138.4651     22.7438
   713.4000      8.0080      2.1086      0.0483     32.8106    137.4239     22.9111
   713.5000      8.0259      2.1479      0.0707     30.4312    132.8974     23.8863
   713.6000      8.0259      2.2139      0.1554     26.4319    127.6976     24.9778
   713.7000      8.0259      2.2740      0.2646     22.7906    124.0797     25.7047
   713.8000      8.0309      2.2907      0.1384     21.7765    123.7471     25.9463
   713.9000      8.0309      2.2659      0.1003     23.2806    129.2315     26.3045
   714.0000      7.9652      2.2140      0.0538     26.4243    137.2861     27.0085
   714.1000      7.9652      2.1421     -0.0180     30.7838    140.0099     27.5687
   714.2000      7.9652      2.0568     -0.0201     35.9537    136.3429     28.1810
   714.3000      7.9562      1.9689     -0.0877     41.2760    131.7881     29.2596
   714.4000      7.9562      1.8972     -0.0970     45.6239    129.5629     30.2188
   714.5000      7.9738      1.8535     -0.0826     48.2748    127.9636     30.0191
   714.6000      7.9738      1.8434     -0.0945     48.8868    127.6825     28.7558
   714.7000      7.9738      1.8666      0.0136     47.4791    134.6703     27.6067
   714.8000      7.9863      1.9052      0.0626     45.1385    144.0706     27.1996
   714.9000      7.9863      1.9511     -0.0119     42.3585    144.8141     27.3763
   715.0000      7.9781      2.0197      0.1057     38.2028    140.3481     27.8547
   715.1000      7.9781      2.1205      0.1461     32.0927    138.6135     28.7485
   715.2000      7.9781      2.2365      0.2073     25.0615    139.6991     29.8782
   715.3000      7.8923      2.3333      0.1762     19.1916    140.7017     30.3151
   715.4000      7.8923      2.3952      0.1482     15.4429    141.3251     29.6644
   715.5000      7.8675      2.4301      0.0622     13.3278    143.2733     28.5537
   715.6000      7.8675      2.4515      0.0206     12.0309    145.7764     27.2515
   715.7000      7.8675      2.4705      0.0214     10.8773    144.0168     26.0004
   715.8000      7.8634      2.4837      0.0655     10.0810    134.3908     25.8633
   715.9000      7.8634      2.4753      0.0397     10.5852    123.7023     26.8038
   716.0000      7.8631      2.4451      0.0396     12.4169    121.4024     27.4758
   716.1000      7.8631      2.4085     -0.0045     14.6336    126.0122     27.1117
   716.2000      7.8631      2.3767     -0.0062     16.5644    143.8510     25.9054
   716.3000      7.8639      2.3541     -0.0351     17.9319    144.8091     24.3142
   716.4000      7.8639      2.3443     -0.0590     18.5248    140.8432     22.8605
   716.5000      7.8668      2.3499     -0.0327     18.1885    133.1015     22.1627
   716.6000      7.8668      2.3728     -0.0336     16.7995    125.4788     22.2017
   716.7000      7.8668      2.4117      0.0339     14.4424    121.5969     22.3499
   716.8000      7.8623      2.4558      0.0359     11.7702    119.5887     22.2392
   716.9000      7.8623      2.4886      0.1132      9.7797    119.3562     22.2505
   717.0000      7.8614      2.5017      0.0626      8.9907    123.5279     22.8441
   717.1000      7.8614      2.5055      0.0593      8.7585    127.3235     23.7505
   717.2000      7.8614      2.5128      0.0644      8.3122    135.8001     24.6043
   717.3000      7.8534      2.5221      0.0874      7.7519    124.5320     25.3261
   717.4000      7.8534      2.5248      0.0847      7.5904    109.4203     25.3260
   717.5000      7.8559      2.5158      0.1199      8.1336     99.4004     24.0012
   717.6000      7.8559      2.4954      0.0898      9.3722     99.3835     22.2487
   717.7000      7.8559      2.4723      0.0782     10.7712    106.5445     21.8457
   717.8000      7.8564      2.4498      0.0808     12.1307    116.0028     23.4201
   717.9000      7.8564      2.4175      0.0669     14.0923    122.3517     25.5785
   718.0000      7.8662      2.3726      0.0227     16.8145    122.3693     26.4465
   718.1000      7.8662      2.3277      0.0148     19.5340    121.7495     26.0403
   718.2000      7.8662      2.2894      0.0258     21.8565    143.1951     26.0066
   718.3000      7.8699      2.2541      0.0153     23.9959    167.6415     26.9090
   718.4000      7.8699      2.2247     -0.0134     25.7733    185.9019     27.6765
   718.5000      7.8688      2.2112      0.0022     26.5968    185.4206     27.7288
   718.6000      7.8688      2.2116     -0.0081     26.5707    177.6670     27.3737
   718.7000      7.8688      2.1994      0.0247     27.3104    175.8568     27.1876
   718.8000      7.8676      2.1564     -0.0626     29.9163    179.1098     27.5610
   718.9000      7.8676      2.1057     -0.0410     32.9891    180.9267     28.2275
   719.0000      7.8719      2.0753     -0.0556     34.8287    180.7767     29.0257
   719.1000      7.8719      2.0664     -0.0084     35.3671    181.2322     29.8703
   719.2000      7.8719      2.0650     -0.0190     35.4519    194.6060     30.2346
   719.3000      7.8700      2.0573      0.0216     35.9226    186.8026     29.6879
   719.4000      7.8700      2.0365     -0.0091     37.1824    172.9865     28.7438
   719.5000      7.8703      2.0144     -0.0294     38.5214    163.1175     28.3730
   719.6000      7.8703      2.0113     -0.0438     38.7063    158.4494     28.9372
   719.7000      7.8703      2.0331     -0.0014     37.3876    158.6138     30.2117
   719.8000      7.8727      2.0714      0.0225     35.0645    168.8580     31.3796
   719.9000      7.8727      2.1166      0.0686     32.3260    176.4474     31.2939
   720.0000      7.8732      2.1609      0.1179     29.6409    164.3499     29.8904
   720.1000      7.8732      2.2046      0.0940     26.9914    144.0495     28.6239
   720.2000      7.8732      2.2534      0.0782     24.0355    133.9751     28.1924
   720.3000      7.8654      2.3031      0.0719     21.0226    135.2491     28.1509
   720.4000      7.8654      2.3472      0.0565     18.3526    142.8835     28.4766
   720.5000      7.8693      2.3868      0.0863     15.9537    153.4887     29.0121
   720.6000      7.8693      2.4208      0.1010     13.8912    162.6118     29.0794
   720.7000      7.8693      2.4484      0.0918     12.2174    168.8222     28.3360
