~Version Information
VERS.                      2.0: CWLS Log ASCII Standard - VERSION 2.0
WRAP.                       NO: One line per depth step
~Well Information Block
STRT.FT                -9.0000: 
STOP.FT              1754.0000: 
STEP.FT                 0.2500: 
NULL.                -999.2500: 
COMP.          Pioneer Natural Resources: COMPANY
WELL.          Touchstone 11-32 Tr: WELL
FLD.           Purgatorie River: FIELD
LOC.           782' FNL & 840' FWL--: LOCATION
CNTY.               Las Animas: COUNTY
SRVC.          Patterson Wireline: SERVICE COMPANY
DATE.          Mon Mar 06 09:18:09 2006: LOG DATE
UWI.           05 071 08626 00: UNIQUE WELL ID
STAT.                       CO: STATE
~Curve Information Block
DEPT.FT            0 000 00 00: Depth
CCL.                          : Casing Collar Locator
TT3.usec                      : CBL 3' Travel Time
AMP3.mV                       : CBL 3' Amplitude
GR.GAPI                       : Gamma Ray
~Parameter Information Block
~A  Depth       CCL         TT3         AMP3         GR     
    -9.0000   -999.2500   -999.2500   -999.2500     62.4631
    -8.7500   -999.2500   -999.2500   -999.2500     58.7782
    -8.5000   -999.2500   -999.2500   -999.2500     56.9293
    -8.2500   -999.2500   -999.2500   -999.2500     56.5200
    -8.0000   -999.2500   -999.2500   -999.2500     56.7986
    -7.7500   -999.2500   -999.2500   -999.2500     57.5086
    -7.5000   -999.2500   -999.2500   -999.2500     59.1174
    -7.2500   -999.2500   -999.2500   -999.2500     62.1448
    -7.0000   -999.2500   -999.2500   -999.2500     66.2642
    -6.7500   -999.2500   -999.2500   -999.2500     70.2690
    -6.5000   -999.2500   -999.2500   -999.2500     72.8230
    -6.2500   -999.2500   -999.2500   -999.2500     73.1274
    -6.0000   -999.2500   -999.2500   -999.2500     71.3149
    -5.7500   -999.2500   -999.2500   -999.2500     68.5484
    -5.5000   -999.2500   -999.2500   -999.2500     66.3754
    -5.2500   -999.2500   -999.2500   -999.2500     65.5644
    -5.0000   -999.2500   -999.2500   -999.2500     65.5084
    -4.7500   -999.2500   -999.2500   -999.2500     64.8022
    -4.5000   -999.2500   -999.2500   -999.2500     62.5347
    -4.2500   -999.2500   -999.2500   -999.2500     59.2383
    -4.0000   -999.2500   1161.0000      1.5065     56.6121
    -3.7500   -999.2500   1161.0000      1.5103     56.2689
    -3.5000   -999.2500   1161.0000      1.5113     58.6232
    -3.2500   -999.2500   1161.0000      1.5099     62.5321
    -3.0000   -999.2500   1161.0000      1.5075     65.6619
    -2.7500   -999.2500   1161.0000      1.5045     65.6409
    -2.5000   -999.2500   1161.0000      1.4993     61.5998
    -2.2500   -999.2500   1161.0000      1.4916     54.8495
    -2.0000   -999.2500   1161.0000      1.4846     47.9393
    -1.7500   -999.2500   1161.0000      1.4830     42.9049
    -1.5000   -999.2500   1161.0000      1.4878     40.1615
    -1.2500   -999.2500   1161.0000      1.4953     38.6682
    -1.0000   -999.2500   1161.0000      1.5014     36.9972
    -0.7500   -999.2500   1161.0000      1.5049     34.5132
    -0.5000   -999.2500   1161.0000      1.5064     31.7719
    -0.2500   -999.2500   1161.0000      1.5061     29.6782
     0.0000   -999.2500   1161.0000      1.5016     26.8980
     0.2500   -999.2500   1161.0000      1.5020     25.2800
     0.5000   -999.2500   1161.0000      1.5072     24.4507
     0.7500   -999.2500   1161.0000      1.5168     25.6936
     1.0000   -999.2500   1161.0000      1.5274     29.2560
     1.2500      0.0000   1161.0000      1.5353     34.2238
     1.5000      0.0000   1161.0000      1.5388     39.4270
     1.7500      0.0000   1161.0000      1.5389     44.1655
     2.0000      0.0000   1161.0000      1.5363     48.2034
     2.2500      0.0000   1161.0000      1.5303     51.4427
     2.5000      0.0000   1161.0000      1.5211     53.6786
     2.7500      0.0000   1161.0000      1.5114     54.5600
     3.0000      0.0000   1161.0000      1.5052     53.9673
     3.2500      0.0000   1161.0000      1.5047     52.5534
     3.5000      0.0000   1161.0000      1.5089     51.5487
     3.7500      0.0000   1161.0000      1.5145     51.7340
     4.0000      0.0000   1161.0000      1.5187     52.7562
     4.2500      0.0000   1161.0000      1.5204     53.6478
     4.5000      0.0000   1161.0000      1.5206     53.8879
     4.7500      0.0000   1161.0000      1.5216     53.7656
     5.0000      0.0000   1161.0000      1.5251     53.7534
     5.2500      0.0000   1161.0000      1.5310     53.7972
     5.5000      0.0000   1161.0000      1.5372     53.4392
     5.7500      0.0000   1161.0000      1.5417     52.4690
     6.0000      0.0000   1161.0000      1.5438     51.1838
     6.2500      0.0000   1160.9772      1.5453     50.1091
     6.5000      0.0000   1160.7932      1.5522     49.7233
     6.7500      0.0000   1159.8062      1.5824     50.4270
     7.0000      0.0000   1155.6403      1.7034     52.5129
     7.2500      0.0000   1141.7665      2.1443     55.9321
     7.5000      0.0000   1105.2493      3.5025     60.0010
     7.7500      0.0000   1029.1870      6.9053     63.4427
     8.0000      0.0000    903.6866     13.7374     65.0135
     8.2500      0.0000    739.5515     24.6662     64.4537
     8.5000      0.0000    569.3557     38.5558     62.8921
     8.7500      0.0000    429.4441     52.5609     62.0033
     9.0000      0.0000    338.2883     63.7650     62.4575
     9.2500      0.0000    291.2372     70.9054     63.2590
     9.5000      0.0000    272.0026     74.5917     62.8157
     9.7500      0.0000    265.7727     76.2179     60.6013
    10.0000      0.0000    264.1691     76.9115     57.7232
    10.2500      0.0000    263.8358     77.2360     56.0786
    10.5000      0.0000    263.7782     77.3887     56.9160
    10.7500      0.0000    263.7707     77.4395     59.8079
    11.0000      0.0000    263.7690     77.4451     62.9101
    11.2500      0.0000    263.7716     77.4598     64.4781
    11.5000      0.0000    263.7796     77.4940     64.1958
    11.7500      0.0000    263.7987     77.4492     62.9864
    12.0000      0.0000    263.8495     77.0609     61.8671
    12.2500      0.0000    263.9849     75.9044     61.3614
    12.5000      0.0000    264.3026     73.5839     61.7404
    12.7500      0.0000    264.9258     70.0999     63.1963
    13.0000      0.0000    265.9351     66.0319     65.4859
    13.2500      0.0000    267.2852     62.1778     67.6802
    13.5000      0.0000    268.7815     58.9852     68.6564
    13.7500      0.0000    270.1581     56.4634     67.9505
    14.0000      0.0000    271.2132     54.5303     66.0660
    14.2500      0.0000    271.8960     53.1879     63.9954
    14.5000      0.0000    272.3129     52.3975     62.6854
    14.7500      0.0000    272.6979     52.0038     62.9746
    15.0000     -2.0000    273.3874     51.8186     65.5448
    15.2500      2.0000    274.6866     51.7772     70.3928
    15.5000      0.0000    276.4967     52.0568     76.4116
    15.7500      0.0000    277.9836     53.0037     82.0916
    16.0000      0.0000    277.9373     54.8552     87.0267
    16.2500      0.0000    275.8238     57.5882     92.3793
    16.5000      0.0000    272.3858     61.0950     99.3632
    16.7500      0.0000    268.9966     65.2436    107.3463
    17.0000      0.0000    266.5738     69.5985    113.6887
    17.2500      0.0000    265.2204     73.3839    115.5910
    17.5000      0.0000    264.5992     75.9815    112.4122
    17.7500      0.0000    264.3567     77.3363    106.3912
    18.0000      0.0000    264.2751     77.8217    100.8975
    18.2500      0.0000    264.2512     77.8720     97.8628
    18.5000      0.0000    264.2449     77.7803     96.9592
    18.7500      0.0000    264.2417     77.6912     96.8899
    19.0000      0.0000    264.2378     77.6517     96.8744
    19.2500      0.0000    264.2320     77.6664     96.8800
    19.5000      0.0000    264.2227     77.7270     96.9735
    19.7500      0.0000    264.2093     77.8228     96.8680
    20.0000      0.0000    264.1931     77.9371     96.1235
    20.2500      0.0000    264.1781     78.0464     94.4914
    20.5000      0.0000    264.1681     78.1293     91.7881
    20.7500      0.0000    264.1644     78.1783     87.7543
    21.0000      0.0000    264.1658     78.1989     82.4969
    21.2500      0.0000    264.1696     78.1992     76.8576
    21.5000      0.0000    264.1733     78.1845     71.8737
    21.7500      0.0000    264.1755     78.1622     67.8986
    22.0000      0.0000    264.1755     78.1434     64.5450
    22.2500      0.0000    264.1726     78.1368     61.4563
    22.5000      0.0000    264.1668     78.1418     58.8590
    22.7500      0.0000    264.1587     78.1472     57.3017
    23.0000      0.0000    264.1505     78.1348     56.9881
    23.2500      0.0000    264.1447     78.0863     57.3767
    23.5000      0.0000    264.1418     77.9929     57.4854
    23.7500      0.0000    264.1406     77.8623     56.7658
    24.0000      0.0000    264.1393     77.7213     55.6253
    24.2500      0.0000    264.1370     77.6104     54.8352
