~Version Information
VERS.                      2.0: CWLS Log ASCII Standard - VERSION 2.0
WRAP.                       NO: One line per depth step
~Well Information Block
STRT.FT               485.0000: 
STOP.FT              1030.5000: 
STEP.FT                 0.1000: 
NULL.                -999.2500: 
COMP.          Pioneer Natural Resources: COMPANY
WELL.          Red Raider 22-15: WELL
FLD.           Purgatoire River: FIELD
LOC.           1809' FNL & 2107' FWL: LOCATION
CNTY.               Las Animas: COUNTY
SRVC.                Patterson: SERVICE COMPANY
DATE.          Tue Apr 11 10:06:17 2006: LOG DATE
UWI.           05 071 08718 00: UNIQUE WELL ID
STAT.                 Colorado: STATE
~Curve Information Block
DEPT.FT            0 000 00 00: Depth
DCAL.in                       : CDL Caliper
RHOB.g/cc                     : CDL Bulk Density
RHOC.g/cc                     : CDL Density Correction
DPOR.pu                       : CDL Density Porosity
GR.GAPI                       : Gamma Ray
NPOR.pu                       : Neutron Porosity
~Parameter Information Block
~A  Depth       DCAL        RHOB        RHOC        DPOR         GR         NPOR    
# ...
   878.6000      7.8921      2.6462      0.1598      0.2297     71.0034     21.4766
   878.7000      7.8921      2.6154      0.1283      2.0951     67.7313     21.6317
   878.8000      7.9062      2.5964      0.0778      3.2456     63.3885     21.7129
   878.9000      7.9062      2.6000      0.0736      3.0285     60.3138     21.5334
   879.0000      7.9160      2.6090      0.0962      2.4877     57.6991     21.0313
   879.1000      7.9160      2.6087      0.0623      2.5041     56.2577     20.7510
   879.2000      7.9160      2.6131      0.0858      2.2381     58.4773     21.3357
   879.3000      7.9193      2.6296      0.0915      1.2357     62.5648     22.3645
   879.4000      7.9193      2.6373      0.1330      0.7724     65.4911     22.6678
   879.5000      7.9185      2.6204      0.0662      1.7937     66.3741     22.2341
   879.6000      7.9185      2.5966      0.0719      3.2374     64.7312     21.9547
   879.7000      7.9185      2.5857      0.0754      3.8962     61.9813     21.7643
   879.8000      7.9174      2.5808      0.0637      4.1925     60.3453     21.3084
   879.9000      7.9174      2.5652      0.0535      5.1421     59.3098     20.8994
   880.0000      7.9206      2.5370      0.0414      6.8471     58.9093     20.8876
   880.1000      7.9206      2.5164     -0.0149      8.0972     60.8445     21.1706
   880.2000      7.9206      2.5256     -0.0125      7.5413     62.8697     21.3894
   880.3000      7.9261      2.5581      0.0484      5.5720     62.3202     21.4560
   880.4000      7.9261      2.5811      0.0650      4.1780     62.7282     21.4967
   880.5000      7.9281      2.5769      0.0278      4.4307     63.6064     21.3753
   880.6000      7.9281      2.5653      0.0087      5.1332     59.8266     20.9668
   880.7000      7.9281      2.5659      0.0752      5.0948     53.6754     20.5028
   880.8000      7.9278      2.5710      0.0383      4.7901     51.3946     20.1280
   880.9000      7.9278      2.5730      0.0016      4.6658     55.3960     20.2908
   881.0000      7.9281      2.5744      0.0386      4.5800     62.1414     20.9856
   881.1000      7.9281      2.5744      0.0216      4.5798     62.7548     21.2162
   881.2000      7.9281      2.5740      0.0768      4.6091     58.2081     20.7877
   881.3000      7.9285      2.5747      0.0478      4.5636     57.4014     20.5301
   881.4000      7.9285      2.5778      0.0566      4.3730     60.5866     20.7931
   881.5000      7.9280      2.5855      0.0293      3.9121     65.5939     21.2110
   881.6000      7.9280      2.5995      0.0629      3.0621     70.1555     21.2515
   881.7000      7.9280      2.6202      0.0359      1.8090     69.5933     20.9139
   881.8000      7.9252      2.6342      0.1132      0.9569     66.3117     20.5306
   881.9000      7.9252      2.6211      0.0738      1.7506     65.7210     20.0917
   882.0000      7.9206      2.5873      0.0415      3.7996     66.1509     19.6497
   882.1000      7.9206      2.5582      0.0309      5.5643     62.6322     19.7668
   882.2000      7.9206      2.5506     -0.0240      6.0268     56.8156     20.5007
   882.3000      7.9191      2.5618      0.0418      5.3448     56.2087     20.9371
   882.4000      7.9191      2.5701      0.0383      4.8408     63.4886     20.3750
   882.5000      7.9215      2.5661      0.0385      5.0860     73.1468     19.3469
   882.6000      7.9215      2.5653     -0.0092      5.1361     78.9585     18.8129
   882.7000      7.9215      2.5665      0.0812      5.0607     76.0745     18.9121
   882.8000      7.9244      2.5489      0.0112      6.1284     66.2717     19.4211
   882.9000      7.9244      2.5210      0.0028      7.8158     58.5659     20.1318
   883.0000      7.9263      2.5059     -0.0175      8.7342     56.6262     20.8789
   883.1000      7.9263      2.5022     -0.0204      8.9568     58.0944     21.5683
   883.2000      7.9263      2.4980      0.0075      9.2091     63.5717     21.6930
   883.3000      7.9242      2.4934     -0.0143      9.4884     71.5151     21.3883
   883.4000      7.9242      2.4965     -0.0133      9.3029     77.8095     21.7284
   883.5000      7.9208      2.5047      0.0180      8.8034     82.1068     22.5107
   883.6000      7.9208      2.5074      0.0030      8.6430     81.3081     22.6236
   883.7000      7.9208      2.5068      0.0323      8.6800     74.3030     22.1720
   883.8000      7.9231      2.5136      0.0113      8.2638     68.5639     21.9018
   883.9000      7.9231      2.5314      0.0181      7.1903     67.8511     21.9358
   884.0000      7.9254      2.5498      0.0779      6.0735     67.6059     21.9409
   884.1000      7.9254      2.5551      0.0271      5.7530     65.4671     21.9824
   884.2000      7.9254      2.5478      0.0313      6.1968     61.9142     22.2262
   884.3000      7.9237      2.5351      0.0521      6.9666     57.0703     22.2386
   884.4000      7.9237      2.5220      0.0033      7.7565     54.4863     21.6257
   884.5000      7.9216      2.5186     -0.0171      7.9620     55.2402     20.8635
   884.6000      7.9216      2.5299      0.0091      7.2787     54.8771     20.3842
   884.7000      7.9216      2.5456      0.0132      6.3244     52.5987     20.2393
   884.8000      7.9201      2.5589     -0.0113      5.5231     52.9726     20.3551
   884.9000      7.9201      2.5693     -0.0026      4.8937     58.4264     20.3521
   885.0000      7.9193      2.5704      0.0343      4.8249     66.3007     20.5842
   885.1000      7.9193      2.5547      0.0489      5.7755     72.7634     21.2880
   885.2000      7.9193      2.5307     -0.0497      7.2302     78.2557     21.7621
   885.3000      7.9205      2.5232      0.0001      7.6848     82.6992     21.7177
   885.4000      7.9205      2.5430      0.0096      6.4873     81.0461     21.4576
   885.5000      7.9232      2.5691      0.0711      4.9032     74.0804     21.2222
   885.6000      7.9232      2.5742      0.0757      4.5950     71.4996     20.8508
   885.7000      7.9232      2.5631      0.0039      5.2637     75.0270     20.4106
   885.8000      7.9230      2.5565      0.0455      5.6687     78.4403     20.4586
   885.9000      7.9230      2.5564      0.0500      5.6756     79.4959     21.1959
   886.0000      7.9194      2.5641      0.0558      5.2082     77.2916     22.0835
   886.1000      7.9194      2.5789      0.1097      4.3090     72.4997     22.7306
   886.2000      7.9194      2.5839      0.0934      4.0036     70.1216     23.0605
   886.3000      7.9177      2.5740      0.0824      4.6033     72.5838     22.8946
   886.4000      7.9177      2.5630      0.0552      5.2715     76.4019     22.4677
   886.5000      7.9192      2.5593      0.0466      5.4958     76.0513     22.0054
   886.6000      7.9192      2.5583      0.0627      5.5599     73.4363     21.4922
   886.7000      7.9192      2.5505      0.0529      6.0284     76.1391     21.0709
   886.8000      7.9207      2.5405     -0.0152      6.6357     81.5845     20.9827
   886.9000      7.9207      2.5421      0.0302      6.5382     79.6712     21.4931
   887.0000      7.9191      2.5545      0.0373      5.7879     70.0246     22.2070
   887.1000      7.9191      2.5659      0.0540      5.0983     61.3486     22.2786
   887.2000      7.9191      2.5638      0.0688      5.2225     58.8851     21.6655
   887.3000      7.9149      2.5469     -0.0072      6.2482     62.2435     20.9511
   887.4000      7.9149      2.5306      0.0267      7.2387     70.0687     20.4988
   887.5000      7.9082      2.5291     -0.0107      7.3273     79.9579     20.2584
   887.6000      7.9082      2.5444      0.0094      6.4006     84.7026     20.2357
   887.7000      7.9082      2.5633      0.0639      5.2533     79.2338     20.6144
   887.8000      7.9024      2.5725      0.0156      4.6975     70.7378     21.0723
   887.9000      7.9024      2.5741      0.0341      4.6009     70.7054     21.1009
   888.0000      7.9007      2.5750      0.0263      4.5471     80.5131     20.7900
   888.1000      7.9007      2.5782      0.0437      4.3541     89.0437     20.3512
