~Version Information
VERS.                      2.0: CWLS Log ASCII Standard - VERSION 2.0
WRAP.                       NO: One line per depth step
~Well Information Block
STRT.FT               547.0000: 
STOP.FT              1685.5000: 
STEP.FT                 0.1000: 
NULL.                -999.2500: 
COMP.          Pioneer Natural Resources: COMPANY
WELL.           Pedri 42-33 Tr: WELL
FLD.           Purgatorie River: FIELD
LOC.           1933' FNL & 662' FEL: LOCATION
PROV.                 Colorado: PROVINCE
CNTY.               Las Animas: COUNTRY
SRVC.                Patterson: SERVICE COMPANY
DATE.          Mon Dec 19 13:36:44 2005: LOG DATE
UWI.                          : UNIQUE WELL ID
~Curve Information Block
DEPT.FT            0 000 00 00: Depth
DCAL.in                       : CDL Caliper
RHOB.g/cc                     : CDL Bulk Density
RHOC.g/cc                     : CDL Density Correction
DPOR.pu                       : CDL Density Porosity
GR.GAPI                       : Gamma Ray
~Parameter Information Block
~A  Depth       DCAL        RHOB        RHOC        DPOR         GR     
# ...
   995.0000      7.9497      2.5893      0.1098      3.6808     88.0427
   995.1000      7.9497      2.6079      0.0942      2.5500     90.1564
   995.2000      7.9497      2.6524      0.1049     -0.1479     92.2658
   995.3000      7.9092      2.7113      0.2019     -3.7133     89.2713
   995.4000      7.9092      2.7495      0.2217     -6.0299     84.1152
   995.5000      7.8603      2.7553      0.1836     -6.3842     82.9977
   995.6000      7.8603      2.7429      0.1682     -5.6322     87.5605
   995.7000      7.8603      2.7276      0.1464     -4.7054     92.9398
   995.8000      7.8653      2.7210      0.1048     -4.3016     95.7792
   995.9000      7.8653      2.7173      0.1703     -4.0795     97.8202
   996.0000      7.9355      2.7041      0.0650     -3.2771     99.0070
   996.1000      7.9355      2.6862      0.1108     -2.1940     97.6596
   996.2000      7.9355      2.6649      0.1197     -0.9023     96.0354
   996.3000      7.9985      2.6414      0.0803      0.5238     98.3086
   996.4000      7.9985      2.6289      0.0487      1.2801    102.7630
   996.5000      8.0031      2.6321      0.0673      1.0833    105.7340
   996.6000      8.0031      2.6330      0.1004      1.0287    106.2569
   996.7000      8.0031      2.6134      0.0382      2.2206    104.9048
   996.8000      7.9760      2.5829      0.0209      4.0642    104.6058
   996.9000      7.9760      2.5598      0.0183      5.4667    106.9103
   997.0000      7.9977      2.5507     -0.0113      6.0162    111.3645
   997.1000      7.9977      2.5545      0.0142      5.7870    116.7326
   997.2000      7.9977      2.5632      0.0294      5.2577    118.9781
   997.3000      8.0166      2.5727      0.0455      4.6872    115.9592
   997.4000      8.0166      2.5854      0.0653      3.9162    111.8135
   997.5000      8.0203      2.6055      0.1017      2.6986    111.2034
   997.6000      8.0203      2.6350      0.0661      0.9111    113.6433
   997.7000      8.0203      2.6674      0.1175     -1.0529    116.1657
   997.8000      7.9751      2.6903      0.1166     -2.4410    116.9416
   997.9000      7.9751      2.6913      0.1518     -2.5012    116.3988
   998.0000      7.9699      2.6625      0.1155     -0.7594    116.2053
   998.1000      7.9699      2.6208      0.0511      1.7668    117.0216
   998.2000      7.9699      2.5946      0.0278      3.3562    117.4775
   998.3000      7.9688      2.5853      0.0281      3.9185    117.5291
   998.4000      7.9688      2.5787     -0.0034      4.3191    119.5907
   998.5000      7.9726      2.5706      0.0084      4.8143    123.7745
   998.6000      7.9726      2.5659      0.0253      5.0990    126.2985
   998.7000      7.9726      2.5738      0.0234      4.6161    123.9937
   998.8000      8.0059      2.5891      0.0648      3.6938    120.9511
   998.9000      8.0059      2.5875      0.0640      3.7895    122.7471
   999.0000      8.0377      2.5624      0.0607      5.3104    127.4762
   999.1000      8.0377      2.5340      0.0162      7.0293    131.0995
   999.2000      8.0377      2.5209     -0.0015      7.8227    130.7680
   999.3000      8.0216      2.5236     -0.0070      7.6630    125.9894
   999.4000      8.0216      2.5344      0.0140      7.0065    121.4176
   999.5000      8.0184      2.5543      0.0019      5.7977    120.1090
   999.6000      8.0184      2.5855      0.0415      3.9109    119.3368
   999.7000      8.0184      2.6107      0.1116      2.3833    117.3082
   999.8000      8.0327      2.6137      0.0756      2.2020    115.8064
   999.9000      8.0327      2.6009      0.1170      2.9761    115.6401
  1000.0000      8.0201      2.5859      0.1292      3.8855    115.7415
  1000.1000      8.0201      2.5795      0.1365      4.2721    116.3407
  1000.2000      8.0201      2.5842      0.1582      3.9890    116.1230
  1000.3000      7.9679      2.5934      0.1739      3.4290    115.2654
  1000.4000      7.9679      2.6039      0.1850      2.7960    117.6128
  1000.5000      7.8822      2.6156      0.1750      2.0870    121.9610
  1000.6000      7.8822      2.6287      0.1585      1.2907    124.0751
  1000.7000      7.8822      2.6524      0.1580     -0.1430    122.1321
  1000.8000      7.8919      2.6968      0.1955     -2.8385    115.9489
  1000.9000      7.8919      2.7481      0.2214     -5.9432    109.2095
  1001.0000      7.9411      2.7735      0.2746     -7.4863    106.0296
  1001.1000      7.9411      2.7584      0.2538     -6.5674    104.6582
  1001.2000      7.9411      2.7212      0.1733     -4.3175    101.4094
  1001.3000      7.9534      2.6864      0.1642     -2.2082     96.0758
  1001.4000      7.9534      2.6631      0.0645     -0.7927     89.6530
  1001.5000      7.9562      2.6587      0.0571     -0.5289     83.9675
  1001.6000      7.9562      2.6699      0.1107     -1.2082     80.6499
  1001.7000      7.9562      2.6692      0.1266     -1.1664     78.9840
  1001.8000      7.9418      2.6401      0.0912      0.6026     77.5428
  1001.9000      7.9418      2.6119      0.0062      2.3093     75.9267
  1002.0000      7.9977      2.6161      0.0855      2.0527     74.7466
  1002.1000      7.9977      2.6386      0.0698      0.6894     73.7579
  1002.2000      7.9977      2.6595      0.0625     -0.5746     71.9766
  1002.3000      7.9669      2.6773      0.1407     -1.6568     70.5738
  1002.4000      7.9669      2.6938      0.0827     -2.6563     71.1537
  1002.5000      7.9909      2.7085      0.1557     -3.5461     72.4366
  1002.6000      7.9909      2.7129      0.1536     -3.8099     72.6572
  1002.7000      7.9909      2.7028      0.1644     -3.2022     73.2071
  1002.8000      7.9851      2.6816      0.1438     -1.9173     75.1636
  1002.9000      7.9851      2.6528      0.1066     -0.1678     75.9771
  1003.0000      7.9433      2.6246      0.0463      1.5372     76.3104
  1003.1000      7.9433      2.6094      0.0553      2.4629     79.9933
  1003.2000      7.9433      2.6155      0.0497      2.0895     85.5397
  1003.3000      7.9585      2.6384      0.0770      0.7045     88.6663
  1003.4000      7.9585      2.6564      0.1232     -0.3849     89.7889
  1003.5000      7.9805      2.6595      0.0802     -0.5744     92.0320
  1003.6000      7.9805      2.6587      0.1054     -0.5259     95.6594
  1003.7000      7.9805      2.6617      0.0804     -0.7120     98.9422
  1003.8000      7.9895      2.6667      0.1101     -1.0133    101.7156
  1003.9000      7.9895      2.6662      0.1093     -0.9828    104.0532
  1004.0000      7.9917      2.6614      0.0856     -0.6920    105.8636
  1004.1000      7.9917      2.6641      0.0691     -0.8525    108.6869
  1004.2000      7.9917      2.6742      0.1226     -1.4673    112.8007
  1004.3000      8.0111      2.6732      0.0809     -1.4068    115.8518
  1004.4000      8.0111      2.6498      0.0833      0.0129    116.9295
  1004.5000      8.0129      2.6186      0.0566      1.9006    116.8710
  1004.6000      8.0129      2.6005      0.0510      3.0002    116.2035
  1004.7000      8.0129      2.5991      0.0408      3.0843    115.7601
  1004.8000      8.0230      2.6065      0.0523      2.6359    115.4010
  1004.9000      8.0230      2.6152      0.0432      2.1068    113.0713
  1005.0000      8.0030      2.6221      0.0526      1.6881    109.6985
  1005.1000      8.0030      2.6245      0.0806      1.5467    109.5631
  1005.2000      8.0030      2.6213      0.0326      1.7399    111.3024
  1005.3000      7.9974      2.6228      0.0589      1.6493    109.1570
  1005.4000      7.9974      2.6327      0.0947      1.0458    104.1570
  1005.5000      8.0053      2.6393      0.0697      0.6507    100.7751
  1005.6000      8.0053      2.6375      0.0765      0.7584    100.9316
  1005.7000      8.0053      2.6353      0.0564      0.8892    106.1650
  1005.8000      8.0002      2.6391      0.0942      0.6591    112.4427
  1005.9000      8.0002      2.6433      0.0643      0.4042    113.5744
  1006.0000      8.0043      2.6416      0.0464      0.5086    110.1222
  1006.1000      8.0043      2.6379      0.0503      0.7353    106.2935
