~Version Information
VERS.                      2.0: CWLS Log ASCII Standard - VERSION 2.0
WRAP.                       NO: One line per depth step
~Well Information Block
STRT.FT               970.0000: 
STOP.FT              1882.0000: 
STEP.FT                 0.2500: 
NULL.                -999.2500: 
COMP.          Petrogulf Corporation: COMPANY
WELL.             Norton 9-14R: WELL
FLD.           Purgatorie River: FIELD
LOC.           725' FSL & 1103' FWL: LOCATION
PROV.                 Colorado: PROVINCE
CNTY.               Las Animas: COUNTRY
SRVC.                Patterson: SERVICE COMPANY
DATE.          Thu Oct 06 16:10:47 2005: LOG DATE
UWI.                          : UNIQUE WELL ID
~Curve Information Block
DEPT.FT            0 000 00 00: Depth
SP.mV                         : DIL Spontaneous Potential
RILD.Ohm-m                    : DIL Deep Resistivity
RILM.Ohm-m                    : DIL Medium Resistivity
RLL3.Ohm-m                    : DIL Shallow Resistivity
GR.GAPI                       : Gamma Ray
~Parameter Information Block
~A  Depth        SP         RILD        RILM        RLL3         GR     
# ...
  1502.0000    180.4172      8.4686      8.5390      8.3615    141.4824
  1502.2500    180.2905      8.2561      8.1865      8.1719    147.9435
  1502.5000    180.1977      8.0677      7.9078      8.1757    157.3216
  1502.7500    180.1731      7.9052      7.6931      8.2787    162.4582
  1503.0000    180.2342      7.7733      7.5343      8.4242    167.0445
  1503.2500    180.3746      7.6777      7.4257      8.5742    167.7912
  1503.5000    180.5618      7.6241      7.3641      8.6980    166.3122
  1503.7500    180.7417      7.6168      7.3490      8.7729    164.6002
  1504.0000    180.8539      7.6572      7.3815      8.7921    162.5615
  1504.2500    180.8538      7.7430      7.4637      8.7813    161.8837
  1504.5000    180.7301      7.8685      7.5980      8.8184    161.3138
  1504.7500    180.5051      8.0248      7.7850      9.0289    160.8103
  1505.0000    180.2184      8.2005      8.0226      9.5369    159.8630
  1505.2500    179.9064      8.3828      8.3045     10.3881    159.2630
  1505.5000    179.5925      8.5590      8.6185     11.4961    157.7928
  1505.7500    179.2871      8.7186      8.9463     12.6568    155.5310
  1506.0000    178.9917      8.8546      9.2643     13.6375    149.1416
  1506.2500    178.7040      8.9648      9.5458     14.2859    143.2667
  1506.5000    178.4273      9.0505      9.7655     14.5784    134.2034
  1506.7500    178.1811      9.1149      9.9048     14.5658    129.4117
  1507.0000    178.0018      9.1600      9.9558     14.2765    125.5148
  1507.2500    177.9295      9.1860      9.9231     13.6877    125.0730
  1507.5000    177.9886      9.1902      9.8218     12.7960    126.5800
  1507.7500    178.1727      9.1694      9.6726     11.7114    128.5587
  1508.0000    178.4398      9.1207      9.4968     10.6732    133.3090
  1508.2500    178.7225      9.0432      9.3120      9.9536    137.9354
  1508.5000    178.9539      8.9395      9.1296      9.7129    145.9514
  1508.7500    179.0960      8.8167      8.9559      9.9155    150.5840
  1509.0000    179.1532      8.6869      8.7935     10.3693    154.7374
  1509.2500    179.1662      8.5667      8.6444     10.8370    155.6237
  1509.5000    179.1895      8.4749      8.5128     11.1272    155.0250
  1509.7500    179.2657      8.4298      8.4062     11.1265    153.9214
  1510.0000    179.4091      8.4460      8.3357     10.8154    152.2269
  1510.2500    179.6026      8.5317      8.3150     10.2944    151.7227
  1510.5000    179.8104      8.6876      8.3587      9.7729    152.9293
  1510.7500    179.9982      8.9059      8.4804      9.4920    155.3388
  1511.0000    180.1505      9.1712      8.6913      9.6540    160.6121
  1511.2500    180.2773      9.4627      8.9989     10.4623    163.8148
  1511.5000    180.4091      9.7595      9.4041     12.2375    165.1114
  1511.7500    180.5835     10.0450      9.8995     15.4173    162.6789
  1512.0000    180.8324     10.3120     10.4666     20.2425    154.8909
  1512.2500    181.1773     10.5645     11.0746     26.2385    148.1529
  1512.5000    181.6300     10.8169     11.6836     32.0206    136.9931
  1512.7500    182.1874     11.0897     12.2521     35.8572    128.8338
  1513.0000    182.8226     11.4038     12.7484     36.6273    115.6352
  1513.2500    183.4868     11.7757     13.1610     34.3239    107.1544
  1513.5000    184.1273     12.2133     13.5024     29.8583     97.9418
  1513.7500    184.7057     12.7134     13.8037     24.6035     95.8542
  1514.0000    185.1984     13.2587     14.1047     19.9282     99.7050
  1514.2500    185.5870     13.8162     14.4425     16.7356    105.6721
  1514.5000    185.8583     14.3372     14.8430     15.2754    115.3224
  1514.7500    186.0178     14.7656     15.3150     15.4318    119.6837
  1515.0000    186.0984     15.0520     15.8460     17.1471    121.2331
  1515.2500    186.1522     15.1722     16.4006     20.4694    119.4768
  1515.5000    186.2335     15.1359     16.9211     25.1789    114.3110
  1515.7500    186.3858     14.9817     17.3359     30.4260    109.4589
  1516.0000    186.6375     14.7619     17.5749     34.8101     99.9979
  1516.2500    186.9975     14.5263     17.5898     36.9302     92.9521
  1516.5000    187.4511     14.3114     17.3704     36.0620     83.8340
  1516.7500    187.9549     14.1379     16.9477     32.5391     80.0098
  1517.0000    188.4419     14.0124     16.3824     27.5878     78.7051
  1517.2500    188.8381     13.9320     15.7472     22.6734     81.0509
  1517.5000    189.0846     13.8882     15.1099     18.7845     89.1409
  1517.7500    189.1504     13.8701     14.5250     16.1499     96.4410
  1518.0000    189.0288     13.8659     14.0322     14.4721    106.7645
  1518.2500    188.7252     13.8648     13.6578     13.3498    111.4869
  1518.5000    188.2457     13.8593     13.4185     12.5581    114.8801
  1518.7500    187.5937     13.8474     13.3239     12.0999    115.8325
  1519.0000    186.7736     13.8322     13.3782     12.1056    117.8407
  1519.2500    185.8024     13.8202     13.5798     12.7079    120.3330
  1519.5000    184.7221     13.8194     13.9209     13.9941    125.0738
  1519.7500    183.6022     13.8383     14.3857     16.0370    127.7285
  1520.0000    182.5290     13.8862     14.9477     18.8771    129.4117
  1520.2500    181.5873     13.9716     15.5697     22.3447    128.9068
  1520.5000    180.8440     14.0999     16.2037     25.8520    126.1217
  1520.7500    180.3374     14.2704     16.7949     28.4854    122.7680
  1521.0000    180.0716     14.4733     17.2882     29.4922    114.7128
  1521.2500    180.0147     14.6897     17.6354     28.7746    107.2651
  1521.5000    180.1053     14.8944     17.8029     26.9199     94.2839
  1521.7500    180.2645     15.0615     17.7770     24.7565     85.8270
  1522.0000    180.4113     15.1712     17.5663     22.8540     76.3333
  1522.2500    180.4761     15.2129     17.2004     21.3288     73.6598
  1522.5000    180.4101     15.1870     16.7255     19.9883     76.2109
  1522.7500    180.1909     15.1031     16.1962     18.6199     81.5085
  1523.0000    179.8208     14.9797     15.6677     17.1922     91.6512
  1523.2500    179.3199     14.8408     15.1888     15.8538     97.9012
  1523.5000    178.7146     14.7114     14.7977     14.7883    104.8158
  1523.7500    178.0284     14.6116     14.5212     14.0917    108.1545
  1524.0000    177.2782     14.5531     14.3755     13.7806    113.2226
  1524.2500    176.4801     14.5391     14.3681     13.8862    117.4530
  1524.5000    175.6617     14.5671     14.4992     14.5143    124.1617
  1524.7500    174.8672     14.6315     14.7620     15.7995    127.0464
  1525.0000    174.1515     14.7267     15.1428     17.7814    126.0744
  1525.2500    173.5651     14.8479     15.6193     20.2930    121.8391
  1525.5000    173.1445     14.9922     16.1595     22.9724    112.8981
  1525.7500    172.9100     15.1579     16.7213     25.4623    107.0233
  1526.0000    172.8664     15.3435     17.2546     27.6694     99.4578
  1526.2500    172.9993     15.5452     17.7066     29.7740     94.9567
  1526.5000    173.2709     15.7551     18.0318     31.8413     88.6160
  1526.7500    173.6213     15.9622     18.2028     33.3749     84.9124
  1527.0000    173.9751     16.1557     18.2188     33.4109     81.0480
  1527.2500    174.2522     16.3284     18.1062     31.2689     80.1407
  1527.5000    174.3829     16.4756     17.9116     27.2738     81.8700
  1527.7500    174.3248     16.5930     17.6892     22.6695     85.0396
  1528.0000    174.0750     16.6738     17.4884     18.8104     91.8704
  1528.2500    173.6674     16.7110     17.3454     16.4635     96.8214
  1528.5000    173.1573     16.7029     17.2803     15.7640    102.8750
  1528.7500    172.6035     16.6591     17.2968     16.5638    105.0951
  1529.0000    172.0604     16.6010     17.3867     18.6142    105.3306
  1529.2500    171.5751     16.5565     17.5347     21.4197    104.0041
  1529.5000    171.1839     16.5522     17.7246     24.1077    101.4167
  1529.7500    170.9052     16.6082     17.9450     25.7227    100.0537
