~Version Information
VERS.                      2.0: CWLS Log ASCII Standard - VERSION 2.0
WRAP.                       NO: One line per depth step
~Well Information Block
STRT.FT               245.0000: 
STOP.FT              1006.0000: 
STEP.FT                 0.1000: 
NULL.                -999.2500: 
COMP.          Pioneer Natural Resources: COMPANY
WELL.              Atlas 32-18: WELL
FLD.           Purgatoire River: FIELD
LOC.           1892' FNL & 1456' FEL: LOCATION
PROV.                 Colorado: PROVINCE
CNTY.               Las Animas: COUNTRY
SRVC.                Patterson: SERVICE COMPANY
DATE.          Mon Nov 21 08:58:56 2005: LOG DATE
UWI.           05 071 08556 00: UNIQUE WELL ID
~Curve Information Block
DEPT.FT            0 000 00 00: Depth
DCAL.in                       : CDL Caliper
RHOB.g/cc                     : CDL Bulk Density
RHOC.g/cc                     : CDL Density Correction
DPOR.pu                       : CDL Density Porosity
GR.GAPI                       : Gamma Ray
NPOR.pu                       : Neutron Porosity
~Parameter Information Block
~A  Depth       DCAL        RHOB        RHOC        DPOR         GR         NPOR    
# ...
   293.0000      8.0643      2.8172      0.0390    -10.1330     85.7360     25.9485
   293.1000      8.0643      2.7513     -0.0277     -6.1370     87.5082     25.0630
   293.2000      8.0643      2.6825     -0.0745     -1.9726     94.9237     24.1966
   293.3000      8.0211      2.6092     -0.1715      2.4746    105.9146     23.4995
   293.4000      8.0211      2.5432     -0.1502      6.4753    114.0381     23.0711
   293.5000      8.0316      2.4943     -0.0829      9.4380    115.8868     22.9323
   293.6000      8.0316      2.4571     -0.0171     11.6895    118.5109     22.9068
   293.7000      8.0316      2.4294     -0.0143     13.3713    127.3501     22.8305
   293.8000      8.1392      2.4199      0.0200     13.9432    137.0253     22.8732
   293.9000      8.1392      2.4365      0.0105     12.9405    141.6115     23.2315
   294.0000      8.1944      2.4765      0.0652     10.5168    141.3671     23.8956
   294.1000      8.1944      2.5220      0.0832      7.7554    140.0793     24.7023
   294.2000      8.1944      2.5506      0.1425      6.0235    142.3554     25.4339
   294.3000      8.2332      2.5577      0.1285      5.5924    150.5961     26.0398
   294.4000      8.2332      2.5559      0.1076      5.7017    158.6382     26.4207
   294.5000      8.2310      2.5561      0.0543      5.6912    159.0637     26.4903
   294.6000      8.2310      2.5546      0.1089      5.7814    154.2345     26.5066
   294.7000      8.2310      2.5353      0.0763      6.9533    150.0538     26.4996
   294.8000      8.2075      2.4867      0.0461      9.8955    146.3691     26.1568
   294.9000      8.2075      2.4205     -0.0392     13.9078    140.4514     25.5823
   295.0000      8.1910      2.3766     -0.1035     16.5723    136.5442     25.1393
   295.1000      8.1910      2.3844     -0.0530     16.0959    137.8222     24.8274
   295.2000      8.1910      2.4249      0.0584     13.6413    137.1161     24.4967
   295.3000      8.1505      2.4586      0.0930     11.6026    132.3371     24.1681
   295.4000      8.1505      2.4766      0.1101     10.5098    131.8693     23.7849
   295.5000      8.1572      2.4836      0.2119     10.0868    140.5367     23.4623
   295.6000      8.1572      2.4741      0.2112     10.6578    151.5047     23.4939
   295.7000      8.1572      2.4581      0.1576     11.6294    157.2871     23.8229
   295.8000      8.1808      2.4462      0.1499     12.3494    156.9996     24.3300
   295.9000      8.1808      2.4290      0.1235     13.3932    149.6196     24.8608
   296.0000      8.1572      2.4091      0.0353     14.6017    137.8660     24.9673
   296.1000      8.1572      2.4088      0.0000     14.6211    131.9917     24.7919
   296.2000      8.1572      2.4352      0.0360     13.0156    138.5573     24.9628
   296.3000      8.1563      2.4672      0.0920     11.0780    149.9077     25.5561
   296.4000      8.1563      2.4841      0.1075     10.0574    151.9845     26.0126
   296.5000      8.1780      2.4874      0.1360      9.8568    147.3705     25.7190
   296.6000      8.1780      2.4825      0.0966     10.1523    147.3448     24.8920
   296.7000      8.1780      2.4697      0.0809     10.9296    150.1637     24.1864
   296.8000      8.1933      2.4489      0.1260     12.1884    152.3867     23.6987
   296.9000      8.1933      2.4288      0.0204     13.4038    155.6961     23.2608
   297.0000      8.1957      2.4254      0.0625     13.6149    159.4205     22.9274
   297.1000      8.1957      2.4321      0.1397     13.2033    162.5191     22.7439
   297.2000      8.1957      2.4348      0.1083     13.0441    161.8865     22.6953
   297.3000      8.1908      2.4456      0.0973     12.3874    154.8821     22.6183
   297.4000      8.1908      2.4742      0.1548     10.6526    148.0517     22.2063
   297.5000      8.2144      2.4938      0.1958      9.4680    146.6284     21.3851
   297.6000      8.2144      2.4747      0.2143     10.6270    148.2401     20.5351
   297.7000      8.2144      2.4246      0.1355     13.6622    149.6530     20.2600
   297.8000      8.2340      2.3694      0.1291     17.0043    148.1258     20.8081
   297.9000      8.2340      2.3147      0.1422     20.3189    143.2523     21.9506
   298.0000      8.3667      2.2534      0.1180     24.0345    138.5405     23.1726
   298.1000      8.3667      2.1957      0.0119     27.5343    135.9933     24.0008
   298.2000      8.3667      2.1655      0.0302     29.3616    136.9400     24.5004
   298.3000      8.4737      2.1740      0.0435     28.8500    141.3775     24.8218
   298.4000      8.4737      2.2110      0.0466     26.6050    144.7188     24.7693
   298.5000      8.4145      2.2608      0.1351     23.5850    145.4042     24.4854
   298.6000      8.4145      2.3190      0.1911     20.0617    147.9118     24.4684
   298.7000      8.4145      2.3825      0.2026     16.2119    154.0174     24.7608
   298.8000      8.3959      2.4375      0.1881     12.8788    156.2405     25.1955
   298.9000      8.3959      2.4786      0.1232     10.3901    148.5020     25.6646
   299.0000      8.4094      2.5109      0.1668      8.4321    138.4676     25.8489
   299.1000      8.4094      2.5353      0.1857      6.9509    136.4484     25.7077
   299.2000      8.4094      2.5470      0.2038      6.2454    142.4381     25.6854
   299.3000      8.4619      2.5435      0.1194      6.4564    147.3905     26.1342
   299.4000      8.4619      2.5299      0.1708      7.2813    145.6333     26.9592
   299.5000      8.4458      2.5125      0.0791      8.3316    140.0795     27.8149
   299.6000      8.4458      2.5067      0.0386      8.6832    136.6837     28.3011
   299.7000      8.4458      2.5239      0.0139      7.6399    141.4153     28.0337
   299.8000      8.3717      2.5499      0.0553      6.0690    153.2613     27.1659
   299.9000      8.3717      2.5540      0.0851      5.8212    161.9571     26.3369
   300.0000      8.3406      2.5236      0.0546      7.6605    158.9332     25.7057
   300.1000      8.3406      2.4736      0.0418     10.6933    150.1428     25.0341
   300.2000      8.3406      2.4271     -0.0023     13.5103    149.4856     24.1937
   300.3000      8.2923      2.4005     -0.0102     15.1194    158.5871     23.2374
   300.4000      8.2923      2.3884      0.0038     15.8560    163.9191     22.3305
   300.5000      8.2388      2.3800      0.0054     16.3610    158.2826     21.5027
   300.6000      8.2388      2.3777     -0.0041     16.5035    151.4292     20.6958
   300.7000      8.2388      2.3687      0.0318     17.0506    148.1793     19.7283
   300.8000      8.2413      2.3292      0.0260     19.4402    142.4411     18.5006
   300.9000      8.2413      2.2635      0.0145     23.4260    136.6080     17.1767
   301.0000      8.2860      2.1814      0.0471     28.3983    135.1715     16.0783
   301.1000      8.2860      2.0740      0.0250     34.9098    133.9846     15.4528
   301.2000      8.2860      1.9397     -0.0331     43.0505    129.8733     15.1437
   301.3000      8.3295      1.7965     -0.0929     51.7268    123.6442     14.7754
   301.4000      8.3295      1.6673     -0.1088     59.5604    117.2486     14.2206
   301.5000      8.3076      1.5631     -0.0664     65.8741    113.3306     13.8385
   301.6000      8.3076      1.4799     -0.0765     70.9138    108.3550     14.2080
   301.7000      8.3076      1.4123     -0.0860     75.0150     96.7918     15.3306
   301.8000      8.2638      1.3614     -0.0516     78.0964     82.2971     16.5638
   301.9000      8.2638      1.3349     -0.0329     79.7013     71.3402     17.3992
   302.0000      8.1848      1.3420      0.0071     79.2704     66.1410     17.9730
   302.1000      8.1848      1.3868      0.0576     76.5546     65.3422     18.7116
   302.2000      8.1848      1.4713      0.0581     71.4349     65.4719     19.7565
   302.3000      8.1424      1.5970      0.0989     63.8212     64.7713     21.0352
   302.4000      8.1424      1.7516      0.1721     54.4486     63.5388     22.4772
   302.5000      8.1020      1.9133      0.2231     44.6511     61.6832     23.9636
