~Version Information
VERS.                      2.0: CWLS Log ASCII Standard - VERSION 2.0
WRAP.                       NO: One line per depth step
~Well Information Block
STRT.FT               370.0000: 
STOP.FT              2831.7500: 
STEP.FT                 0.2500: 
NULL.                -999.2500: 
COMP.          Pioneer Natural Resources: COMPANY
WELL.          Black Cat 13-32: WELL
FLD.           Purgatoire River: FIELD
LOC.           1865' FSL & 1120' FWL--: LOCATION
PROV.                 Colorado: PROVINCE
CNTY.               Las Animas: COUNTRY
SRVC.                Patterson: SERVICE COMPANY
DATE.          Sun Jul 31 08:49:16 2005: LOG DATE
UWI.           05 071 08450 00: UNIQUE WELL ID
~Curve Information Block
DEPT.FT            0 000 00 00: Depth
DIR.Ohm-m                     : IEL Induction Resistivity
SN.Ohm-m                      : IEL Short Normal
SP.mV                         : IEL Spontaneous Potential
GR.GAPI                       : Gamma Ray
~Parameter Information Block
~A  Depth       DIR          SN          SP          GR     
# ...
  2313.0000     25.6624     28.2683    162.5578     35.8880
  2313.2500     26.6458     30.0074    163.2704     35.9398
  2313.5000     27.6078     31.5917    164.1045     37.9854
  2313.7500     28.4981     32.9106    165.0324     40.3315
  2314.0000     29.2714     33.9081    166.0389     44.7061
  2314.2500     29.9013     34.5786    167.1253     47.4761
  2314.5000     30.3821     34.9479    168.3100     49.4702
  2314.7500     30.7099     35.0438    169.6238     48.5567
  2315.0000     30.8491     34.8643    171.1009     44.5052
  2315.2500     30.7142     34.3660    172.7688     41.3650
  2315.5000     30.1971     33.4945    174.6383     37.9506
  2315.7500     29.2327     32.2337    176.6976     36.8825
  2316.0000     27.8511     30.6341    178.9104     37.0722
  2316.2500     26.1725     28.7978    181.2202     38.6031
  2316.5000     24.3553     26.8472    183.5578     43.5678
  2316.7500     22.5432     24.8993    185.8515     48.6128
  2317.0000     20.8404     23.0478    188.0359     57.7614
  2317.2500     19.3089     21.3512    190.0599     64.1803
  2317.5000     17.9754     19.8312    191.8896     73.8207
  2317.7500     16.8406     18.4832    193.5092     80.5133
  2318.0000     15.8888     17.2924    194.9182     91.2101
  2318.2500     15.0980     16.2448    196.1274     98.2308
  2318.5000     14.4467     15.3326    197.1547    106.8746
  2318.7500     13.9167     14.5566    198.0215    110.6497
  2319.0000     13.4925     13.9242    198.7493    113.0062
  2319.2500     13.1598     13.4415    199.3584    112.4077
  2319.5000     12.9050     13.1065    199.8665    108.5273
  2319.7500     12.7169     12.9063    200.2880    104.5715
  2320.0000     12.5880     12.8199    200.6344     98.6685
  2320.2500     12.5125     12.8225    200.9141     95.9685
  2320.5000     12.4837     12.8873    201.1330     94.3979
  2320.7500     12.4902     12.9867    201.2956     94.4239
  2321.0000     12.5176     13.0941    201.4059     94.9592
  2321.2500     12.5540     13.1892    201.4682     95.6615
  2321.5000     12.5963     13.2626    201.4884     97.7292
  2321.7500     12.6518     13.3148    201.4740     99.3884
  2322.0000     12.7318     13.3518    201.4343    100.2921
  2322.2500     12.8449     13.3795    201.3790     99.1020
  2322.5000     12.9907     13.3992    201.3174     95.8196
  2322.7500     13.1586     13.4060    201.2566     94.1154
  2323.0000     13.3298     13.3914    201.1999     93.5302
  2323.2500     13.4796     13.3509    201.1459     93.9279
  2323.5000     13.5822     13.2908    201.0886     94.1354
  2323.7500     13.6172     13.2279    201.0177     93.7408
  2324.0000     13.5775     13.1795    200.9203     93.4368
  2324.2500     13.4724     13.1523    200.7827     94.4323
  2324.5000     13.3243     13.1377    200.5925     98.8206
  2324.7500     13.1578     13.1160    200.3407    103.7275
  2325.0000     12.9915     13.0648    200.0232    113.1888
  2325.2500     12.8352     12.9678    199.6413    119.6894
  2325.5000     12.6930     12.8227    199.2025    126.6195
  2325.7500     12.5664     12.6409    198.7190    127.8482
  2326.0000     12.4553     12.4394    198.2073    124.7777
  2326.2500     12.3557     12.2305    197.6857    121.2234
  2326.5000     12.2600     12.0198    197.1725    117.0277
  2326.7500     12.1589     11.8098    196.6844    115.7131
  2327.0000     12.0460     11.6058    196.2345    114.6455
  2327.2500     11.9197     11.4179    195.8312    113.2662
  2327.5000     11.7823     11.2588    195.4784    109.3712
  2327.7500     11.6372     11.1378    195.1744    106.1699
  2328.0000     11.4857     11.0531    194.9129    102.1887
  2328.2500     11.3250     10.9900    194.6831    100.7135
  2328.5000     11.1503     10.9237    194.4713    100.3527
  2328.7500     10.9575     10.8278    194.2616    101.1272
  2329.0000     10.7459     10.6864    194.0378    103.8484
  2329.2500     10.5202     10.5034    193.7849    107.1745
  2329.5000     10.2896     10.3032    193.4909    115.1176
  2329.7500     10.0668     10.1201    193.1475    122.0084
  2330.0000      9.8665      9.9800    192.7507    132.7292
  2330.2500      9.7029      9.8883    192.3010    138.8380
  2330.5000      9.5863      9.8298    191.8023    145.1441
  2330.7500      9.5204      9.7812    191.2620    147.4649
  2331.0000      9.5021      9.7266    190.6895    148.9686
  2331.2500      9.5227      9.6678    190.0961    149.0723
  2331.5000      9.5719      9.6241    189.4939    148.2308
  2331.7500      9.6404      9.6221    188.8959    147.3626
  2332.0000      9.7221      9.6794    188.3149    146.5301
  2332.2500      9.8139      9.7958    187.7630    146.5530
  2332.5000      9.9165      9.9552    187.2510    147.1703
  2332.7500     10.0352     10.1379    186.7870    147.6493
  2333.0000     10.1784     10.3307    186.3763    147.7713
  2333.2500     10.3548     10.5316    186.0199    146.9291
  2333.5000     10.5698     10.7470    185.7149    143.8650
  2333.7500     10.8243     10.9853    185.4542    141.0392
  2334.0000     11.1171     11.2513    185.2281    136.9422
  2334.2500     11.4463     11.5441    185.0247    134.7591
  2334.5000     11.8089     11.8584    184.8328    132.1553
  2334.7500     12.1977     12.1875    184.6423    130.5482
  2335.0000     12.6008     12.5232    184.4460    127.9828
  2335.2500     13.0047     12.8581    184.2393    126.0112
  2335.5000     13.3999     13.1911    184.0192    122.4758
  2335.7500     13.7840     13.5329    183.7839    120.0208
  2336.0000     14.1612     13.9040    183.5309    117.5148
  2336.2500     14.5385     14.3229    183.2566    117.3550
  2336.5000     14.9217     14.7945    182.9565    119.7441
  2336.7500     15.3107     15.3077    182.6254    122.7734
  2337.0000     15.6998     15.8383    182.2594    128.1475
  2337.2500     16.0812     16.3537    181.8567    131.1489
  2337.5000     16.4497     16.8207    181.4188    132.9092
  2337.7500     16.8053     17.2173    180.9507    131.5517
  2338.0000     17.1532     17.5469    180.4608    125.3390
  2338.2500     17.5026     17.8434    179.9589    118.7389
  2338.5000     17.8660     18.1595    179.4551    106.7214
  2338.7500     18.2583     18.5383    178.9578     98.6668
  2339.0000     18.6923     18.9881    178.4723     88.9976
  2339.2500     19.1716     19.4785    177.9999     85.1994
  2339.5000     19.6822     19.9599    177.5380     83.6810
  2339.7500     20.1894     20.3892    177.0808     84.6418
  2340.0000     20.6461     20.7481    176.6200     87.2537
  2340.2500     21.0110     21.0485    176.1465     89.3606
  2340.5000     21.2662     21.3269    175.6513     93.5610
  2340.7500     21.4246     21.6270    175.1268     97.1207
  2341.0000     21.5246     21.9831    174.5677    102.1245
  2341.2500     21.6185     22.4124    173.9717    104.0491
  2341.5000     21.7599     22.9193    173.3399    104.0955
  2341.7500     21.9931     23.5059    172.6775    102.5925
  2342.0000     22.3462     24.1804    171.9939     98.8145
  2342.2500     22.8321     24.9570    171.3025     95.7415
  2342.5000     23.4547     25.8490    170.6197     91.9029
  2342.7500     24.2160     26.8616    169.9646     91.0422
  2343.0000     25.1169     27.9887    169.3566     92.7103
  2343.2500     26.1535     29.2135    168.8134     94.4715
  2343.5000     27.3129     30.5155    168.3497     94.9737
  2343.7500     28.5722     31.8837    167.9741     93.2519
  2344.0000     29.9019     33.3266    167.6885     89.1589
  2344.2500     31.2642     34.8630    167.4866     86.5283
  2344.5000     32.6079     36.4937    167.3542     82.7028
  2344.7500     33.8657     38.1733    167.2703     79.5733
  2345.0000     34.9684     39.8138    167.2093     74.1481
  2345.2500     35.8716     41.3188    167.1440     71.1165
  2345.5000     36.5720     42.6197    167.0493     68.9795
  2345.7500     37.0951     43.6848    166.9054     68.8696
  2346.0000     37.4602     44.5066    166.7013     68.3479
  2346.2500     37.6540     45.0922    166.4371     66.3517
