~Version Information
VERS.                      2.0: CWLS Log ASCII Standard - VERSION 2.0
WRAP.                       NO: One line per depth step
~Well Information Block
STRT.FT                -8.5000: 
STOP.FT              1214.7500: 
STEP.FT                 0.2500: 
NULL.                -999.2500: 
COMP.          Pioneer Natural Resources: COMPANY
WELL.          Rock Island 44-24 Tr: WELL
FLD.           Purgatorie River: FIELD
LOC.           814' FSL & 761' FEL--: LOCATION
CNTY.               Las Animas: COUNTY
SRVC.          Patterson Wireline: SERVICE COMPANY
DATE.          Fri Apr 28 10:23:18 2006: LOG DATE
UWI.           05 071 08680 00: UNIQUE WELL ID
STAT.                       CO: STATE
~Curve Information Block
DEPT.FT            0 000 00 00: Depth
CCL.                          : Casing Collar Locator
TT3.usec                      : CBL 3' Travel Time
AMP3.mV                       : CBL 3' Amplitude
GR.GAPI                       : Gamma Ray
~Parameter Information Block
~A  Depth       CCL         TT3         AMP3         GR     
# ...
   963.0000      0.0000    712.2672      5.4401    104.1513
   963.2500      0.0000    720.7984      5.1275    118.4766
   963.5000      0.0000    728.8394      4.8236    133.2187
   963.7500      0.0000    735.9588      4.6195    144.0212
   964.0000      0.0000    742.0624      4.5527    146.9889
   964.2500      0.0000    746.9975      4.6032    141.3573
   964.5000      0.0000    750.5281      4.7229    130.3187
   964.7500      0.0000    752.6965      4.8649    119.4123
   965.0000      0.0000    753.8870      4.9914    113.6541
   965.2500      0.0000    754.5049      5.0710    115.0109
   965.5000      0.0000    754.6337      5.0894    121.5382
   965.7500      0.0000    753.7528      5.0696    129.0115
   966.0000      0.0000    750.3019      5.0741    134.2194
   966.2500      0.0000    741.3423      5.1702    137.1031
   966.5000      0.0000    722.8260      5.3820    139.7073
   966.7500      0.0000    690.7413      5.6710    143.4147
   967.0000      0.0000    643.1984      5.9621    147.3575
   967.2500      0.0000    583.1010      6.1919    148.9052
   967.5000      0.0000    519.3276      6.3413    145.2316
   967.7500      0.0000    463.5313      6.4319    135.1346
   968.0000      0.0000    423.7422      6.4955    120.3481
   968.2500      0.0000    400.6320      6.5480    105.2008
   968.5000      0.0000    389.6238      6.5863     94.5744
   968.7500      0.0000    385.5463      6.6027     91.7615
   969.0000      0.0000    385.5099      6.5990     97.3762
   969.2500      0.0000    389.3131      6.5851    109.1672
   969.5000      0.0000    398.6633      6.5648    122.8169
   969.7500      0.0000    415.8782      6.5259    134.1211
   970.0000      0.0000    442.2636      6.4484    141.2646
   970.2500      0.0000    477.1331      6.3197    144.9907
   970.5000      0.0000    518.3280      6.1441    146.7195
   970.7500      0.0000    563.4025      5.9445    146.9424
   971.0000      0.0000    609.4460      5.7578    145.3308
   971.2500      0.0000    651.8856      5.6200    141.8161
   971.5000      0.0000    685.2537      5.5433    137.1421
   971.7500      0.0000    706.2855      5.5036    132.3140
   972.0000      0.0000    715.5615      5.4564    127.7200
   972.2500      0.0000    715.8649      5.3803    123.1973
   972.5000      0.0000    710.1263      5.3133    119.1059
   972.7500      0.0000    701.4587      5.3282    116.7825
   973.0000      0.0000    693.8938      5.4461    117.2407
   973.2500      0.0000    691.3751      5.5906    119.5412
   973.5000      0.0000    695.1876      5.6644    121.1669
   973.7500      0.0000    702.5114      5.6553    120.3539
   974.0000      0.0000    708.2578      5.6305    117.8841
   974.2500      0.0000    709.3921      5.6500    116.5412
   974.5000      2.0000    707.4521      5.7197    119.0092
   974.7500      0.0000    706.3880      5.8132    126.1300
   975.0000      0.0000    708.3333      5.9053    136.3315
   975.2500      0.0000    711.9252      5.9818    145.9653
   975.5000      0.0000    714.0649      6.0265    150.8379
   975.7500      0.0000    712.5446      6.0133    148.9153
   976.0000      0.0000    707.2070      5.9342    141.9205
   976.2500      0.0000    699.5128      5.8405    133.5326
   976.5000      0.0000    691.5675      5.8226    126.0046
   976.7500      0.0000    685.0786      5.9319    119.0327
   977.0000      0.0000    680.0972      6.1400    111.4308
   977.2500      0.0000    673.7993      6.3761    103.0465
   977.5000      0.0000    660.9844      6.5835     95.1817
   977.7500      0.0000    638.3728      6.7401     89.7468
   978.0000      0.0000    610.6627      6.8419     88.0921
   978.2500      0.0000    590.5458      6.8809     90.2279
   978.5000      0.0000    588.2653      6.8476     94.9025
   978.7500      0.0000    600.1343      6.7528    100.5080
   979.0000      0.0000    609.9884      6.6414    106.0831
   979.2500      0.0000    603.6105      6.5741    111.4284
   979.5000      0.0000    581.9269      6.5916    116.3194
   979.7500      0.0000    560.1303      6.6904    119.9582
   980.0000      0.0000    553.6143      6.8280    121.5733
   980.2500      0.0000    565.4364      6.9502    121.4590
   980.5000      0.0000    588.3210      7.0215    121.0414
   980.7500      0.0000    615.2056      7.0387    121.8616
   981.0000      0.0000    643.0691      7.0243    124.7308
   981.2500      0.0000    669.0222      7.0054    129.6948
   981.5000      0.0000    688.9107      6.9969    136.1570
   981.7500      0.0000    700.4196      6.9985    142.8085
   982.0000      0.0000    704.5386      7.0028    148.0563
   982.2500      0.0000    703.5746      6.9988    151.0251
   982.5000      0.0000    699.3137      6.9722    151.9245
   982.7500      0.0000    693.0150      6.9093    151.2339
   983.0000      0.0000    685.5269      6.8068    148.9726
   983.2500      0.0000    676.2079      6.6827    145.1423
   983.5000      0.0000    662.2811      6.5774    140.5050
   983.7500      0.0000    640.3950      6.5391    136.2734
   984.0000      0.0000    609.3125      6.5999    133.1504
   984.2500      0.0000    570.8087      6.7577    131.2389
   984.5000      0.0000    528.7446      6.9742    130.6400
   984.7500      0.0000    488.9225      7.1927    131.1896
   985.0000      0.0000    458.7491      7.3649    131.4448
   985.2500      0.0000    443.1777      7.4679    128.8640
   985.5000      0.0000    439.5054      7.4990    121.7217
   985.7500      0.0000    438.3561      7.4620    110.8138
   986.0000      0.0000    431.5206      7.3680     99.1637
   986.2500      0.0000    418.3920      7.2488     90.3628
   986.5000      0.0000    404.5612      7.1560     87.1334
   986.7500      0.0000    395.4574      7.1307     90.4979
   987.0000      0.0000    392.2774      7.1699     99.3418
   987.2500      0.0000    392.9125      7.2264    110.7536
   987.5000      0.0000    394.9972      7.2452    121.4116
   987.7500      0.0000    397.4279      7.2015    129.0270
   988.0000      0.0000    399.9174      7.1063    132.6889
   988.2500      0.0000    402.1848      6.9854    132.4545
   988.5000      0.0000    403.7893      6.8624    129.2046
   988.7500      0.0000    404.4154      6.7576    124.6188
   989.0000      0.0000    404.0583      6.6902    120.5237
   989.2500      0.0000    402.9663      6.6703    117.9518
   989.5000      0.0000    401.5002      6.6880    116.8200
   989.7500      0.0000    400.0453      6.7156    116.2288
   990.0000      0.0000    398.9402      6.7236    114.9618
   990.2500      0.0000    398.3636      6.6978    112.1611
   990.5000      0.0000    398.2660      6.6444    107.8668
   990.7500      0.0000    398.4369      6.5832    102.9946
   991.0000      0.0000    398.6577      6.5365     99.0467
   991.2500      0.0000    398.8352      6.5189     97.6666
   991.5000      0.0000    399.0782      6.5332     99.6278
   991.7500      0.0000    399.9151      6.5726    103.9101
   992.0000      0.0000    402.8633      6.6260    108.3496
   992.2500      0.0000    411.3176      6.6800    111.4563
   992.5000      0.0000    430.6729      6.7192    113.3405
   992.7500      0.0000    465.6187      6.7287    115.0479
   993.0000      0.0000    514.4386      6.7024    117.5857
   993.2500      0.0000    565.1100      6.6501    121.5155
   993.5000      0.0000    599.6170      6.5916    126.6373
   993.7500      0.0000    606.2053      6.5429    131.7428
   994.0000      0.0000    589.9902      6.5081    135.3660
   994.2500      0.0000    570.7844      6.4814    137.3106
   994.5000      0.0000    567.3067      6.4562    138.9157
   994.7500      0.0000    581.9067      6.4306    141.3501
   995.0000      0.0000    601.6217      6.4058    144.1223
   995.2500      0.0000    613.1962      6.3855    145.7105
   995.5000      0.0000    614.4166      6.3753    145.1911
   995.7500      0.0000    611.6334      6.3816    142.7837
   996.0000      0.0000    609.8168      6.4113    139.0075
   996.2500      0.0000    606.5919      6.4722    133.5889
