~Version Information
VERS.                      2.0: CWLS Log ASCII Standard - VERSION 2.0
WRAP.                       NO: One line per depth step
~Well Information Block
STRT.FT                -2.0000: 
STOP.FT              2017.5000: 
STEP.FT                 0.2500: 
NULL.                -999.2500: 
COMP.          Pioneer Natural Resources: COMPANY
WELL.            Zink 44-10 Tr: WELL
FLD.           Purgatoire River: FIELD
LOC.           486' FSL & 554' FEL--: LOCATION
PROV.                 Colorado: PROVINCE
CNTY.               Las Animas: COUNTRY
SRVC.                Patterson: SERVICE COMPANY
DATE.          Mon Aug 01 14:01:23 2005: LOG DATE
UWI.           05 071 08446 00: UNIQUE WELL ID
~Curve Information Block
DEPT.FT            0 000 00 00: Depth
CCL.                          : Casing Collar Locator
TT3.usec                      : CBL 3' Travel Time
AMP3.mV                       : CBL 3' Amplitude
GR.GAPI                       : Gamma Ray
~Parameter Information Block
~A  Depth       CCL         TT3         AMP3         GR     
# ...
  1706.5000      0.0000   1009.9426     10.0064     84.4434
  1706.7500      0.0000    991.6306     10.0460     85.1882
  1707.0000      0.0000    978.7997     10.0975     85.9074
  1707.2500      0.0000    971.0597     10.1397     85.6324
  1707.5000      0.0000    963.1880     10.1541     84.7428
  1707.7500      0.0000    950.4395     10.1275     84.7116
  1708.0000      0.0000    932.5596     10.0559     86.8545
  1708.2500      0.0000    913.4863      9.9467     91.4981
  1708.5000      0.0000    897.8053      9.8183     98.0359
  1708.7500      0.0000    886.1743      9.6961    105.3903
  1709.0000      0.0000    874.4224      9.6046    112.5902
  1709.2500      0.0000    858.6140      9.5570    119.1674
  1709.5000      0.0000    839.9514      9.5472    124.9219
  1709.7500      0.0000    823.5742      9.5522    129.3918
  1710.0000      0.0000    813.9340      9.5425    131.8344
  1710.2500      0.0000    812.3127      9.4942    131.9187
  1710.5000      0.0000    817.1406      9.4009    130.3964
  1710.7500      0.0000    825.2540      9.2826    128.6609
  1711.0000      0.0000    833.6163      9.1797    127.2675
  1711.2500      0.0000    841.1135      9.1238    125.1267
  1711.5000      0.0000    849.5753      9.1093    120.4936
  1711.7500      0.0000    862.9562      9.0998    112.5555
  1712.0000      0.0000    884.3941      9.0651    102.0475
  1712.2500      0.0000    912.3571      9.0066     90.8840
  1712.5000      0.0000    939.1799      8.9495     81.4445
  1712.7500      0.0000    954.4075      8.9130     75.5757
  1713.0000      0.0000    951.3928      8.8934     73.6491
  1713.2500      0.0000    932.6829      8.8722     74.4988
  1713.5000      0.0000    909.3491      8.8460     76.2832
  1713.7500      0.0000    893.7796      8.8410     77.4564
  1714.0000      0.0000    892.4659      8.8924     77.2542
  1714.2500      0.0000    905.8088      9.0091     75.6582
  1714.5000      0.0000    932.6307      9.1627     73.0257
  1714.7500      0.0000    972.3228      9.3064     69.7280
  1715.0000      0.0000   1021.6560      9.3991     66.0426
  1715.2500      0.0000   1070.2618      9.4209     62.1138
  1715.5000      0.0000   1102.3834      9.3772     57.9000
  1715.7500      0.0000   1106.8340      9.2907     53.3954
  1716.0000      0.0000   1084.9806      9.1875     48.9887
  1716.2500      0.0000   1047.5492      9.0883     45.3545
  1716.5000      0.0000   1005.2751      9.0083     42.8861
  1716.7500      0.0000    963.7589      8.9587     41.3614
  1717.0000      0.0000    924.9458      8.9496     40.1291
  1717.2500      0.0000    890.5989      8.9918     38.5714
  1717.5000      0.0000    863.5002      9.0920     36.6029
  1717.7500      0.0000    845.9932      9.2432     34.9024
  1718.0000      0.0000    837.6234      9.4208     34.5017
  1718.2500      0.0000    834.7014      9.5921     35.9517
  1718.5000      0.0000    832.9662      9.7298     38.8963
  1718.7500      0.0000    830.9019      9.8134     42.5009
  1719.0000      0.0000    829.8112      9.8247     46.3605
  1719.2500      0.0000    830.8462      9.7537     50.9054
  1719.5000      0.0000    832.8015      9.6145     56.6453
  1719.7500      0.0000    833.3342      9.4491     63.1438
  1720.0000      0.0000    831.5283      9.3097     69.2258
  1720.2500      0.0000    828.6921      9.2379     74.1325
  1720.5000      0.0000    826.8456      9.2540     78.0014
  1720.7500      0.0000    826.7327      9.3529     81.3741
  1721.0000      0.0000    827.0771      9.5020     84.6756
  1721.2500      0.0000    825.6051      9.6510     88.1260
  1721.5000      0.0000    821.1495      9.7560     91.8755
  1721.7500      0.0000    815.0602      9.8022     96.1397
  1722.0000      0.0000    810.3875      9.8058    100.9873
  1722.2500      0.0000    809.4317      9.7944    105.9681
  1722.5000      0.0000    811.8533      9.7865    110.3411
  1722.7500      0.0000    815.0985      9.7879    113.7421
  1723.0000      0.0000    816.8264      9.8030    116.3467
  1723.2500      0.0000    816.9313      9.8434    118.3168
  1723.5000      0.0000    817.0751      9.9199    119.1791
  1723.7500      0.0000    818.5609     10.0229    117.7484
  1724.0000      0.0000    821.1553     10.1146    113.1129
  1724.2500      0.0000    823.7276     10.1486    106.3327
  1724.5000      0.0000    825.4284     10.0995    100.8180
  1724.7500      0.0000    826.1260      9.9724    100.1180
  1725.0000      0.0000    826.0126      9.7890    105.1552
  1725.2500      0.0000    825.3170      9.5745    113.7631
  1725.5000      0.0000    824.6270      9.3557    122.4805
  1725.7500      0.0000    825.0139      9.1565    128.5605
  1726.0000      0.0000    827.3051      8.9888    130.9072
  1726.2500      0.0000    831.2006      8.8534    129.9423
  1726.5000      0.0000    835.2722      8.7512    126.9312
  1726.7500      0.0000    837.8458      8.6857    123.4140
  1727.0000      0.0000    837.9135      8.6572    120.8915
  1727.2500      0.0000    835.4850      8.6617    120.2735
  1727.5000      0.0000    831.4919      8.6941    121.2850
  1727.7500      0.0000    827.3234      8.7447    122.6717
  1728.0000      0.0000    824.0502      8.7969    123.1931
  1728.2500      0.0000    821.8687      8.8348    122.4282
  1728.5000      0.0000    820.2477      8.8527    120.8690
  1728.7500      0.0000    818.5706      8.8560    119.5465
  1729.0000      0.0000    816.6918      8.8537    119.4870
  1729.2500      0.0000    815.0476      8.8543    121.2551
  1729.5000      0.0000    814.2897      8.8643    124.7598
  1729.7500      0.0000    814.9459      8.8876    129.0996
  1730.0000      0.0000    817.4836      8.9249    132.5632
  1730.2500      0.0000    822.1358      8.9770    133.5001
  1730.5000      0.0000    828.1525      9.0467    131.7793
  1730.7500      0.0000    833.5739      9.1356    129.0962
  1731.0000      0.0000    836.3392      9.2402    127.3654
  1731.2500      0.0000    835.6321      9.3515    126.8601
  1731.5000      0.0000    832.2184      9.4585    126.2155
  1731.7500      0.0000    827.6642      9.5512    124.1392
  1732.0000      0.0000    823.2027      9.6223    120.7667
  1732.2500      0.0000    819.2065      9.6671    117.3392
  1732.5000      0.0000    815.8606      9.6847    114.8454
  1732.7500      0.0000    814.3515      9.6814    113.3188
  1733.0000      0.0000    817.0670      9.6721    112.3596
  1733.2500      0.0000    826.0958      9.6753    111.6412
  1733.5000      0.0000    841.2170      9.7064    110.5158
  1733.7500      0.0000    859.3084      9.7726    107.9365
  1734.0000      0.0000    875.5555      9.8725    103.7547
  1734.2500      0.0000    885.1558      9.9941     99.7818
  1734.5000      0.0000    884.9523     10.1133     98.5629
  1734.7500      0.0000    876.0172     10.2014    100.8831
  1735.0000      0.0000    866.0277     10.2398    104.9431
  1735.2500      0.0000    866.7419     10.2313    108.0798
  1735.5000      0.0000    884.9487     10.1892    108.9498
  1735.7500      0.0000    914.2231     10.0966    107.9549
  1736.0000      0.0000    937.6978      9.8805    106.0609
  1736.2500      0.0000    942.5429      9.4679    103.8652
  1736.5000      0.0000    932.3725      8.8949    101.8405
  1736.7500      0.0000    923.2389      8.3207    100.8339
  1737.0000      0.0000    927.7520      7.8976    101.6774
  1737.2500      0.0000    945.3219      7.6567    104.4659
  1737.5000      2.0000    966.1917      7.5332    108.6141
  1737.7500     -2.0000    980.5755      7.4528    113.4492
  1738.0000     -2.0000    983.7937      7.3707    118.4294
  1738.2500      0.0000    975.9335      7.2690    123.0333
  1738.5000      0.0000    958.6067      7.1605    126.9254
  1738.7500      0.0000    933.4905      7.0916    130.0948
  1739.0000      0.0000    904.3669      7.1255    132.4056
  1739.2500      0.0000    877.7200      7.3083    133.2715
  1739.5000      0.0000    859.0515      7.6276    132.4196
  1739.7500      0.0000    849.7565      7.9992    130.8625
