~Version Information
VERS.                      2.0: CWLS Log ASCII Standard - VERSION 2.0
WRAP.                       NO: One line per depth step
~Well Information Block
STRT.FT                -9.5000: 
STOP.FT              2305.7500: 
STEP.FT                 0.2500: 
NULL.                -999.2500: 
COMP.          Pioneer Natural Resources: COMPANY
WELL.          Fittipaldi 21-12: WELL
FLD.           Purgatorie River: FIELD
LOC.           207' FNL & 2110' FWL--: LOCATION
CNTY.               Las Animas: COUNTY
SRVC.          Patterson Wireline: SERVICE COMPANY
DATE.          Wed Apr 12 10:38:25 2006: LOG DATE
UWI.           05 071 08492 00: UNIQUE WELL ID
STAT.                       CO: STATE
~Curve Information Block
DEPT.FT            0 000 00 00: Depth
CCL.                          : Casing Collar Locator
TT3.usec                      : CBL 3' Travel Time
AMP3.mV                       : CBL 3' Amplitude
GR.GAPI                       : Gamma Ray
~Parameter Information Block
~A  Depth       CCL         TT3         AMP3         GR     
# ...
  1799.5000      0.0000    665.0283      3.3298     94.2738
  1799.7500      2.0000    660.9046      3.3720     95.0274
  1800.0000      0.0000    644.2060      3.4120     97.2111
  1800.2500      0.0000    617.8207      3.4368     99.8632
  1800.5000      0.0000    591.0859      3.4311    102.7622
  1800.7500      0.0000    573.5754      3.3879    105.9769
  1801.0000      0.0000    567.2908      3.3169    109.3085
  1801.2500      0.0000    565.2240      3.2446    112.2104
  1801.5000      0.0000    558.0492      3.1990    113.9591
  1801.7500      0.0000    542.1461      3.1888    113.7308
  1802.0000      0.0000    521.6943      3.1983    110.9681
  1802.2500      0.0000    504.4361      3.2051    106.1274
  1802.5000      0.0000    496.1682      3.1992    100.8365
  1802.7500      0.0000    498.0011      3.1843     97.0955
  1803.0000      0.0000    506.6062      3.1664     96.1392
  1803.2500      0.0000    516.2023      3.1493     97.3866
  1803.5000      0.0000    521.5487      3.1379     98.1503
  1803.7500      0.0000    520.7385      3.1379     95.4290
  1804.0000      0.0000    515.7099      3.1508     89.1077
  1804.2500      0.0000    509.9136      3.1724     82.8046
  1804.5000      0.0000    505.5936      3.1961     80.5298
  1804.7500      0.0000    503.0524      3.2175     82.7099
  1805.0000      0.0000    501.6367      3.2350     86.0579
  1805.2500      0.0000    500.7805      3.2484     86.9415
  1805.5000      0.0000    500.4205      3.2587     84.2654
  1805.7500      0.0000    501.1584      3.2684     79.4470
  1806.0000      0.0000    504.6121      3.2817     74.5995
  1806.2500      0.0000    513.6465      3.3030     71.1162
  1806.5000      0.0000    531.4645      3.3355     69.3346
  1806.7500      0.0000    559.1317      3.3796     68.8459
  1807.0000      0.0000    593.4302      3.4321     69.1258
  1807.2500      0.0000    627.8156      3.4848     70.0311
  1807.5000      0.0000    656.1249      3.5281     71.7028
  1807.7500      0.0000    675.4371      3.5570     74.3788
  1808.0000      0.0000    685.9204      3.5748     78.5891
  1808.2500      0.0000    689.2366      3.5878     85.0916
  1808.5000      0.0000    687.7726      3.5954     94.2614
  1808.7500      0.0000    684.7153      3.5894    105.6536
  1809.0000      0.0000    683.3442      3.5623    117.9271
  1809.2500      0.0000    685.0430      3.5183    128.8659
  1809.5000      0.0000    687.9185      3.4729    136.0835
  1809.7500      0.0000    687.4709      3.4425    138.5086
  1810.0000      0.0000    678.4385      3.4330    137.1391
  1810.2500      0.0000    656.8965      3.4390    134.2054
  1810.5000      0.0000    622.8080      3.4522    131.8285
  1810.7500      0.0000    581.5742      3.4671    131.2284
  1811.0000      0.0000    541.9249      3.4816    132.4944
  1811.2500      0.0000    511.0556      3.4931    134.8547
  1811.5000      0.0000    491.4056      3.4978    137.2785
  1811.7500      0.0000    481.3287      3.4935    138.9474
  1812.0000      0.0000    477.7318      3.4810    139.4642
  1812.2500      0.0000    478.1439      3.4643    138.8913
  1812.5000      0.0000    481.3543      3.4488    137.3282
  1812.7500      0.0000    486.8641      3.4396    134.3933
  1813.0000      0.0000    493.6740      3.4428    129.8120
  1813.2500      0.0000    499.4780      3.4643    124.8122
  1813.5000      0.0000    501.4699      3.5024    122.0467
  1813.7500      0.0000    498.3775      3.5406    123.3089
  1814.0000      0.0000    491.6347      3.5553    127.4824
  1814.2500      0.0000    484.2815      3.5351    131.2192
  1814.5000      0.0000    478.7429      3.4949    131.7600
  1814.7500      0.0000    475.6243      3.4643    128.9948
  1815.0000      0.0000    474.1627      3.4626    124.8959
  1815.2500      0.0000    473.3809      3.4864    121.3610
  1815.5000      0.0000    473.0693      3.5206    118.9120
  1815.7500      0.0000    474.4618      3.5543    117.0966
  1816.0000      0.0000    480.6527      3.5860    115.2467
  1816.2500      0.0000    495.9421      3.6178    112.6598
  1816.5000      0.0000    522.7794      3.6502    108.7839
  1816.7500      0.0000    557.3547      3.6797    103.6212
  1817.0000      0.0000    588.9490      3.7001     97.7818
  1817.2500      0.0000    607.0727      3.7047     92.2340
  1817.5000      0.0000    611.2635      3.6907     88.0896
  1817.7500      0.0000    612.2188      3.6609     86.2539
  1818.0000      0.0000    621.0549      3.6209     87.0168
  1818.2500      0.0000    638.1100      3.5751     89.9973
  1818.5000      0.0000    654.1388      3.5243     94.2305
  1818.7500      0.0000    661.4655      3.4700     98.2441
  1819.0000      0.0000    660.9936      3.4198    100.8099
  1819.2500      0.0000    658.2744      3.3877    102.0932
  1819.5000      0.0000    656.0090      3.3857    103.4826
  1819.7500      0.0000    651.2620      3.4146    105.8141
  1820.0000      0.0000    637.1305      3.4664    108.1756
  1820.2500      0.0000    606.3467      3.5365    108.7905
  1820.5000      0.0000    557.2551      3.6304    106.7001
  1820.7500      0.0000    499.2168      3.7526    102.3428
  1821.0000      0.0000    450.8165      3.8863     97.0359
  1821.2500      0.0000    430.4586      3.9924     92.2983
  1821.5000      0.0000    446.4170      4.0358     89.2790
  1821.7500      0.0000    492.0935      4.0135     88.4311
  1822.0000      0.0000    548.2819      3.9533     89.7387
  1822.2500      0.0000    592.3676      3.8862     93.0986
  1822.5000      0.0000    610.3276      3.8265     98.1469
  1822.7500      0.0000    604.0240      3.7765    103.9309
  1823.0000      0.0000    588.5803      3.7414    109.5262
  1823.2500      0.0000    580.7407      3.7303    115.2825
  1823.5000      0.0000    586.6171      3.7439    122.8630
  1823.7500      0.0000    599.4901      3.7653    133.3996
  1824.0000      0.0000    609.1591      3.7706    145.8498
  1824.2500      0.0000    612.4003      3.7499    157.7306
  1824.5000      0.0000    614.6769      3.7155    167.0699
  1824.7500      0.0000    623.2816      3.6864    173.0185
  1825.0000      0.0000    639.3076      3.6669    175.3295
  1825.2500      0.0000    655.3690      3.6451    174.4071
  1825.5000      0.0000    660.3650      3.6109    171.5866
  1825.7500      0.0000    646.9107      3.5698    168.5183
  1826.0000      0.0000    616.4722      3.5361    166.2606
  1826.2500      0.0000    579.7440      3.5196    165.1297
  1826.5000      0.0000    551.5136      3.5210    164.9442
  1826.7500      0.0000    542.8034      3.5361    165.0161
  1827.0000      0.0000    555.9902      3.5612    164.1013
  1827.2500      0.0000    585.4276      3.5919    160.7310
  1827.5000      0.0000    620.8125      3.6205    153.9855
  1827.7500      0.0000    650.5967      3.6384    144.3333
  1828.0000      0.0000    665.4298      3.6451    133.7769
  1828.2500      0.0000    661.2125      3.6522    124.8561
  1828.5000      0.0000    640.1953      3.6717    119.2844
  1828.7500      0.0000    609.6554      3.7015    117.4798
  1829.0000      0.0000    578.8424      3.7290    119.1048
  1829.2500      0.0000    555.2286      3.7462    123.6352
  1829.5000      0.0000    541.9984      3.7551    130.2571
  1829.7500      0.0000    538.5206      3.7623    137.4021
  1830.0000      0.0000    542.5938      3.7714    143.0203
  1830.2500      0.0000    551.5665      3.7824    146.0935
  1830.5000      0.0000    562.2249      3.7948    147.8184
  1830.7500      0.0000    572.0270      3.8098    150.5272
  1831.0000      0.0000    581.3877      3.8275    155.1162
  1831.2500      0.0000    593.1611      3.8443    159.8515
  1831.5000      0.0000    608.9040      3.8552    161.8803
  1831.7500      0.0000    626.7723      3.8599    159.6901
  1832.0000      0.0000    643.4825      3.8628    154.1213
  1832.2500      0.0000    657.5745      3.8698    147.7184
  1832.5000      0.0000    670.2777      3.8854    143.4761
  1832.7500      0.0000    682.8729      3.9109    143.3293
