~Version Information
VERS.                      2.0: CWLS Log ASCII Standard - VERSION 2.0
WRAP.                       NO: One line per depth step
~Well Information Block
STRT.FT               460.0000: 
STOP.FT              2311.7500: 
STEP.FT                 0.2500: 
NULL.                -999.2500: 
COMP.          Pioneer Natural Resources: COMPANY
WELL.          McDonald 33-31 R: WELL
FLD.           Purgatoire River: FIELD
LOC.           1386' FSL & 1926' FEL: LOCATION
STAT.                 Colorado: State
CNTY.               Las Animas: COUNTY
CTRY.                      USA: Country
SECT.                       31: Section
TOWN.                      32S: Township
RANG.                      66W: Range
SRVC.                Patterson: SERVICE COMPANY
DATE.          Fri Sep 23 00:08:18 2005: LOG DATE
API.           05 071 08533 00: API#
~Curve Information Block
DEPT.FT            0 000 00 00: Depth
SN.Ohm-m                      : IEL Short Normal
SP.mV                         : IEL Spontaneous Potential
DIR.Ohm-m                     : IEL Induction Resistivity
GR.GAPI                       : Gamma Ray
~Parameter Information Block
~A  Depth        SN          SP         DIR          GR     
# ...
   828.5000      1.0644   -399.0576     13.1012    103.9558
   828.7500      1.0746   -399.1182     13.4449    104.7158
   829.0000      1.0850   -399.2240     13.6691    106.9035
   829.2500      1.1071   -399.4055     13.7547    108.9345
   829.5000      1.1336   -399.6894     13.7037    112.3512
   829.7500      1.1423   -400.0832     13.5382    114.6709
   830.0000      1.1254   -400.5593     13.2913    118.0540
   830.2500      1.1041   -401.0429     12.9966    120.0409
   830.5000      1.1059   -401.4131     12.6820    122.0925
   830.7500      1.1311   -401.5220     12.3684    122.8327
   831.0000      1.1545   -401.2317     12.0705    123.8879
   831.2500      1.1584   -400.4597     11.7987    125.1702
   831.5000      1.1536   -399.2165     11.5607    127.8638
   831.7500      1.1649   -397.6191     11.3642    129.2816
   832.0000      1.2035   -395.8728     11.2185    129.1277
   832.2500      1.2566   -394.2225     11.1339    127.2541
   832.5000      1.3006   -392.8909     11.1195    123.0203
   832.7500      1.3203   -392.0252     11.1803    120.3540
   833.0000      1.3135   -391.6701     11.3149    117.7068
   833.2500      1.2845   -391.7729     11.5139    116.7085
   833.5000      1.2408   -392.2165     11.7607    115.3376
   833.7500      1.1969   -392.8613     12.0353    113.9901
   834.0000      1.1694   -393.5838     12.3196    111.2041
   834.2500      1.1634   -394.2974     12.6001    109.2449
   834.5000      1.1713   -394.9565     12.8670    107.0706
   834.7500      1.1882   -395.5461     13.1114    106.3438
   835.0000      1.2171   -396.0675     13.3256    105.9843
   835.2500      1.2549   -396.5242     13.5051    105.9825
   835.5000      1.2834   -396.9153     13.6507    106.3779
   835.7500      1.2840   -397.2326     13.7660    107.0287
   836.0000      1.2569   -397.4631     13.8575    108.4395
   836.2500      1.2176   -397.5949     13.9332    109.3853
   836.5000      1.1790   -397.6208     14.0020    110.3853
   836.7500      1.1456   -397.5438     14.0703    110.6519
   837.0000      1.1214   -397.3807     14.1416    110.3080
   837.2500      1.1113   -397.1606     14.2224    109.5819
   837.5000      1.1133   -396.9221     14.3308    108.2596
   837.7500      1.1162   -396.7047     14.4986    107.6735
   838.0000      1.1104   -396.5391     14.7628    107.1358
   838.2500      1.0995   -396.4378     15.1517    106.1290
   838.5000      1.0975   -396.3894     15.6711    101.7924
   838.7500      1.1160   -396.3603     16.3001     96.6277
   839.0000      1.1572   -396.3042     16.9953     86.7586
   839.2500      1.2161   -396.1779     17.7071     80.3807
   839.5000      1.2814   -395.9565     18.3999     73.9270
   839.7500      1.3334   -395.6430     19.0635     72.4806
   840.0000      1.3500   -395.2681     19.7050     73.8396
   840.2500      1.3277   -394.8802     20.3247     75.9514
   840.5000      1.2928   -394.5298     20.8980     79.2469
   840.7500      1.2810   -394.2527     21.3794     81.1036
   841.0000      1.3008   -394.0614     21.7278     83.3228
   841.2500      1.3251   -393.9430     21.9345     84.4652
   841.5000      1.3228   -393.8658     22.0327     85.6115
   841.7500      1.2964   -393.7909     22.0824     85.9609
   842.0000      1.2805   -393.6816     22.1415     85.8834
   842.2500      1.3006   -393.5123     22.2431     85.4032
   842.5000      1.3424   -393.2713     22.3878     83.8724
   842.7500      1.3666   -392.9611     22.5515     82.2918
   843.0000      1.3545   -392.5957     22.7021     79.4073
   843.2500      1.3299   -392.1975     22.8159     77.4789
   843.5000      1.3307   -391.7943     22.8864     75.1494
   843.7500      1.3640   -391.4165     22.9219     74.2285
   844.0000      1.3996   -391.0953     22.9350     74.0455
   844.2500      1.4048   -390.8609     22.9335     74.7036
   844.5000      1.3739   -390.7399     22.9193     76.5268
   844.7500      1.3262   -390.7522     22.8939     78.0538
   845.0000      1.2848   -390.9077     22.8636     80.4752
   845.2500      1.2646   -391.2022     22.8375     81.8922
   845.5000      1.2732   -391.6163     22.8197     82.8402
   845.7500      1.3137   -392.1163     22.8047     82.1547
   846.0000      1.3787   -392.6587     22.7804     78.9791
   846.2500      1.4451   -393.1963     22.7371     75.9253
   846.5000      1.4843   -393.6848     22.6749     71.4081
   846.7500      1.4856   -394.0871     22.6033     69.2925
   847.0000      1.4649   -394.3751     22.5365     68.3248
   847.2500      1.4482   -394.5290     22.4858     69.1226
   847.5000      1.4500   -394.5365     22.4545     71.5812
   847.7500      1.4706   -394.3928     22.4356     73.2158
   848.0000      1.5097   -394.1022     22.4139     74.1558
   848.2500      1.5674   -393.6805     22.3725     73.2907
   848.5000      1.6283   -393.1566     22.2988     70.3490
   848.7500      1.6605   -392.5721     22.1892     68.2731
   849.0000      1.6452   -391.9764     22.0541     66.2354
   849.2500      1.5992   -391.4214     21.9198     65.5628
   849.5000      1.5594   -390.9545     21.8233     64.9747
   849.7500      1.5475   -390.6119     21.7972     64.8180
   850.0000      1.5560   -390.4147     21.8548     65.3106
   850.2500      1.5657   -390.3656     21.9853     66.1040
   850.5000      1.5706   -390.4495     22.1617     67.2409
   850.7500      1.5842   -390.6347     22.3557     67.4939
   851.0000      1.6184   -390.8791     22.5486     67.0062
   851.2500      1.6636   -391.1373     22.7352     66.3705
   851.5000      1.6951   -391.3698     22.9199     65.2595
   851.7500      1.7003   -391.5500     23.1094     64.3294
   852.0000      1.6904   -391.6675     23.3061     62.4677
   852.2500      1.6841   -391.7273     23.5035     61.0588
   852.5000      1.6861   -391.7436     23.6859     59.2873
   852.7500      1.6853   -391.7328     23.8290     58.5906
   853.0000      1.6711   -391.7071     23.9050     58.1860
   853.2500      1.6496   -391.6705     23.8947     58.0598
   853.5000      1.6387   -391.6185     23.7986     57.6822
   853.7500      1.6502   -391.5407     23.6385     57.2886
   854.0000      1.6760   -391.4248     23.4415     56.6564
   854.2500      1.6964   -391.2610     23.2190     56.2111
   854.5000      1.7017   -391.0466     22.9564     55.3223
   854.7500      1.6977   -390.7882     22.6206     54.5560
   855.0000      1.6918   -390.5022     22.1772     53.5326
   855.2500      1.6829   -390.2116     21.6075     53.4141
   855.5000      1.6714   -389.9417     20.9153     55.0687
   855.7500      1.6704   -389.7126     20.1231     57.7861
   856.0000      1.6960   -389.5349     19.2630     64.1979
   856.2500      1.7473   -389.4068     18.3674     69.5686
   856.5000      1.8027   -389.3152     17.4639     78.3131
   856.7500      1.8401   -389.2402     16.5716     84.2156
   857.0000      1.8590   -389.1611     15.7023     92.9556
   857.2500      1.8764   -389.0619     14.8634     98.6748
   857.5000      1.8978   -388.9343     14.0633    106.7310
   857.7500      1.9068   -388.7787     13.3130    111.3423
   858.0000      1.8917   -388.6027     12.6254    116.6835
   858.2500      1.8710   -388.4174     12.0112    119.3635
   858.5000      1.8758   -388.2347     11.4748    122.7688
   858.7500      1.9132   -388.0649     11.0127    124.8795
   859.0000      1.9583   -387.9148     10.6148    127.5820
   859.2500      1.9850   -387.7880     10.2678    128.7359
   859.5000      1.9926   -387.6852      9.9592    129.3190
   859.7500      1.9983   -387.6051      9.6806    129.3119
   860.0000      2.0118   -387.5448      9.4301    129.6458
   860.2500      2.0273   -387.4997      9.2118    130.3396
   860.5000      2.0398   -387.4626      9.0353    131.6673
   860.7500      2.0551   -387.4231      8.9137    132.2214
   861.0000      2.0774   -387.3683      8.8604    131.7655
   861.2500      2.0957   -387.2842      8.8870    130.4514
   861.5000      2.0918   -387.1586      8.9998    127.2214
   861.7500      2.0594   -386.9855      9.1988    124.3789
