~Version Information
VERS.                      2.0: CWLS Log ASCII Standard - VERSION 2.0
WRAP.                       NO: One line per depth step
~Well Information Block
STRT.FT               621.2500: 
STOP.FT               951.7500: 
STEP.FT                 0.2500: 
NULL.                -999.2500: 
COMP.          Pioneer Natural Resources: COMPANY
WELL.          Screamin 12-29 Tr: WELL
FLD.           Purgatoire River: FIELD
LOC.           1979' FNL & 532' FWL--: LOCATION
CNTY.               Las Animas: COUNTY
SRVC.                Patterson: SERVICE COMPANY
DATE.          Fri Mar 31 01:01:50 2006: LOG DATE
UWI.           05 071 08660 00: UNIQUE WELL ID
STAT.                 Colorado: STATE
~Curve Information Block
DEPT.FT            0 000 00 00: Depth
SN.Ohm-m                      : IEL Short Normal
SP.mV                         : IEL Spontaneous Potential
DIR.Ohm-m                     : IEL Induction Resistivity
GR.GAPI                       : Gamma Ray
~Parameter Information Block
~A  Depth        SN          SP         DIR          GR     
# ...
   654.7500     -5.0550   -555.2090 100000.0000     64.9742
   655.0000     -5.0588   -555.2128 100000.0000     63.1108
   655.2500     -5.0484   -555.2166 100000.0000     63.3625
   655.5000     -5.0224   -555.2203 100000.0000     65.7660
   655.7500     -4.9879   -555.2239 100000.0000     67.9517
   656.0000     -4.9563   -555.2269 100000.0000     70.6352
   656.2500     -4.9323   -555.2290 100000.0000     71.5082
   656.5000     -4.9119   -555.2299 100000.0000     71.0379
   656.7500     -4.8871   -555.2294 100000.0000     69.3659
   657.0000     -4.8531   -555.2276 100000.0000     64.8760
   657.2500     -4.8111   -555.2249 100000.0000     61.1323
   657.5000     -4.7684   -555.2217 100000.0000     56.2854
   657.7500     -4.7351   -555.2189 100000.0000     54.6861
   658.0000     -4.7209   -555.2173 100000.0000     55.6070
   658.2500     -4.7343   -555.2172 100000.0000     58.1294
   658.5000     -4.7806   -555.2191 100000.0000     63.2504
   658.7500     -4.8592   -555.2231 100000.0000     66.5495
   659.0000     -4.9581   -555.2292 100000.0000     70.3594
   659.2500     -5.0548   -555.2374 100000.0000     72.2285
   659.5000     -5.1268   -555.2481 100000.0000     74.7084
   659.7500     -5.1639   -555.2617 100000.0000     76.3866
   660.0000     -5.1667   -555.2787 100000.0000     78.9369
   660.2500     -5.1383   -555.3002 100000.0000     80.6391
   660.5000     -5.0843   -555.3270 100000.0000     83.2589
   660.7500     -5.0192   -555.3599 100000.0000     85.0019
   661.0000     -4.9640   -555.3996 100000.0000     87.2709
   661.2500     -4.9324   -555.4459 100000.0000     88.3140
   661.5000     -4.8925   -555.4982 100000.0000     88.8803
   661.7500     -4.7176   -555.5552 100000.0000     88.5495
   662.0000     -3.8874   -555.6144 100000.0000     87.1807
   662.2500     -0.8504   -555.6733 100000.0000     85.8730
   662.5000      7.6649   -555.7286 100000.0000     83.4444
   662.7500     25.7382   -555.7772 100000.0000     81.4400
   663.0000     54.0334   -555.8160 100000.0000     77.8198
   663.2500     84.9660   -555.8428 100000.0000     75.1619
   663.5000    104.8181   -555.8557 100000.0000     71.2774
   663.7500    104.5802   -555.8532 100000.0000     69.0746
   664.0000     88.2043   -555.8343 100000.0000     67.1699
   664.2500     67.9257   -555.7979 100000.0000     67.4717
   664.5000     52.9451   -555.7425 100000.0000     71.0652
   664.7500     44.5694   -555.6660 100000.0000     75.4218
   665.0000     39.9359   -555.5664 100000.0000     83.6072
   665.2500     36.8818   -555.4401 100000.0000     89.2189
   665.5000     35.0382   -555.2828 100000.0000     96.7144
   665.7500     34.5129   -555.0892 100000.0000    100.6970
   666.0000     35.0270   -554.8522 100000.0000    104.3904
   666.2500     35.9904   -554.5641      6.4188    104.7709
   666.5000     36.7901   -554.2166      3.6940    101.5726
   666.7500     36.9990   -553.8028      3.3918     97.0238
   667.0000     36.8281   -553.3217      4.2683     87.6289
   667.2500     37.8240   -552.7809      7.7291     80.6293
   667.5000     43.5460   -552.2023     38.6316     70.8875
   667.7500     60.1012   -551.6210 100000.0000     65.8793
   668.0000     94.9091   -551.0822 100000.0000     61.9213
   668.2500    150.4408   -550.6306 100000.0000     62.2048
   668.5000    214.9193   -550.2977 100000.0000     67.2848
   668.7500    262.2713   -550.0883    566.3314     73.2460
   669.0000    269.7178   -549.9752     18.1689     83.8638
   669.2500    238.6799   -549.9039      9.7918     90.5343
   669.5000    194.2507   -549.8085      7.3424     98.2870
   669.7500    161.9668   -549.6345      6.3896    101.8900
   670.0000    147.3189   -549.3600      6.0257    105.7089
   670.2500    138.4232   -549.0078      5.9325    107.6303
   670.5000    125.7326   -548.6434      5.9573    110.1270
   670.7500    116.7864   -548.3580      6.0134    111.8431
   671.0000    132.1696   -548.2437      6.0542    114.6935
   671.2500    188.2384   -548.3673      6.0715    116.5154
   671.5000    282.0604   -548.7529      6.0962    118.5693
   671.7500    390.5981   -549.3773      6.1872    119.6272
   672.0000    485.1104   -550.1782      6.4101    121.7891
   672.2500    548.6198   -551.0723      6.8124    123.9241
   672.5000    581.3802   -551.9746      7.3937    126.9231
   672.7500    592.5117   -552.8151      8.0697    127.3926
   673.0000    588.5117   -553.5472      8.6650    124.4392
   673.2500    567.8115   -554.1483      8.9974    120.5062
   673.5000    523.1370   -554.6172      9.0146    113.7787
   673.7500    449.7953   -554.9659      8.8217    109.8856
   674.0000    354.2599   -555.2136      8.5767    105.9380
   674.2500    254.4580   -555.3811      8.3982    104.5802
   674.5000    169.4409   -555.4888      8.3455    103.6948
   674.7500    108.2683   -555.5541      8.4309    103.2212
   675.0000     68.7198   -555.5917      8.6320    101.9760
   675.2500     44.2233   -555.6128      8.9029    100.8095
   675.5000     30.2286   -555.6260      9.1893     98.8199
   675.7500     26.0819   -555.6370      9.4473     97.3118
   676.0000     34.4334   -555.6493      9.6543     94.7197
   676.2500     58.5385   -555.6649      9.8084     93.0335
   676.5000     95.9607   -555.6837      9.9204     91.4175
   676.7500    132.9661   -555.7048     10.0059     91.3688
   677.0000    149.7557   -555.7263     10.0796     92.9465
   677.2500    136.6892   -555.7454     10.1503     94.6979
   677.5000    104.5615   -555.7593     10.2166     97.2140
   677.7500     76.7592   -555.7654     10.2653     98.3062
   678.0000     74.1550   -555.7612     10.2756     99.0691
   678.2500    108.2021   -555.7460     10.2307     99.4229
   678.5000    180.7954   -555.7203     10.1292    100.6977
   678.7500    282.5602   -555.6864      9.9899    102.5328
   679.0000    392.1091   -555.6481      9.8429    107.0144
   679.2500    483.9020   -555.6096      9.7158    110.7274
   679.5000    540.6995   -555.5748      9.6222    115.7750
   679.7500    558.2559   -555.5463      9.5602    117.8628
   680.0000    540.8811   -555.5248      9.5197    118.8413
   680.2500    498.5833   -555.5097      9.4925    118.9526
   680.5000    449.4600   -555.4991      9.4779    120.3138
   680.7500    416.4553   -555.4905      9.4819    122.4084
   681.0000    411.6736   -555.4821      9.5112    126.1641
   681.2500    422.5726   -555.4721      9.5682    128.0772
   681.5000    420.0913   -555.4599      9.6501    129.3478
   681.7500    384.1376   -555.4449      9.7506    129.4286
   682.0000    319.5440   -555.4273      9.8626    129.2521
   682.2500    247.9555   -555.4069      9.9792    129.1901
   682.5000    190.1477   -555.3834     10.0938    129.1364
   682.7500    158.7329   -555.3567     10.2019    129.0313
   683.0000    161.4475   -555.3263     10.3012    128.7415
   683.2500    201.9456   -555.2918     10.3923    128.4485
   683.5000    273.1743   -555.2529     10.4769    127.5945
   683.7500    352.3568   -555.2097     10.5570    126.4829
   684.0000    408.4624   -555.1627     10.6341    123.7278
   684.2500    421.2074   -555.1130     10.7104    121.2860
   684.5000    396.1921   -555.0628     10.7883    117.4952
   684.7500    360.4446   -555.0152     10.8688    115.5870
   685.0000    341.1610   -554.9741     10.9501    114.7714
   685.2500    349.1375   -554.9440     11.0253    115.7911
   685.5000    380.3195   -554.9288     11.0841    119.0063
   685.7500    424.1942   -554.9310     11.1157    121.5967
   686.0000    465.3747   -554.9514     11.1144    125.1377
   686.2500    484.6916   -554.9880     11.0834    126.8829
   686.5000    470.1885   -555.0366     11.0344    128.3349
   686.7500    430.4718   -555.0919     10.9816    128.6999
   687.0000    393.0707   -555.1481     10.9345    129.0592
   687.2500    383.6974   -555.2004     10.8949    129.5495
   687.5000    404.2047   -555.2457     10.8594    130.7720
   687.7500    432.0672   -555.2823     10.8257    131.6863
   688.0000    441.6463   -555.3104     10.7960    132.7771
