~Version Information
VERS.                      2.0: CWLS Log ASCII Standard - VERSION 2.0
WRAP.                       NO: One line per depth step
~Well Information Block
STRT.FT               400.0000: 
STOP.FT              2232.0000: 
STEP.FT                 0.2500: 
NULL.                -999.2500: 
COMP.          Evergreen Operating Corporation: COMPANY
WELL.                Croc 42-9: WELL
FLD.           Purgatorie River: FIELD
LOC.           2262' FNL & 238' FEL: LOCATION
STAT.                 Colorado: State
CNTY.               Las Animas: COUNTY
CTRY. USA : Country
SECT. 9 : Section
TOWN. 32S : Township
RANG. 66W : Range
SRVC.                Patterson: SERVICE COMPANY
DATE.          Wed Jul 21 23:25:54 2004: LOG DATE
API.           05 071 08106 00: UNIQUE WELL ID
~Curve Information Block
DEPT.FT            0 000 00 00: Depth
SN.Ohm-m                      : IEL Short Normal
SP.mV                         : IEL Spontaneous Potential
DIR.Ohm-m                     : IEL Induction Resistivity
GR.GAPI                       : Gamma Ray
~Parameter Information Block
~A  Depth        SN          SP         DIR          GR     
# ...
   768.5000     18.4759     33.1238     15.8546    112.6474
   768.7500     20.0251     33.1985     16.2905    108.1669
   769.0000     22.0718     33.2943     16.8681    102.4884
   769.2500     24.4400     33.4063     17.6518    100.1000
   769.5000     26.7977     33.5247     18.6924     98.9272
   769.7500     28.8715     33.6389     20.0086     99.2985
   770.0000     30.6164     33.7377     21.5733    100.3727
   770.2500     32.1373     33.8061     23.3188    100.9140
   770.5000     33.5115     33.8244     25.1644    101.1483
   770.7500     34.7577     33.7768     27.0451    101.0284
   771.0000     35.9044     33.6652     28.9098    101.0288
   771.2500     37.0053     33.5122     30.6841    101.5077
   771.5000     38.0785     33.3473     32.2412    102.9007
   771.7500     39.0482     33.1890     33.4280    103.7825
   772.0000     39.7916     33.0426     34.1444    104.1136
   772.2500     40.2403     32.9112     34.4036    103.5582
   772.5000     40.3624     32.8058     34.3086    101.9848
   772.7500     40.1007     32.7430     33.9681    100.6724
   773.0000     39.4527     32.7342     33.4394     98.6257
   773.2500     38.5403     32.7770     32.7356     97.6382
   773.5000     37.5043     32.8566     31.8684     97.8637
   773.7500     36.3973     32.9540     30.8777     99.6591
   774.0000     35.1988     33.0568     29.8215    104.9225
   774.2500     33.8771     33.1648     28.7497    109.8210
   774.5000     32.4295     33.2915     27.6871    118.2115
   774.7500     30.8708     33.4552     26.6388    123.5841
   775.0000     29.2178     33.6657     25.6039    129.5037
   775.2500     27.5339     33.9169     24.5885    131.3177
   775.5000     25.9731     34.1891     23.6121    131.0373
   775.7500     24.7259     34.4552     22.7075    129.6744
   776.0000     23.9060     34.6848     21.9155    127.2389
   776.2500     23.4899     34.8470     21.2759    125.4580
   776.5000     23.3598     34.9207     20.8186    121.6551
   776.7500     23.3966     34.9079     20.5571    118.0629
   777.0000     23.5277     34.8349     20.4846    112.2967
   777.2500     23.7071     34.7352     20.5739    109.6280
   777.5000     23.9053     34.6308     20.7836    109.0488
   777.7500     24.1299     34.5282     21.0724    110.6718
   778.0000     24.4156     34.4283     21.4154    113.9220
   778.2500     24.7967     34.3342     21.8106    115.1809
   778.5000     25.3116     34.2537     22.2715    114.1510
   778.7500     26.0164     34.1955     22.8159    111.3386
   779.0000     26.9866     34.1648     23.4579    104.7451
   779.2500     28.2711     34.1590     24.2078     99.6975
   779.5000     29.8005     34.1685     25.0712     92.6303
   779.7500     31.3626     34.1818     26.0351     88.4852
   780.0000     32.7099     34.1882     27.0418     82.5640
   780.2500     33.7093     34.1754     27.9680     78.7768
   780.5000     34.3604     34.1322     28.6493     74.8277
   780.7500     34.6433     34.0618     28.9588     74.6134
   781.0000     34.4359     33.9889     28.8772     78.8091
   781.2500     33.6907     33.9470     28.4819     83.9748
   781.5000     32.5837     33.9511     27.8794     93.1857
   781.7500     31.3630     33.9823     27.1579     99.1993
   782.0000     30.1748     33.9977     26.3844    106.5799
   782.2500     29.0741     33.9588     25.6107    109.7059
   782.5000     28.0800     33.8553     24.8691    111.2389
   782.7500     27.2021     33.7103     24.1699    110.7124
   783.0000     26.4541     33.5653     23.5131    109.6671
   783.2500     25.8362     33.4585     22.9031    109.9415
   783.5000     25.3197     33.4104     22.3544    112.4862
   783.7500     24.8661     33.4216     21.8872    115.1682
   784.0000     24.4540     33.4771     21.5221    119.2640
   784.2500     24.0972     33.5534     21.2754    121.3340
   784.5000     23.8333     33.6283     21.1563    122.8727
   784.7500     23.6883     33.6918     21.1647    122.9499
   785.0000     23.6688     33.7510     21.2915    122.3404
   785.2500     23.7930     33.8226     21.5210    121.8488
   785.5000     24.0966     33.9147     21.8389    121.0112
   785.7500     24.5992     34.0126     22.2407    119.9906
   786.0000     25.2776     34.0850     22.7353    116.9818
   786.2500     26.0790     34.1062     23.3381    113.8120
   786.5000     26.9603     34.0723     24.0550    107.6328
   786.7500     27.9134     33.9977     24.8713    102.9404
   787.0000     28.9545     33.9029     25.7545     95.7651
   787.2500     30.0973     33.8071     26.6656     91.4283
   787.5000     31.3391     33.7249     27.5680     86.5265
   787.7500     32.6506     33.6622     28.4174     84.3942
   788.0000     33.9524     33.6121     29.1444     81.7379
   788.2500     35.1102     33.5584     29.6650     79.5380
   788.5000     35.9720     33.4873     29.9436     75.7795
   788.7500     36.4363     33.3976     30.0688     74.0535
   789.0000     36.5155     33.3017     30.2551     74.4572
   789.2500     36.3279     33.2180     30.7398     76.9032
   789.5000     36.0359     33.1612     31.6505     82.7878
   789.7500     35.7849     33.1345     32.9241     87.4274
   790.0000     35.6485     33.1252     34.3168     94.3626
   790.2500     35.6093     33.1077     35.5139     98.1663
   790.5000     35.6408     33.0581     36.2850    100.8973
   790.7500     35.8090     32.9708     36.5672    100.0878
   791.0000     36.2303     32.8649     36.4256     95.4484
   791.2500     36.9494     32.7738     35.9737     91.1254
   791.5000     37.8830     32.7296     35.3361     84.5906
   791.7500     38.8563     32.7494     34.6470     80.7822
   792.0000     39.6842     32.8302     34.0361     76.2481
   792.2500     40.2279     32.9511     33.5896     74.1290
   792.5000     40.3923     33.0839     33.3238     72.4167
   792.7500     40.1209     33.2082     33.1874     72.1978
   793.0000     39.4438     33.3216     33.0973     73.4212
   793.2500     38.4865     33.4352     32.9811     75.7702
   793.5000     37.3924     33.5587     32.8046     82.4223
   793.7500     36.2826     33.6900     32.5790     88.7059
   794.0000     35.2465     33.8160     32.3546     99.0137
   794.2500     34.3155     33.9224     32.2050    105.0166
   794.5000     33.5031     34.0036     32.2044    110.7229
   794.7500     32.8813     34.0627     32.3953    111.8692
   795.0000     32.5832     34.1022     32.7623    110.1907
   795.2500     32.6970     34.1179     33.2392    107.5670
   795.5000     33.1940     34.0981     33.7557    102.3670
   795.7500     34.0992     34.0281     34.2962     98.2407
   796.0000     35.6607     33.8970     34.9203     91.1611
   796.2500     38.1158     33.7061     35.7331     86.0574
   796.5000     41.3495     33.4704     36.8379     78.3865
   796.7500     44.9151     33.2103     38.3101     73.4801
   797.0000     48.3255     32.9420     40.1897     66.5459
   797.2500     51.2672     32.6779     42.4794     62.3697
   797.5000     53.6258     32.4343     45.1293     57.5631
   797.7500     55.4207     32.2344     48.0142     55.8511
   798.0000     56.7433     32.1000     50.9366     55.5531
   798.2500     57.7219     32.0374     53.6770     56.1432
   798.5000     58.4790     32.0333     56.0765     56.4021
   798.7500     59.0949     32.0644     58.0771     55.4688
   799.0000     59.6002     32.1080     59.6729     52.6639
   799.2500     59.9746     32.1464     60.8286     50.6910
   799.5000     60.1438     32.1686     61.4733     49.0144
   799.7500     60.0095     32.1765     61.5828     48.9988
   800.0000     59.5190     32.1863     61.2709     49.8642
   800.2500     58.7125     32.2181     60.7818     50.3174
   800.5000     57.7118     32.2838     60.3778     50.1017
   800.7500     56.6632     32.3825     60.2011     49.4829
   801.0000     55.6661     32.5039     60.1891     48.6116
   801.2500     54.7429     32.6315     60.1017     48.4213
   801.5000     53.8760     32.7474     59.6669     48.6485
   801.7500     53.0615     32.8398     58.7682     48.7415
