~Version Information
VERS.                      2.0: CWLS Log ASCII Standard - VERSION 2.0
WRAP.                       NO: One line per depth step
~Well Information Block
STRT.FT               570.0000: 
STOP.FT              2090.5000: 
STEP.FT                 0.1000: 
NULL.                -999.2500: 
COMP.          XTO Energy Inc.: COMPANY
WELL.          Golden Eagle 19-10: WELL
FLD.           Purgatoire River: FIELD
LOC.           2684' FSL & 1825' FEL: LOCATION
CNTY.               Las Animas: COUNTY
SRVC.                Patterson: SERVICE COMPANY
DATE.          Mon Mar 06 07:05:15 2006: LOG DATE
UWI.           05 071 08697 00: UNIQUE WELL ID
STAT.                 Colorado: STATE
~Curve Information Block
DEPT.FT            0 000 00 00: Depth
DCAL.in                       : CDL Caliper
RHOB.g/cc                     : CDL Bulk Density
RHOC.g/cc                     : CDL Density Correction
DPOR.pu                       : CDL Density Porosity
GR.GAPI                       : Gamma Ray
NPOR.pu                       : Neutron Porosity
~Parameter Information Block
~A  Depth       DCAL        RHOB        RHOC        DPOR         GR         NPOR    
# ...
   867.6000      7.8592      2.5523      0.0147      5.9219    142.9728     24.7834
   867.7000      7.8592      2.5371     -0.0054      6.8433    150.9405     25.2235
   867.8000      7.8582      2.5286     -0.0300      7.3588    155.8156     26.1363
   867.9000      7.8582      2.5363      0.0159      6.8880    155.0232     26.9883
   868.0000      7.8576      2.5468      0.0276      6.2550    149.9790     26.9537
   868.1000      7.8576      2.5500      0.0034      6.0615    147.3483     26.2743
   868.2000      7.8576      2.5537      0.0274      5.8351    153.0147     25.8346
   868.3000      7.8588      2.5662     -0.0071      5.0811    162.5737     25.9116
   868.4000      7.8588      2.5804      0.0438      4.2153    164.1709     26.5012
   868.5000      7.8597      2.5778      0.0075      4.3732    156.5124     26.9568
   868.6000      7.8597      2.5531      0.0246      5.8729    148.1691     26.4470
   868.7000      7.8597      2.5246     -0.0491      7.6001    144.8501     25.4574
   868.8000      7.8593      2.5163     -0.0228      8.1061    145.0746     24.8109
   868.9000      7.8593      2.5312     -0.0107      7.2011    143.6116     24.6130
   869.0000      7.8582      2.5534      0.0008      5.8545    138.2718     24.5650
   869.1000      7.8582      2.5626      0.0117      5.2958    130.6889     24.5644
   869.2000      7.8582      2.5495     -0.0032      6.0913    123.7362     24.7888
   869.3000      7.8552      2.5281     -0.0345      7.3871    119.0563     25.1316
   869.4000      7.8552      2.5219     -0.0086      7.7643    117.7245     25.3326
   869.5000      7.8503      2.5352      0.0322      6.9604    119.2497     25.1696
   869.6000      7.8503      2.5462      0.0605      6.2909    121.1459     24.6215
   869.7000      7.8503      2.5396      0.0167      6.6939    121.6501     23.9729
   869.8000      7.8466      2.5290      0.0341      7.3316    119.8974     23.4155
   869.9000      7.8466      2.5333      0.0392      7.0712    115.6245     23.1993
   870.0000      7.8417      2.5548      0.0485      5.7717    110.0220     23.4449
   870.1000      7.8417      2.5791      0.0701      4.2988    108.2652     23.8548
   870.2000      7.8417      2.5906      0.0979      3.5972    112.4263     24.1351
   870.3000      7.8389      2.5933      0.0654      3.4352    116.0079     24.3002
   870.4000      7.8389      2.5975      0.0903      3.1846    114.0562     24.3450
   870.5000      7.8480      2.5964      0.1010      3.2456    107.6141     24.2395
   870.6000      7.8480      2.5802      0.0780      4.2306    102.6918     24.1320
   870.7000      7.8480      2.5554      0.0393      5.7335    103.4846     24.0597
   870.8000      7.8560      2.5409      0.0080      6.6146    106.6952     24.0360
   870.9000      7.8560      2.5488      0.0245      6.1342    111.1261     24.0547
   871.0000      7.8562      2.5684      0.0746      4.9463    118.8685     23.8680
   871.1000      7.8562      2.5775      0.0772      4.3939    126.7165     23.3910
   871.2000      7.8562      2.5808      0.0316      4.1916    127.2375     23.0090
   871.3000      7.8578      2.5982      0.0771      3.1383    119.8435     23.0879
   871.4000      7.8578      2.6269      0.0599      1.4015    114.6399     23.5082
   871.5000      7.8606      2.6491      0.0997      0.0575    117.2860     23.6748
   871.6000      7.8606      2.6475      0.1291      0.1510    120.6089     23.1680
   871.7000      7.8606      2.6215      0.1147      1.7248    120.1012     22.4454
   871.8000      7.8619      2.5910      0.0169      3.5760    119.2989     22.0468
   871.9000      7.8619      2.5738      0.0361      4.6183    119.0364     22.0862
   872.0000      7.8624      2.5688      0.0010      4.9209    118.5976     22.4749
   872.1000      7.8624      2.5685      0.0212      4.9403    122.7995     22.9086
   872.2000      7.8624      2.5688      0.0178      4.9184    131.3083     23.2171
   872.3000      7.8627      2.5687      0.0126      4.9296    133.7691     23.3728
   872.4000      7.8627      2.5666      0.0257      5.0529    129.2710     23.4248
   872.5000      7.8621      2.5586      0.0742      5.5421    124.5771     23.5051
   872.6000      7.8621      2.5430      0.0497      6.4856    119.5141     23.5945
   872.7000      7.8621      2.5260      0.0101      7.5144    113.9714     23.9294
   872.8000      7.8593      2.5151     -0.0014      8.1745    109.6529     24.7216
   872.9000      7.8593      2.5106      0.0109      8.4502    106.2271     25.3698
   873.0000      7.8566      2.5095     -0.0027      8.5160    104.7270     25.1756
   873.1000      7.8566      2.5130      0.0144      8.3042    106.7883     24.3161
   873.2000      7.8566      2.5212      0.0236      7.8075    111.8676     23.6264
   873.3000      7.8586      2.5278      0.0306      7.4079    117.5072     23.4627
   873.4000      7.8586      2.5267      0.0628      7.4714    120.9294     23.3818
   873.5000      7.8619      2.5201      0.0553      7.8730    121.0107     23.4042
   873.6000      7.8619      2.5119      0.0697      8.3711    121.7517     23.8742
   873.7000      7.8619      2.5075      0.0209      8.6383    124.2460     24.4814
   873.8000      7.8631      2.5181      0.0632      7.9916    124.4333     24.8162
   873.9000      7.8631      2.5420      0.0789      6.5463    121.5393     24.8707
   874.0000      7.8626      2.5653      0.1022      5.1336    118.2533     24.5513
   874.1000      7.8626      2.5829      0.1414      4.0686    115.1325     24.0096
   874.2000      7.8626      2.5958      0.1003      3.2844    111.3170     23.9548
   874.3000      7.8626      2.5999      0.1309      3.0385    111.7395     24.4686
   874.4000      7.8626      2.5921      0.1289      3.5085    119.5266     24.6336
   874.5000      7.8634      2.5811      0.1082      4.1736    127.5985     24.3177
   874.6000      7.8634      2.5682      0.1181      4.9547    130.2175     24.4206
   874.7000      7.8634      2.5505      0.0247      6.0324    129.0468     24.9624
   874.8000      7.8635      2.5418      0.0364      6.5560    127.5524     25.1057
   874.9000      7.8635      2.5475      0.0577      6.2125    124.6945     24.6217
   875.0000      7.8628      2.5544      0.0636      5.7941    117.8232     23.8812
   875.1000      7.8628      2.5596      0.0405      5.4807    111.4893     23.2132
   875.2000      7.8628      2.5710      0.0400      4.7901    108.8789     22.6531
   875.3000      7.8619      2.5866      0.0833      3.8426    105.7308     22.0676
   875.4000      7.8619      2.5970      0.0628      3.2100    100.9614     21.7134
   875.5000      7.8608      2.5940      0.0492      3.3954     98.0885     21.8871
   875.6000      7.8608      2.5764      0.0431      4.4585    100.3960     22.1626
   875.7000      7.8608      2.5609     -0.0028      5.4011    105.8071     22.1349
   875.8000      7.8601      2.5551      0.0398      5.7522    109.3981     22.2257
   875.9000      7.8601      2.5422      0.0342      6.5342    110.6607     22.4266
   876.0000      7.8603      2.5183     -0.0266      7.9819    109.2586     22.1862
   876.1000      7.8603      2.4995     -0.0235      9.1183    105.3426     21.6832
   876.2000      7.8603      2.4953     -0.0239      9.3736    103.6253     21.5775
   876.3000      7.8607      2.5136     -0.0466      8.2688    103.9374     21.8242
   876.4000      7.8607      2.5508      0.0353      6.0142    100.1784     21.9531
   876.5000      7.8608      2.5772      0.0633      4.4109     95.0612     21.6515
   876.6000      7.8608      2.5758      0.0496      4.4986     98.0622     21.0202
   876.7000      7.8608      2.5608      0.0431      5.4067    107.3861     20.6430
   876.8000      7.8611      2.5550     -0.0022      5.7583    112.0037     20.5836
   876.9000      7.8611      2.5630      0.0493      5.2740    108.3642     20.4121
   877.0000      7.8642      2.5700      0.0613      4.8478    102.7483     20.1379
   877.1000      7.8642      2.5728      0.0079      4.6764     99.9617     19.8574
