~Version Information
VERS.                      2.0: CWLS Log ASCII Standard - VERSION 2.0
WRAP.                       NO: One line per depth step
~Well Information Block
STRT.FT               491.0000: 
STOP.FT              1909.5000: 
STEP.FT                 0.1000: 
NULL.                -999.2500: 
COMP.          Pioneer Natural Resources: COMPANY
WELL.            Corazon 13-10: WELL
FLD.           Purgatoire River: FIELD
LOC.           2510' FSL & 439' FWL: LOCATION
PROV.                 Colorado: PROVINCE
CNTY.               Las Animas: COUNTRY
SRVC.                Patterson: SERVICE COMPANY
DATE.          Thu Dec 01 07:28:46 2005: LOG DATE
UWI.           05 071 08613 00: UNIQUE WELL ID
~Curve Information Block
DEPT.FT            0 000 00 00: Depth
DCAL.in                       : CDL Caliper
RHOB.g/cc                     : CDL Bulk Density
RHOC.g/cc                     : CDL Density Correction
DPOR.pu                       : CDL Density Porosity
GR.GAPI                       : Gamma Ray
NPOR.pu                       : Neutron Porosity
~Parameter Information Block
~A  Depth       DCAL        RHOB        RHOC        DPOR         GR         NPOR    
# ...
  1335.8000      8.3874      2.4364      0.1070     12.9444    143.3617     29.6224
  1335.9000      8.3874      2.4283      0.0441     13.4358    139.4636     29.0008
  1336.0000      8.4016      2.4384      0.0438     12.8234    140.9436     29.3849
  1336.1000      8.4016      2.4766      0.0806     10.5116    146.6555     30.0513
  1336.2000      8.4016      2.5208      0.1047      7.8308    152.4334     30.6462
  1336.3000      8.4261      2.5474      0.1170      6.2158    153.6874     31.4192
  1336.4000      8.4261      2.5598      0.0646      5.4686    150.5139     32.2035
  1336.5000      8.4950      2.5733      0.0975      4.6485    150.2770     32.4021
  1336.6000      8.4950      2.5885      0.1180      3.7255    155.0069     32.1299
  1336.7000      8.4950      2.5922      0.1651      3.5005    159.0141     32.1179
  1336.8000      8.3847      2.5798      0.0569      4.2568    159.4066     32.1586
  1336.9000      8.3847      2.5739     -0.0122      4.6111    157.7347     31.4961
  1337.0000      8.3772      2.5912      0.0354      3.5610    153.7277     30.2313
  1337.1000      8.3772      2.6156      0.0792      2.0869    147.7784     29.0295
  1337.2000      8.3772      2.6277      0.0728      1.3519    144.1852     28.3421
  1337.3000      8.3779      2.6285      0.0230      1.3007    143.1005     28.1554
  1337.4000      8.3779      2.6256      0.0664      1.4758    139.6631     28.2350
  1337.5000      8.3771      2.6222      0.0015      1.6833    133.5672     28.6766
  1337.6000      8.3771      2.6218      0.0258      1.7064    130.0815     29.6301
  1337.7000      8.3771      2.6169      0.0757      2.0080    127.6005     30.4260
  1337.8000      8.3781      2.5952      0.0336      3.3213    120.8022     30.0044
  1337.9000      8.3781      2.5635      0.0152      5.2452    113.8010     29.0957
  1338.0000      8.3773      2.5385      0.0473      6.7572    113.6118     29.5252
  1338.1000      8.3773      2.5278      0.0394      7.4079    119.1673     31.1701
  1338.2000      8.3773      2.5300      0.0286      7.2731    123.8293     32.3032
  1338.3000      8.3798      2.5410      0.0356      6.6069    125.4083     31.8345
  1338.4000      8.3798      2.5520      0.0782      5.9413    129.9922     30.5693
  1338.5000      8.3795      2.5512      0.0914      5.9902    139.6740     29.6621
  1338.6000      8.3795      2.5334      0.0839      7.0658    147.9186     29.2189
  1338.7000      8.3795      2.5021      0.0568      8.9632    149.7781     29.0480
  1338.8000      8.3782      2.4650      0.0403     11.2132    148.2292     29.1392
  1338.9000      8.3782      2.4326     -0.0057     13.1772    148.9430     29.4996
  1339.0000      8.3818      2.4119      0.0226     14.4304    151.6888     29.9833
  1339.1000      8.3818      2.4079     -0.0150     14.6725    153.2612     30.4968
  1339.2000      8.3818      2.4293      0.0523     13.3774    153.7967     30.9038
  1339.3000      8.3807      2.4649      0.0931     11.2178    154.8137     31.2136
  1339.4000      8.3807      2.4855      0.1335      9.9713    152.6429     31.6144
  1339.5000      8.3966      2.4784      0.1376     10.3991    146.7977     31.9381
  1339.6000      8.3966      2.4488      0.1048     12.1933    147.8956     32.1605
  1339.7000      8.3966      2.4034      0.0604     14.9476    157.4003     32.4705
  1339.8000      8.4730      2.3504      0.0209     18.1597    164.3006     33.0444
  1339.9000      8.4730      2.2957      0.0259     21.4714    163.8955     34.1886
  1340.0000      8.4538      2.2432     -0.0155     24.6537    159.6723     35.4177
  1340.1000      8.4538      2.1958     -0.0133     27.5251    155.5810     35.6122
  1340.2000      8.4538      2.1452     -0.0040     30.5930    152.6663     34.4793
  1340.3000      8.6295      2.0798     -0.0091     34.5587    150.0961     33.1481
  1340.4000      8.6295      2.0094     -0.0101     38.8218    148.4572     32.6906
  1340.5000      9.0512      1.9461      0.0348     42.6585    146.1853     33.2879
  1340.6000      9.0512      1.8758      0.0272     46.9204    140.9978     34.2714
  1340.7000      9.0512      1.7874      0.0898     52.2801    137.0185     34.5525
  1340.8000      9.8318      1.7082      0.0686     57.0785    138.5359     33.9443
  1340.9000      9.8318      1.6807      0.1470     58.7449    143.6658     33.1529
  1341.0000     10.2275      1.7237      0.1563     56.1414    145.9520     32.2812
  1341.1000     10.2275      1.8391      0.1870     49.1434    141.0922     31.5681
  1341.2000     10.2275      2.0098      0.2699     38.8030    133.0781     31.6629
  1341.3000     10.6525      2.1905      0.3355     27.8501    125.2513     32.4766
  1341.4000     10.6525      2.3475      0.3521     18.3328    119.3495     33.3334
  1341.5000     10.2437      2.4785      0.4117     10.3922    120.4723     33.4041
  1341.6000     10.2437      2.5740      0.4515      4.6090    127.9520     32.1396
  1341.7000     10.2437      2.6056      0.4156      2.6894    131.8463     30.4189
  1341.8000      8.8178      2.5750      0.2900      4.5461    126.8653     29.8235
  1341.9000      8.8178      2.5267      0.1955      7.4700    118.0100     30.6685
  1342.0000      8.5001      2.4921      0.1600      9.5676    110.6503     31.6568
  1342.1000      8.5001      2.4661      0.1161     11.1437    104.3678     31.9928
  1342.2000      8.5001      2.4471      0.1002     12.2955    100.5009     32.0494
  1342.3000      8.4685      2.4439      0.1114     12.4883    102.6521     31.6524
  1342.4000      8.4685      2.4483      0.1214     12.2234    108.9142     30.6536
  1342.5000      8.4652      2.4501      0.0887     12.1144    116.9645     29.6266
  1342.6000      8.4652      2.4629      0.0716     11.3402    126.1751     29.0453
  1342.7000      8.4652      2.4948      0.1475      9.4065    132.2317     28.9317
  1342.8000      8.4604      2.5261      0.1893      7.5105    134.3795     29.2587
  1342.9000      8.4604      2.5318      0.2201      7.1663    134.1898     29.9697
  1343.0000      8.4769      2.5111      0.2075      8.4194    132.2330     30.4065
  1343.1000      8.4769      2.4997      0.1420      9.1067    132.0511     30.2098
  1343.2000      8.4769      2.5252      0.1856      7.5639    134.7866     30.1811
  1343.3000      8.4925      2.5667      0.2041      5.0497    135.9336     30.4769
  1343.4000      8.4925      2.5925      0.1597      3.4875    133.9343     30.1976
  1343.5000      8.5046      2.5878      0.2552      3.7667    132.1163     29.1904
  1343.6000      8.5046      2.5561      0.1797      5.6883    131.4044     28.4676
  1343.7000      8.5046      2.5223      0.1225      7.7421    128.5765     28.3469
  1343.8000      8.5313      2.5040      0.0936      8.8488    124.1577     28.0988
  1343.9000      8.5313      2.4971      0.0813      9.2679    121.1929     27.6328
  1344.0000      8.5539      2.4956      0.0802      9.3601    119.7704     27.4225
  1344.1000      8.5539      2.4987      0.0983      9.1685    119.7867     27.7319
  1344.2000      8.5539      2.5047      0.0609      8.8055    119.8232     28.1158
  1344.3000      8.5361      2.5088      0.1303      8.5561    119.8238     28.1638
  1344.4000      8.5361      2.5077      0.1336      8.6238    122.0556     28.5804
  1344.5000      8.5236      2.5007      0.1733      9.0479    124.8918     29.5065
  1344.6000      8.5236      2.4827      0.1645     10.1386    125.7341     30.0502
  1344.7000      8.5236      2.4560      0.0870     11.7574    126.5706     29.9420
  1344.8000      8.5287      2.4407      0.0643     12.6843    128.9130     29.7799
  1344.9000      8.5287      2.4488      0.1289     12.1956    132.1104     29.7883
  1345.0000      8.5345      2.4628      0.1826     11.3432    138.5060     29.6545
  1345.1000      8.5345      2.4586      0.1723     11.5974    145.6238     29.6136
  1345.2000      8.5345      2.4369      0.1339     12.9180    148.7989     29.9139
  1345.3000      8.5462      2.4164      0.1276     14.1590    150.7758     30.2304
