~Version Information
VERS.                      2.0: CWLS Log ASCII Standard - VERSION 2.0
WRAP.                       NO: One line per depth step
~Well Information Block
STRT.FT                -7.0000: 
STOP.FT              1239.2500: 
STEP.FT                 0.2500: 
NULL.                -999.2500: 
COMP.          Pioneer Natural Resources: COMPANY
WELL.              Julie 11-30: WELL
FLD.           Purgatorie River: FIELD
LOC.           672' FNL & 1052' FWL--: LOCATION
CNTY.               Las Animas: COUNTY
SRVC.          Patterson Wireline: SERVICE COMPANY
DATE.          Tue Apr 18 11:12:35 2006: LOG DATE
UWI.           05 071 08724 00: UNIQUE WELL ID
STAT.                       CO: STATE
~Curve Information Block
DEPT.FT            0 000 00 00: Depth
CCL.                          : Casing Collar Locator
TT3.usec                      : CBL 3' Travel Time
AMP3.mV                       : CBL 3' Amplitude
GR.GAPI                       : Gamma Ray
~Parameter Information Block
~A  Depth       CCL         TT3         AMP3         GR     
# ...
   797.0000      0.0000    755.6884      7.5886    126.6496
   797.2500      0.0000    756.2302      7.7253    125.6262
   797.5000      0.0000    756.4188      7.8225    125.6426
   797.7500      0.0000    756.5149      7.8911    125.8817
   798.0000      0.0000    756.5187      7.9385    125.7162
   798.2500      0.0000    756.3925      7.9649    125.2010
   798.5000      0.0000    756.1658      7.9624    124.8318
   798.7500      0.0000    755.9031      7.9191    125.3126
   799.0000      0.0000    755.6359      7.8304    127.0704
   799.2500      0.0000    755.3632      7.7063    129.6031
   799.5000      0.0000    755.1038      7.5631    131.7208
   799.7500      0.0000    754.9061      7.4085    132.6259
   800.0000      0.0000    754.7995      7.2435    132.4216
   800.2500      0.0000    754.7639      7.0802    131.5224
   800.5000      0.0000    754.7521      6.9470    130.0042
   800.7500      0.0000    754.6901      6.8702    127.8081
   801.0000      0.0000    754.3802      6.8531    125.5663
   801.2500      0.0000    753.3303      6.8727    124.8794
   801.5000      0.0000    750.7211      6.8898    127.1738
   801.7500      0.0000    745.8007      6.8673    132.0111
   802.0000      0.0000    738.6571      6.7916    137.0172
   802.2500      0.0000    730.6384      6.6855    139.9832
   802.5000      0.0000    723.6984      6.5949    140.8570
   802.7500      0.0000    719.1075      6.5561    141.3474
   803.0000      0.0000    716.8448      6.5738    142.7162
   803.2500      0.0000    716.1700      6.6269    144.2466
   803.5000      0.0000    716.5962      6.6875    143.9423
   803.7500      0.0000    718.2767      6.7329    140.5471
   804.0000      0.0000    721.5616      6.7508    134.5202
   804.2500      0.0000    726.2966      6.7420    127.2874
   804.5000      0.0000    731.6304      6.7198    120.3283
   804.7500      0.0000    736.4954      6.6981    115.0076
   805.0000      0.0000    740.2557      6.6719    112.5342
   805.2500      0.0000    743.0554      6.6113    113.8335
   805.5000      0.0000    745.6206      6.4833    119.4351
   805.7500      0.0000    748.4592      6.2873    128.9670
   806.0000      0.0000    751.1939      6.0684    140.3171
   806.2500      0.0000    752.8599      5.8951    149.7047
   806.5000      0.0000    752.8139      5.8210    153.3830
   806.7500      0.0000    751.3299      5.8547    149.6206
   807.0000      0.0000    749.6039      5.9524    139.2025
   807.2500      0.0000    749.1819      6.0441    124.6976
   807.5000      0.0000    751.0262      6.0820    109.5927
   807.7500      0.0000    754.8867      6.0679     97.2004
   808.0000      0.0000    759.3618      6.0371     89.2263
   808.2500      0.0000    762.2288      6.0228     85.4138
   808.5000      0.0000    760.9717      6.0395     84.8544
   808.7500      0.0000    754.0106      6.0873     87.1786
   809.0000      0.0000    742.0826      6.1585     92.2724
   809.2500      0.0000    728.2889      6.2353     99.6224
   809.5000      0.0000    716.3994      6.2833    108.2731
   809.7500      0.0000    708.7241      6.2541    116.8676
   810.0000      0.0000    705.1784      6.1088    123.6156
   810.2500      0.0000    703.9825      5.8557    127.0878
   810.5000      0.0000    703.2050      5.5601    127.5174
   810.7500      0.0000    701.9977      5.3074    126.7350
   811.0000      0.0000    700.8411      5.1510    126.2963
   811.2500      0.0000    700.8751      5.0909    125.9777
   811.5000      0.0000    702.8292      5.0919    124.4129
   811.7500      0.0000    706.1976      5.1143    121.0573
   812.0000      0.0000    709.3243      5.1353    117.2827
   812.2500      0.0000    710.4039      5.1505    115.3203
   812.5000      0.0000    708.5727      5.1643    116.0194
   812.7500      0.0000    704.4731      5.1809    117.8440
   813.0000      0.0000    700.0543      5.2040    118.1894
   813.2500      0.0000    697.5240      5.2362    115.4731
   813.5000      0.0000    698.0518      5.2736    110.0719
   813.7500      0.0000    701.4012      5.3025    104.0616
   814.0000      0.0000    706.6511      5.3045    100.4040
   814.2500      0.0000    712.8007      5.2673    101.3414
   814.5000      0.0000    718.5593      5.1962    106.2592
   814.7500      0.0000    722.1519      5.1206    111.2238
   815.0000      0.0000    721.9708      5.0848    111.9395
   815.2500      0.0000    717.6042      5.1195    107.7266
   815.5000      0.0000    710.2457      5.2206    102.0085
   815.7500      0.0000    702.2213      5.3603     98.7928
   816.0000      0.0000    696.0416      5.5134     99.3199
   816.2500      0.0000    692.9182      5.6696    101.9637
   816.5000      0.0000    691.7307      5.8267    104.2880
   816.7500      0.0000    690.5333      5.9795    104.7897
   817.0000      0.0000    689.6332      6.1157    103.3921
   817.2500      0.0000    691.6436      6.2165    100.9698
   817.5000      0.0000    697.7505      6.2649     98.6493
   817.7500      0.0000    705.6739      6.2520     97.5176
   818.0000      0.0000    712.6310      6.1851     98.5335
   818.2500      0.0000    718.1455      6.0955    102.0255
   818.5000      0.0000    722.6491      6.0296    107.0669
   818.7500      0.0000    725.6908      6.0025    111.7440
   819.0000      0.0000    727.4407      5.9736    114.4362
   819.2500      0.0000    730.3844      5.9074    114.8511
   819.5000      0.0000    737.8627      5.8424    113.8520
   819.7500      0.0000    751.9905      5.8500    112.5722
   820.0000      0.0000    773.1550      5.9429    111.8250
   820.2500      0.0000    798.5659      6.0646    111.9742
   820.5000      0.0000    820.3890      6.1564    112.8239
   820.7500      0.0000    828.6262      6.2085    113.5595
   821.0000      0.0000    819.0816      6.2557    113.2482
   821.2500      0.0000    798.1089      6.3295    111.7669
   821.5000      0.0000    777.3062      6.4016    110.0788
   821.7500      0.0000    763.4264      6.3908    109.2311
   822.0000      0.0000    754.8486      6.2613    109.2217
   822.2500      0.0000    746.3353      6.0929    109.2206
   822.5000      0.0000    734.6869      6.0131    108.6286
   822.7500      0.0000    720.1304      6.0741    107.4676
   823.0000      0.0000    704.3416      6.2252    105.9991
   823.2500      0.0000    687.7497      6.3811    104.5615
   823.5000      0.0000    668.6764      6.4893    103.6846
   823.7500      0.0000    645.7531      6.5443    103.8128
   824.0000      0.0000    621.2252      6.5650    104.7625
   824.2500      0.0000    600.8699      6.5705    105.7475
   824.5000      0.0000    590.0741      6.5700    106.0603
   824.7500      0.0000    590.1998      6.5712    105.5667
   825.0000      0.0000    598.3705      6.5866    104.6273
   825.2500      0.0000    610.2118      6.6253    103.9503
   825.5000      0.0000    623.0768      6.6822    104.4669
   825.7500      0.0000    637.0526      6.7420    106.7286
   826.0000      0.0000    652.8257      6.7944    110.0136
   826.2500      0.0000    668.9878      6.8388    112.3171
   826.5000      0.0000    682.2520      6.8765    111.9125
   826.7500      0.0000    690.2644      6.9038    109.1802
   827.0000      0.0000    693.2101      6.9146    106.5093
   827.2500      0.0000    692.7004      6.9058    106.2065
   827.5000      0.0000    690.2606      6.8808    108.7176
   827.7500      0.0000    687.1191      6.8496    112.7434
   828.0000      0.0000    684.2345      6.8301    116.4439
   828.2500      0.0000    681.7916      6.8479    118.4925
   828.5000      0.0000    678.6432      6.9286    118.6896
   828.7500      0.0000    672.7584      7.0780    117.9552
   829.0000      0.0000    663.2778      7.2677    117.5301
   829.2500      0.0000    653.0729      7.4414    118.0602
   829.5000      0.0000    648.2742      7.5416    119.4171
   829.7500      0.0000    653.4491      7.5373    121.0753
   830.0000      0.0000    667.3670      7.4345    122.2777
   830.2500      0.0000    684.4169      7.2689    122.0054
