~Version Information
VERS.                      2.0: CWLS Log ASCII Standard - VERSION 2.0
WRAP.                       NO: One line per depth step
~Well Information Block
STRT.FT               360.0000: 
STOP.FT              1349.5000: 
STEP.FT                 0.1000: 
NULL.                -999.2500: 
COMP.          Pioneer Natural Resources: COMPANY
WELL.          Challenger 31-29: WELL
FLD.           Purgatoire River: FIELD
LOC.           51' FNL & 1923' FEL: LOCATION
STAT.                 Colorado: State
CNTY.               Las Animas: COUNTY
CTRY. USA : Country
SECT. 29 : Section
TOWN. 33S : Township
RANG. 65W : Range
SRVC.                Patterson: SERVICE COMPANY
DATE.          Thu Sep 15 13:35:50 2005: LOG DATE
API.           05 071 08514 00: UNIQUE WELL ID
~Curve Information Block
DEPT.FT            0 000 00 00: Depth
DCAL.in                       : CDL Caliper
RHOB.g/cc                     : CDL Bulk Density
RHOC.g/cc                     : CDL Density Correction
DPOR.pu                       : CDL Density Porosity
GR.GAPI                       : Gamma Ray
NPOR.pu                       : Neutron Porosity
~Parameter Information Block
~A  Depth       DCAL        RHOB        RHOC        DPOR         GR         NPOR    
# ...
   945.6000      8.0523      2.5303      0.1703      7.2536     70.4064     16.2054
   945.7000      8.0523      2.4867      0.1058      9.8995     77.2332     15.2313
   945.8000      8.0566      2.4340      0.0663     13.0928     80.3333     14.4271
   945.9000      8.0566      2.3927      0.0323     15.5964     78.6999     13.8125
   946.0000      8.0530      2.3565      0.0826     17.7899     77.2164     13.1922
   946.1000      8.0530      2.3107      0.0605     20.5606     78.1539     12.4124
   946.2000      8.0530      2.2555      0.0302     23.9110     80.1678     11.5255
   946.3000      8.0570      2.1968      0.0108     27.4644     81.7854     10.9595
   946.4000      8.0570      2.1290      0.0218     31.5769     81.6657     10.9122
   946.5000      8.0499      2.0409      0.0041     36.9157     78.7002     11.1736
   946.6000      8.0499      1.9331     -0.0197     43.4501     76.6461     11.4632
   946.7000      8.0499      1.8240     -0.0602     50.0583     80.0864     11.5821
   946.8000      8.0499      1.7446     -0.0740     54.8722     84.5033     11.6646
   946.9000      8.0499      1.7166     -0.0010     56.5668     82.4793     12.0117
   947.0000      8.0913      1.7383      0.0595     55.2574     78.5810     12.7198
   947.1000      8.0913      1.7900      0.1504     52.1230     79.6520     13.7946
   947.2000      8.0913      1.8597      0.1150     47.8984     90.1538     15.3661
   947.3000      8.2013      1.9527      0.2057     42.2618     93.8052     17.3000
   947.4000      8.2013      2.0673      0.2814     35.3178     96.2228     18.8298
   947.5000      8.2357      2.1875      0.3059     28.0279     98.9731     19.6496
   947.6000      8.2357      2.2934      0.3172     21.6113    107.3298     20.3648
   947.7000      8.2357      2.3753      0.3038     16.6459    117.4753     21.2189
   947.8000      8.2664      2.4406      0.2785     12.6903    123.2559     21.9288
   947.9000      8.2664      2.4907      0.2504      9.6561    128.4217     22.5433
   948.0000      8.2152      2.5148      0.2061      8.1935    135.2757     23.4004
   948.1000      8.2152      2.5186      0.1011      7.9646    140.2861     24.5052
   948.2000      8.2152      2.5228      0.0893      7.7092    151.6385     25.5436
   948.3000      8.1951      2.5261      0.0977      7.5096    145.5830     26.2246
   948.4000      8.1951      2.5185      0.0635      7.9701    137.2824     26.3902
   948.5000      8.0841      2.5062      0.0911      8.7154    134.5142     26.3047
   948.6000      8.0841      2.4902      0.0710      9.6861    132.7771     26.1888
   948.7000      8.0841      2.4692      0.0037     10.9564    125.9431     25.5862
   948.8000      8.0619      2.4554      0.0168     11.7917    117.8768     24.3141
   948.9000      8.0619      2.4522      0.0644     11.9863    115.1093     22.9756
   949.0000      8.0573      2.4518      0.0786     12.0111    120.6077     22.3156
   949.1000      8.0573      2.4561      0.0385     11.7512    129.6532     22.1066
   949.2000      8.0573      2.4694      0.0559     10.9472    131.6888     21.6808
   949.3000      8.0419      2.4886      0.0653      9.7819    126.5974     21.3429
   949.4000      8.0419      2.5164      0.0821      8.0990    125.2065     21.4894
   949.5000      8.0280      2.5561      0.1496      5.6890    133.1562     21.6227
   949.6000      8.0280      2.5931      0.2377      3.4459    142.2554     21.2626
   949.7000      8.0280      2.6074      0.2471      2.5831    145.5757     20.8081
   949.8000      8.0376      2.5950      0.2724      3.3341    151.2045     20.6237
   949.9000      8.0376      2.5683      0.1955      4.9502    162.1548     20.5278
   950.0000      7.9913      2.5477      0.1602      6.2024    164.4432     20.7282
   950.1000      7.9913      2.5476      0.1146      6.2066    151.9796     21.3325
   950.2000      7.9913      2.5685      0.1493      4.9369    138.5285     21.8109
   950.3000      7.9671      2.5967      0.1560      3.2321    136.3402     22.0086
   950.4000      7.9671      2.6133      0.1868      2.2255    142.6101     22.1192
   950.5000      7.9863      2.6063      0.1835      2.6480    150.2192     21.7606
   950.6000      7.9863      2.5717      0.1861      4.7470    156.3166     20.6763
   950.7000      7.9863      2.5209      0.0857      7.8220    159.2771     19.5626
   950.8000      8.0040      2.4816      0.0880     10.2053    155.4911     19.3372
   950.9000      8.0040      2.4714      0.0501     10.8271    145.5170     20.1166
   951.0000      8.0194      2.4895      0.0409      9.7264    136.9410     20.9973
   951.1000      8.0194      2.5237      0.0375      7.6570    135.6909     21.4932
   951.2000      8.0194      2.5630      0.0630      5.2724    140.1582     22.1051
   951.3000      8.0243      2.5958      0.1825      3.2840    145.2003     22.8637
   951.4000      8.0243      2.6016      0.1305      2.9341    148.2740     23.3212
   951.5000      8.0428      2.5771      0.0911      4.4183    151.7216     23.2793
   951.6000      8.0428      2.5384      0.0881      6.7648    154.2370     22.6104
   951.7000      8.0428      2.5081      0.0032      8.6023    149.3818     21.5822
   951.8000      8.0431      2.5009      0.0632      9.0339    141.5459     20.7584
   951.9000      8.0431      2.4981      0.0671      9.2082    135.0796     20.4069
   952.0000      8.0391      2.4813      0.0372     10.2243    127.9920     20.4411
   952.1000      8.0391      2.4647      0.0116     11.2307    124.0210     20.4503
   952.2000      8.0391      2.4640      0.0282     11.2741    124.5995     20.3984
   952.3000      8.0121      2.4792     -0.0099     10.3524    125.0699     20.5092
   952.4000      8.0121      2.5057      0.0002      8.7480    129.0560     20.4822
   952.5000      8.0330      2.5357      0.0877      6.9282    139.3952     20.4167
   952.6000      8.0330      2.5563      0.1158      5.6806    146.6967     20.7320
   952.7000      8.0330      2.5572      0.1292      5.6239    143.3009     21.1170
   952.8000      8.0316      2.5396      0.1164      6.6901    133.4633     21.2445
   952.9000      8.0316      2.5121      0.1363      8.3597    127.0234     21.2249
   953.0000      8.0144      2.4878      0.0302      9.8312    126.6035     21.3451
   953.1000      8.0144      2.4857      0.0324      9.9604    130.5989     21.9697
   953.2000      8.0144      2.5058      0.1196      8.7376    138.7788     22.7904
   953.3000      8.0270      2.5297      0.1378      7.2919    150.8394     23.2444
   953.4000      8.0270      2.5520      0.1559      5.9368    166.0423     23.6813
   953.5000      8.0628      2.5781      0.2009      4.3603    172.5369     24.5346
   953.6000      8.0628      2.6000      0.2139      3.0301    160.8289     25.1291
   953.7000      8.0628      2.6012      0.2229      2.9589    143.0367     24.8359
   953.8000      8.0624      2.5813      0.2128      4.1640    135.0157     24.2350
   953.9000      8.0624      2.5606      0.1598      5.4167    139.5294     24.1228
   954.0000      8.0627      2.5569      0.1407      5.6445    146.7642     24.5072
   954.1000      8.0627      2.5673      0.1366      5.0131    145.5825     24.6634
   954.2000      8.0627      2.5741      0.1938      4.6027    136.7941     24.0724
   954.3000      8.0399      2.5628      0.1349      5.2819    129.8484     23.0847
   954.4000      8.0399      2.5378      0.1168      6.8024    129.0674     22.1623
   954.5000      8.0150      2.5255      0.0593      7.5449    132.2254     21.4284
   954.6000      8.0150      2.5490      0.1051      6.1240    135.5660     21.0685
   954.7000      8.0150      2.5884      0.1959      3.7305    137.8109     20.9558
   954.8000      8.0196      2.6065      0.2177      2.6367    137.9976     20.5229
   954.9000      8.0196      2.6016      0.1627      2.9330    132.7928     19.7362
   955.0000      8.0014      2.6005      0.1435      2.9981    124.1934     19.2639
   955.1000      8.0014      2.6157      0.1913      2.0796    117.5911     19.2254
