~Version Information
VERS.                      2.0: CWLS Log ASCII Standard - VERSION 2.0
WRAP.                       NO: One line per depth step
~Well Information Block
STRT.FT               795.0000: 
STOP.FT              2276.0000: 
STEP.FT                 0.1000: 
NULL.                -999.2500: 
COMP.          Pioneer Natural Resources: COMPANY
WELL.            Wildcard 31-5: WELL
FLD.           Purgatoire River: FIELD
LOC.           624' FNL & 1852' FEL--: LOCATION
CNTY.               Las Animas: COUNTY
SRVC.                Patterson: SERVICE COMPANY
DATE.          Tue Mar 07 07:04:10 2006: LOG DATE
UWI.           05 071 08707 00: UNIQUE WELL ID
STAT.                 Colorado: STATE
~Curve Information Block
DEPT.FT            0 000 00 00: Depth
DCAL.in                       : CDL Caliper
DPOR.pu                       : CDL Density Porosity
NPOR.pu                       : Neutron Porosity
RHOB.g/cc                     : CDL Bulk Density
RHOC.g/cc                     : CDL Density Correction
GR.GAPI                       : Gamma Ray
~Parameter Information Block
~A  Depth       DCAL        DPOR        NPOR        RHOB        RHOC         GR     
# ...
  1870.2000      7.9593     16.9447     28.8142      2.3704      0.1175    171.8003
  1870.3000      7.9565     16.3380     28.1480      2.3804      0.0796    159.6999
  1870.4000      7.9565     16.0115     27.6738      2.3858      0.0942    131.8764
  1870.5000      7.9578     15.6205     27.7803      2.3923      0.1123    112.6195
  1870.6000      7.9578     15.0344     28.1739      2.4019      0.0548    111.3818
  1870.7000      7.9578     13.8065     28.3245      2.4222      0.0620    116.3662
  1870.8000      7.9601     12.2256     28.3734      2.4483      0.0789    119.9032
  1870.9000      7.9601     11.6790     28.7118      2.4573      0.0494    119.6046
  1871.0000      7.9625     13.1033     29.1413      2.4338      0.0631    114.9928
  1871.1000      7.9625     15.6874     29.1822      2.3912     -0.0084    114.4131
  1871.2000      7.9625     17.6620     28.9432      2.3586     -0.0014    115.0284
  1871.3000      7.9650     18.6526     28.9040      2.3422     -0.0007    116.8376
  1871.4000      7.9650     19.8410     29.2245      2.3226      0.0225    123.5574
  1871.5000      7.9704     21.4341     29.6682      2.2963     -0.0176    124.7340
  1871.6000      7.9704     22.0758     29.9305      2.2857      0.0114    119.5367
  1871.7000      7.9704     20.6876     29.9183      2.3087      0.0260    115.4371
  1871.8000      7.9864     17.4334     29.7265      2.3623      0.1175    119.6509
  1871.9000      7.9864     13.3714     29.4664      2.4294      0.1479    144.3900
  1872.0000      8.0073      9.8070     29.3004      2.4882      0.2441    181.6846
  1872.1000      8.0073      7.9132     29.1384      2.5194      0.3107    198.0637
  1872.2000      8.0073      7.8421     28.6587      2.5206      0.2611    183.6857
  1872.3000      8.0115      8.2655     28.1009      2.5136      0.2288    164.1214
  1872.4000      8.0115      8.2001     27.7772      2.5147      0.2218    154.4866
  1872.5000      7.9883      7.9020     27.5014      2.5196      0.1540    150.9046
  1872.6000      7.9883      7.2354     27.2255      2.5306      0.0949    150.2648
  1872.7000      7.9883      6.0798     27.0347      2.5497      0.1473    150.2013
  1872.8000      7.9497      5.2321     26.8772      2.5637      0.1036    151.9369
  1872.9000      7.9497      4.9459     26.8387      2.5684      0.0535    150.6833
  1873.0000      7.9257      5.0151     27.0757      2.5673      0.0507    134.4789
  1873.1000      7.9257      5.7191     27.5432      2.5556      0.0677    104.6138
  1873.2000      7.9257      6.9666     28.0843      2.5351      0.0162     81.0699
  1873.3000      7.9199      7.7129     28.3610      2.5227     -0.0101     75.0114
  1873.4000      7.9199      7.3021     28.0074      2.5295      0.0217     78.6882
  1873.5000      7.9210      5.9835     27.4999      2.5513      0.0366     85.0606
  1873.6000      7.9210      4.0525     27.5625      2.5831      0.0554     93.4469
  1873.7000      7.9210      1.9942     27.7593      2.6171      0.0771    107.7400
  1873.8000      7.9232      0.5692     27.4312      2.6406      0.0769    124.2370
  1873.9000      7.9232      0.6669     27.2139      2.6390      0.0765    133.9335
  1874.0000      7.9222      2.7537     27.8926      2.6046      0.0507    139.4116
  1874.1000      7.9222      5.6443     28.9840      2.5569      0.0242    149.5772
  1874.2000      7.9222      7.1613     29.7916      2.5318     -0.0043    162.1726
  1874.3000      7.9215      6.7072     30.0913      2.5393      0.0358    162.7982
  1874.4000      7.9215      5.6475     29.7404      2.5568      0.0492    148.7861
  1874.5000      7.9215      5.2272     29.0719      2.5638      0.0379    133.5182
  1874.6000      7.9215      5.7137     28.6697      2.5557      0.0650    124.0753
  1874.7000      7.9215      6.7680     28.4510      2.5383      0.0398    118.7826
  1874.8000      7.9239      7.8652     28.0783      2.5202      0.0590    120.0320
  1874.9000      7.9239      8.4888     27.8519      2.5099      0.0026    130.3156
  1875.0000      7.9277      8.0627     28.1361      2.5170      0.0797    143.1079
  1875.1000      7.9277      7.0063     28.5655      2.5344      0.1234    153.3162
  1875.2000      7.9277      6.5830     28.6356      2.5414      0.0870    169.6218
  1875.3000      7.9275      7.0872     28.2757      2.5331      0.0824    184.1148
  1875.4000      7.9275      7.6478     27.6539      2.5238      0.0730    176.9857
  1875.5000      7.9255      7.7828     27.0370      2.5216      0.0631    159.4804
  1875.6000      7.9255      7.6931     26.7093      2.5231      0.0161    151.3469
  1875.7000      7.9255      7.5359     26.5621      2.5257      0.0735    149.9824
  1875.8000      7.9221      7.4440     26.5231      2.5272      0.0604    146.1199
  1875.9000      7.9221      7.2953     26.8551      2.5296      0.0462    138.9601
  1876.0000      7.9136      7.2117     27.2205      2.5310      0.0647    133.6563
  1876.1000      7.9136      7.7978     27.1710      2.5213      0.0570    139.7048
  1876.2000      7.9136      8.6140     27.1225      2.5079     -0.0066    157.0087
  1876.3000      7.9041      8.8699     27.3829      2.5036      0.0601    169.5198
  1876.4000      7.9041      8.9646     27.6967      2.5021      0.0596    166.8935
  1876.5000      7.8974      8.6200     27.8176      2.5078     -0.0197    155.5921
  1876.6000      7.8974      7.2115     27.7335      2.5310      0.0393    144.9821
  1876.7000      7.8974      5.7391     27.6802      2.5553      0.0547    136.0576
  1876.8000      7.8942      5.2882     27.6432      2.5627      0.0321    127.3296
  1876.9000      7.8942      6.3318     27.7903      2.5455      0.1061    122.9522
  1877.0000      7.8930      9.0050     28.6177      2.5014      0.0242    126.9049
  1877.1000      7.8930     12.3455     29.5806      2.4463     -0.0075    139.7659
  1877.2000      7.8930     15.6914     29.7953      2.3911      0.0045    146.0003
  1877.3000      7.8928     19.4394     29.5063      2.3293     -0.0298    136.5486
  1877.4000      7.8928     23.4083     29.2577      2.2638     -0.0709    125.2922
  1877.5000      7.8942     26.9249     29.4039      2.2057     -0.0250    117.0917
  1877.6000      7.8942     29.7402     30.0685      2.1593     -0.0694    106.1590
  1877.7000      7.8942     31.4756     30.7129      2.1307     -0.0438     96.3574
  1877.8000      7.8945     31.8974     30.7388      2.1237      0.0231     91.0339
  1877.9000      7.8945     31.3242     30.1973      2.1332      0.0420     89.7273
  1878.0000      7.8891     29.9277     29.5317      2.1562      0.0705     98.0270
  1878.1000      7.8891     27.7384     28.9038      2.1923      0.1239    118.1832
  1878.2000      7.8891     24.8313     28.3916      2.2403      0.1601    138.4444
  1878.3000      7.8799     21.3093     28.1000      2.2984      0.1846    141.5319
  1878.4000      7.8799     17.6056     27.8621      2.3595      0.1822    127.1765
  1878.5000      7.8746     14.5679     27.5234      2.4096      0.2017    110.8858
  1878.6000      7.8746     12.6088     27.1036      2.4420      0.1311     99.8014
  1878.7000      7.8746     11.3513     26.8260      2.4627      0.1025     91.3500
  1878.8000      7.8763     10.8285     26.8796      2.4713      0.0660     85.8686
  1878.9000      7.8763     10.7191     27.2030      2.4731      0.0293     87.4200
  1879.0000      7.8780     10.1569     27.6875      2.4824      0.0551     99.7766
  1879.1000      7.8780      9.5003     27.9065      2.4932      0.0251    111.6612
  1879.2000      7.8780      9.5923     27.6945      2.4917      0.0696    113.6981
  1879.3000      7.8765     10.1819     27.5252      2.4820      0.0472    114.6549
  1879.4000      7.8765     10.2981     27.5461      2.4801      0.0467    119.3404
  1879.5000      7.8734      9.8377     27.3042      2.4877      0.0481    119.4156
  1879.6000      7.8734      9.5079     26.6402      2.4931      0.0316    112.6603
  1879.7000      7.8734      9.6157     26.1630      2.4913      0.0583    107.4146
