~Version Information
VERS.                      2.0: CWLS Log ASCII Standard - VERSION 2.0
WRAP.                       NO: One line per depth step
~Well Information Block
STRT.FT               595.7000: 
STOP.FT              1567.2000: 
STEP.FT                 0.1000: 
NULL.                -999.2500: 
COMP.          Pioneer Natural Resources: COMPANY
WELL.           Butch 33-10 Tr: WELL
FLD.           Purgatoire River: FIELD
LOC.           2309' FSL & 1337' FEL--: LOCATION
PROV.                 Colorado: PROVINCE
CNTY.               Las Animas: COUNTRY
SRVC.                Patterson: SERVICE COMPANY
DATE.          Mon Jan 16 07:34:05 2006: LOG DATE
UWI.           05 071 08649 00: UNIQUE WELL ID
~Curve Information Block
DEPT.FT            0 000 00 00: Depth
DCAL.in                       : CDL Caliper
RHOB.g/cc                     : CDL Bulk Density
RHOC.g/cc                     : CDL Density Correction
DPOR.pu                       : CDL Density Porosity
GR.GAPI                       : Gamma Ray
~Parameter Information Block
~A  Depth       DCAL        RHOB        RHOC        DPOR         GR     
# ...
  1043.7000      8.0583      2.5841      0.1024      3.9927    156.0094
  1043.8000      8.0536      2.5687      0.0482      4.9279    158.1350
  1043.9000      8.0536      2.5673      0.0330      5.0100    153.7939
  1044.0000      8.0454      2.5829      0.1199      4.0658    145.8566
  1044.1000      8.0454      2.5956      0.0423      3.2987    135.6451
  1044.2000      8.0454      2.6004      0.0937      3.0064    129.5061
  1044.3000      8.0349      2.5951      0.0693      3.3255    128.5809
  1044.4000      8.0349      2.5800      0.0374      4.2409    131.5164
  1044.5000      8.0203      2.5688      0.0039      4.9228    137.1573
  1044.6000      8.0203      2.5643      0.0672      5.1940    136.5483
  1044.7000      8.0203      2.5547      0.0454      5.7782    126.0984
  1044.8000      8.0045      2.5430      0.0513      6.4852    113.3762
  1044.9000      8.0045      2.5470      0.0102      6.2396    107.8424
  1045.0000      8.0013      2.5593      0.1272      5.4987    110.0979
  1045.1000      8.0013      2.5543      0.0447      5.7997    111.9205
  1045.2000      8.0013      2.5355      0.0421      6.9369    108.1212
  1045.3000      8.0121      2.5172      0.0622      8.0497    100.8122
  1045.4000      8.0121      2.5094      0.0023      8.5187     93.8594
  1045.5000      8.0267      2.5190      0.0361      7.9371     88.3945
  1045.6000      8.0267      2.5278      0.0484      7.4030     84.0409
  1045.7000      8.0267      2.5164      0.0156      8.0979     78.2375
  1045.8000      8.0342      2.4995     -0.0191      9.1185     69.7196
  1045.9000      8.0342      2.5048      0.0171      8.7988     62.3319
  1046.0000      8.0263      2.5313      0.0607      7.1915     57.9065
  1046.1000      8.0263      2.5553      0.0588      5.7401     53.7821
  1046.2000      8.0263      2.5607      0.0763      5.4120     48.2150
  1046.3000      8.0166      2.5507      0.0659      6.0199     42.0172
  1046.4000      8.0166      2.5401      0.0551      6.6611     37.5761
  1046.5000      8.0170      2.5394      0.0529      6.7025     38.1320
  1046.6000      8.0170      2.5464      0.0565      6.2779     42.6877
  1046.7000      8.0170      2.5514      0.0673      5.9742     46.3923
  1046.8000      8.0214      2.5485      0.0304      6.1503     47.4122
  1046.9000      8.0214      2.5412      0.0634      6.5939     46.2460
  1047.0000      8.0250      2.5401      0.0596      6.6634     43.1000
  1047.1000      8.0250      2.5513      0.0547      5.9848     40.2994
  1047.2000      8.0250      2.5651      0.0574      5.1469     39.5820
  1047.3000      8.0236      2.5663      0.0790      5.0716     39.0703
  1047.4000      8.0236      2.5587      0.0446      5.5321     37.5403
  1047.5000      8.0167      2.5609      0.0494      5.4013     36.1388
  1047.6000      8.0167      2.5752      0.0915      4.5350     34.6689
  1047.7000      8.0167      2.5906      0.0750      3.5992     31.1406
  1047.8000      8.0132      2.6075      0.0891      2.5739     26.1157
  1047.9000      8.0132      2.6309      0.1106      1.1595     24.5615
  1048.0000      8.0188      2.6480      0.0947      0.1185     29.6896
  1048.1000      8.0188      2.6398      0.1095      0.6205     37.0727
  1048.2000      8.0188      2.6009      0.0997      2.9745     41.3582
  1048.3000      8.0305      2.5487     -0.0040      6.1410     41.2944
  1048.4000      8.0305      2.5131      0.0416      8.2974     37.1469
  1048.5000      8.0384      2.5026      0.0113      8.9317     31.8510
  1048.6000      8.0384      2.5026      0.0232      8.9331     28.7883
  1048.7000      8.0384      2.4947      0.0495      9.4132     28.3654
  1048.8000      8.0362      2.4758      0.0217     10.5582     28.7715
  1048.9000      8.0362      2.4651      0.0414     11.2053     27.9200
  1049.0000      8.0286      2.4738      0.0531     10.6797     26.8278
  1049.1000      8.0286      2.4908      0.0668      9.6505     28.4047
  1049.2000      8.0286      2.5082      0.0889      8.5962     32.2302
  1049.3000      8.0197      2.5285      0.1584      7.3646     35.3173
  1049.4000      8.0197      2.5514      0.1783      5.9777     37.0139
  1049.5000      8.0126      2.5768      0.1370      4.4336     38.2473
  1049.6000      8.0126      2.6026      0.2007      2.8697     38.7790
  1049.7000      8.0126      2.6161      0.1677      2.0566     38.7010
  1049.8000      8.0109      2.6095      0.1515      2.4566     38.5657
  1049.9000      8.0109      2.5881      0.1313      3.7536     37.3344
  1050.0000      8.0153      2.5656      0.0776      5.1179     33.5028
  1050.1000      8.0153      2.5549      0.0708      5.7625     28.1779
  1050.2000      8.0153      2.5625      0.0679      5.3045     25.0615
  1050.3000      8.0205      2.5879      0.1197      3.7628     26.3050
  1050.4000      8.0205      2.6159      0.1508      2.0684     29.5093
  1050.5000      8.0223      2.6240      0.1190      1.5768     31.9498
  1050.6000      8.0223      2.6102      0.0935      2.4129     32.6225
  1050.7000      8.0223      2.5858      0.0980      3.8896     31.6302
  1050.8000      8.0235      2.5517      0.0922      5.9588     30.0861
  1050.9000      8.0235      2.5098      0.0474      8.4982     29.1125
  1051.0000      8.0271      2.4794      0.0265     10.3373     29.0862
  1051.1000      8.0271      2.4808      0.0108     10.2560     29.5202
  1051.2000      8.0271      2.5054      0.0477      8.7638     29.9474
  1051.3000      8.0366      2.5198      0.0758      7.8898     30.8339
  1051.4000      8.0366      2.5088      0.0295      8.5565     32.2284
  1051.5000      8.0479      2.4889      0.0185      9.7646     34.9208
  1051.6000      8.0479      2.4747      0.0502     10.6250     39.2592
  1051.7000      8.0479      2.4677      0.0117     11.0457     42.5411
  1051.8000      8.0533      2.4658      0.0482     11.1639     43.7818
  1051.9000      8.0533      2.4687      0.0518     10.9901     46.6971
  1052.0000      8.0536      2.4880      0.0453      9.8185     55.2962
  1052.1000      8.0536      2.5300      0.0851      7.2744     68.6041
  1052.2000      8.0536      2.5733      0.1310      4.6490     80.3817
  1052.3000      8.0508      2.5960      0.1225      3.2711     85.7880
  1052.4000      8.0508      2.6038      0.0964      2.7983     85.8676
  1052.5000      8.0542      2.6081      0.1167      2.5366     85.6686
  1052.6000      8.0542      2.6025      0.1329      2.8818     89.5706
  1052.7000      8.0542      2.5828      0.0872      4.0746     97.6948
  1052.8000      8.0712      2.5652      0.0690      5.1379    108.1308
  1052.9000      8.0712      2.5606      0.0749      5.4189    118.2096
  1053.0000      8.0799      2.5619      0.0427      5.3373    125.0399
  1053.1000      8.0799      2.5625      0.0320      5.3018    129.7253
  1053.2000      8.0799      2.5601      0.0599      5.4469    133.9336
  1053.3000      8.0635      2.5566      0.0069      5.6614    135.3467
  1053.4000      8.0635      2.5587      0.0275      5.5343    134.4807
  1053.5000      8.0504      2.5706      0.0242      4.8141    135.0891
  1053.6000      8.0504      2.5931      0.0408      3.4501    136.6198
  1053.7000      8.0504      2.6148      0.0725      2.1349    136.1521
  1053.8000      8.0504      2.6140      0.1079      2.1815    136.7289
  1053.9000      8.0504      2.5916      0.0522      3.5368    140.7975
  1054.0000      8.0493      2.5742      0.0762      4.5932    145.3514
  1054.1000      8.0493      2.5834      0.0513      4.0387    148.2473
  1054.2000      8.0493      2.6150      0.1099      2.1231    146.9386
  1054.3000      8.0477      2.6371      0.1231      0.7792    139.8050
  1054.4000      8.0477      2.6276      0.0759      1.3546    134.8358
  1054.5000      8.0520      2.6009      0.0113      2.9764    138.6263
  1054.6000      8.0520      2.5863      0.0048      3.8588    142.8383
  1054.7000      8.0520      2.5935      0.0427      3.4244    141.7213
  1054.8000      8.0591      2.6084      0.0798      2.5208    141.8457
