~Version Information
VERS.                      2.0: CWLS Log ASCII Standard - VERSION 2.0
WRAP.                       NO: One line per depth step
~Well Information Block
STRT.FT                -9.5000: 
STOP.FT              1401.5000: 
STEP.FT                 0.2500: 
NULL.                -999.2500: 
COMP.          Pioneer Natural Resources: COMPANY
WELL.             John K 12-28: WELL
FLD.           Purgatorie River: FIELD
LOC.           1476' FNL & 465' FWL--: LOCATION
CNTY.               Las Animas: COUNTY
SRVC.          Patterson Wireline: SERVICE COMPANY
DATE.          Fri Apr 28 08:36:46 2006: LOG DATE
UWI.           05 071 08723 00: UNIQUE WELL ID
STAT.                       CO: STATE
~Curve Information Block
DEPT.FT            0 000 00 00: Depth
CCL.                          : Casing Collar Locator
TT3.usec                      : CBL 3' Travel Time
AMP3.mV                       : CBL 3' Amplitude
GR.GAPI                       : Gamma Ray
~Parameter Information Block
~A  Depth       CCL         TT3         AMP3         GR     
# ...
   258.5000      0.0000    835.3340     11.2296    109.9288
   258.7500      0.0000    828.2668     11.2809    110.2668
   259.0000      0.0000    823.1589     11.3353    108.8638
   259.2500      0.0000    820.0530     11.4136    107.1124
   259.5000      0.0000    818.3910     11.5278    104.9448
   259.7500      0.0000    817.8322     11.6773    101.1383
   260.0000      0.0000    818.5995     11.8518     95.4823
   260.2500      0.0000    821.3362     12.0346     89.8599
   260.5000      0.0000    826.4830     12.2041     86.5480
   260.7500      0.0000    833.3165     12.3373     85.8515
   261.0000      0.0000    839.5516     12.4178     86.0649
   261.2500      0.0000    842.5527     12.4443     85.6561
   261.5000      0.0000    841.4927     12.4288     84.7601
   261.7500      0.0000    838.2122     12.3865     84.4239
   262.0000      0.0000    835.8137     12.3250     85.1597
   262.2500      0.0000    836.6482     12.2440     86.6923
   262.5000      0.0000    841.2139     12.1450     88.4797
   262.7500      0.0000    847.5028     12.0407     89.8171
   263.0000      0.0000    851.0751     11.9537     89.7512
   263.2500      0.0000    847.4406     11.9010     87.5227
   263.5000      0.0000    835.5479     11.8821     83.1660
   263.7500      0.0000    818.3988     11.8858     77.6180
   264.0000      0.0000    800.0615     11.9056     72.2334
   264.2500      0.0000    782.6585     11.9416     67.8451
   264.5000      0.0000    766.0667     11.9899     64.1895
   264.7500      0.0000    749.8044     12.0384     60.6437
   265.0000      0.0000    734.8309     12.0741     57.4211
   265.2500      0.0000    723.3712     12.0936     55.3443
   265.5000      0.0000    717.0308     12.1045     54.4493
   265.7500      0.0000    715.3147     12.1213     53.6944
   266.0000      0.0000    715.9303     12.1562     52.3224
   266.2500      0.0000    716.0847     12.2126     50.8348
   266.5000      0.0000    713.2847     12.2822     50.2080
   266.7500      0.0000    704.8574     12.3506     50.6452
   267.0000      0.0000    687.2214     12.4074     51.5316
   267.2500      0.0000    658.0879     12.4536     52.4288
   267.5000      0.0000    622.1908     12.4982     53.7861
   267.7500      0.0000    592.6716     12.5463     56.6545
   268.0000      0.0000    581.5416     12.5906     61.9185
   268.2500      0.0000    589.0201     12.6123     69.8452
   268.5000      0.0000    606.7562     12.5954     79.8385
   268.7500      0.0000    629.2537     12.5401     90.0169
   269.0000      0.0000    655.2232     12.4665     97.4454
   269.2500      0.0000    678.9103     12.4038     99.8325
   269.5000      0.0000    687.8314     12.3744     97.2589
   269.7500      0.0000    672.9997     12.3830     91.8938
   270.0000      0.0000    640.8936     12.4177     86.1006
   270.2500      0.0000    613.1016     12.4600     80.9427
   270.5000      0.0000    610.3706     12.4983     76.1099
   270.7500      0.0000    635.3535     12.5318     70.9697
   271.0000      0.0000    672.5271     12.5614     65.8562
   271.2500      0.0000    703.6293     12.5772     62.3475
   271.5000      0.0000    719.6107     12.5623     62.0005
   271.7500      0.0000    719.1703     12.5127     64.8070
   272.0000      0.0000    702.3228     12.4510     69.2672
   272.2500      0.0000    670.3251     12.4121     74.0816
   272.5000      0.0000    631.9231     12.4119     79.3789
   272.7500      0.0000    604.8816     12.4320     85.9650
   273.0000      0.0000    605.0293     12.4375     93.7021
   273.2500      0.0000    632.3032     12.4090    101.1060
   273.5000      0.0000    670.8624     12.3575    106.2875
   273.7500      0.0000    703.4000     12.3102    107.9404
   274.0000      0.0000    722.7414     12.2845    105.8642
   274.2500      0.0000    731.1348     12.2791    101.0830
   274.5000      0.0000    733.2763     12.2854     95.2695
   274.7500      0.0000    731.5530     12.3022     89.7747
   275.0000      0.0000    725.1511     12.3337     85.2272
   275.2500      0.0000    711.8311     12.3788     81.6954
   275.5000      0.0000    691.8760     12.4253     78.6927
   275.7500      0.0000    671.4622     12.4494     75.2944
   276.0000      0.0000    659.7234     12.4129     71.0590
   276.2500      0.0000    659.7629     12.2624     66.8158
   276.5000      0.0000    664.0720     11.9639     64.0288
   276.7500      0.0000    662.2130     11.5693     63.3851
   277.0000      0.0000    653.7114     11.2196     64.4615
   277.2500      0.0000    652.2687     11.0144     66.6660
   277.5000      0.0000    675.2002     10.8919     69.8020
   277.7500      0.0000    726.8560     10.7088     73.5120
   278.0000      0.0000    793.5374     10.4226     76.9623
   278.2500      0.0000    854.8863     10.1175     79.5487
   278.5000      0.0000    896.0854      9.8807     81.2966
   278.7500     -2.0000    909.6196      9.7282     82.0136
   279.0000      2.0000    894.6302      9.6363     80.6031
   279.2500      0.0000    859.4280      9.6006     76.1428
   279.5000      0.0000    818.9408      9.6644     69.6867
   279.7500      0.0000    785.1666      9.8922     64.2768
   280.0000      0.0000    761.0602     10.2909     62.7125
   280.2500      0.0000    743.3868     10.7657     65.2915
   280.5000      0.0000    728.8073     11.1924     69.8380
   280.7500      0.0000    716.8817     11.5176     73.9695
   281.0000      0.0000    709.1784     11.7638     77.2656
   281.2500      0.0000    707.0256     11.9699     80.9225
   281.5000      0.0000    710.1459     12.1582     85.5112
   281.7500      0.0000    716.7906     12.3360     89.9544
   282.0000      0.0000    724.6124     12.5008     92.9529
   282.2500      0.0000    731.5191     12.6480     94.4243
   282.5000      0.0000    736.4899     12.7756     94.8345
   282.7500      0.0000    740.0865     12.8833     93.7562
   283.0000      0.0000    744.0583     12.9668     90.1667
   283.2500      0.0000    750.0988     13.0186     84.2685
   283.5000      0.0000    758.6104     13.0342     78.3364
   283.7500      0.0000    768.0513     13.0195     75.5234
   284.0000      0.0000    775.2384     12.9905     77.9777
   284.2500      0.0000    777.0746     12.9590     85.6838
   284.5000      0.0000    772.9203     12.9235     96.3148
   284.7500      0.0000    765.5136     12.8780    106.1050
   285.0000      0.0000    759.3682     12.8235    111.6873
   285.2500      0.0000    757.8719     12.7655    111.9131
   285.5000      0.0000    761.1468     12.7037    108.2650
   285.7500      0.0000    766.2644     12.6345    103.5210
   286.0000      0.0000    769.6855     12.5601     99.8424
   286.2500      0.0000    769.7073     12.4861     97.7556
   286.5000      0.0000    766.9068     12.4119     96.5443
   286.7500      0.0000    763.0553     12.3296     95.3127
   287.0000      0.0000    760.0329     12.2336     93.5638
   287.2500      0.0000    759.1596     12.1238     91.0922
   287.5000      0.0000    760.7524     11.9983     88.0210
   287.7500      0.0000    764.0667     11.8520     85.0875
   288.0000      0.0000    767.7825     11.6871     83.2007
   288.2500      0.0000    770.7909     11.5186     82.4192
   288.5000      0.0000    772.6890     11.3681     81.9292
   288.7500      0.0000    773.6868     11.2510     81.2641
   289.0000      0.0000    774.1812     11.1709     80.9480
   289.2500      0.0000    774.4536     11.1197     81.5478
   289.5000      0.0000    774.6220     11.0819     82.6712
   289.7500      0.0000    774.7249     11.0402     83.6839
   290.0000      0.0000    774.7932     10.9834     85.3574
   290.2500      0.0000    774.8833     10.9102     89.8077
   290.5000      0.0000    775.0448     10.8262     98.0388
   290.7500      0.0000    775.2589     10.7391    107.7151
   291.0000      0.0000    775.4149     10.6605    114.0975
   291.2500      0.0000    775.3805     10.6065    113.7022
   291.5000      0.0000    775.1144     10.5908    106.9893
   291.7500      0.0000    774.7142     10.6132     97.4700
