~Version Information
VERS.                      2.0: CWLS Log ASCII Standard - VERSION 2.0
WRAP.                       NO: One line per depth step
~Well Information Block
STRT.FT                -5.0000: 
STOP.FT              1761.2500: 
STEP.FT                 0.2500: 
NULL.                -999.2500: 
COMP.          Pioneer Natural Resources: COMPANY
WELL.          Manville 42-14 Tr: WELL
FLD.           Purgatoire River: FIELD
LOC.           2018'FNL & 562' FEL: LOCATION
STAT.                 Colorado: State
CNTY.               Las Animas: COUNTY
CTRY. USA : Country
SECT. 14 : Section
TOWN. 32S : Township
RANG. 66W : Range
SRVC.                Patterson: SERVICE COMPANY
DATE.          Fri Sep 23 10:37:02 2005: LOG DATE
API. 05-071-08522             : UNIQUE WELL ID
~Curve Information Block
DEPT.FT            0 000 00 00: Depth
CCL.                          : Casing Collar Locator
TT3.usec                      : CBL 3' Travel Time
AMP3.mV                       : CBL 3' Amplitude
AMP5.mV                       : CBL 5' Amplitude
GR.GAPI                       : Gamma Ray
~Parameter Information Block
~A  Depth       CCL         TT3         AMP3        AMP5         GR     
# ...
  1619.0000      0.0000    303.6081     14.5749      5.6098    137.1609
  1619.2500      0.0000    304.7500     14.4569      5.7839    138.6755
  1619.5000      0.0000    308.0446     14.2657      6.1321    140.6596
  1619.7500      0.0000    314.8730     14.0403      7.0026    143.3314
  1620.0000      0.0000    324.9776     13.8521      6.5674    146.3435
  1620.2500      0.0000    334.7812     13.7939      6.7415    148.5525
  1620.5000      0.0000    338.8195     13.9465      6.3933    148.6482
  1620.7500      0.0000    334.3847     14.3218      6.4803    146.1223
  1621.0000      0.0000    324.2514     14.8359      6.4803    141.7135
  1621.2500      0.0000    313.9106     15.3478      6.1321    136.9836
  1621.5000      0.0000    306.9257     15.7352      5.8710    133.4047
  1621.7500      0.0000    303.5281     15.9471      6.1321    131.7984
  1622.0000      0.0000    302.3294     15.9995      6.1321    132.4305
  1622.2500      0.0000    302.0859     15.9302      5.8710    135.2364
  1622.5000      0.0000    302.1848     15.7655      6.3062    139.7044
  1622.7500      0.0000    302.4480     15.5213      5.8710    144.7561
  1623.0000      0.0000    302.9539     15.2151      5.8710    149.1721
  1623.2500      0.0000    304.2671     14.8719      5.8710    152.2981
  1623.5000      0.0000    308.4099     14.5229      6.0451    154.0953
  1623.7500      0.0000    320.1688     14.1960      5.2617    154.4564
  1624.0000      0.0000    346.5670     13.9057      6.2192    152.7660
  1624.2500      0.0000    391.0475     13.6611      6.3062    148.2868
  1624.5000      0.0000    444.1553     13.4835      6.0451    140.9526
  1624.7500      0.0000    482.2956     13.4021      5.9580    131.8185
  1625.0000      0.0000    483.4172     13.4290      6.4803    122.6620
  1625.2500      0.0000    446.8727     13.5504      6.3062    114.9726
  1625.5000      0.0000    394.0381     13.7448      6.4803    109.3598
  1625.7500      0.0000    348.8902     13.9955      6.3062    105.9069
  1626.0000      0.0000    321.6273     14.2774      5.7839    104.8211
  1626.2500      0.0000    309.2371     14.5462      6.3062    106.5774
  1626.5000      0.0000    304.7681     14.7571      6.3933    111.4259
  1626.7500      0.0000    303.3579     14.8976      5.8710    118.7977
  1627.0000      0.0000    302.8796     14.9993      5.6969    127.1898
  1627.2500      0.0000    302.6593     15.1123      5.8710    134.5036
  1627.5000      0.0000    302.5229     15.2595      5.7839    138.4486
  1627.7500      0.0000    302.4541     15.4051      6.0451    137.1978
  1628.0000      0.0000    302.5084     15.4658      5.6969    130.4830
  1628.2500      0.0000    302.7166     15.3686      6.0451    120.2654
  1628.5000      0.0000    303.0219     15.1097      5.9580    109.9157
  1628.7500      0.0000    303.2902     14.7644      6.0451    102.3312
  1629.0000      0.0000    303.3976     14.4365      6.7415     98.5711
  1629.2500      0.0000    303.3175     14.2001      6.1321     98.0218
  1629.5000      0.0000    303.1259     14.0785      6.1321     99.4509
  1629.7500      0.0000    302.9301     14.0669      6.2192    101.5987
  1630.0000      0.0000    302.8040     14.1565      5.7839    103.2993
  1630.2500      0.0000    302.7713     14.3358      5.7839    103.9863
  1630.5000      0.0000    302.8148     14.5790      6.2192    104.0669
  1630.7500      0.0000    302.8805     14.8467      5.6098    104.1077
  1631.0000      0.0000    302.8954     15.1036      5.7839    104.0591
  1631.2500      0.0000    302.8126     15.3332      6.2192    104.1852
  1631.5000      0.0000    302.6445     15.5393      6.5674    106.1074
  1631.7500      0.0000    302.4504     15.7353      6.8285    111.5528
  1632.0000      0.0000    302.2956     15.9347      7.0896    120.0031
  1632.2500      0.0000    302.2150     16.1548      7.1767    128.5931
  1632.5000      0.0000    302.1938     16.4276      7.0026    134.8149
  1632.7500      0.0000    302.1701     16.7890      7.2637    138.9751
  1633.0000      0.0000    302.0770     17.2335      7.3508    143.5524
  1633.2500      0.0000    301.9007     17.6777      7.9601    150.1568
  1633.5000      0.0000    301.7003     17.9909      7.2637    157.5823
  1633.7500      0.0000    301.5591     18.0874      7.8731    163.1309
  1634.0000      0.0000    301.5169     17.9875      7.4378    165.1973
  1634.2500      0.0000    301.5535     17.7833      7.7860    163.7356
  1634.5000      0.0000    301.6348     17.5478      7.8731    158.7817
  1634.7500      0.0000    301.7575     17.2881      7.3508    150.1032
  1635.0000      0.0000    301.9434     16.9782      7.0896    138.6716
  1635.2500      0.0000    302.1964     16.6221      7.3508    127.2472
  1635.5000      0.0000    302.4724     16.2768      6.7415    118.6542
  1635.7500      0.0000    302.6935     16.0221      6.8285    113.6774
  1636.0000      0.0000    302.7934     15.9078      7.6119    110.7918
  1636.2500      0.0000    302.7556     15.9271      7.0026    107.8806
  1636.5000      0.0000    302.6095     16.0333      7.5249    104.2621
  1636.7500      0.0000    302.4042     16.1676      7.5249    101.0952
  1637.0000      0.0000    302.2192     16.2698      7.0896     99.9885
  1637.2500      0.0000    302.2093     16.2808      7.0896    101.5938
  1637.5000      0.0000    302.8622     16.1566      6.5674    105.5571
  1637.7500      0.0000    305.5637     15.8862      6.7415    111.3763
  1638.0000      0.0000    313.2338     15.4988      7.6990    118.9733
  1638.2500      0.0000    329.5726     15.0402      3.2596    128.2751
  1638.5000      0.0000    355.3795     14.5355      4.9135    138.0018
  1638.7500      0.0000    384.2614     13.9850      4.7394    145.1909
  1639.0000      0.0000    404.8481     13.4027      3.8689    146.8660
  1639.2500      0.0000    411.3684     12.8323      4.7394    142.4449
  1639.5000      0.0000    411.9546     12.3231      5.2617    134.1284
  1639.7500      0.0000    423.9797     11.9269      5.5228    125.0680
  1640.0000      0.0000    460.3868     11.6950      5.4358    117.5702
  1640.2500      0.0000    518.8705     11.6039      4.7394    112.7280
  1640.5000      2.0000    580.8103     11.4895      3.7819    110.8194
  1640.7500     -2.0000    621.7561     11.1109      2.9984    111.5916
  1641.0000     -2.0000    627.9226     10.3038      3.1725    114.4995
  1641.2500      0.0000    604.8889      9.1137      2.9114    118.9006
  1641.5000      0.0000    569.8999      7.8406      2.9984    123.6661
  1641.7500      0.0000    536.2279      6.9243      3.2596    126.6889
  1642.0000      0.0000    505.5702      6.6961      3.5207    125.7364
  1642.2500      0.0000    474.0198      7.1860      3.2596    120.3693
  1642.5000      0.0000    443.3426      8.1464      3.0855    112.6147
  1642.7500      0.0000    425.0280      9.2274      2.6503    105.5835
  1643.0000      0.0000    431.5363     10.1543      2.9114    101.7849
  1643.2500      0.0000    462.5220     10.8371      8.0472    102.6205
  1643.5000      0.0000    501.7335     11.3885      9.0917    108.5119
  1643.7500      0.0000    529.2897     12.0543      5.9580    118.5932
  1644.0000      0.0000    534.5698     13.0979      5.9580    130.3769
  1644.2500      0.0000    516.2270     14.6795      5.6969    140.6700
  1644.5000      0.0000    477.0262     16.7381      5.5228    147.5740
  1644.7500      0.0000    424.8832     18.9478      5.6098    151.7328
  1645.0000      0.0000    373.5656     20.8524      6.6544    155.3792
  1645.2500      0.0000    335.4062     22.1188      7.1767    160.0233
  1645.5000      0.0000    313.8303     22.6969     10.7456    165.1078
  1645.7500      0.0000    304.5041     22.7667     11.0938    168.9924
  1646.0000      0.0000    301.4239     22.5695     12.9218    171.0110
  1646.2500      0.0000    300.6717     22.2781     13.2700    171.9691
  1646.5000      0.0000    300.5744     21.9654     11.9643    172.3878
  1646.7500      0.0000    300.6369     21.6358     10.9197    171.0794
