~Version Information
 VERS.                                  2.0 : CWLS LAS VERSION
 WRAP.                                   NO : WRAPING MODE
 SWARE .                 MController 2.5.0J : SOFTWARE VERSION
~Well Information
 WELL.                        DUDE 43-34 TR : WELL
 COMP.    PIONEER NATURAL RESOURCES USA INC : COMPANY
 FLD.                      PURGATOIRE RIVER : FIELD
 LOC.                NE/SE SEC 34 T32S R67W : LOCATION
 DATE.                          01/25-26/06 : DATE(S) LOGGED
 SRVC.       BLANCO GEOLOGICAL SERVICES LLC : SERVICE COMPANY
 STAT.                             COLORADO : STATE
 CNTY.                           LAS ANIMAS : COUNTY
 CTRY.                                  USA : COUNTRY
 API.                       05-071-08676-00 : API NUMBER
 STRT.FT                             485.00 : START DEPTH
 STOP.FT                            1765.00 : STOP DEPTH
 STEP.FT                               1.00 : DEPTH INCREMENT
 NULL.                                -9999 : NULL VALUE
~Curve information
 DEPTH.FT                                   :
 ROP.MIN/FT                                 :
 GAS.UNITS                                  :
~ASCII Log data
# ...
      1285.0         0.17         71.7 
      1286.0         4.92        385.2 
      1287.0         0.27         62.9 
      1288.0         0.25         60.2 
      1289.0         0.33         57.8 
      1290.0         0.40         54.5 
      1291.0         0.37         50.7 
      1292.0         0.47         48.7 
      1293.0         0.50         47.5 
      1294.0         0.53         46.2 
      1295.0         0.57         45.3 
      1296.0         0.68         44.9 
      1297.0         0.60         43.2 
      1298.0         0.53         42.9 
      1299.0         0.57         45.7 
      1300.0         0.50         46.8 
      1301.0         0.47         46.4 
      1302.0         0.28         44.0 
      1303.0         0.33         45.4 
      1304.0         0.30         50.0 
      1305.0         0.23         47.5 
      1306.0         0.23         46.3 
      1307.0         0.23         44.9 
      1308.0         0.23         41.6 
      1309.0         0.23         36.8 
      1310.0         0.27         34.3 
      1311.0         0.20         34.1 
      1312.0         0.17         34.4 
      1313.0         0.23         33.3 
      1314.0         0.20         32.3 
      1315.0         0.17         31.6 
      1316.0         5.63        388.9 
      1317.0         0.37         46.4 
      1318.0         0.37         47.1 
      1319.0         0.48         47.1 
      1320.0         0.40         44.5 
      1321.0         0.27         42.6 
      1322.0         0.23         40.8 
      1323.0         0.30         40.0 
      1324.0         0.23         38.8 
      1325.0         0.23         38.2 
      1326.0         0.23         39.4 
      1327.0         0.27         39.4 
      1328.0         0.20         36.5 
      1329.0         0.23         40.6 
      1330.0         0.20         57.5 
      1331.0         0.20         74.0 
      1332.0         0.28         89.0 
      1333.0         0.23        101.7 
      1334.0         0.23        110.0 
      1335.0         0.23        106.3 
      1336.0         0.27         97.2 
      1337.0         0.23         90.5 
      1338.0         0.17         84.3 
      1339.0         0.17         73.6 
      1340.0         0.20         67.5 
      1341.0         0.23         60.1 
      1342.0         0.20         54.0 
      1343.0         0.23         51.9 
      1344.0         0.27         51.2 
      1345.0         0.30         59.3 
      1346.0         4.43        376.0 
      1347.0         0.40         66.9 
      1348.0         0.50         63.6 
      1349.0         0.50         58.9 
      1350.0         0.43         54.0 
      1351.0         0.47         50.8 
      1352.0         0.55         48.9 
      1353.0         0.50         47.5 
      1354.0         0.50         47.1 
      1355.0         0.47         48.8 
      1356.0         0.47         50.5 
      1357.0         0.43         50.7 
      1358.0         0.37         50.3 
      1359.0         0.27         49.2 
      1360.0         0.22         48.1 
      1361.0         0.20         48.2 
      1362.0         0.23         50.9 
      1363.0         0.20         49.9 
      1364.0         0.20         46.9 
      1365.0         0.17         45.9 
      1366.0         0.20         45.2 
      1367.0         0.17         42.4 
      1368.0         0.17         40.3 
      1369.0         0.20         37.1 
      1370.0         0.20         36.1 
      1371.0         0.17         35.3 
      1372.0         0.20         35.2 
      1373.0         0.20         34.1 
      1374.0         0.20         33.5 
      1375.0         0.23         33.2 
      1376.0         4.80        293.8 
      1377.0         0.37         62.0 
      1378.0         0.40         68.4 
      1379.0         0.40         68.1 
      1380.0         0.30         66.4 
      1381.0         0.17         69.7 
      1382.0         0.17         75.6 
      1383.0         0.13         78.8 
      1384.0         0.13         82.5 
      1385.0         0.15         83.7 
      1386.0         0.17         83.5 
      1387.0         0.13         82.1 
      1388.0         0.13         80.3 
      1389.0         0.13         78.1 
      1390.0         0.13         75.0 
      1391.0         0.13         73.2 
      1392.0         0.23         71.3 
      1393.0         0.40         68.9 
      1394.0         0.17         71.7 
      1395.0         0.33         68.2 
      1396.0         0.23         63.1 
      1397.0         0.33         60.4 
      1398.0         0.23         52.7 
      1399.0         0.17         48.6 
      1400.0         0.20         46.6 
      1401.0         0.18         45.7 
      1402.0         0.20         46.0 
      1403.0         0.20         45.8 
      1404.0         0.20         43.8 
      1405.0         0.20         43.3 
      1406.0         4.75        326.2 
      1407.0         0.47         67.4 
      1408.0         0.88         65.9 
      1409.0         0.87         67.8 
      1410.0         0.87         66.0 
      1411.0         0.30         62.3 
      1412.0         0.17         60.6 
      1413.0         0.13         59.3 
      1414.0         0.17         59.1 
      1415.0         0.17         59.5 
      1416.0         0.17         59.9 
      1417.0         0.17         60.5 
      1418.0         0.22         61.5 
      1419.0         0.20         61.7 
      1420.0         0.23         61.2 
      1421.0         0.20         60.0 
      1422.0         0.23         59.2 
      1423.0         0.23         58.1 
      1424.0         0.23         61.7 
      1425.0         0.23         61.7 
      1426.0         0.23         59.7 
      1427.0         0.20         57.8 
      1428.0         0.17         56.7 
      1429.0         0.20         53.6 
      1430.0         0.20         49.0 
      1431.0         0.20         46.5 
      1432.0         0.23         43.3 
      1433.0         0.28         41.7 
      1434.0         0.27         43.5 
      1435.0         0.33         51.4 
      1436.0         4.22        302.6 
      1437.0         0.63         74.2 
      1438.0         0.77         76.2 
      1439.0         0.52         72.8 
      1440.0         0.20         66.6 
      1441.0         0.20         65.2 
      1442.0         0.17         63.7 
      1443.0         0.17         63.0 
      1444.0         0.23         62.1 
      1445.0         0.20         61.5 
      1446.0         0.20         61.3 
      1447.0         0.23         60.5 
      1448.0         0.17         59.9 
      1449.0         0.20         59.5 
      1450.0         0.20         58.9 
      1451.0         0.20         58.4 
      1452.0         0.20         57.6 
      1453.0         0.20         60.2 
      1454.0         0.20         61.7 
      1455.0         0.23         61.6 
      1456.0         0.22         60.0 
      1457.0         0.23         55.4 
      1458.0         0.20         50.9 
      1459.0         0.17         45.8 
      1460.0         0.23         42.8 
      1461.0         0.23         39.6 
      1462.0         0.20         38.5 
      1463.0         0.20         39.0 
      1464.0         0.20         41.7 
      1465.0         0.23         48.4 
      1466.0         5.63        412.9 
      1467.0         0.37         65.5 
      1468.0         0.37         63.7 
      1469.0         0.27         62.7 
      1470.0         0.30         61.4 
      1471.0         0.27         59.8 
      1472.0         0.30         57.9 
      1473.0         0.27         56.4 
      1474.0         0.28         55.5 
      1475.0         0.23         55.0 
      1476.0         0.20         55.1 
      1477.0         0.27         55.1 
      1478.0         0.20         55.0 
      1479.0         0.23         54.5 
      1480.0         0.23         54.4 
      1481.0         0.20         54.6 
      1482.0         0.20         54.8 
      1483.0         0.20         55.5 
      1484.0         0.20         59.9 
