~Version Information
VERS.                      2.0: CWLS Log ASCII Standard - VERSION 2.0
WRAP.                       NO: One line per depth step
~Well Information Block
STRT.FT               550.0000: 
STOP.FT              1664.0000: 
STEP.FT                 0.2500: 
NULL.                -999.2500: 
COMP.          Pioneer Natural Resources: COMPANY
WELL.          Stock Canyon 34-33: WELL
FLD.           Purgatorie River: FIELD
LOC.           980' FSL & 2191' FEL: LOCATION
PROV.                 Colorado: PROVINCE
CNTY.               Las Animas: COUNTRY
SRVC.                Patterson: SERVICE COMPANY
DATE.          Mon Dec 05 09:58:03 2005: LOG DATE
UWI.                          : UNIQUE WELL ID
~Curve Information Block
DEPT.FT            0 000 00 00: Depth
SN.Ohm-m                      : IEL Short Normal
SP.mV                         : IEL Spontaneous Potential
DIR.Ohm-m                     : IEL Induction Resistivity
GR.GAPI                       : Gamma Ray
~Parameter Information Block
~A  Depth        SN          SP         DIR          GR     
# ...
  1622.0000     30.2644    324.7794     25.4523     70.2757
  1622.2500     30.4634    324.7686     25.6033     70.4096
  1622.5000     30.6948    324.8444     26.0471     69.6313
  1622.7500     30.9543    325.0246     26.7177     68.5698
  1623.0000     31.2417    325.3154     27.4638     66.5157
  1623.2500     31.5627    325.6939     28.1317     65.1462
  1623.5000     31.9265    326.1061     28.6486     63.6834
  1623.7500     32.3405    326.4805     29.0387     63.4053
  1624.0000     32.8053    326.7513     29.3703     64.3562
  1624.2500     33.3119    326.8810     29.6942     65.8586
  1624.5000     33.8431    326.8705     30.0178     68.6652
  1624.7500     34.3771    326.7508     30.3216     70.1110
  1625.0000     34.8925    326.5578     30.5901     70.3196
  1625.2500     35.3709    326.3116     30.8241     68.9728
  1625.5000     35.7974    326.0133     31.0271     66.0035
  1625.7500     36.1582    325.6590     31.1843     64.5745
  1626.0000     36.4376    325.2569     31.2651     64.0504
  1626.2500     36.6164    324.8289     31.2451     64.0312
  1626.5000     36.6730    324.4048     31.1228     62.4846
  1626.7500     36.5888    324.0222     30.9174     59.9062
  1627.0000     36.3549    323.7337     30.6555     54.4418
  1627.2500     35.9777    323.6012     30.3618     50.7670
  1627.5000     35.4806    323.6650     30.0582     47.1626
  1627.7500     34.9000    323.9136     29.7593     46.8168
  1628.0000     34.2769    324.2852     29.4652     49.4696
  1628.2500     33.6501    324.6992     29.1583     52.7085
  1628.5000     33.0515    325.0885     28.8123     58.0875
  1628.7500     32.5069    325.4133     28.4097     61.0090
  1629.0000     32.0370    325.6616     27.9611     63.2350
  1629.2500     31.6593    325.8467     27.5124     63.3254
  1629.5000     31.3863    325.9967     27.1320     62.7362
  1629.7500     31.2240    326.1400     26.8798     62.8083
  1630.0000     31.1704    326.2958     26.7801     64.1781
  1630.2500     31.2155    326.4744     26.8188     65.5064
  1630.5000     31.3425    326.6812     26.9607     66.8672
  1630.7500     31.5288    326.9178     27.1649     66.7944
  1631.0000     31.7475    327.1828     27.3810     65.1532
  1631.2500     31.9695    327.4785     27.5398     63.6098
  1631.5000     32.1663    327.8144     27.5682     62.0623
  1631.7500     32.3130    328.1999     27.4268     62.1028
  1632.0000     32.3904    328.6329     27.1396     63.8474
  1632.2500     32.3856    329.0950     26.7856     65.9060
  1632.5000     32.2903    329.5547     26.4529     69.9361
  1632.7500     32.0997    329.9713     26.1906     72.9523
  1633.0000     31.8128    330.2989     25.9879     77.1322
  1633.2500     31.4334    330.4976     25.7908     79.1180
  1633.5000     30.9718    330.5502     25.5408     80.3157
  1633.7500     30.4437    330.4741     25.2045     80.0665
  1634.0000     29.8662    330.3159     24.7728     79.0500
  1634.2500     29.2524    330.1306     24.2412     78.5389
  1634.5000     28.6079    329.9619     23.6019     78.6450
  1634.7500     27.9313    329.8361     22.8593     79.3997
  1635.0000     27.2185    329.7703     22.0515     81.2088
  1635.2500     26.4697    329.7845     21.2530     82.3239
  1635.5000     25.6942    329.9102     20.5552     82.9059
  1635.7500     24.9114    330.1881     20.0367     82.3759
  1636.0000     24.1494    330.6543     19.7380     80.5486
  1636.2500     23.4426    331.3184     19.6511     79.1128
  1636.5000     22.8325    332.1545     19.7276     77.8712
  1636.7500     22.3723    333.1107     19.9061     78.3847
  1637.0000     22.1303    334.1284     20.1411     81.4839
  1637.2500     22.1887    335.1542     20.4134     84.5903
  1637.5000     22.6318    336.1432     20.7169     89.5106
  1637.7500     23.5245    337.0540     21.0404     92.3695
  1638.0000     24.8880    337.8446     21.3652     95.4913
  1638.2500     26.6817    338.4763     21.6754     96.8630
  1638.5000     28.8001    338.9289     21.9680     98.8292
  1638.7500     31.0862    339.2142     22.2569    100.9812
  1639.0000     33.3574    339.3760     22.5729    106.6870
  1639.2500     35.4375    339.4740     22.9622    112.1212
  1639.5000     37.1858    339.5628     23.4714    121.2029
  1639.7500     38.5194    339.6785     24.1190    126.7285
  1640.0000     39.4220    339.8382     24.8712    133.0753
  1640.2500     39.9403    340.0518     25.6558    135.7909
  1640.5000     40.1669    340.3302     26.4212    137.2377
  1640.7500     40.2175    340.6814     27.1868    136.3142
  1641.0000     40.2094    341.1010     28.0203    132.3126
  1641.2500     40.2443    341.5685     28.9543    128.1628
  1641.5000     40.3967    342.0540     29.9284    120.2387
  1641.7500     40.7048    342.5259     30.8206    114.3219
  1642.0000     41.1663    342.9550     31.5424    105.5254
  1642.2500     41.7417    343.3141     32.1015    100.0992
  1642.5000     42.3670    343.5793     32.5728     92.7433
  1642.7500     42.9732    343.7350     33.0229     88.3268
  1643.0000     43.5052    343.7773     33.4622     82.5426
  1643.2500     43.9320    343.7141     33.8506     79.4057
  1643.5000     44.2486    343.5602     34.1290     75.9974
  1643.7500     44.4686    343.3363     34.2503     74.6014
  1644.0000     44.6140    343.0686     34.1923     73.6309
  1644.2500     44.7052    342.7880     33.9570     73.5310
  1644.5000     44.7525    342.5251     33.5601     73.7170
  1644.7500     44.7516    342.3066     33.0243     73.5713
  1645.0000     44.6823    342.1531     32.3823     71.2399
  1645.2500     44.5101    342.0811     31.6805     66.8191
  1645.5000     44.1914    342.1022     30.9661     54.2292
  1645.7500     43.6812    342.2206     30.2615     42.5686
  1646.0000     42.9415    342.4238     29.5533     24.3911
  1646.2500     41.9513    342.6725     28.8121     14.5319
  1646.5000     40.7148    342.9010     28.0227      5.2481
  1646.7500     39.2674    343.0427     27.1980      2.2445
  1647.0000     37.6765    343.0637     26.3749      0.4798
  1647.2500     36.0364    342.9730     25.6033      0.1422
  1647.5000     34.4560    342.8021     24.9367      0.0163
  1647.7500     33.0431    342.5803     24.4180      0.0020
  1648.0000     31.8884    342.3298     24.0583   -999.2500
  1648.2500     31.0535    342.0757     23.8229   -999.2500
  1648.5000     30.5634    341.8500     23.6406   -999.2500
  1648.7500     30.4019    341.6820     23.4363   -999.2500
  1649.0000     30.5096    341.5877     23.1668   -999.2500
  1649.2500     30.7865    341.5689     22.8347   -999.2500
  1649.5000     31.1059    341.6177     22.4754   -999.2500
  1649.7500     31.3384    341.7186     22.1357   -999.2500
  1650.0000     31.3817    341.8460     21.8583   -999.2500
  1650.2500     31.1842    341.9645     21.6754   -999.2500
  1650.5000     30.7520    342.0328     21.6004   -999.2500
  1650.7500     30.1381    342.0098     21.6115   -999.2500
  1651.0000     29.4191    341.8613     21.5694   -999.2500
  1651.2500     28.6715    341.5698     21.5419   -999.2500
  1651.5000     27.9559    341.1428     21.4030   -999.2500
  1651.7500     27.3117    340.6119     21.1693   -999.2500
  1652.0000     26.7587    340.0244     20.9045   -999.2500
  1652.2500     26.3019    339.4346     20.6635   -999.2500
  1652.5000     25.9353    338.8950     20.4657   -999.2500
  1652.7500     25.6468    338.4465     20.3167   -999.2500
  1653.0000     25.4238    338.1078     20.2549   -999.2500
  1653.2500     25.2617    337.8750     20.3727   -999.2500
  1653.5000     25.1711    337.7328     20.8060   -999.2500
  1653.7500     25.1820    337.6741     21.7243   -999.2500
  1654.0000     25.3400    337.7108     23.3625   -999.2500
  1654.2500     25.6955    337.8660     26.1050   -999.2500
  1654.5000     26.2866    338.1537     30.8065   -999.2500
  1654.7500     27.1235    338.5691     38.3854   -999.2500
  1655.0000     28.1784    339.0935     51.0317   -999.2500
  1655.2500     29.3857    339.7043     71.9479   -999.2500
