~Version Information
VERS.                      2.0: CWLS Log ASCII Standard - VERSION 2.0
WRAP.                       NO: One line per depth step
~Well Information Block
STRT.FT                10.0000: 
STOP.FT              1458.0000: 
STEP.FT                 0.1000: 
NULL.                -999.2500: 
COMP.          Pioneer Natural Resources: COMPANY
WELL.            Bordeaux 42-2: WELL
FLD.           Purgatorie River: FIELD
LOC.           1963' FNL & 1148' FEL: LOCATION
PROV.                 Colorado: PROVINCE
CNTY.               Las Animas: COUNTRY
SRVC.                Patterson: SERVICE COMPANY
DATE.          Tue Nov 29 07:11:03 2005: LOG DATE
UWI.                          : UNIQUE WELL ID
~Curve Information Block
DEPT.FT            0 000 00 00: Depth
DCAL.in                       : CDL Caliper
RHOB.g/cc                     : CDL Bulk Density
RHOC.g/cc                     : CDL Density Correction
DPOR.pu                       : CDL Density Porosity
GR.GAPI                       : Gamma Ray
NPOR.pu                       : Neutron Porosity
~Parameter Information Block
~A  Depth       DCAL        RHOB        RHOC        DPOR         GR         NPOR    
# ...
   106.0000      2.7444      2.1597      2.3836     -0.0098    108.7723     28.6852
   106.1000      2.7444      2.1740      2.3862     -0.0095    110.2852     28.6305
   106.2000      2.7444      2.1925      2.4095     -0.0092    113.2068     28.4108
   106.3000      2.7444      2.2174      2.4284     -0.0087    115.3109     27.9903
   106.4000      2.7444      2.2395      2.4541     -0.0082    115.1163     27.4378
   106.5000      2.7444      2.2441      2.4419     -0.0081    112.8601     27.0175
   106.6000      2.7444      2.2346      2.4360     -0.0083    110.5420     27.1323
   106.7000      2.7444      2.2242      2.4070     -0.0085    109.1155     27.8628
   106.8000      2.7444      2.2161      2.4236     -0.0087    108.5796     28.4807
   106.9000      2.7444      2.2056      2.4343     -0.0089    111.1670     28.4012
   107.0000      2.7444      2.1981      2.3927     -0.0090    116.6631     27.9552
   107.1000      2.7444      2.2069      2.4051     -0.0089    120.5402     27.5600
   107.2000      2.7444      2.2312      2.4320     -0.0084    122.3772     27.3538
   107.3000      2.7444      2.2503      2.4456     -0.0080    123.1394     27.3338
   107.4000      2.7444      2.2496      2.4327     -0.0080    120.8055     27.2410
   107.5000      2.7444      2.2377      2.4287     -0.0082    117.3829     27.0155
   107.6000      2.7444      2.2263      2.4348     -0.0085    116.0282     26.7386
   107.7000      2.7444      2.2183      2.4209     -0.0086    114.9481     26.3606
   107.8000      2.7444      2.2167      2.4355     -0.0087    113.1231     26.0821
   107.9000      2.7444      2.2227      2.4338     -0.0085    112.1761     26.1256
   108.0000      2.7444      2.2325      2.4402     -0.0084    111.0623     26.2852
   108.1000      2.7444      2.2368      2.4596     -0.0083    108.3757     26.3786
   108.2000      2.7444      2.2290      2.4219     -0.0084    106.4198     26.6928
   108.3000      2.7444      2.2133      2.4056     -0.0087    107.4170     27.0186
   108.4000      2.7444      2.1985      2.4125     -0.0090    110.4479     26.6773
   108.5000      2.7444      2.1922      2.4136     -0.0092    112.8446     26.1071
   108.6000      2.7444      2.2008      2.3795     -0.0090    112.7588     26.1529
   108.7000      2.7444      2.2186      2.4319     -0.0086    110.5338     26.4663
   108.8000      2.7444      2.2281      2.4320     -0.0084    109.6808     26.4672
   108.9000      2.7444      2.2230      2.4484     -0.0085    112.2769     26.4728
   109.0000      2.7444      2.2147      2.4218     -0.0087    116.0980     26.6025
   109.1000      2.7444      2.2094      2.4123     -0.0088    118.8260     26.4094
   109.2000      2.7444      2.2019      2.3801     -0.0090    118.7895     26.0927
   109.3000      2.7444      2.1964      2.4199     -0.0091    115.9877     26.2345
   109.4000      2.7444      2.2049      2.4060     -0.0089    113.6999     26.7404
   109.5000      2.7444      2.2240      2.4513     -0.0085    112.7282     27.1149
   109.6000      2.7444      2.2324      2.4377     -0.0084    108.9957     27.1517
   109.7000      2.7444      2.2226      2.4135     -0.0086    106.0472     26.8990
   109.8000      2.7444      2.2115      2.4319     -0.0088    110.1116     26.6447
   109.9000      2.7444      2.2159      2.4204     -0.0087    115.0764     26.5982
   110.0000      2.7444      2.2352      2.4210     -0.0083    114.3136     26.4849
   110.1000      2.7444      2.2488      2.4447     -0.0080    111.4048     26.1104
   110.2000      2.7444      2.2405      2.4370     -0.0082    109.5579     25.7814
   110.3000      2.7444      2.2206      2.3782     -0.0086    108.8138     25.6205
   110.4000      2.7444      2.2042      2.4133     -0.0089    109.9667     25.6012
   110.5000      2.7444      2.1876      2.4098     -0.0093    112.5291     25.7742
   110.6000      2.7444      2.1696      2.3852     -0.0096    114.6793     25.9196
   110.7000      2.7444      2.1621      2.3859     -0.0098    113.7304     25.8150
   110.8000      2.7444      2.1715      2.3950     -0.0096    110.3129     25.7682
   110.9000      2.7444      2.1919      2.3989     -0.0092    108.9768     25.9641
   111.0000      2.7444      2.2056      2.4633     -0.0089    109.3095     26.0429
   111.1000      2.7444      2.1986      2.4261     -0.0090    107.7328     25.9012
   111.2000      2.7444      2.1770      2.4012     -0.0095    107.0090     25.7016
   111.3000      2.7444      2.1592      2.3500     -0.0098    109.3112     25.5078
   111.4000      2.7444      2.1569      2.3805     -0.0099    109.6815     25.6526
   111.5000      2.7444      2.1664      2.3928     -0.0097    105.9164     26.2201
   111.6000      2.7444      2.1792      2.4153     -0.0094    102.7549     26.6838
   111.7000      2.7444      2.1961      2.3944     -0.0091    104.1294     26.6366
   111.8000      2.7444      2.2179      2.4289     -0.0086    107.8249     26.3592
   111.9000      2.7444      2.2331      2.4261     -0.0083    109.1227     26.6054
   112.0000      2.7444      2.2322      2.4313     -0.0084    106.7539     27.4556
   112.1000      2.7444      2.2209      2.4125     -0.0086    103.0639     28.0178
   112.2000      2.7444      2.2105      2.4263     -0.0088     99.8786     27.8646
   112.3000      2.7444      2.2023      2.4179     -0.0090     97.7836     27.6407
   112.4000      2.7444      2.1877      2.4264     -0.0093     98.2865     27.9791
   112.5000      2.7444      2.1651      2.3774     -0.0097    100.8506     28.6483
   112.6000      2.7444      2.1447      2.3927     -0.0101    102.0232     29.2395
   112.7000      2.7444      2.1371      2.3741     -0.0103    101.6603     29.7489
   112.8000      2.7444      2.1471      2.4116     -0.0101    101.8187     30.1404
   112.9000      2.7444      2.1665      2.4028     -0.0097    102.0347     30.1344
   113.0000      2.7444      2.1819      2.3927     -0.0094    101.6992     29.8656
   113.1000      2.7444      2.1906      2.4135     -0.0092    101.9162     29.9911
   113.2000      2.7444      2.1957      2.4104     -0.0091    103.2036     30.4728
   113.3000      2.7444      2.1926      2.4614     -0.0092    107.2131     30.6197
   113.4000      2.7444      2.1800      2.4013     -0.0094    112.7551     30.2706
   113.5000      2.7444      2.1723      2.3923     -0.0096    112.7519     29.6545
   113.6000      2.7444      2.1744      2.4038     -0.0095    105.7796     28.8418
   113.7000      2.7444      2.1738      2.4036     -0.0095     99.7339     28.1017
   113.8000      2.7444      2.1705      2.3894     -0.0096     99.5531     27.9415
   113.9000      2.7444      2.1813      2.3596     -0.0094    101.9024     28.3040
   114.0000      2.7444      2.2029      2.4248     -0.0089    103.9753     28.5711
   114.1000      2.7444      2.2108      2.4344     -0.0088    106.9751     28.5843
   114.2000      2.7444      2.2020      2.4000     -0.0090    112.0473     28.6730
   114.3000      2.7444      2.1937      2.3957     -0.0091    118.9974     28.7769
   114.4000      2.7444      2.1896      2.4259     -0.0092    125.0737     28.7135
   114.5000      2.7444      2.1850      2.4047     -0.0093    126.1637     28.7793
   114.6000      2.7444      2.1861      2.3718     -0.0093    121.4940     29.0684
   114.7000      2.7444      2.2042      2.4225     -0.0089    115.4892     29.2052
   114.8000      2.7444      2.2334      2.4357     -0.0083    114.3062     29.0457
   114.9000      2.7444      2.2500      2.4543     -0.0080    117.9366     28.7967
   115.0000      2.7444      2.2374      2.4412     -0.0083    121.4103     28.6730
   115.1000      2.7444      2.2081      2.4239     -0.0088    120.5609     28.6031
   115.2000      2.7444      2.1919      2.3667     -0.0092    117.5049     28.4875
   115.3000      2.7444      2.2019      2.4246     -0.0090    118.2127     28.2932
   115.4000      2.7444      2.2154      2.4542     -0.0087    121.5708     27.9792
   115.5000      2.7444      2.2095      2.4251     -0.0088    121.4161     27.6757
