~Version Information
VERS.                      2.0: CWLS Log ASCII Standard - VERSION 2.0
WRAP.                       NO: One line per depth step
~Well Information Block
STRT.FT               410.0000: 
STOP.FT              1252.0000: 
STEP.FT                 0.2500: 
NULL.                -999.2500: 
COMP.          Petrogulf Corporation: COMPANY
WELL.           Parsons 15-23R: WELL
FLD.           Purgatorie River: FIELD
LOC.           2244' FSL & 1932' FWL: LOCATION
PROV.                 Colorado: PROVINCE
CNTY.               Las Animas: COUNTRY
SRVC.                Patterson: SERVICE COMPANY
DATE.          Mon Sep 12 10:30:11 2005: LOG DATE
UWI.                          : UNIQUE WELL ID
~Curve Information Block
DEPT.FT            0 000 00 00: Depth
SP.mV                         : DIL Spontaneous Potential
RILD.Ohm-m                    : DIL Deep Resistivity
RILM.Ohm-m                    : DIL Medium Resistivity
RLL3.Ohm-m                    : DIL Shallow Resistivity
GR.GAPI                       : Gamma Ray
~Parameter Information Block
~A  Depth        SP         RILD        RILM        RLL3         GR     
# ...
  1166.0000    160.5382     34.4587     64.9060    130.9485     39.3937
  1166.2500    161.4300     39.1231     72.1283    141.4704     37.7363
  1166.5000    162.4149     41.6578     74.1026    145.3436     44.1030
  1166.7500    163.7365     41.6411     65.0069    151.9765     40.3000
  1167.0000    165.1066     41.3165     70.1693    165.8192     35.7517
  1167.2500    166.8154     40.3738     77.4016    181.9146     34.1692
  1167.5000    168.6753     43.0399     93.8637    195.7361     30.4293
  1167.7500    170.9193     42.3971     88.4359    193.5713     22.2754
  1168.0000    172.6244     42.0458     81.1979    189.0874     35.7032
  1168.2500    174.3828     40.4795     81.5144    202.4034     43.0191
  1168.5000    176.6921     39.0093     95.3387    202.5107     37.1943
  1168.7500    179.8814     37.7846     83.3787    165.8492     33.1508
  1169.0000    182.5765     35.4715     83.2057    120.9003     36.5560
  1169.2500    185.2804     31.2503     73.6631    116.8072     33.9079
  1169.5000    188.5125     28.2666     62.3097    129.9989     27.5257
  1169.7500    191.5138     26.1026     59.7835    135.9972     21.9955
  1170.0000    194.8889     23.3030     43.7628    130.5421     45.1880
  1170.2500    198.2410     20.5402     34.0214    105.5601     51.2217
  1170.5000    201.4872     18.1298     26.9237     67.5108     67.1639
  1170.7500    204.8288     16.9925     21.6658     32.8337     93.2198
  1171.0000    207.5737     15.7449     18.4695     16.8055    155.1045
  1171.2500    209.6268     14.5790     15.6920     11.8459    167.0298
  1171.5000    210.6965     13.7405     14.2249     10.9812    148.5054
  1171.7500    211.4375     13.0361     12.9289     11.0999    162.1276
  1172.0000    212.2531     12.2239     12.2297     11.4103    152.1948
  1172.2500    213.0627     11.4120     11.5962     11.7371    135.7512
  1172.5000    213.9019     10.8388     10.8211     11.7341    143.6180
  1172.7500    214.9196     10.4600     10.2559     11.1093    140.8783
  1173.0000    215.8798     10.1415      9.8118     10.6159    152.2033
  1173.2500    216.7443      9.7742      9.5281     10.4424    151.5023
  1173.5000    217.5252      9.6109      9.2723     10.6078    138.7250
  1173.7500    218.1122      9.7166      9.1190     10.7070    154.4668
  1174.0000    218.5426      9.7489      9.1592     10.9511    147.3809
  1174.2500    219.0993      9.7249      9.3817     10.5522    120.4007
  1174.5000    219.3988      9.8195      9.5630     10.0058    115.0463
  1174.7500    219.3557      9.9422      9.9122     10.6507    114.2749
  1175.0000    219.3422      9.9398     10.2669     12.0971    127.7423
  1175.2500    219.1221     10.0768     10.7745     14.7488    119.5411
  1175.5000    218.7329     10.0515     10.9160     18.1908     99.6279
  1175.7500    218.2452     10.2728     11.0762     20.9904     93.2092
  1176.0000    217.4100     10.4438     10.9658     19.8410    119.2551
  1176.2500    216.3774     10.7576     10.7392     15.7486    117.6936
  1176.5000    215.1784     10.8908     10.5800     12.4570    132.5736
  1176.7500    213.7366     11.5868     10.6327     10.7404    143.1696
  1177.0000    211.9901     12.0058     11.1637     10.0767    149.6724
  1177.2500    210.2723     12.3802     11.7231      9.9376    132.9191
  1177.5000    208.5977     12.8825     12.5660     10.6229    109.8672
  1177.7500    207.0889     12.9829     13.8503     12.6235    109.5079
  1178.0000    206.1575     12.8964     15.4921     17.3505    100.4236
  1178.2500    205.6253     12.7160     17.0076     28.1307     88.6429
  1178.5000    204.6971     12.4156     17.5234     42.2625     84.0510
  1178.7500    204.0020     12.1243     17.9587     50.3700     82.2857
  1179.0000    203.3716     12.0450     17.8509     55.1344     94.7402
  1179.2500    202.7573     11.7743     16.8987     47.0440     95.6534
  1179.5000    202.4289     11.5747     15.5467     30.4063    110.2547
  1179.7500    202.0488     11.6223     14.3520     19.9693    120.3208
  1180.0000    201.6655     11.5462     13.2023     14.4037    133.7636
  1180.2500    201.3629     11.2852     12.9583     11.4515    151.7920
  1180.5000    201.5926     10.7695     12.0876     10.8341    124.2960
  1180.7500    202.2707     10.4455     11.7879     11.1163    119.8274
  1181.0000    203.2385      9.8568     11.3671     12.4735    135.9558
  1181.2500    204.4154      9.3257     10.5845     14.2576    127.1067
  1181.5000    205.8805      8.7685      9.7022     12.5197    137.3105
  1181.7500    207.0961      8.4045      8.8392     10.2687    139.6277
  1182.0000    208.2372      8.0901      8.2047      9.3624    131.2514
  1182.2500    208.8996      7.8545      7.7528      8.4642    139.3839
  1182.5000    209.4188      7.6935      7.4107      7.8236    145.0275
  1182.7500    210.1290      7.5648      7.1360      7.5178    131.9067
  1183.0000    210.7823      7.6384      7.0486      7.6500    159.3997
  1183.2500    210.9317      7.5948      7.1220      8.1014    149.1855
  1183.5000    210.7758      7.7095      7.0898      8.1619    138.6648
  1183.7500    210.6363      7.8174      7.1864      7.9395    126.6561
  1184.0000    210.6530      7.8184      7.4352      8.2028    117.3501
  1184.2500    210.2845      7.7938      7.7628      9.2573    130.0663
  1184.5000    209.8273      7.8954      8.0047     10.7545    121.2328
  1184.7500    209.2933      7.9185      8.3842     12.0919    116.5641
  1185.0000    208.8636      7.9601      8.6244     12.2753    113.9206
  1185.2500    208.5917      8.0901      8.8579     11.4166     98.2331
  1185.5000    208.2086      8.1960      8.9876     11.2601    107.1420
  1185.7500    207.9367      8.2254      9.1672     11.8419    109.7788
  1186.0000    207.6939      8.2575      9.3271     12.6038    101.9090
  1186.2500    207.4851      8.4361      9.3041     12.7194    113.6813
  1186.5000    207.7103      8.5457      9.2666     12.2032    120.3070
  1186.7500    208.2370      8.5211      8.9775     10.7352    141.7775
  1187.0000    208.3683      8.5206      8.8237      9.0608    126.2898
  1187.2500    208.2403      8.4179      8.5541      8.3370    146.7956
  1187.5000    208.3694      8.3515      8.2456      8.0493    137.7902
  1187.7500    208.5070      8.1969      8.1652      7.7514    134.3572
  1188.0000    208.6000      8.0942      8.2405      7.8400    122.0157
  1188.2500    208.1809      7.9275      8.2602      8.0573    130.2402
  1188.5000    207.9828      7.6879      8.4906      8.6408    138.9709
  1188.7500    207.5267      7.4865      8.4121      9.7983    138.5498
  1189.0000    206.6923      7.0964      8.4163     10.9097    119.0796
  1189.2500    206.0080      7.0276      8.1938     11.2241    119.9668
  1189.5000    205.2174      6.9173      7.8729     10.1429    125.1617
  1189.7500    204.5776      6.7787      7.6407      9.0790    136.8197
  1190.0000    203.6871      6.7044      7.2912      8.4643    132.9420
  1190.2500    203.0247      6.6079      7.0484      8.1309    122.9921
  1190.5000    202.4234      6.5398      6.8307      7.6712    139.0830
  1190.7500    202.1030      6.4773      6.6389      7.2973    150.6908
  1191.0000    201.4154      6.4360      6.5541      6.7981    151.3347
  1191.2500    200.6181      6.3237      6.4167      7.0470    171.9226
  1191.5000    199.9772      6.2649      6.3062      7.2774    155.3757
  1191.7500    199.7305      6.2800      6.1543      7.0828    151.5731
  1192.0000    199.8553      6.2974      6.0764      6.7297    151.7922
  1192.2500    199.4782      6.1773      5.9881      6.6838    145.4418
  1192.5000    198.7127      6.2662      5.9746      6.9064    148.3029
  1192.7500    198.2944      6.3521      6.1165      6.7265    132.4106
  1193.0000    197.5342      6.3776      6.2021      6.4992    159.5274
  1193.2500    196.7322      6.5406      6.3036      6.9373    137.9670
  1193.5000    196.0131      6.6479      6.6153      7.8920    114.3332
  1193.7500    195.2713      6.8785      6.8862      8.5659    100.5127
