~Version Information
VERS.                      2.0: CWLS Log ASCII Standard - VERSION 2.0
WRAP.                       NO: One line per depth step
~Well Information Block
STRT.FT               309.8000: 
STOP.FT              2184.7000: 
STEP.FT                 0.1000: 
NULL.                -999.2500: 
COMP.          Pioneer Natural Resources: COMPANY
WELL.             AMX 13-13 Tr: WELL
FLD.           Purgatoire River: FIELD
LOC.           2401' FSL & 895' FWL--: LOCATION
PROV.                 Colorado: PROVINCE
CNTY.               Las Animas: COUNTRY
SRVC.                Patterson: SERVICE COMPANY
DATE.          Thu Dec 22 15:57:57 2005: LOG DATE
UWI.           05 071 08631 00: UNIQUE WELL ID
~Curve Information Block
DEPT.FT            0 000 00 00: Depth
DCAL.in                       : CDL Caliper
RHOB.g/cc                     : CDL Bulk Density
RHOC.g/cc                     : CDL Density Correction
DPOR.pu                       : CDL Density Porosity
GR.GAPI                       : Gamma Ray
~Parameter Information Block
~A  Depth       DCAL        RHOB        RHOC        DPOR         GR     
# ...
  1060.2000      8.1202      2.5846      0.0131      3.9651    125.3250
  1060.3000      8.1196      2.5853      0.0334      3.9183    123.6226
  1060.4000      8.1196      2.5785      0.0071      4.3334    121.6669
  1060.5000      8.1188      2.5618     -0.0017      5.3474    120.8591
  1060.6000      8.1188      2.5525     -0.0222      5.9068    122.3481
  1060.7000      8.1188      2.5532      0.0669      5.8681    122.4670
  1060.8000      8.1181      2.5578     -0.0019      5.5891    120.5318
  1060.9000      8.1181      2.5846      0.0194      3.9607    119.6166
  1061.0000      8.1184      2.6435      0.0607      0.3944    120.1036
  1061.1000      8.1184      2.7071      0.0917     -3.4604    118.8882
  1061.2000      8.1184      2.7383      0.0992     -5.3524    114.4472
  1061.3000      8.1176      2.7266      0.1152     -4.6395    109.4437
  1061.4000      8.1176      2.6997      0.0822     -3.0110    105.6525
  1061.5000      8.1167      2.6880      0.0532     -2.3040    102.2393
  1061.6000      8.1167      2.6811      0.0931     -1.8830    101.0292
  1061.7000      8.1167      2.6598      0.0069     -0.5922    102.1979
  1061.8000      8.1183      2.6443      0.0163      0.3447    100.6683
  1061.9000      8.1183      2.6546      0.0390     -0.2775     94.6178
  1062.0000      8.1202      2.6694      0.1218     -1.1745     88.4728
  1062.1000      8.1202      2.6632      0.0426     -0.8023     85.7788
  1062.2000      8.1202      2.6468      0.0432      0.1920     86.4532
  1062.3000      8.1259      2.6371      0.0682      0.7822     89.7640
  1062.4000      8.1259      2.6264      0.0800      1.4331     93.0309
  1062.5000      8.1362      2.6112      0.0203      2.3497     93.5460
  1062.6000      8.1362      2.6007      0.0608      2.9858     94.9865
  1062.7000      8.1362      2.5865      0.0444      3.8468    100.7037
  1062.8000      8.1451      2.5629     -0.0032      5.2796    105.5837
  1062.9000      8.1451      2.5439     -0.0086      6.4319    106.4679
  1063.0000      8.1548      2.5292      0.0087      7.3219    107.9843
  1063.1000      8.1548      2.4992      0.0074      9.1371    112.5702
  1063.2000      8.1548      2.4515     -0.0387     12.0299    116.4523
  1063.3000      8.1658      2.3993     -0.0240     15.1928    116.4915
  1063.4000      8.1658      2.3580     -0.0936     17.6979    114.0913
  1063.5000      8.1713      2.3513     -0.0908     18.1031    112.5145
  1063.6000      8.1713      2.3794      0.0109     16.4009    114.3978
  1063.7000      8.1713      2.4084      0.0574     14.6426    119.8264
  1063.8000      8.1713      2.4176      0.0749     14.0858    124.2551
  1063.9000      8.1713      2.4176      0.0395     14.0820    123.9501
  1064.0000      8.1691      2.4240      0.0935     13.6974    121.7912
  1064.1000      8.1691      2.4412      0.1075     12.6547    123.8159
  1064.2000      8.1691      2.4702      0.1498     10.8992    129.4212
  1064.3000      8.1695      2.5014      0.1858      9.0079    130.7477
  1064.4000      8.1695      2.5160      0.1632      8.1241    127.5403
  1064.5000      8.1717      2.5088      0.1195      8.5569    126.1925
  1064.6000      8.1717      2.4942      0.0562      9.4447    126.6334
  1064.7000      8.1717      2.4871      0.0697      9.8742    126.2035
  1064.8000      8.1721      2.4889      0.0639      9.7616    125.7755
  1064.9000      8.1721      2.4963      0.0650      9.3154    127.5357
  1065.0000      8.1704      2.5071      0.0769      8.6599    132.6277
  1065.1000      8.1704      2.5169      0.0954      8.0695    138.2459
  1065.2000      8.1704      2.5195      0.0864      7.9063    141.6475
  1065.3000      8.1657      2.5162      0.0372      8.1077    143.0377
  1065.4000      8.1657      2.5131      0.0569      8.2970    141.1357
  1065.5000      8.1516      2.5092      0.0551      8.5335    138.3666
  1065.6000      8.1516      2.4981      0.0305      9.2063    137.9135
  1065.7000      8.1516      2.4860     -0.0042      9.9369    135.3335
  1065.8000      8.1267      2.4906      0.0321      9.6600    127.3827
  1065.9000      8.1267      2.5086      0.0876      8.5705    117.1405
  1066.0000      8.1080      2.5221      0.0609      7.7536    109.2650
  1066.1000      8.1080      2.5319      0.0652      7.1569    106.7204
  1066.2000      8.1080      2.5476      0.0768      6.2061    108.9834
  1066.3000      8.1018      2.5618      0.1692      5.3427    113.1470
  1066.4000      8.1018      2.5644      0.1267      5.1885    116.6023
  1066.5000      8.1022      2.5685      0.1006      4.9423    119.2710
  1066.6000      8.1022      2.5852      0.1341      3.9250    120.6524
  1066.7000      8.1022      2.6077      0.0860      2.5650    120.5367
  1066.8000      8.1113      2.6317      0.0590      1.1066    119.6098
  1066.9000      8.1113      2.6497      0.0799      0.0195    117.9439
  1067.0000      8.1285      2.6497      0.0520      0.0179    116.6339
  1067.1000      8.1285      2.6318      0.0496      1.1035    116.1289
  1067.2000      8.1285      2.6003      0.0665      3.0106    114.0147
  1067.3000      8.1403      2.5689      0.0195      4.9137    109.2720
  1067.4000      8.1403      2.5597     -0.0492      5.4732    104.3666
  1067.5000      8.1452      2.5656      0.0784      5.1145    102.0173
  1067.6000      8.1452      2.5555      0.0566      5.7277    104.5121
  1067.7000      8.1452      2.5314      0.0371      7.1891    111.7507
  1067.8000      8.1465      2.5205      0.0352      7.8480    118.3690
  1067.9000      8.1465      2.5332      0.0453      7.0807    120.2313
  1068.0000      8.1447      2.5640      0.0520      5.2128    119.5644
  1068.1000      8.1447      2.5889      0.1270      3.7001    119.3787
  1068.2000      8.1447      2.5737      0.1173      4.6223    121.3654
  1068.3000      8.1428      2.5196      0.0449      7.9047    122.9607
  1068.4000      8.1428      2.4615     -0.0040     11.4252    121.0316
  1068.5000      8.1374      2.4257      0.0089     13.5930    117.7128
  1068.6000      8.1374      2.4273     -0.0209     13.4969    116.1163
  1068.7000      8.1374      2.4742      0.0846     10.6524    118.5052
  1068.8000      8.1292      2.5461      0.1289      6.2951    124.6569
  1068.9000      8.1292      2.6054      0.1777      2.7028    127.0046
  1069.0000      8.1277      2.6360      0.1413      0.8465    118.3887
  1069.1000      8.1277      2.6454      0.1739      0.2789    102.4592
  1069.2000      8.1277      2.6473      0.1532      0.1611     88.8541
  1069.3000      8.1327      2.6646      0.1322     -0.8841     83.2117
  1069.4000      8.1327      2.6992      0.1819     -2.9844     83.4387
  1069.5000      8.1370      2.7201      0.1387     -4.2476     83.2100
  1069.6000      8.1370      2.7165      0.0976     -4.0283     79.4184
  1069.7000      8.1370      2.7033      0.0627     -3.2329     76.3666
  1069.8000      8.1386      2.6803      0.0708     -1.8353     76.2157
  1069.9000      8.1386      2.6436      0.0026      0.3859     73.4625
  1070.0000      8.1409      2.6076      0.0227      2.5710     66.6389
  1070.1000      8.1409      2.5896     -0.0374      3.6582     62.3173
  1070.2000      8.1409      2.6038      0.0012      2.7980     63.7141
  1070.3000      8.1435      2.6482      0.0406      0.1109     66.8447
  1070.4000      8.1435      2.7000      0.0784     -3.0293     68.1336
  1070.5000      8.1436      2.7291      0.1297     -4.7947     66.2024
  1070.6000      8.1436      2.7202      0.0773     -4.2525     60.6908
  1070.7000      8.1436      2.6897      0.0902     -2.4058     55.9818
  1070.8000      8.1426      2.6748      0.0172     -1.5015     55.6844
  1070.9000      8.1426      2.6914      0.0851     -2.5117     57.6825
  1071.0000      8.1429      2.7028      0.1613     -3.2004     57.4456
  1071.1000      8.1429      2.6806      0.0436     -1.8539     52.9510
  1071.2000      8.1429      2.6567      0.0629     -0.4060     48.6289
  1071.3000      8.1424      2.6592      0.0310     -0.5567     47.7266
