~Version Information
VERS.                      2.0: CWLS Log ASCII Standard - VERSION 2.0
WRAP.                       NO: One line per depth step
~Well Information Block
STRT.FT               520.0000: 
STOP.FT              2555.2500: 
STEP.FT                 0.2500: 
NULL.                -999.2500: 
COMP.          Pioneer Natural Resources: COMPANY
WELL.          Horsefeathers 24-34: WELL
FLD.           Purgatoire River: FIELD
LOC.           183' FSL & 1570' FWL--: LOCATION
CNTY.               Las Animas: COUNTY
SRVC.                Patterson: SERVICE COMPANY
DATE.          Sun Feb 05 17:35:59 2006: LOG DATE
UWI.           05 071 08675 00: UNIQUE WELL ID
STAT.                 Colorado: STATE
~Curve Information Block
DEPT.FT            0 000 00 00: Depth
SN.Ohm-m                      : IEL Short Normal
SP.mV                         : IEL Spontaneous Potential
DIR.Ohm-m                     : IEL Induction Resistivity
GR.GAPI                       : Gamma Ray
~Parameter Information Block
NPORSHIFT.              0.0000: NPORSHIFT
~A  Depth        SN          SP         DIR          GR     
# ...
   654.0000   2000.0000   1975.0000     13.1288    117.8542
   654.2500   2000.0000   1975.0000     12.9390    120.8205
   654.5000   2000.0000   1975.0000     12.7193    123.8108
   654.7500   2000.0000   1975.0000     12.4597    124.8776
   655.0000   2000.0000   1975.0000     12.1643    126.5442
   655.2500   2000.0000   1975.0000     11.8470    128.4233
   655.5000   2000.0000   1975.0000     11.5233    132.1968
   655.7500   2000.0000   1975.0000     11.2047    134.5686
   656.0000   2000.0000   1975.0000     10.8969    136.7042
   656.2500   2000.0000   1975.0000     10.6012    137.0825
   656.5000   2000.0000   1975.0000     10.3169    136.7816
   656.7500   2000.0000   1975.0000     10.0445    136.4008
   657.0000   2000.0000   1975.0000      9.7870    135.7736
   657.2500   2000.0000   1975.0000      9.5487    135.4137
   657.5000   2000.0000   1975.0000      9.3343    135.4482
   657.7500   2000.0000   1975.0000      9.1480    136.0875
   658.0000   2000.0000   1975.0000      8.9932    137.6803
   658.2500   2000.0000   1975.0000      8.8721    138.7588
   658.5000   2000.0000   1975.0000      8.7859    140.1973
   658.7500   2000.0000   1975.0000      8.7357    141.1900
   659.0000   2000.0000   1975.0000      8.7232    142.3519
   659.2500   2000.0000   1975.0000      8.7523    142.1374
   659.5000   2000.0000   1975.0000      8.8279    139.4653
   659.7500   2000.0000   1975.0000      8.9534    136.5677
   660.0000   2000.0000   1975.0000      9.1283    132.1725
   660.2500   2000.0000   1975.0000      9.3473    129.6704
   660.5000   2000.0000   1975.0000      9.6022    126.0994
   660.7500   2000.0000   1975.0000      9.8852    123.5677
   661.0000   2000.0000   1975.0000     10.1902    120.1192
   661.2500   2000.0000   1975.0000     10.5120    118.6821
   661.5000   2000.0000   1975.0000     10.8447    118.2255
   661.7500   2000.0000   1975.0000     11.1801    118.8130
   662.0000   2000.0000   1975.0000     11.5086    120.5306
   662.2500   2000.0000   1975.0000     11.8200    122.1578
   662.5000   2000.0000   1975.0000     12.1043    125.3294
   662.7500   2000.0000   1975.0000     12.3518    127.7281
   663.0000   2000.0000   1975.0000     12.5546    130.9065
   663.2500   2000.0000   1975.0000     12.7093    132.2867
   663.5000   2000.0000   1975.0000     12.8182    133.2617
   663.7500   2000.0000   1975.0000     12.8881    133.5802
   664.0000   2000.0000   1975.0000     12.9266    133.9883
   664.2500   2000.0000   1975.0000     12.9374    134.0377
   664.5000   2000.0000   1975.0000     12.9197    133.1936
   664.7500   2000.0000   1975.0000     12.8692    131.9265
   665.0000   2000.0000   1975.0000     12.7812    129.5865
   665.2500   2000.0000   1975.0000     12.6525    128.4093
   665.5000   2000.0000   1975.0000     12.4841    128.2390
   665.7500   2000.0000   1975.0000     12.2859    129.3326
   666.0000   2000.0000   1975.0000     12.0768    132.1124
   666.2500   2000.0000   1975.0000     11.8809    134.0533
   666.5000   2000.0000   1975.0000     11.7183    136.0659
   666.7500   2000.0000   1975.0000     11.5983    136.5423
   667.0000   2000.0000   1975.0000     11.5205    136.2810
   667.2500   2000.0000   1975.0000     11.4816    135.9027
   667.5000   2000.0000   1975.0000     11.4840    135.5485
   667.7500   2000.0000   1975.0000     11.5395    135.4777
   668.0000   2000.0000   1975.0000     11.6659    135.5760
   668.2500   2000.0000   1975.0000     11.8793    135.8160
   668.5000   2000.0000   1975.0000     12.1860    136.2678
   668.7500   2000.0000   1975.0000     12.5787    136.2575
   669.0000   2000.0000   1975.0000     13.0374    134.8920
   669.2500   2000.0000   1975.0000     13.5336    132.6189
   669.5000   2000.0000   1975.0000     14.0358    126.6558
   669.7500   2000.0000   1975.0000     14.5145    120.9444
   670.0000   2000.0000   1975.0000     14.9463    110.5037
   670.2500   2000.0000   1975.0000     15.3158    103.3307
   670.5000   2000.0000   1975.0000     15.6153     94.8692
   670.7500   2000.0000   1975.0000     15.8401     92.2354
   671.0000   2000.0000   1975.0000     15.9851     93.8457
   671.2500   2000.0000   1975.0000     16.0427     97.9655
   671.5000   2000.0000   1975.0000     16.0045    106.0770
   671.7500   2000.0000   1975.0000     15.8634    111.2509
   672.0000   2000.0000   1975.0000     15.6188    117.3045
   672.2500   2000.0000   1975.0000     15.2807    120.1753
   672.5000   2000.0000   1975.0000     14.8720    123.3254
   672.7500   2000.0000   1975.0000     14.4260    125.0130
   673.0000   2000.0000   1975.0000     13.9794    127.2151
   673.2500   2000.0000   1975.0000     13.5647    128.4685
   673.5000   2000.0000   1975.0000     13.2066    129.9659
   673.7500   2000.0000   1975.0000     12.9197    130.6546
   674.0000   2000.0000   1975.0000     12.7095    130.8832
   674.2500   2000.0000   1975.0000     12.5718    130.1497
   674.5000   2000.0000   1975.0000     12.4952    127.4038
   674.7500   2000.0000   1975.0000     12.4635    124.8093
   675.0000   2000.0000   1975.0000     12.4603    121.0862
   675.2500   2000.0000   1975.0000     12.4713    119.3692
   675.5000   2000.0000   1975.0000     12.4867    118.0660
   675.7500   2000.0000   1975.0000     12.5009    117.6508
   676.0000   2000.0000   1975.0000     12.5118    117.1512
   676.2500   2000.0000   1975.0000     12.5179    117.0322
   676.5000   2000.0000   1975.0000     12.5164    118.0720
   676.7500   2000.0000   1975.0000     12.5008    119.9844
   677.0000   2000.0000   1975.0000     12.4632    124.3704
   677.2500   2000.0000   1975.0000     12.3981    127.6248
   677.5000   2000.0000   1975.0000     12.3067    131.9530
   677.7500   2000.0000   1975.0000     12.1987    134.3446
   678.0000   2000.0000   1975.0000     12.0905    137.6217
   678.2500   2000.0000   1975.0000     12.0015    139.7692
   678.5000   2000.0000   1975.0000     11.9502    142.5203
   678.7500   2000.0000   1975.0000     11.9517    143.4972
   679.0000   2000.0000   1975.0000     12.0155    142.9477
   679.2500   2000.0000   1975.0000     12.1447    141.3273
   679.5000   2000.0000   1975.0000     12.3354    138.1761
   679.7500   2000.0000   1975.0000     12.5757    136.4255
   680.0000   2000.0000   1975.0000     12.8429    134.7607
   680.2500   2000.0000   1975.0000     13.1025    133.6739
   680.5000   2000.0000   1975.0000     13.3116    130.4837
   680.7500   2000.0000   1975.0000     13.4301    127.0347
   681.0000   2000.0000   1975.0000     13.4332    121.3479
   681.2500   2000.0000   1975.0000     13.3200    118.6690
   681.5000   2000.0000   1975.0000     13.1111    117.9758
   681.7500   2000.0000   1975.0000     12.8382    119.7259
   682.0000   2000.0000   1975.0000     12.5326    124.6105
   682.2500   2000.0000   1975.0000     12.2170    128.6329
   682.5000   2000.0000   1975.0000     11.9045    134.5101
   682.7500   2000.0000   1975.0000     11.6011    137.5029
   683.0000   2000.0000   1975.0000     11.3098    139.5925
   683.2500   2000.0000   1975.0000     11.0345    139.3687
   683.5000   2000.0000   1975.0000     10.7827    137.5515
   683.7500   2000.0000   1975.0000     10.5667    136.1300
   684.0000   2000.0000   1975.0000     10.4019    134.7218
   684.2500   2000.0000   1975.0000     10.3009    134.4727
   684.5000   2000.0000   1975.0000     10.2680    134.6927
   684.7500   2000.0000   1975.0000     10.2961    134.6945
   685.0000   2000.0000   1975.0000     10.3682    133.8005
   685.2500   2000.0000   1975.0000     10.4630    132.7415
   685.5000   2000.0000   1975.0000     10.5627    131.4350
   685.7500   2000.0000   1975.0000     10.6598    131.1496
   686.0000   2000.0000   1975.0000     10.7584    131.0940
   686.2500   2000.0000   1975.0000     10.8694    130.5838
   686.5000   2000.0000   1975.0000     11.0027    128.3713
   686.7500   2000.0000   1975.0000     11.1609    126.1417
   687.0000   2000.0000   1975.0000     11.3375    122.8756
   687.2500   2000.0000   1975.0000     11.5195    121.6042
