~Version Information
VERS.                      2.0: CWLS Log ASCII Standard - VERSION 2.0
WRAP.                       NO: One line per depth step
~Well Information Block
STRT.FT               615.0000: 
STOP.FT              1607.0000: 
STEP.FT                 0.1000: 
NULL.                -999.2500: 
COMP.          Pioneer Natural Resources: COMPANY
WELL.          Galloway 32-13 Tr: WELL
FLD.           Purgatoire River: FIELD
LOC.           1910' FNL & 2002' FEL: LOCATION
PROV.                 Colorado: PROVINCE
CNTY.               Las Animas: COUNTRY
SRVC.                Patterson: SERVICE COMPANY
DATE.          Mon Nov 14 07:13:22 2005: LOG DATE
UWI.           05 071 08608 00: UNIQUE WELL ID
~Curve Information Block
DEPT.FT            0 000 00 00: Depth
DCAL.in                       : CDL Caliper
RHOB.g/cc                     : CDL Bulk Density
RHOC.g/cc                     : CDL Density Correction
DPOR.pu                       : CDL Density Porosity
GR.GAPI                       : Gamma Ray
NPOR.pu                       : Neutron Porosity
~Parameter Information Block
~A  Depth       DCAL        RHOB        RHOC        DPOR         GR         NPOR    
# ...
  1133.4000      7.9166      2.5456      0.0847      6.3254    123.9372     27.3895
  1133.5000      7.9252      2.5418      0.0079      6.5551    126.2357     28.5071
  1133.6000      7.9252      2.5482      0.0455      6.1721    127.3121     29.3985
  1133.7000      7.9252      2.5576      0.0730      5.6012    123.2615     29.2933
  1133.8000      7.9382      2.5564      0.0422      5.6706    116.1129     27.7934
  1133.9000      7.9382      2.5457      0.0742      6.3198    113.2194     26.6220
  1134.0000      7.9357      2.5292      0.0571      7.3238    118.1037     26.6132
  1134.1000      7.9357      2.5149      0.0209      8.1893    125.9535     26.6563
  1134.2000      7.9357      2.5154      0.0296      8.1583    129.9293     26.1925
  1134.3000      7.9075      2.5343      0.0565      7.0097    127.0938     25.5168
  1134.4000      7.9075      2.5592      0.0735      5.5020    120.3328     24.8655
  1134.5000      7.9403      2.5735      0.0828      4.6354    117.8629     24.5977
  1134.6000      7.9403      2.5780      0.0735      4.3645    124.6424     24.8625
  1134.7000      7.9403      2.5833      0.0453      4.0433    135.5453     25.5213
  1134.8000      7.9417      2.5955      0.0372      3.3003    142.4217     26.6438
  1134.9000      7.9417      2.6097      0.0959      2.4406    140.9583     27.8891
  1135.0000      7.9353      2.6130      0.0776      2.2403    133.2320     28.2664
  1135.1000      7.9353      2.6018      0.0611      2.9223    127.6125     27.6523
  1135.2000      7.9353      2.5799      0.0551      4.2508    125.4088     26.9428
  1135.3000      7.9333      2.5581      0.0103      5.5669    120.9452     26.6153
  1135.4000      7.9333      2.5522      0.0482      5.9258    113.9720     26.5252
  1135.5000      7.9094      2.5634      0.0232      5.2504    111.9206     26.4188
  1135.6000      7.9094      2.5731      0.0528      4.6586    120.9134     26.0012
  1135.7000      7.9094      2.5648      0.0614      5.1618    133.8965     25.1777
  1135.8000      7.8670      2.5463      0.0207      6.2866    138.8978     24.7114
  1135.9000      7.8670      2.5394      0.0368      6.7057    133.5159     25.2696
  1136.0000      7.8707      2.5490      0.0497      6.1185    125.3902     26.1808
  1136.1000      7.8707      2.5537      0.0672      5.8353    123.3548     26.7358
  1136.2000      7.8707      2.5312      0.0357      7.1975    126.5291     26.9666
  1136.3000      7.8835      2.4910      0.0116      9.6343    128.3106     27.1070
  1136.4000      7.8835      2.4635     -0.0247     11.3052    128.5400     27.2144
  1136.5000      7.9086      2.4627     -0.0064     11.3534    131.1841     27.2149
  1136.6000      7.9086      2.4778      0.0487     10.4359    133.3958     27.2788
  1136.7000      7.9086      2.4941      0.0105      9.4471    133.2926     27.3104
  1136.8000      7.9193      2.5058      0.0433      8.7377    137.4495     27.0789
  1136.9000      7.9193      2.5128      0.0640      8.3176    144.9631     26.5253
  1137.0000      7.9435      2.5194      0.0623      7.9149    146.0469     25.9724
  1137.1000      7.9435      2.5306      0.0742      7.2370    141.4108     26.1208
  1137.2000      7.9435      2.5393      0.1034      6.7071    139.3746     27.0363
  1137.3000      7.9433      2.5348      0.1064      6.9820    138.2676     28.4000
  1137.4000      7.9433      2.5201      0.0918      7.8734    135.2535     29.9384
  1137.5000      7.9237      2.5042      0.0739      8.8373    136.1802     30.8757
  1137.6000      7.9237      2.4808      0.1420     10.2562    140.7033     30.9270
  1137.7000      7.9237      2.4359      0.0851     12.9729    139.2823     30.7174
  1137.8000      7.8913      2.3700      0.0438     16.9703    130.5001     30.5644
  1137.9000      7.8913      2.2864      0.0281     22.0356    122.9023     30.2623
  1138.0000      7.9229      2.1913     -0.0018     27.8002    122.3055     29.6219
  1138.1000      7.9229      2.0947     -0.0367     33.6534    123.4850     28.9402
  1138.2000      7.9229      1.9857     -0.0190     40.2593    117.1480     28.7424
  1138.3000      7.9636      1.8556     -0.0981     48.1452    103.7195     29.2410
  1138.4000      7.9636      1.7337     -0.1034     55.5363     89.5331     30.3186
  1138.5000      8.0208      1.6448     -0.1107     60.9213     79.8205     31.5208
  1138.6000      8.0208      1.5805     -0.0212     64.8194     74.1144     32.1751
  1138.7000      8.0208      1.5223      0.0607     68.3447     69.0933     31.8934
  1138.8000      8.0282      1.4590      0.0798     72.1846     63.6736     30.8727
  1138.9000      8.0282      1.3954      0.0061     76.0333     57.5606     29.9765
  1139.0000      8.0608      1.3445      0.0516     79.1196     51.3848     29.9563
  1139.1000      8.0608      1.3056      0.0202     81.4790     46.9718     30.2829
  1139.2000      8.0608      1.2786     -0.0148     83.1180     44.6283     30.1402
  1139.3000      8.0421      1.2711      0.0020     83.5675     43.5751     30.0151
  1139.4000      8.0421      1.2831      0.0146     82.8398     43.6384     30.5064
  1139.5000      8.0022      1.3140      0.0376     80.9682     44.4327     31.3407
  1139.6000      8.0022      1.3720      0.0315     77.4568     46.5904     32.3136
  1139.7000      8.0022      1.4551      0.0739     72.4195     51.7291     33.3021
  1139.8000      8.0324      1.5460      0.0878     66.9118     60.1695     34.0296
  1139.9000      8.0324      1.6441      0.0949     60.9611     69.4187     34.4270
  1140.0000      8.2160      1.7666      0.1184     53.5416     76.7813     34.5428
  1140.1000      8.2160      1.9092      0.1870     44.8970     83.8053     34.4802
  1140.2000      8.2160      2.0467      0.2314     36.5619     92.4958     33.9415
  1140.3000      8.6201      2.1659      0.2244     29.3402    102.6936     32.7954
  1140.4000      8.6201      2.2705      0.1841     23.0019    112.6874     31.9958
  1140.5000      8.4171      2.3595      0.2039     17.6069    119.5783     32.0576
  1140.6000      8.4171      2.4254      0.1786     13.6129    123.4991     32.3456
  1140.7000      8.4171      2.4661      0.1641     11.1481    127.0026     32.4427
  1140.8000      8.2350      2.4838      0.1621     10.0739    127.7351     31.9326
  1140.9000      8.2350      2.4829      0.1425     10.1246    122.8090     30.7490
  1141.0000      7.9770      2.4679      0.1584     11.0384    117.4597     30.0655
  1141.1000      7.9770      2.4401      0.1194     12.7235    117.1225     30.4236
  1141.2000      7.9770      2.4109      0.0722     14.4936    118.8790     30.8871
  1141.3000      7.9188      2.4015      0.0423     15.0609    118.2196     30.9109
  1141.4000      7.9188      2.4149      0.0802     14.2504    115.5667     30.8851
  1141.5000      8.0365      2.4371      0.0698     12.9022    114.2383     30.9067
  1141.6000      8.0365      2.4661      0.0563     11.1455    114.5435     30.4542
  1141.7000      8.0365      2.5018      0.1074      8.9847    114.0076     29.8605
  1141.8000      8.0827      2.5281      0.2279      7.3876    113.5346     29.8188
  1141.9000      8.0827      2.5300      0.2184      7.2730    115.2252     30.2225
  1142.0000      8.0825      2.5064      0.2393      8.7014    116.4682     30.5302
  1142.1000      8.0825      2.4741      0.1169     10.6583    115.4330     30.3039
  1142.2000      8.0825      2.4592      0.0800     11.5611    115.1822     29.7401
  1142.3000      8.0297      2.4636      0.1215     11.2962    118.0601     29.5353
  1142.4000      8.0297      2.4618      0.1160     11.4071    122.5097     29.9100
  1142.5000      8.0477      2.4466      0.0893     12.3274    126.9474     30.2845
  1142.6000      8.0477      2.4432      0.0885     12.5327    131.3032     30.0525
  1142.7000      8.0477      2.4568      0.1772     11.7077    135.3272     29.5284
  1142.8000      8.1013      2.4612      0.1728     11.4407    138.0063     29.4093
  1142.9000      8.1013      2.4414      0.1665     12.6454    134.6902     29.6144
