~Version Information
VERS.                      2.0: CWLS Log ASCII Standard - VERSION 2.0
WRAP.                       NO: One line per depth step
~Well Information Block
STRT.FT                -6.5000: 
STOP.FT              1636.7500: 
STEP.FT                 0.2500: 
NULL.                -999.2500: 
COMP.          Pioneer Natural Resources: COMPANY
WELL.          Stock Canyon 34-33: WELL
FLD.           Purgatorie River: FIELD
LOC.           980' FSL & 2191' FEL--: LOCATION
PROV.                       CO: PROVINCE
CNTY.               Las Animas: COUNTRY
SRVC.          Patterson Wireline: SERVICE COMPANY
DATE.          Mon Dec 12 09:29:49 2005: LOG DATE
UWI.           05 071 08601 00: UNIQUE WELL ID
~Curve Information Block
DEPT.FT            0 000 00 00: Depth
CCL.                          : Casing Collar Locator
TT3.usec                      : CBL 3' Travel Time
AMP3.mV                       : CBL 3' Amplitude
GR.GAPI                       : Gamma Ray
~Parameter Information Block
~A  Depth       CCL         TT3         AMP3         GR     
# ...
  1601.5000      0.0000    735.6334      7.0260     91.3787
  1601.7500      2.0000    732.7717      7.2847     92.2513
  1602.0000      0.0000    728.4604      7.4053     94.0771
  1602.2500      0.0000    723.3679      7.3612     96.8747
  1602.5000      0.0000    717.9172      7.2169     99.6456
  1602.7500      0.0000    712.3160      7.0967    101.2616
  1603.0000      0.0000    707.1026      7.0945    101.5159
  1603.2500      0.0000    703.4119      7.2252    100.8715
  1603.5000      0.0000    701.9940      7.4361     99.4954
  1603.7500      0.0000    702.1257      7.6374     97.1571
  1604.0000      0.0000    702.0357      7.7434     94.0323
  1604.2500      0.0000    700.5142      7.7153     91.0028
  1604.5000      0.0000    697.8263      7.5708     88.9491
  1604.7500      0.0000    695.0865      7.3570     88.0805
  1605.0000      0.0000    693.0905      7.1199     88.0724
  1605.2500      0.0000    691.8538      6.8939     88.6255
  1605.5000      0.0000    690.6936      6.7047     89.6765
  1605.7500      0.0000    688.0017      6.5730     91.2148
  1606.0000      0.0000    680.5724      6.5117     93.2398
  1606.2500      0.0000    663.8699      6.5172     95.8050
  1606.5000      0.0000    635.4327      6.5658     98.5611
  1606.7500      0.0000    600.4850      6.6242    100.2855
  1607.0000      0.0000    573.0145      6.6669     99.5337
  1607.2500      0.0000    566.9184      6.6854     96.0261
  1607.5000      0.0000    584.0568      6.6794     91.1210
  1607.7500      0.0000    612.5574      6.6473     86.8450
  1608.0000      0.0000    637.1027      6.5862     84.5504
  1608.2500      0.0000    649.5582      6.5009     84.3035
  1608.5000      0.0000    651.0270      6.4059     85.2181
  1608.7500      0.0000    647.1598      6.3200     86.3398
  1609.0000      0.0000    642.9764      6.2604     87.2659
  1609.2500      0.0000    640.8326      6.2408     87.8882
  1609.5000      0.0000    641.2383      6.2679     87.7370
  1609.7500      0.0000    644.3225      6.3365     86.1569
  1610.0000      0.0000    650.1920      6.4295     83.3518
  1610.2500      0.0000    658.1431      6.5245     80.8399
  1610.5000      0.0000    666.1907      6.6051     80.4130
  1610.7500      0.0000    672.1663      6.6692     82.5846
  1611.0000      0.0000    675.5740      6.7299     86.1964
  1611.2500      0.0000    677.8909      6.8073     89.3747
  1611.5000      0.0000    680.7619      6.9143     90.6115
  1611.7500      0.0000    684.3463      7.0500     89.3187
  1612.0000      0.0000    687.6633      7.2057     86.2185
  1612.2500      0.0000    690.0137      7.3743     83.2460
  1612.5000      0.0000    691.7205      7.5478     82.2214
  1612.7500      0.0000    693.7657      7.7083     83.3903
  1613.0000      0.0000    696.9125      7.8309     85.5782
  1613.2500      0.0000    700.9285      7.8996     87.3803
  1613.5000      0.0000    704.5155      7.9202     87.7637
  1613.7500      0.0000    706.1331      7.9169     86.2456
  1614.0000      0.0000    705.0851      7.9162     83.1747
  1614.2500      0.0000    701.9730      7.9303     79.5141
  1614.5000      0.0000    698.2300      7.9564     76.1000
  1614.7500      0.0000    695.1708      7.9879     73.3555
  1615.0000      0.0000    693.3404      8.0255     71.5929
  1615.2500      0.0000    692.5753      8.0725     71.0960
  1615.5000      0.0000    692.4483      8.1240     71.8159
  1615.7500      0.0000    692.6135      8.1658     73.2105
  1616.0000      0.0000    692.9895      8.1889     74.4841
  1616.2500      0.0000    693.9233      8.2011     74.9953
  1616.5000      0.0000    696.2342      8.2195     74.5492
  1616.7500      0.0000    700.7799      8.2520     73.4927
  1617.0000      0.0000    707.6080      8.2878     72.4788
  1617.2500      0.0000    715.4766      8.3076     71.7673
  1617.5000      0.0000    722.4891      8.2997     70.7366
  1617.7500      0.0000    727.3529      8.2667     68.6060
  1618.0000      0.0000    729.9995      8.2187     65.6823
  1618.2500      0.0000    731.1603      8.1652     63.3032
  1618.5000      0.0000    731.6216      8.1136     62.5769
  1618.7500      0.0000    731.8116      8.0724     63.7685
  1619.0000      0.0000    731.7080      8.0487     66.6605
  1619.2500      0.0000    730.8281      8.0429     70.7172
  1619.5000      0.0000    728.3347      8.0487     74.8858
  1619.7500      0.0000    723.4909      8.0609     77.7954
  1620.0000      0.0000    716.4373      8.0814     78.3810
  1620.2500      0.0000    708.6278      8.1149     76.4059
  1620.5000      0.0000    702.2431      8.1570     72.6788
  1620.7500      0.0000    698.8746      8.1893     68.9217
  1621.0000      0.0000    698.5290      8.1896     67.0973
  1621.2500      0.0000    699.6486      8.1483     68.3969
  1621.5000      0.0000    700.1594      8.0750     72.4063
  1621.7500      0.0000    698.9141      7.9889     76.9252
  1622.0000      0.0000    696.3326      7.9043     78.7480
  1622.2500      0.0000    693.6499      7.8284     75.1585
  1622.5000      0.0000    691.7300      7.7702     65.2131
  1622.7500      0.0000    690.6636      7.7451     50.2383
  1623.0000      0.0000    690.1393      7.7667     33.5012
  1623.2500      0.0000    689.8661      7.8358     18.8534
  1623.5000      0.0000    689.7061      7.9409      8.7579
  1623.7500      0.0000    689.6269      8.0710      3.3004
  1624.0000      0.0000    689.6415      8.2243      0.9962
  1624.2500      0.0000    689.8137      8.4039      0.2382
  1624.5000      0.0000    690.3553      8.6059      0.0445
  1624.7500      0.0000    691.7698      8.8192      0.0062
  1625.0000      0.0000    694.8675      9.0315      0.0000
  1625.2500      0.0000    700.3807      9.2343   -999.2500
  1625.5000      0.0000    708.2117      9.4240   -999.2500
  1625.7500      0.0000    717.0130      9.6016   -999.2500
  1626.0000      0.0000    724.8085      9.7660   -999.2500
  1626.2500      0.0000    730.2330      9.9049   -999.2500
  1626.5000      0.0000    733.1151      9.9902   -999.2500
  1626.7500      0.0000    733.9408      9.9861   -999.2500
  1627.0000      0.0000    732.4821      9.8624   -999.2500
  1627.2500      0.0000    725.7940      9.5964   -999.2500
  1627.5000      0.0000    705.6231      9.1392   -999.2500
  1627.7500      0.0000    657.8097      8.3741   -999.2500
  1628.0000      0.0000    568.8772      7.1621   -999.2500
  1628.2500      0.0000    439.6913      5.5052   -999.2500
  1628.5000      0.0000    293.4014      3.6663   -999.2500
  1628.7500      0.0000    164.3431      2.0531   -999.2500
  1629.0000      0.0000     75.6601      0.9457   -999.2500
  1629.2500      0.0000     28.1978      0.3527   -999.2500
  1629.5000      0.0000      8.4146      0.1053   -999.2500
  1629.7500      0.0000      1.9924      0.0249   -999.2500
  1630.0000      0.0000      0.3687      0.0046   -999.2500
  1630.2500      0.0000      0.0490      0.0006   -999.2500
  1630.5000      0.0000   -999.2500   -999.2500   -999.2500
  1630.7500      0.0000   -999.2500   -999.2500   -999.2500
  1631.0000      0.0000   -999.2500   -999.2500   -999.2500
  1631.2500      0.0000   -999.2500   -999.2500   -999.2500
  1631.5000      0.0000   -999.2500   -999.2500   -999.2500
  1631.7500      0.0000   -999.2500   -999.2500   -999.2500
  1632.0000      0.0000   -999.2500   -999.2500   -999.2500
  1632.2500      0.0000   -999.2500   -999.2500   -999.2500
  1632.5000      0.0000   -999.2500   -999.2500   -999.2500
  1632.7500      0.0000   -999.2500   -999.2500   -999.2500
  1633.0000      0.0000   -999.2500   -999.2500   -999.2500
  1633.2500      0.0000   -999.2500   -999.2500   -999.2500
  1633.5000      0.0000   -999.2500   -999.2500   -999.2500
  1633.7500      0.0000   -999.2500   -999.2500   -999.2500
  1634.0000      0.0000   -999.2500   -999.2500   -999.2500
  1634.2500      0.0000   -999.2500   -999.2500   -999.2500
  1634.5000      0.0000   -999.2500   -999.2500   -999.2500
  1634.7500      0.0000   -999.2500   -999.2500   -999.2500
