~Version Information
VERS.                      2.0: CWLS Log ASCII Standard - VERSION 2.0
WRAP.                       NO: One line per depth step
~Well Information Block
STRT.FT                -7.5000: 
STOP.FT              1350.7500: 
STEP.FT                 0.2500: 
NULL.                -999.2500: 
COMP.          Pioneer Natural Resources: COMPANY
WELL.            Gamma 13-3 Tr: WELL
FLD.           Purgatorie River: FIELD
LOC.           2127' FSL & 738' FWL: LOCATION
STAT.                       CO: State
CNTY.               Las Animas: COUNTY
CTRY.                      USA: Country
SECT.                        3: Section
TOWN.                      33S: Township
RANG.                      67W: Range
SRVC.          Patterson Wireline: SERVICE COMPANY
DATE.          Fri Sep 23 13:24:40 2005: LOG DATE
API.           05 071 08524 00: API
~Curve Information Block
DEPT.FT            0 000 00 00: Depth
CCL.                          : Casing Collar Locator
TT3.usec                      : CBL 3' Travel Time
AMP3.mV                       : CBL 3' Amplitude
GR.GAPI                       : Gamma Ray
~Parameter Information Block
~A  Depth       CCL         TT3         AMP3         GR     
# ...
   428.0000      0.0000    538.1992     12.1830     84.9141
   428.2500      0.0000    565.0599     12.1629     82.4485
   428.5000      0.0000    607.9717     12.1492     81.0124
   428.7500      0.0000    662.3087     12.1388     79.9816
   429.0000      0.0000    716.7791     12.1285     78.4402
   429.2500      0.0000    759.9502     12.1171     76.2023
   429.5000      0.0000    786.7791     12.1061     74.1761
   429.7500      0.0000    798.9981     12.0977     73.6275
   430.0000      0.0000    800.3560     12.0923     75.1688
   430.2500      0.0000    792.4554     12.0889     78.3997
   430.5000      0.0000    774.8994     12.0876     82.1660
   430.7500      0.0000    748.7364     12.0900     85.0644
   431.0000      0.0000    718.9511     12.0989     86.1321
   431.2500      0.0000    692.6541     12.1164     85.4679
   431.5000      0.0000    674.6144     12.1433     84.0550
   431.7500      0.0000    664.9540     12.1795     82.7882
   432.0000      0.0000    660.6445     12.2229     81.8267
   432.2500      0.0000    657.9799     12.2680     80.8787
   432.5000      0.0000    653.3628     12.3072     79.6831
   432.7500      0.0000    642.9037     12.3344     78.0757
   433.0000      0.0000    623.0798     12.3470     75.9861
   433.2500      0.0000    593.3013     12.3448     73.7029
   433.5000      0.0000    557.9901     12.3276     72.0393
   433.7500      0.0000    524.9046     12.2951     71.8832
   434.0000      0.0000    500.3626     12.2494     73.3101
   434.2500      0.0000    485.9903     12.1959     75.1711
   434.5000      0.0000    479.6589     12.1427     75.8338
   434.7500      0.0000    478.5439     12.0974     74.3096
   435.0000      0.0000    481.1779     12.0625     70.4147
   435.2500      0.0000    487.6532     12.0364     64.2537
   435.5000      0.0000    498.9631     12.0181     56.3418
   435.7500      0.0000    516.3710     12.0103     48.0812
   436.0000      0.0000    540.5930     12.0170     41.2064
   436.2500      0.0000    570.3145     12.0380     36.4995
   436.5000      0.0000    601.3507     12.0689     33.5522
   436.7500      0.0000    628.7325     12.1057     31.8015
   437.0000      0.0000    650.8028     12.1484     31.1930
   437.2500      0.0000    670.7773     12.1991     31.7560
   437.5000      0.0000    692.8644     12.2562     33.1539
   437.7500      0.0000    716.1173     12.3125     34.8893
   438.0000      0.0000    733.1639     12.3596     36.5261
   438.2500      0.0000    737.3046     12.3951     37.5460
   438.5000      0.0000    730.9022     12.4239     37.4330
   438.7500      0.0000    724.3674     12.4528     36.2355
   439.0000      0.0000    726.5447     12.4865     34.9302
   439.2500      0.0000    738.3283     12.5261     34.9266
   439.5000      0.0000    755.1812     12.5692     36.9327
   439.7500      0.0000    772.1776     12.6098     40.2522
   440.0000      0.0000    785.6666     12.6415     43.3017
   440.2500      0.0000    793.2991     12.6630     44.7903
   440.5000      0.0000    794.9890     12.6794     44.3818
   440.7500      0.0000    793.4588     12.6963     42.5217
   441.0000      0.0000    792.6089     12.7139     39.9887
   441.2500      0.0000    794.6942     12.7277     37.4659
   441.5000      0.0000    799.0368     12.7345     35.2305
   441.7500      0.0000    803.4628     12.7370     33.2237
   442.0000      0.0000    806.4720     12.7419     31.4182
   442.2500      0.0000    807.9367     12.7537     30.0148
   442.5000      0.0000    808.3320     12.7701     29.2839
   442.7500      0.0000    807.8959     12.7847     29.2184
   443.0000      0.0000    806.3350     12.7942     29.3136
   443.2500      0.0000    803.1371     12.8002     28.8904
   443.5000      0.0000    798.4492     12.8045     27.8240
   443.7500      0.0000    793.8719     12.8050     26.7480
   444.0000      0.0000    791.8139     12.8000     26.3645
   444.2500      0.0000    793.4098     12.7948     26.8480
   444.5000      0.0000    797.1557     12.7976     28.0412
   444.7500      0.0000    799.7601     12.8034     29.8390
   445.0000      0.0000    797.7184     12.7690     32.1736
   445.2500      0.0000    788.2335     12.6074     34.8667
   445.5000      0.0000    770.8215     12.2366     37.8017
   445.7500      0.0000    750.0909     11.6618     41.3183
   446.0000      0.0000    735.8780     11.0042     46.1506
   446.2500      0.0000    737.3477     10.4273     52.4831
   446.5000      0.0000    755.0842     10.0378     59.0469
   446.7500      0.0000    780.0444      9.8478     63.7453
   447.0000      0.0000    801.5541      9.7971     65.6062
   447.2500      0.0000    815.5710      9.7989     65.9565
   447.5000     -2.0000    823.4667      9.7867     67.3451
   447.7500      0.0000    824.7444      9.7450     71.2872
   448.0000      0.0000    815.8437      9.7326     77.1051
   448.2500      0.0000    796.6292      9.8869     82.7163
   448.5000      0.0000    773.3741     10.3428     86.3332
   448.7500      0.0000    753.7359     11.0711     87.8198
   449.0000      0.0000    741.5516     11.8241     88.9045
   449.2500      0.0000    737.0167     12.3224     91.6905
   449.5000      0.0000    738.8508     12.4863     96.4320
   449.7500      0.0000    744.8190     12.4393    101.0899
   450.0000      0.0000    751.9030     12.3382    103.3801
   450.2500      0.0000    757.6478     12.2596    102.8062
   450.5000      0.0000    761.3100     12.2113    100.5182
   450.7500      0.0000    763.6617     12.1809     97.8144
   451.0000      0.0000    765.9719     12.1600     95.2215
   451.2500      0.0000    768.9529     12.1457     92.7063
   451.5000      0.0000    772.1443     12.1358     90.1697
   451.7500      0.0000    774.2071     12.1289     87.5723
   452.0000      0.0000    773.5297     12.1274     84.9232
   452.2500      0.0000    768.5218     12.1353     82.3836
   452.5000      0.0000    758.1584     12.1506     80.3138
   452.7500      0.0000    743.2996     12.1630     79.2063
   453.0000      0.0000    727.2961     12.1598     79.6703
   453.2500      0.0000    714.3401     12.1361     82.2860
   453.5000      0.0000    707.0612     12.0973     86.9865
   453.7500      0.0000    706.0242     12.0541     92.4728
   454.0000      0.0000    710.7844     12.0153     96.7192
   454.2500      0.0000    720.2914     11.9843     98.4764
   454.5000      0.0000    732.1790     11.9602     98.1463
   454.7500      0.0000    742.2228     11.9392     96.9514
   455.0000      0.0000    745.3696     11.9167     95.5487
   455.2500      0.0000    738.7648     11.8886     93.7597
   455.5000      0.0000    724.4379     11.8542     91.2795
   455.7500      0.0000    708.1220     11.8177     88.3265
   456.0000      0.0000    694.7947     11.7852     85.7845
   456.2500      0.0000    685.6470     11.7598     84.7237
   456.5000      0.0000    678.9833     11.7407     85.5640
   456.7500      0.0000    672.9376     11.7274     87.8169
   457.0000      0.0000    667.0563     11.7237     90.8052
   457.2500      0.0000    661.9891     11.7346     94.2931
   457.5000      0.0000    658.3770     11.7604     98.1718
   457.7500      0.0000    656.2322     11.7953    101.9390
   458.0000      0.0000    655.1213     11.8315    104.7800
   458.2500      0.0000    654.6021     11.8644    105.8872
   458.5000      0.0000    654.4191     11.8942    104.6388
   458.7500      0.0000    654.4588     11.9224    100.9342
   459.0000      0.0000    654.6376     11.9508     95.5928
   459.2500      0.0000    654.8413     11.9797     90.0731
   459.5000      0.0000    654.9405     12.0078     85.4194
   459.7500      0.0000    654.8480     12.0331     81.6379
   460.0000      0.0000    654.5513     12.0531     78.4685
   460.2500      0.0000    654.1109     12.0651     76.5366
   460.5000      0.0000    653.6480     12.0676     77.1399
   460.7500      0.0000    653.3173     12.0614     80.9358
   461.0000      0.0000    653.2336     12.0486     87.1605
   461.2500      0.0000    653.4153     12.0296     93.9962
