~Version Information
VERS.                      2.0: CWLS Log ASCII Standard - VERSION 2.0
WRAP.                       NO: One line per depth step
~Well Information Block
STRT.FT               350.0000: 
STOP.FT              2803.2000: 
STEP.FT                 0.1000: 
NULL.                -999.2500: 
COMP.          Pioneer Natural Resources: COMPANY
WELL.          Grey Goose 33-30: WELL
FLD.           Purgatoire River: FIELD
LOC.           2136' FSL & 2065' FEL--: LOCATION
STAT.                 Colorado: State
CNTY.               Las Animas: COUNTY
CTRY. USA : Country
SECT. 30 : Section
TOWN. 32S : Township
RANG. 67W : Range
SRVC.                Patterson: SERVICE COMPANY
DATE.          Fri Nov 04 09:27:53 2005: LOG DATE
API.           05 071 08546 00: UNIQUE WELL ID
~Curve Information Block
DEPT.FT            0 000 00 00: Depth
DCAL.in                       : CDL Caliper
DPOR.pu                       : CDL Density Porosity
NPOR.pu                       : Neutron Porosity
RHOB.g/cc                     : CDL Bulk Density
RHOC.g/cc                     : CDL Density Correction
GR.GAPI                       : Gamma Ray
~Parameter Information Block
~A  Depth       DCAL        DPOR        NPOR        RHOB        RHOC         GR     
# ...
  2798.0000      8.0952      9.7341   -999.2500      2.4894      0.0818   -999.2500
  2798.1000      8.0952      8.8819   -999.2500      2.5034      0.1455   -999.2500
  2798.2000      8.0952      7.7770   -999.2500      2.5217      0.1091   -999.2500
  2798.3000      8.0934      6.6362   -999.2500      2.5405      0.1208   -999.2500
  2798.4000      8.0934      5.9648   -999.2500      2.5516      0.1370   -999.2500
  2798.5000      8.0993      6.0109   -999.2500      2.5508      0.1067   -999.2500
  2798.6000      8.0993      6.1791   -999.2500      2.5480      0.1003   -999.2500
  2798.7000      8.0993      5.8257   -999.2500      2.5539      0.1043   -999.2500
  2798.8000      8.1067      4.9936   -999.2500      2.5676      0.0969   -999.2500
  2798.9000      8.1067      4.5616   -999.2500      2.5747      0.1445   -999.2500
  2799.0000      8.1102      5.3616   -999.2500      2.5615      0.0672   -999.2500
  2799.1000      8.1102      7.0298   -999.2500      2.5340      0.0571   -999.2500
  2799.2000      8.1102      8.8179   -999.2500      2.5045      0.0279   -999.2500
  2799.3000      8.1118     10.2547   -999.2500      2.4808      0.0041   -999.2500
  2799.4000      8.1118     10.9454   -999.2500      2.4694      0.0062   -999.2500
  2799.5000      8.1111     10.9016   -999.2500      2.4701      0.0130   -999.2500
  2799.6000      8.1111     10.6050   -999.2500      2.4750      0.0106   -999.2500
  2799.7000      8.1111     10.1809   -999.2500      2.4820     -0.0076   -999.2500
  2799.8000      8.1062      9.3629   -999.2500      2.4955      0.0341   -999.2500
  2799.9000      8.1062      8.3781   -999.2500      2.5118      0.0298   -999.2500
  2800.0000      8.0963      7.6674   -999.2500      2.5235      0.0366   -999.2500
  2800.1000      8.0963      7.5718   -999.2500      2.5251      0.0099   -999.2500
  2800.2000      8.0963      8.2249   -999.2500      2.5143      0.0027   -999.2500
  2800.3000      8.0848      9.1881   -999.2500      2.4984     -0.0018   -999.2500
  2800.4000      8.0848     10.1718   -999.2500      2.4822      0.0208   -999.2500
  2800.5000      8.0722     10.9005   -999.2500      2.4701     -0.0206   -999.2500
  2800.6000      8.0722     10.8808   -999.2500      2.4705      0.0183   -999.2500
  2800.7000      8.0722     10.6212   -999.2500      2.4748      0.0730   -999.2500
  2800.8000      8.0474     10.5884   -999.2500      2.4753      0.0208   -999.2500
  2800.9000      8.0474     10.1681   -999.2500      2.4822      0.0310   -999.2500
  2801.0000      8.0121      9.2630   -999.2500      2.4972      0.0600   -999.2500
  2801.1000      8.0121      8.6441   -999.2500      2.5074      0.0635   -999.2500
  2801.2000      8.0121      8.7693   -999.2500      2.5053      0.0712   -999.2500
  2801.3000      7.9889      9.2509   -999.2500      2.4974      0.0343   -999.2500
  2801.4000      7.9889      9.2048   -999.2500      2.4981      0.0676   -999.2500
  2801.5000      7.9827      8.2889   -999.2500      2.5132      0.0597   -999.2500
  2801.6000      7.9827      7.0427   -999.2500      2.5338      0.0515   -999.2500
  2801.7000      7.9827      6.3793   -999.2500      2.5447      0.1149   -999.2500
  2801.8000      7.9785      6.6261   -999.2500      2.5407      0.0823   -999.2500
  2801.9000      7.9785      5.8789   -999.2500      2.5530      0.0165   -999.2500
  2802.0000      7.9316      1.2811   -999.2500      2.6289      0.0712   -999.2500
  2802.1000      7.9316      0.2172   -999.2500      2.6464      0.0538   -999.2500
  2802.2000      7.9316     27.2540   -999.2500      2.2003      0.5426   -999.2500
  2802.3000      7.4540     85.2450   -999.2500      1.2435      0.0800   -999.2500
  2802.4000      7.4540    135.1241   -999.2500      0.4205      0.0800   -999.2500
  2802.5000      5.4089    155.7747   -999.2500      0.0797   -999.2500   -999.2500
  2802.6000      5.4089    160.1085   -999.2500      0.0082   -999.2500   -999.2500
  2802.7000      5.4089    160.5791   -999.2500      0.0004   -999.2500   -999.2500
  2802.8000      2.0923    160.6061   -999.2500      0.0000   -999.2500   -999.2500
  2802.9000      2.0923    160.6061   -999.2500      0.0000   -999.2500   -999.2500
  2803.0000      0.0931   -999.2500   -999.2500   -999.2500   -999.2500   -999.2500
  2803.1000      0.0931   -999.2500   -999.2500   -999.2500   -999.2500   -999.2500
  2803.2000      0.0931   -999.2500   -999.2500   -999.2500   -999.2500   -999.2500
