~Version Information
VERS.                      2.0: CWLS Log ASCII Standard - VERSION 2.0
WRAP.                       NO: One line per depth step
~Well Information Block
STRT.FT                -6.7500: 
STOP.FT              1661.0000: 
STEP.FT                 0.2500: 
NULL.                -999.2500: 
COMP.          Pioneer Natural Resources: COMPANY
WELL.           Pedri 42-33 Tr: WELL
FLD.           Purgatorie River: FIELD
LOC.           1933'' FNL & 662' FEL--: LOCATION
PROV.                       CO: PROVINCE
CNTY.               Las Animas: COUNTRY
SRVC.          Patterson Wireline: SERVICE COMPANY
DATE.          Tue Dec 27 08:53:52 2005: LOG DATE
UWI.           05 071 08640 00: UNIQUE WELL ID
~Curve Information Block
DEPT.FT            0 000 00 00: Depth
CCL.                          : Casing Collar Locator
TT3.usec                      : CBL 3' Travel Time
AMP3.mV                       : CBL 3' Amplitude
GR.GAPI                       : Gamma Ray
~Parameter Information Block
~A  Depth       CCL         TT3         AMP3         GR     
# ...
  1634.7500      0.0000    650.5861     10.7103    119.8360
  1635.0000      0.0000    641.4650     10.6849    121.6802
  1635.2500      0.0000    649.3693     10.6089    122.4740
  1635.5000      0.0000    669.5919     10.4777    120.9268
  1635.7500      0.0000    693.1774     10.3109    116.5146
  1636.0000      0.0000    712.9663     10.1357    110.4658
  1636.2500      0.0000    726.7492      9.9730    105.7176
  1636.5000      0.0000    735.9352      9.8374    104.8427
  1636.7500      0.0000    742.4508      9.7392    107.4674
  1637.0000      0.0000    746.8514      9.6818    110.4021
  1637.2500      0.0000    747.9599      9.6542    110.8265
  1637.5000      0.0000    742.7175      9.6334    108.6797
  1637.7500      0.0000    726.1558      9.5977    105.5713
  1638.0000      0.0000    693.6683      9.5409    102.5764
  1638.2500      0.0000    646.1688      9.4731    100.0855
  1638.5000      0.0000    593.7867      9.4034     98.7843
  1638.7500      0.0000    552.7935      9.3249     99.2711
  1639.0000      0.0000    537.3470      9.2192    100.8253
  1639.2500      0.0000    552.6065      9.0773    101.6926
  1639.5000      0.0000    592.3818      8.9120    101.0767
  1639.7500      0.0000    641.2365      8.7525    100.2867
  1640.0000      0.0000    681.1476      8.6257    101.3853
  1640.2500      0.0000    699.6591      8.5402    104.9711
  1640.5000      0.0000    693.6213      8.4847    109.7560
  1640.7500      0.0000    668.4159      8.4387    114.0791
  1641.0000      0.0000    637.1450      8.3836    117.1751
  1641.2500      0.0000    617.9195      8.3077    118.8677
  1641.5000      0.0000    624.0663      8.2118    118.6811
  1641.7500      0.0000    653.3922      8.1121    115.9789
  1642.0000      0.0000    689.3525      8.0369    111.1791
  1642.2500      0.0000    713.2794      8.0127    106.4367
  1642.5000      0.0000    713.9293      8.0516    104.3735
  1642.7500      0.0000    688.5947      8.1505    105.7100
  1643.0000      0.0000    641.7440      8.2990    108.3562
  1643.2500      0.0000    584.1160      8.4854    109.1576
  1643.5000      0.0000    528.5061      8.6940    106.5436
  1643.7500      0.0000    482.8972      8.9019    101.3323
  1644.0000      0.0000    447.7222      9.0894     95.3040
  1644.2500      0.0000    419.9581      9.2515     89.7373
  1644.5000      0.0000    399.2651      9.3953     85.2867
  1644.7500      0.0000    390.8145      9.5238     82.2398
  1645.0000      0.0000    402.8230      9.6276     80.4471
  1645.2500      0.0000    439.4148      9.6979     79.6721
  1645.5000      0.0000    493.1750      9.7405     80.3023
  1645.7500      0.0000    546.0349      9.7753     83.1153
  1646.0000      0.0000    581.7910      9.8169     88.1071
  1646.2500      0.0000    597.4373      9.8572     93.6542
  1646.5000      0.0000    598.4093      9.8713     96.4029
  1646.7500      0.0000    585.6442      9.8402     92.0410
  1647.0000      0.0000    555.6088      9.7671     77.9140
  1647.2500      0.0000    513.0950      9.6700     56.2138
  1647.5000      0.0000    475.4316      9.5640     33.5575
  1647.7500      0.0000    459.9336      9.4547     16.2447
  1648.0000      0.0000    469.7450      9.3441      6.2940
  1648.2500      0.0000    493.5618      9.2366      1.9351
  1648.5000      0.0000    518.0596      9.1357      0.4690
  1648.7500      0.0000    539.0403      9.0423      0.0890
  1649.0000      0.0000    558.9431      8.9559      0.0124
  1649.2500      0.0000    575.3962      8.8818      0.0000
  1649.5000      0.0000    578.1028      8.8347   -999.2500
  1649.7500      0.0000    559.5092      8.8332   -999.2500
  1650.0000      0.0000    525.0370      8.8843   -999.2500
  1650.2500      0.0000    490.1679      8.9754   -999.2500
  1650.5000      0.0000    469.7409      9.0857   -999.2500
  1650.7500      0.0000    471.3037      9.2033   -999.2500
  1651.0000      0.0000    494.1458      9.3301   -999.2500
  1651.2500      0.0000    528.1281      9.4656   -999.2500
  1651.5000      0.0000    553.0316      9.5712   -999.2500
  1651.7500      0.0000    545.1827      9.5205   -999.2500
  1652.0000      0.0000    490.7791      9.0810   -999.2500
  1652.2500      0.0000    395.1623      8.0146   -999.2500
  1652.5000      0.0000    280.0624      6.2970   -999.2500
  1652.7500      0.0000    171.9536      4.2544   -999.2500
  1653.0000      0.0000     89.8753      2.4048   -999.2500
  1653.2500      0.0000     39.2717      1.1144   -999.2500
  1653.5000      0.0000     14.1065      0.4173   -999.2500
  1653.7500      0.0000      4.1036      0.1250   -999.2500
  1654.0000      0.0000      0.9538      0.0297   -999.2500
  1654.2500      0.0000      0.1723      0.0055   -999.2500
  1654.5000      0.0000      0.0229      0.0007   -999.2500
  1654.7500      0.0000   -999.2500   -999.2500   -999.2500
  1655.0000      0.0000   -999.2500   -999.2500   -999.2500
  1655.2500      0.0000   -999.2500   -999.2500   -999.2500
  1655.5000      0.0000   -999.2500   -999.2500   -999.2500
  1655.7500      0.0000   -999.2500   -999.2500   -999.2500
  1656.0000      0.0000   -999.2500   -999.2500   -999.2500
  1656.2500      0.0000   -999.2500   -999.2500   -999.2500
  1656.5000      0.0000   -999.2500   -999.2500   -999.2500
  1656.7500      0.0000   -999.2500   -999.2500   -999.2500
  1657.0000      0.0000   -999.2500   -999.2500   -999.2500
  1657.2500      0.0000   -999.2500   -999.2500   -999.2500
  1657.5000      0.0000   -999.2500   -999.2500   -999.2500
  1657.7500      0.0000   -999.2500   -999.2500   -999.2500
  1658.0000      0.0000   -999.2500   -999.2500   -999.2500
  1658.2500      0.0000   -999.2500   -999.2500   -999.2500
  1658.5000      0.0000   -999.2500   -999.2500   -999.2500
  1658.7500      0.0000   -999.2500   -999.2500   -999.2500
  1659.0000      0.0000   -999.2500   -999.2500   -999.2500
  1659.2500      0.0000   -999.2500   -999.2500   -999.2500
  1659.5000      0.0000   -999.2500   -999.2500   -999.2500
  1659.7500      0.0000   -999.2500   -999.2500   -999.2500
  1660.0000      0.0000   -999.2500   -999.2500   -999.2500
  1660.2500      0.0000   -999.2500   -999.2500   -999.2500
  1660.5000   -999.2500   -999.2500   -999.2500   -999.2500
  1660.7500   -999.2500   -999.2500   -999.2500   -999.2500
  1661.0000   -999.2500   -999.2500   -999.2500   -999.2500
