~Version Information
VERS.                      2.0: CWLS Log ASCII Standard - VERSION 2.0
WRAP.                       NO: One line per depth step
~Well Information Block
STRT.FT                 0.0000: 
STOP.FT               878.0000: 
STEP.FT                 0.2500: 
NULL.                -999.2500: 
COMP.          Pioneer Natural Resources: COMPANY
WELL.           Hartford 31-18: WELL
FLD.           Purgatorie River: FIELD
LOC.           375' FNL & 1660' FEL: LOCATION
PROV.                 Colorado: PROVINCE
CNTY.               Las Animas: COUNTRY
SRVC.                Patterson: SERVICE COMPANY
DATE.          Mon Nov 28 12:10:49 2005: LOG DATE
UWI.             05-071-08555             : UNIQUE WELL ID
~Curve Information Block
DEPT.FT            0 000 00 00: Depth
CCL.                          : Casing Collar Locator
TT3.usec                      : CBL 3' Travel Time
AMP3.mV                       : CBL 3' Amplitude
GR.GAPI                       : Gamma Ray
~Parameter Information Block
~A  Depth       CCL         TT3         AMP3         GR     
# ...
    67.0000      0.0000    422.7351      9.6451     77.2560
    67.2500      0.0000    414.0067      9.6043     80.0079
    67.5000      0.0000    409.2463      9.5947     81.4044
    67.7500      0.0000    407.1637      9.6092     81.5198
    68.0000      0.0000    406.0994      9.6275     81.1148
    68.2500      0.0000    405.3680      9.6305     80.9539
    68.5000      0.0000    405.0846      9.6279     80.9448
    68.7500      0.0000    405.5797      9.6280     80.3071
    69.0000      0.0000    406.9558      9.6237     78.7298
    69.2500      0.0000    409.4646      9.6180     76.9345
    69.5000      0.0000    414.3982      9.6163     75.7933
    69.7500      0.0000    423.0290      9.6165     75.3107
    70.0000      0.0000    433.8834      9.6166     74.8973
    70.2500      0.0000    444.5589      9.6086     74.3322
    70.5000      0.0000    459.2641      9.6011     73.9884
    70.7500      0.0000    491.6221      9.6347     74.1020
    71.0000      0.0000    551.4437      9.7214     74.1708
    71.2500      0.0000    625.2421      9.8180     73.3167
    71.5000      0.0000    683.9847      9.8917     71.2101
    71.7500      0.0000    714.0091      9.9464     68.5684
    72.0000      0.0000    723.6880      9.9829     66.7508
    72.2500      0.0000    724.6131      9.9834     66.7372
    72.5000      0.0000    721.6195      9.9249     68.1790
    72.7500      0.0000    717.0211      9.8050     69.3727
    73.0000      0.0000    714.7639      9.6687     68.4648
    73.2500      0.0000    717.1571      9.5852     65.0426
    73.5000      0.0000    721.5844      9.5646     60.5608
    73.7500      0.0000    724.3672      9.5309     57.0229
    74.0000      0.0000    724.0101      9.4255     55.2300
    74.2500      0.0000    719.4296      9.2844     54.4841
    74.5000      0.0000    709.4671      9.1734     53.7873
    74.7500      0.0000    694.5555      9.1107     52.7433
    75.0000      0.0000    674.4700      9.0759     51.1825
    75.2500      0.0000    644.2822      9.0464     48.6121
    75.5000      0.0000    597.2115      9.0132     44.6713
    75.7500      0.0000    534.3276      8.9879     39.9155
    76.0000      0.0000    473.2594      8.9822     35.6704
    76.2500      0.0000    439.4435      8.9822     33.1711
    76.5000      0.0000    437.2818      8.9741     33.0412
    76.7500      0.0000    441.2245      8.9774     35.3240
    77.0000      0.0000    430.5918      9.0037     39.5784
    77.2500      0.0000    419.2058      9.0327     44.9029
    77.5000      0.0000    437.6139      9.0790     50.0131
    77.7500      0.0000    498.7956      9.1934     53.5188
    78.0000      0.0000    581.1008      9.3577     54.5436
    78.2500      0.0000    642.6750      9.4852     53.3163
    78.5000      0.0000    656.7796      9.5395     50.9287
    78.7500      0.0000    623.9467      9.5636     48.3516
    79.0000      0.0000    563.4918      9.5989     45.8676
    79.2500      0.0000    509.1521      9.6397     43.4547
    79.5000      0.0000    484.4521      9.6626     41.3688
    79.7500      0.0000    473.5599      9.6587     40.1272
    80.0000      0.0000    451.4213      9.6329     40.0549
    80.2500      0.0000    430.4120      9.5928     40.9072
    80.5000      0.0000    443.1931      9.5567     41.8888
    80.7500      0.0000    495.6378      9.5545     42.2056
    81.0000      0.0000    547.5679      9.5841     41.7051
    81.2500      0.0000    547.4532      9.5940     40.8376
    81.5000      0.0000    495.5964      9.5612     39.9876
    81.7500      0.0000    445.1826      9.5375     39.0712
    82.0000      0.0000    442.5875      9.5707     37.7612
    82.2500      0.0000    494.1129      9.6427     35.9303
    82.5000      0.0000    571.0485      9.7340     33.9678
    82.7500      0.0000    634.3047      9.8805     32.7768
    83.0000      0.0000    666.8651     10.0960     33.1872
    83.2500      0.0000    677.6528     10.2815     35.0493
    83.5000      0.0000    680.1244     10.3109     37.0562
    83.7500      0.0000    680.9831     10.1866     37.7414
    84.0000      0.0000    682.9007     10.0421     36.6135
    84.2500      0.0000    687.9595     10.0036     34.2587
    84.5000      0.0000    696.4166     10.0820     31.6732
    84.7500      0.0000    703.9291     10.2014     29.7802
    85.0000      0.0000    705.3443     10.3009     29.3176
    85.2500      0.0000    702.7863     10.3945     30.6410
    85.5000      0.0000    703.0618     10.5238     33.3809
    85.7500      0.0000    706.3835     10.6488     36.4928
    86.0000      0.0000    705.9409     10.6545     38.9254
    86.2500      0.0000    697.5659     10.5012     40.3139
    86.5000      0.0000    684.1837     10.2819     40.9377
    86.7500      0.0000    674.4016     10.0987     41.1545
    87.0000      0.0000    674.6725      9.9671     41.1174
    87.2500      0.0000    676.2468      9.8572     40.9001
    87.5000      0.0000    654.7784      9.7533     40.5465
    87.7500      0.0000    592.8151      9.6433     40.0121
    88.0000      0.0000    506.5683      9.5062     39.4171
    88.2500      0.0000    434.7814      9.3540     39.5288
    88.5000      0.0000    397.1430      9.2463     41.6496
    88.7500      0.0000    383.7314      9.2327     46.5864
    89.0000      0.0000    377.5429      9.2980     53.6777
    89.2500      0.0000    369.4634      9.3764     61.0177
    89.5000      0.0000    359.1319      9.4192     66.7372
    89.7500      0.0000    350.2976      9.4219     70.1945
    90.0000      0.0000    345.1394      9.3856     72.0333
    90.2500      0.0000    342.8765      9.3090     73.0752
    90.5000      0.0000    341.9782      9.2183     73.3493
    90.7500      0.0000    341.5166      9.1571     72.6034
    91.0000      0.0000    341.1341      9.1498     71.5656
    91.2500      0.0000    340.8094      9.1862     71.9423
    91.5000      0.0000    340.6299      9.2239     74.8234
    91.7500      0.0000    340.6321      9.2078     79.4238
    92.0000      0.0000    340.7892      9.1179     83.8272
    92.2500      0.0000    340.9952      9.0042     86.8069
    92.5000      0.0000    341.0486      8.9347     88.5815
    92.7500      0.0000    340.8506      8.9151     89.9979
    93.0000      0.0000    340.6149      8.9162     91.4650
    93.2500      0.0000    340.7119      8.9358     92.6042
    93.5000      0.0000    341.2701      8.9765     92.5446
    93.7500      0.0000    341.9481      9.0188     90.5626
    94.0000      0.0000    342.2727      9.0459     86.8086
    94.2500      0.0000    342.2380      9.0601     82.5897
    94.5000      0.0000    342.2703      9.0675     79.7631
    94.7500      0.0000    342.9283      9.0403     79.5359
    95.0000      0.0000    345.9884      8.8837     81.5840
    95.2500      0.0000    356.5480      8.4393     84.3378
    95.5000      0.0000    380.2612      7.6666     86.2881
    95.7500      0.0000    410.9493      6.9536     87.0124
    96.0000      0.0000    427.2592      6.8386     86.8914
    96.2500      0.0000    418.2859      7.1871     86.0844
    96.5000      0.0000    399.4973      7.3786     84.1484
    96.7500      0.0000    388.2526      7.2418     80.6664
    97.0000      0.0000    385.5665      7.0076     76.1075
    97.2500     -2.0000    385.9784      6.8379     71.9371
    97.5000      2.0000    386.7311      6.8077     69.7555
    97.7500      0.0000    387.2840      6.9211     70.2386
    98.0000      0.0000    387.3171      7.0719     72.8174
    98.2500      0.0000    385.9926      7.1750     76.1677
    98.5000      0.0000    382.1404      7.3965     78.9464
    98.7500      0.0000    375.4714      7.9927     80.3444
    99.0000      0.0000    367.5900      8.7328     80.2903
    99.2500      0.0000    360.3801      9.1024     79.3689
    99.5000      0.0000    354.8191      9.0929     78.5609
    99.7500      0.0000    352.3004      9.0182     78.7114
   100.0000      0.0000    353.1699      8.9906     79.9252
   100.2500      0.0000    354.8050      8.9727     81.5796
