~Version Information
 VERS.                                  2.0 : CWLS LAS VERSION
 WRAP.                                   NO : WRAPING MODE
 SWARE .                 MController 2.5.0J : SOFTWARE VERSION
~Well Information
 WELL.                         Norton 9-14R : WELL
 COMP.                Petrogulf Corporation : COMPANY
 FLD.                       Purgatoire River: FIELD
 LOC.                SW/SW Sec 9 T33S R67W  : LOCATION
 DATE.                            10/5-6/05 : DATE(S) LOGGED
 SRVC.       BLANCO Geological Services LLC : SERVICE COMPANY
 STAT.                                   CO : STATE
 CNTY.                           Las Animas : COUNTY
 CTRY.                                  USA : COUNTRY
 API.                       05-071-08444-00 : API NUMBER
 STRT.FT                              56.00 : START DEPTH
 STOP.FT                            1880.00 : STOP DEPTH
 STEP.FT                               1.00 : DEPTH INCREMENT
 NULL.                                -9999 : NULL VALUE
~Curve information
 DEPTH.FT                                   :
 ROP.MIN/FT                                 :
 GAS.UNITS                                  :
~ASCII Log data
# ...
       256.0         0.30          7.9 
       257.0         0.20          8.1 
       258.0         0.28          8.1 
       259.0         0.27          8.1 
       260.0         0.27          7.9 
       261.0         0.30          8.4 
       262.0         0.27          8.2 
       263.0         0.20          8.2 
       264.0         0.17          8.2 
       265.0         0.17          8.0 
       266.0         1.65          8.3 
       267.0         0.27          8.5 
       268.0         0.23          7.9 
       269.0         0.23          8.4 
       270.0         0.27          8.4 
       271.0         0.20          8.2 
       272.0         0.23          7.9 
       273.0         0.23          8.3 
       274.0         0.20          8.0 
       275.0         0.20          8.1 
       276.0         0.23          8.7 
       277.0         0.23          8.1 
       278.0         0.18          8.5 
       279.0         0.23          8.1 
       280.0         0.33          8.4 
       281.0         0.23          8.3 
       282.0         0.23          8.3 
       283.0         0.27          8.5 
       284.0         0.20          8.5 
       285.0         0.20          8.8 
       286.0         0.17          8.6 
       287.0         0.20          8.2 
       288.0         0.13          8.0 
       289.0         0.20          8.3 
       290.0         0.23          8.5 
       291.0         0.23          8.5 
       292.0         0.22          9.0 
       293.0         0.27          8.4 
       294.0         0.20          8.3 
       295.0         0.27          8.6 
       296.0         1.20          8.6 
       297.0         0.13          8.5 
       298.0         0.20          8.8 
       299.0         0.47          8.8 
       300.0         0.47          9.1 
       301.0         0.35          8.5 
       302.0         0.17          9.1 
       303.0         0.13          8.9 
       304.0         0.20          9.0 
       305.0         0.23          9.3 
       306.0         0.23          8.8 
       307.0         0.23          9.1 
       308.0         0.23          8.8 
       309.0         0.13          9.2 
       310.0         0.20          8.8 
       311.0         0.23          8.6 
       312.0         0.23          9.0 
       313.0         0.30          9.0 
       314.0         0.50          9.3 
       315.0         0.22          9.0 
       316.0         0.20          9.0 
       317.0         0.27          9.3 
       318.0         0.30          9.2 
       319.0         0.27          9.0 
       320.0         0.20          9.2 
       321.0         0.23          8.8 
       322.0         0.17          8.9 
       323.0         0.13          9.3 
       324.0         0.20          9.3 
       325.0         0.13          9.3 
       326.0         1.45          8.9 
       327.0         0.10          9.0 
       328.0         0.13          9.0 
       329.0         0.30          8.9 
       330.0         0.27          9.0 
       331.0         0.23          9.0 
       332.0         0.23          9.0 
       333.0         0.27          9.0 
       334.0         0.27          9.0 
       335.0         0.30          8.9 
       336.0         0.23          8.6 
       337.0         0.40          8.8 
       338.0         0.45          8.9 
       339.0         0.37          9.8 
       340.0         0.30         10.1 
       341.0         0.27         10.4 
       342.0         0.27         10.6 
       343.0         0.23         11.0 
       344.0         0.27         10.7 
       345.0         0.40         11.3 
       346.0         0.37         11.4 
       347.0         0.23         11.9 
       348.0         0.28         12.3 
       349.0         0.23         12.3 
       350.0         0.20         12.7 
       351.0         0.17         12.9 
       352.0         0.13         13.0 
       353.0         0.10         12.1 
       354.0         0.17         12.5 
       355.0         0.20         11.7 
       356.0         1.37         12.4 
       357.0         0.27         12.4 
       358.0         0.20         12.5 
       359.0         0.15         12.1 
       360.0         0.23         12.8 
       361.0         0.20         13.0 
       362.0         0.17         13.6 
       363.0         0.20         13.8 
       364.0         0.13         14.0 
       365.0         0.13         13.4 
       366.0         0.10         13.8 
       367.0         0.13         13.1 
       368.0         0.17         13.9 
       369.0         0.30         14.7 
       370.0         0.17         14.2 
       371.0         0.13         14.0 
       372.0         0.10         14.5 
       373.0         0.17         14.2 
       374.0         0.20         14.6 
       375.0         0.23         16.5 
       376.0         0.17         18.9 
       377.0         0.20         19.9 
       378.0         0.22         18.6 
       379.0         0.23         14.9 
       380.0         0.23         11.6 
       381.0         0.20          9.4 
       382.0         0.17          8.5 
       383.0         0.20          8.0 
       384.0         0.20          8.3 
       385.0         0.20         10.8 
       386.0         1.72         37.8 
       387.0         0.23         25.6 
       388.0         0.23         23.2 
       389.0         0.20         21.4 
       390.0         0.20         20.9 
       391.0         0.23         20.1 
       392.0         0.23         20.0 
       393.0         0.23         20.1 
       394.0         0.27         19.9 
       395.0         0.27         20.3 
       396.0         0.23         20.5 
       397.0         0.23         20.8 
       398.0         0.27         20.4 
       399.0         0.30         19.7 
       400.0         0.25         19.3 
       401.0         0.23         19.0 
       402.0         0.23         18.9 
       403.0         0.23         18.1 
       404.0         0.20         18.3 
       405.0         0.30         18.2 
       406.0         0.27         18.2 
       407.0         0.23         18.4 
       408.0         0.30         18.4 
       409.0         0.27         18.4 
       410.0         0.30         18.5 
       411.0         0.23         18.6 
       412.0         0.23         18.2 
       413.0         0.32         18.5 
       414.0         0.27         18.2 
       415.0         0.27         18.7 
       416.0         1.47         34.7 
       417.0         0.30         22.2 
       418.0         0.33         19.9 
       419.0         0.30         18.9 
       420.0         0.32         18.3 
       421.0         0.27         17.6 
       422.0         0.27         17.5 
       423.0         0.37         17.7 
       424.0         0.27         17.4 
       425.0         0.30         17.5 
       426.0         0.27         17.4 
       427.0         0.20         17.4 
       428.0         0.17         17.5 
       429.0         0.20         16.9 
       430.0         0.17         17.6 
       431.0         0.20         17.6 
       432.0         0.13         18.1 
       433.0         0.13         17.8 
       434.0         0.15         16.6 
       435.0         0.23         17.0 
       436.0         0.23         16.7 
       437.0         0.23         16.4 
       438.0         0.20         16.5 
       439.0         0.13         17.2 
       440.0         0.13         17.3 
       441.0         0.17         16.2 
       442.0         0.13         16.1 
       443.0         0.13         16.8 
       444.0         0.23         16.5 
       445.0         0.30         16.7 
       446.0         1.32         33.4 
       447.0         0.30         23.1 
       448.0         0.23         20.6 
       449.0         0.27         18.8 
       450.0         0.27         17.5 
       451.0         0.23         17.2 
       452.0         0.23         17.4 
       453.0         0.23         16.9 
       454.0         0.27         16.4 
       455.0         0.27         16.2 
