~Version Information
VERS.                      2.0: CWLS Log ASCII Standard - VERSION 2.0
WRAP.                       NO: One line per depth step
~Well Information Block
STRT.FT               325.0000: 
STOP.FT              1013.5000: 
STEP.FT                 0.1000: 
NULL.                -999.2500: 
COMP.          Pioneer Natural Resources: COMPANY
WELL.                Doc 34-30: WELL
FLD.           Purgatoire River: FIELD
LOC.           454' FSL & 1386' FEL: LOCATION
CNTY.               Las Animas: COUNTY
SRVC.                Patterson: SERVICE COMPANY
DATE.          Thu Feb 16 07:19:58 2006: LOG DATE
UWI.           05 071 08694 00: UNIQUE WELL ID
STAT.                 Colorado: STATE
~Curve Information Block
DEPT.FT            0 000 00 00: Depth
DCAL.in                       : CDL Caliper
RHOB.g/cc                     : CDL Bulk Density
RHOC.g/cc                     : CDL Density Correction
DPOR.pu                       : CDL Density Porosity
GR.GAPI                       : Gamma Ray
NPOR.pu                       : Neutron Porosity
~Parameter Information Block
~A  Depth       DCAL        RHOB        RHOC        DPOR         GR         NPOR    
# ...
   641.8000      8.0422      2.5407      0.0788      6.6263    136.7057     27.5361
   641.9000      8.0422      2.5170      0.0359      8.0629    133.3247     28.0075
   642.0000      8.0405      2.5122     -0.0069      8.3539    132.6736     28.4163
   642.1000      8.0405      2.5326      0.0508      7.1133    134.7959     27.8970
   642.2000      8.0405      2.5478      0.0862      6.1956    136.6492     26.8123
   642.3000      8.0396      2.5324      0.0640      7.1281    135.8520     26.2367
   642.4000      8.0396      2.5046      0.0074      8.8096    132.8340     26.2476
   642.5000      8.0391      2.4975     -0.0394      9.2430    130.0971     26.4541
   642.6000      8.0391      2.5154     -0.0030      8.1589    127.6790     26.3901
   642.7000      8.0391      2.5300      0.0573      7.2731    125.0468     25.8682
   642.8000      8.0383      2.5221     -0.0101      7.7535    123.8739     25.4869
   642.9000      8.0383      2.5079      0.0127      8.6146    125.5630     26.2488
   643.0000      8.0372      2.5088      0.0041      8.5561    129.1537     27.7423
   643.1000      8.0372      2.5201      0.0470      7.8734    130.5961     28.1476
   643.2000      8.0372      2.5209      0.0414      7.8233    125.3348     27.1815
   643.3000      8.0370      2.5077      0.0195      8.6249    115.3837     26.1968
   643.4000      8.0370      2.4951     -0.0059      9.3859    105.5581     25.6429
   643.5000      8.0365      2.4960      0.0335      9.3318     99.7911     25.0230
   643.6000      8.0365      2.5096      0.0344      8.5072    101.0888     24.4034
   643.7000      8.0365      2.5277      0.0381      7.4124    105.3904     24.2114
   643.8000      8.0348      2.5460      0.0405      6.3044    105.6258     23.6996
   643.9000      8.0348      2.5623      0.0369      5.3128    101.4097     22.2294
   644.0000      8.0329      2.5751      0.0520      4.5398     97.6544     20.7765
   644.1000      8.0329      2.5877      0.0542      3.7733     96.0443     20.3457
   644.2000      8.0329      2.6059      0.0611      2.6750     94.9639     20.7777
   644.3000      8.0316      2.6245      0.0783      1.5425     94.8673     21.4031
   644.4000      8.0316      2.6270      0.0980      1.3914     95.9490     22.1951
   644.5000      8.0317      2.5995      0.0957      3.0607     97.3519     23.3313
   644.6000      8.0317      2.5586     -0.0011      5.5422     98.9135     24.4573
   644.7000      8.0317      2.5383      0.0098      6.7724     99.4412     25.3107
   644.8000      8.0330      2.5427      0.0470      6.5056     97.3929     25.7389
   644.9000      8.0330      2.5479      0.0387      6.1850     94.1395     25.7994
   645.0000      8.0339      2.5401     -0.0093      6.6599     93.3686     25.5890
   645.1000      8.0339      2.5272      0.0027      7.4401     94.2799     25.1002
   645.2000      8.0339      2.5218     -0.0212      7.7697     93.9239     24.6882
   645.3000      8.0337      2.5234      0.0112      7.6734     94.0907     24.5021
   645.4000      8.0337      2.5193     -0.0027      7.9192     94.7816     23.9137
   645.5000      8.0314      2.5098      0.0059      8.4983     91.5797     22.4007
   645.6000      8.0314      2.5098      0.0057      8.4962     84.5429     21.1702
   645.7000      8.0314      2.5229      0.0221      7.7048     78.6488     21.4683
   645.8000      8.0279      2.5371      0.0449      6.8445     75.9347     22.3090
   645.9000      8.0279      2.5406      0.0475      6.6285     75.2123     22.3011
   646.0000      8.0261      2.5348      0.0523      6.9806     76.6551     21.3427
   646.1000      8.0261      2.5311      0.0292      7.2084     79.5353     20.6077
   646.2000      8.0261      2.5355      0.0290      6.9418     81.6388     21.1631
   646.3000      8.0237      2.5467      0.0168      6.2602     82.8935     22.2961
   646.4000      8.0237      2.5622      0.0782      5.3224     84.9656     22.7603
   646.5000      8.0195      2.5763      0.0723      4.4673     86.5927     22.7306
   646.6000      8.0195      2.5869      0.0592      3.8230     86.0419     22.8583
   646.7000      8.0195      2.5978      0.0555      3.1624     83.8012     22.9488
   646.8000      8.0178      2.6085      0.1018      2.5151     80.3704     22.7652
   646.9000      8.0178      2.6114      0.0577      2.3380     76.5510     22.9873
   647.0000      8.0217      2.5939      0.1255      3.4021     74.5403     23.7606
   647.1000      8.0217      2.5534      0.0600      5.8536     77.2659     23.8685
   647.2000      8.0217      2.5141      0.0038      8.2356     85.0722     22.8348
   647.3000      8.0301      2.4955     -0.0283      9.3647     94.2237     21.7255
   647.4000      8.0301      2.4904      0.0113      9.6701    101.3063     21.1656
   647.5000      8.0378      2.4912     -0.0534      9.6255    106.2216     21.1289
   647.6000      8.0378      2.5038     -0.0107      8.8594    106.9729     22.0657
   647.7000      8.0378      2.5221      0.0210      7.7494    102.6106     23.6722
   647.8000      8.0396      2.5267      0.0467      7.4702     98.1202     24.5644
   647.9000      8.0396      2.5184      0.0186      7.9769     96.3964     24.2800
   648.0000      8.0364      2.5153      0.0277      8.1619     92.8469     23.9941
   648.1000      8.0364      2.5222      0.0311      7.7427     86.3211     24.3868
   648.2000      8.0364      2.5328      0.0442      7.1032     84.4353     24.5813
   648.3000      8.0313      2.5479      0.0207      6.1903     90.6492     24.2504
   648.4000      8.0313      2.5652      0.0739      5.1385     98.5277     23.9928
   648.5000      8.0272      2.5731      0.0880      4.6636    100.5407     24.0178
   648.6000      8.0272      2.5637      0.0877      5.2299     98.7667     24.2455
   648.7000      8.0272      2.5418      0.0515      6.5595     99.3494     24.4478
   648.8000      8.0296      2.5251      0.0296      7.5724    101.9986     24.2399
   648.9000      8.0296      2.5245      0.0365      7.6051    104.0727     23.6254
   649.0000      8.0372      2.5309      0.0361      7.2158    103.2734     23.0120
   649.1000      8.0372      2.5341      0.0282      7.0272     97.4348     22.7706
   649.2000      8.0372      2.5340      0.0420      7.0300     89.8046     23.4526
   649.3000      8.0396      2.5337      0.0212      7.0504     85.3858     24.5588
   649.4000      8.0396      2.5364      0.0142      6.8823     84.1369     24.7200
   649.5000      8.0363      2.5460      0.0622      6.3048     82.1792     24.1192
   649.6000      8.0363      2.5597      0.0704      5.4697     78.8303     23.6045
   649.7000      8.0363      2.5705      0.0635      4.8161     76.2592     22.9313
   649.8000      8.0341      2.5748      0.0649      4.5604     73.2014     21.7205
   649.9000      8.0341      2.5756      0.0548      4.5118     66.9690     20.7780
   650.0000      8.0338      2.5839      0.0223      4.0082     59.4777     20.7764
   650.1000      8.0338      2.6044      0.0683      2.7639     56.8144     21.3355
   650.2000      8.0338      2.6277      0.0610      1.3536     60.0483     21.8946
   650.3000      8.0331      2.6486      0.0570      0.0853     62.2809     22.1620
   650.4000      8.0331      2.6723      0.0593     -1.3514     60.0174     22.3538
   650.5000      8.0315      2.7050      0.0835     -3.3348     55.9823     22.6393
   650.6000      8.0315      2.7449      0.0905     -5.7503     51.2893     22.7169
   650.7000      8.0315      2.7833      0.1062     -8.0789     46.9656     22.3407
   650.8000      8.0295      2.8158      0.1009    -10.0493     45.4370     21.6777
   650.9000      8.0295      2.8359      0.1346    -11.2684     46.0772     21.2893
   651.0000      8.0280      2.8379      0.0603    -11.3896     46.1739     21.6826
   651.1000      8.0280      2.8360      0.0712    -11.2705     45.5837     22.2398
   651.2000      8.0280      2.8330      0.0795    -11.0909     45.7983     22.2793
   651.3000      8.0290      2.8148      0.0243     -9.9852     47.7003     22.9141
