~Version Information
VERS.                      2.0: CWLS Log ASCII Standard - VERSION 2.0
WRAP.                       NO: One line per depth step
~Well Information Block
STRT.FT                -3.0000: 
STOP.FT              1123.0000: 
STEP.FT                 0.2500: 
NULL.                -999.2500: 
COMP.          Pioneer Natural Resources: COMPANY
WELL.               Ryan 41-17: WELL
FLD.           Purgatoire River: FIELD
LOC.           822' FNL & 532' FEL--: LOCATION
CNTY.               Las Animas: COUNTY
SRVC.                Patterson: SERVICE COMPANY
DATE.          Mon Mar 27 14:50:31 2006: LOG DATE
UWI.           05 071 08719 00: UNIQUE WELL ID
STAT.                 Colorado: STATE
~Curve Information Block
DEPT.FT            0 000 00 00: Depth
CCL.                          : Casing Collar Locator
TT3.usec                      : CBL 3' Travel Time
AMP3.mV                       : CBL 3' Amplitude
GR.GAPI                       : Gamma Ray
~Parameter Information Block
~A  Depth       CCL         TT3         AMP3         GR     
# ...
   432.5000      0.0000    260.3061     73.1073    151.1237
   432.7500      0.0000    260.3041     73.1452    153.9332
   433.0000      0.0000    260.2934     73.2533    161.4013
   433.2500      0.0000    260.2855     73.3263    166.6823
   433.5000      0.0000    260.2778     73.3922    172.2873
   433.7500      0.0000    260.2767     73.3955    173.9994
   434.0000      0.0000    260.2806     73.3515    173.7663
   434.2500      0.0000    260.2851     73.3069    171.3987
   434.5000      0.0000    260.2915     73.2415    162.3273
   434.7500      0.0000    260.2957     73.2048    151.2324
   435.0000      0.0000    260.3033     73.1610    127.1781
   435.2500      0.0000    260.3093     73.1364    108.4972
   435.5000      0.0000    260.3166     73.0908     82.7306
   435.7500      0.0000    260.3179     73.0416     70.0967
   436.0000      0.0000    260.3136     72.9223     59.3359
   436.2500      0.0000    260.3100     72.8114     56.2593
   436.5000      0.0000    260.3114     72.6205     54.1988
   436.7500      0.0000    260.3179     72.5024     52.9635
   437.0000      0.0000    260.3291     72.3755     50.2778
   437.2500      0.0000    260.3323     72.3186     48.0312
   437.5000      0.0000    260.3303     72.2140     44.6914
   437.7500      0.0000    260.3299     72.0937     43.0381
   438.0000      0.0000    260.3420     71.8310     42.3831
   438.2500      0.0000    260.3596     71.6406     43.4363
   438.5000      0.0000    260.3884     71.4270     46.5896
   438.7500      0.0000    260.3992     71.3622     48.7253
   439.0000      0.0000    260.3958     71.3442     50.2019
   439.2500      0.0000    260.3864     71.3270     49.6069
   439.5000      0.0000    260.3820     71.2136     46.9587
   439.7500      0.0000    260.3931     71.0815     44.9497
   440.0000      0.0000    260.4255     70.8791     43.7464
   440.2500      0.0000    260.4472     70.7962     45.6158
   440.5000      0.0000    260.4635     70.7957     54.5645
   440.7500      0.0000    260.4605     70.8721     64.9922
   441.0000      0.0000    260.4392     71.0637     85.6283
   441.2500      0.0000    260.4183     71.2157    100.6228
   441.5000      0.0000    260.3833     71.4375    121.0775
   441.7500      0.0000    260.3605     71.5645    131.8704
   442.0000      0.0000    260.3309     71.7095    143.4848
   442.2500      0.0000    260.3166     71.7708    149.0249
   442.5000      0.0000    260.3061     71.8021    155.7077
   442.7500      0.0000    260.3067     71.7849    159.4853
   443.0000      0.0000    260.3159     71.7264    163.8813
   443.2500      0.0000    260.3236     71.6871    165.8081
   443.5000      0.0000    260.3306     71.6545    167.3359
   443.7500      0.0000    260.3309     71.6479    167.3112
   444.0000      0.0000    260.3300     71.6244    164.7300
   444.2500      0.0000    260.3330     71.5724    160.9490
   444.5000      0.0000    260.3481     71.4148    153.2058
   444.7500      0.0000    260.3651     71.2646    148.0716
   445.0000      0.0000    260.3965     71.0180    142.4076
   445.2500      0.0000    260.4171     70.8730    139.7659
   445.5000      0.0000    260.4387     70.7287    134.8918
   445.7500      0.0000    260.4425     70.6914    130.0420
   446.0000      0.0000    260.4304     70.7189    122.2667
   446.2500      0.0000    260.4125     70.7868    118.9184
   446.5000      0.0000    260.3772     70.9595    117.9893
   446.7500      0.0000    260.3521     71.1182    118.8288
   447.0000      0.0000    260.3185     71.3901    118.7050
   447.2500      0.0000    260.3024     71.5561    115.9898
   447.5000      0.0000    260.2925     71.7066    106.5211
   447.7500      0.0000    260.2972     71.7119     97.0761
   448.0000      0.0000    260.3196     71.5886     82.0289
   448.2500      0.0000    260.3394     71.4669     74.6737
   448.5000      0.0000    260.3603     71.3401     71.4198
   448.7500      0.0000    260.3607     71.3384     74.3113
   449.0000      0.0000    260.3418     71.4518     83.3231
   449.2500      0.0000    260.3241     71.5616     90.6857
   449.5000      0.0000    260.3025     71.7085    101.9826
   449.7500      0.0000    260.2916     71.7834    109.1847
   450.0000      0.0000    260.2721     71.8818    118.8087
   450.2500      0.0000    260.2539     71.9484    123.9348
   450.5000      0.0000    260.2245     72.0335    129.1347
   450.7500      0.0000    260.2108     72.0600    131.0829
   451.0000      0.0000    260.2072     72.0449    132.4248
   451.2500      0.0000    260.2143     72.0183    132.6014
   451.5000      0.0000    260.2287     71.9981    132.1177
   451.7500      0.0000    260.2362     72.0033    131.2667
   452.0000      0.0000    260.2448     72.0040    128.5245
   452.2500      0.0000    260.2507     71.9740    125.3602
   452.5000      0.0000    260.2596     71.8679    119.2638
   452.7500      0.0000    260.2628     71.7630    115.3646
   453.0000      0.0000    260.2605     71.5582    111.2121
   453.2500      0.0000    260.2574     71.3782    109.5505
   453.5000      0.0000    260.2623     71.0249    107.4519
   453.7500      0.0000    260.2768     70.7462    105.5279
   454.0000      0.0000    260.3120     70.3198    101.6155
   454.2500      0.0000    260.3365     70.0555     98.8822
   454.5000      0.0000    260.3632     69.6721     95.4490
   454.7500      0.0000    260.3752     69.3793     93.4858
   455.0000      0.0000    260.3984     68.8005     90.4452
   455.2500      0.0000    260.4257     68.3107     88.4049
   455.5000      0.0000    260.4855     67.5000     85.5601
   455.7500      0.0000    260.5298     66.9889     83.3826
   456.0000      0.0000    260.5867     66.3685     78.7286
   456.2500      0.0000    260.6154     66.0593     75.1241
   456.5000      0.0000    260.6531     65.6918     71.5811
   456.7500      0.0000    260.6801     65.4755     71.7136
   457.0000      0.0000    260.7218     65.2025     75.1702
   457.2500      0.0000    260.7423     65.0989     78.2305
   457.5000      0.0000    260.7468     65.1280     81.8516
   457.7500      0.0000    260.7292     65.2629     83.1311
   458.0000      0.0000    260.6825     65.5456     82.9990
   458.2500      0.0000    260.6497     65.7246     81.2147
   458.5000      0.0000    260.6162     65.9333     75.8537
   458.7500      0.0000    260.6064     66.0561     71.2028
   459.0000      0.0000    260.5978     66.2967     65.0188
   459.2500      0.0000    260.5844     66.5210     62.7735
   459.5000      0.0000    260.5410     66.9060     63.3418
   459.7500      0.0000    260.5003     67.1201     66.2758
   460.0000      0.0000    260.4431     67.2433     73.4303
   460.2500      0.0000    260.4250     67.1591     78.8609
   460.5000      0.0000    260.4625     66.8290     85.6473
   460.7500      0.0000    260.5843     66.5100     88.5791
   461.0000      0.0000    261.2176     65.7889     91.3635
   461.2500      0.0000    262.3570     64.9299     93.0329
   461.5000      0.0000    266.2729     62.4970     96.0640
   461.7500      0.0000    270.9268     59.8577     98.6053
   462.0000      0.0000    280.7050     54.5391    103.7443
   462.2500      0.0000    287.9344     50.5923    108.2122
   462.5000      0.0000    297.2134     45.2114    115.0837
   462.7500      0.0000    301.4099     42.5046    117.9903
   463.0000      0.0000    304.8001     40.1015    117.0654
   463.2500      0.0000    305.7490     39.4500    112.6740
   463.5000      0.0000    306.2526     39.2269    102.9623
   463.7500      0.0000    306.3580     39.1658     97.0145
   464.0000      2.0000    306.4818     38.8061     93.0230
   464.2500      0.0000    306.5891     38.3780     94.7243
   464.5000      0.0000    306.6257     37.7782    102.9446
   464.7500      0.0000    306.2615     37.7673    110.7665
   465.0000      0.0000    304.2354     38.9881    123.6992
   465.2500      0.0000    301.3391     40.7785    132.6600
   465.5000      0.0000    294.2186     44.6125    147.3312
   465.7500      0.0000    287.9544     47.5500    157.8577
