~Version Information
VERS.                      2.0: CWLS Log ASCII Standard - VERSION 2.0
WRAP.                       NO: One line per depth step
~Well Information Block
STRT.FT                 5.0000: 
STOP.FT               880.0000: 
STEP.FT                 0.2500: 
NULL.                -999.2500: 
COMP.          Pioneer Natural Resources: COMPANY
WELL.          Bienville 31-28: WELL
FLD.           Purgatoire River: FIELD
LOC.           1212' FNL & 2271' FEL: LOCATION
PROV.                 Colorado: PROVINCE
CNTY.               Las Animas: COUNTRY
SRVC.                Patterson: SERVICE COMPANY
DATE.          Tue Jan 24 11:44:03 2006: LOG DATE
UWI.           05 071 08666 00: UNIQUE WELL ID
~Curve Information Block
DEPT.FT            0 000 00 00: Depth
GR.GAPI                       : Gamma Ray
CCL.                          : Casing Collar Locator
TT3.usec                      : CBL 3' Travel Time
AMP3.mV                       : CBL 3' Amplitude
~Parameter Information Block
~A  Depth        GR         CCL         TT3         AMP3    
     5.0000   -999.2500   -999.2500   1467.0000     -5.8329
     5.2500   -999.2500      0.0000   1467.0000     -5.8009
     5.5000   -999.2500      0.0000   1467.0000     -5.7681
     5.7500   -999.2500      0.0000   1467.0000     -5.7449
     6.0000   -999.2500      0.0000   1467.0000     -5.7352
     6.2500   -999.2500      0.0000   1467.0000     -5.7323
     6.5000   -999.2500      0.0000   1467.0000     -5.7236
     6.7500   -999.2500      0.0000   1467.0000     -5.7050
     7.0000   -999.2500      0.0000   1467.0000     -5.6882
     7.2500   -999.2500      0.0000   1466.9220     -5.6881
     7.5000   -999.2500      0.0000   1466.4137     -5.6902
     7.7500   -999.2500      0.0000   1463.8320     -5.5941
     8.0000   -999.2500      0.0000   1453.6219     -5.1258
     8.2500   -999.2500      0.0000   1422.1768     -3.7411
     8.5000   -999.2500      0.0000   1346.8353     -0.6850
     8.7500   -999.2500      0.0000   1206.5029      4.5364
     9.0000   -999.2500      0.0000   1004.3666     11.3989
     9.2500   -999.2500      0.0000    783.1294     18.1173
     9.5000   -999.2500      0.0000    611.3482     22.5650
     9.7500   -999.2500      0.0000    548.4949     23.6829
    10.0000     42.9869      0.0000    616.5028     21.9734
    10.2500     43.0093      0.0000    791.1017     18.7712
    10.5000     42.7023      0.0000   1012.0750     15.2729
    10.7500     42.7212      0.0000   1211.9584     12.1347
    11.0000     43.6980      0.0000   1349.7806      9.5718
    11.2500     46.0216      0.0000   1423.3606      7.5793
    11.5000     49.8620      0.0000   1453.6768      6.0917
    11.7500     55.2077      0.0000   1462.0691      5.0513
    12.0000     61.8278      0.0000   1458.5559      4.3974
    12.2500     69.1277      0.0000   1440.5039      4.0414
    12.5000     76.0510      0.0000   1396.0310      3.8772
    12.7500     81.3537      0.0000   1312.7266      3.8196
    13.0000     84.2363      0.0000   1191.7593      3.8308
    13.2500     84.7954      0.0000   1056.3560      3.9076
    13.5000     83.8968      0.0000    942.0364      4.0423
    13.7500     82.5572      0.0000    874.0703      4.1880
    14.0000     81.2379      0.0000    853.6417      4.2599
    14.2500     79.6542      0.0000    863.8760      4.1647
    14.5000     77.4907      0.0000    887.1181      3.8498
    14.7500     75.2886      0.0000    916.7838      3.3599
    15.0000     74.2305      0.0000    954.5577      2.8419
    15.2500     74.8982      0.0000    998.0880      2.4421
    15.5000     76.5713      0.0000   1034.3652      2.1947
    15.7500     77.9141      0.0000   1046.8102      2.0490
    16.0000     78.0548      0.0000   1028.1267      1.9753
    16.2500     76.8708      0.0000    986.9083      1.9852
    16.5000     74.8766      0.0000    943.2181      2.0752
    16.7500     73.2578      0.0000    917.4730      2.2178
    17.0000     73.3658      0.0000    921.9474      2.4042
    17.2500     75.5128      0.0000    958.4569      2.6862
    17.5000     78.5205      0.0000   1016.3693      3.1787
    17.7500     80.7637      0.0000   1071.6683      3.9821
    18.0000     81.3981      0.0000   1096.2772      5.0402
    18.2500     80.5201      0.0000   1075.7238      6.0985
    18.5000     78.6628      0.0000   1019.4343      6.8833
    18.7500     76.4643      0.0000    952.8193      7.3136
    19.0000     74.5852      0.0000    898.6506      7.4967
    19.2500     73.5297      0.0000    864.5709      7.5662
    19.5000     73.3121      0.0000    845.4031      7.5871
    19.7500     73.4061      0.0000    833.0123      7.5751
    20.0000     73.3475      0.0000    822.4868      7.5407
    20.2500     73.4193      0.0000    812.2490      7.5048
    20.5000     74.4923      0.0000    802.4321      7.4924
    20.7500     77.0269      0.0000    794.2766      7.5213
    21.0000     80.3899      0.0000    789.2391      7.5909
    21.2500     83.2928      0.0000    787.4327      7.6816
    21.5000     84.7854      0.0000    786.7736      7.7648
    21.7500     84.7549      0.0000    784.0723      7.8204
    22.0000     83.7183      0.0000    777.2043      7.8469
    22.2500     82.3787      0.0000    766.7893      7.8577
    22.5000     81.1895      0.0000    756.0872      7.8698
    22.7500     80.0534      0.0000    748.8519      7.8965
    23.0000     78.5439      0.0000    746.7518      7.9463
    23.2500     76.6271      0.0000    748.5753      8.0225
    23.5000     75.0429      0.0000    751.3237      8.1219
    23.7500     74.7651      0.0000    751.5740      8.2345
    24.0000     76.2146      0.0000    746.7142      8.3490
    24.2500     79.1020      0.0000    736.5165      8.4600
    24.5000     82.7799      0.0000    723.8478      8.5715
    24.7500     86.4816      0.0000    712.9691      8.6962
    25.0000     89.2887      0.0000    706.9257      8.8485
    25.2500     90.2083      0.0000    706.7417      9.0308
    25.5000     88.6983      0.0000    712.1667      9.2250
    25.7500     85.1733      0.0000    721.8860      9.4030
    26.0000     80.7947      0.0000    733.1921      9.5467
    26.2500     76.8514      0.0000    742.6384      9.6555
    26.5000     74.4362      0.0000    747.7254      9.7345
    26.7500     74.2758      0.0000    748.1007      9.7860
    27.0000     76.3453      0.0000    745.3302      9.8130
    27.2500     79.5733      0.0000    741.7939      9.8233
    27.5000     82.1815      0.0000    739.4620      9.8266
    27.7500     82.7306      0.0000    738.9640      9.8286
    28.0000     81.2582      0.0000    739.5740      9.8298
    28.2500     79.3351      0.0000    740.1859      9.8285
    28.5000     78.6396      0.0000    740.1280      9.8276
    28.7500     79.4648      0.0000    738.9813      9.8362
    29.0000     80.8329      0.0000    735.7548      9.8616
    29.2500     81.8460      0.0000    727.3335      9.8998
    29.5000     82.4888      0.0000    706.9751      9.9379
    29.7500     83.1838      0.0000    666.5696      9.9686
    30.0000     84.0898      0.0000    604.3182      9.9958
    30.2500     85.0642      0.0000    530.6334     10.0269
    30.5000     86.0123      0.0000    463.1818     10.0638
    30.7500     86.8817      0.0000    414.5411     10.1012
    31.0000     87.3747      0.0000    385.7658     10.1301
    31.2500     87.0530      0.0000    370.8783     10.1446
    31.5000     85.9309      0.0000    364.2971     10.1475
    31.7500     84.6452      0.0000    363.2791     10.1510
    32.0000     83.7647      0.0000    366.1204     10.1682
    32.2500     83.1562      0.0000    371.0142     10.2045
    32.5000     82.2970      0.0000    377.4470     10.2537
    32.7500     80.9428      0.0000    388.1794     10.3028
    33.0000     79.2712      0.0000    409.0425     10.3373
    33.2500     77.6762      0.0000    444.6798     10.3438
    33.5000     76.6409      0.0000    492.0261     10.3088
    33.7500     76.5129      0.0000    539.0455     10.2240
    34.0000     77.1022      0.0000    574.2764     10.0956
    34.2500     77.5889      0.0000    598.3373      9.9456
    34.5000     77.0814      0.0000    621.9987      9.7992
    34.7500     75.5717      0.0000    652.5272      9.6728
    35.0000     74.3965      0.0000    686.3064      9.5769
    35.2500     75.3743      0.0000    715.0234      9.5218
    35.5000     79.2601      0.0000    734.3130      9.5156
    35.7500     85.1655      0.0000    745.1530      9.5605
    36.0000     91.3156      0.0000    750.4426      9.6510
    36.2500     95.8269      0.0000    752.6852      9.7718
    36.5000     96.9455      0.0000    754.0234      9.8944
    36.7500     93.7003      0.0000    756.5172      9.9837
    37.0000     87.0825      0.0000    761.3155     10.0128
    37.2500     80.0058      0.0000    767.6024      9.9746
    37.5000     75.3436      0.0000    772.9399      9.8801
    37.7500     73.9840      0.0000    775.1005      9.7490
    38.0000     74.8547      0.0000    773.3961      9.6012
    38.2500     76.2765      0.0000    768.3181      9.4541
