~Version Information
VERS.                      2.0: CWLS Log ASCII Standard - VERSION 2.0
WRAP.                       NO: One line per depth step
~Well Information Block
STRT.FT                -8.7500: 
STOP.FT              1035.7500: 
STEP.FT                 0.2500: 
NULL.                -999.2500: 
COMP.          Pioneer Natural Resources: COMPANY
WELL.                Mac 22-36: WELL
FLD.           Purgatorie River: FIELD
LOC.           2545' FNL & 1398' FWL--: LOCATION
PROV.                       CO: PROVINCE
CNTY.               Las Animas: COUNTRY
SRVC.          Patterson Wireline: SERVICE COMPANY
DATE.          Thu Dec 08 13:20:05 2005: LOG DATE
UWI.           08 071 08594 00: UNIQUE WELL ID
~Curve Information Block
DEPT.FT            0 000 00 00: Depth
CCL.                          : Casing Collar Locator
TT3.usec                      : CBL 3' Travel Time
AMP3.mV                       : CBL 3' Amplitude
GR.GAPI                       : Gamma Ray
~Parameter Information Block
~A  Depth       CCL         TT3         AMP3         GR     
# ...
   326.2500      0.0000    763.2787     10.5984    154.6859
   326.5000      0.0000    777.0374     10.4291    152.5701
   326.7500      0.0000    788.3685     10.2318    150.0627
   327.0000      0.0000    796.4720     10.0546    146.8408
   327.2500      0.0000    802.0418      9.9309    142.8416
   327.5000      0.0000    805.7689      9.8736    138.4424
   327.7500      0.0000    807.9194      9.8830    133.8993
   328.0000      0.0000    808.3188      9.9542    129.4226
   328.2500      0.0000    806.4158     10.0753    126.0193
   328.5000      0.0000    802.2598     10.2228    125.2044
   328.7500      0.0000    797.5723     10.3668    127.2915
   329.0000      0.0000    794.7065     10.4858    130.6752
   329.2500      0.0000    793.9788     10.5752    133.1992
   329.5000      0.0000    792.5192     10.6420    133.8318
   329.7500      0.0000    786.2584     10.6936    132.8038
   330.0000      0.0000    773.5419     10.7351    130.4732
   330.2500      0.0000    757.2988     10.7762    126.7162
   330.5000      0.0000    743.7819     10.8387    121.7105
   330.7500      0.0000    738.7831     10.9510    116.7860
   331.0000      0.0000    744.3907     11.1275    113.7958
   331.2500      0.0000    758.2469     11.3486    113.7509
   331.5000      0.0000    775.1923     11.5674    116.2807
   331.7500      0.0000    790.1962     11.7354    119.8459
   332.0000      0.0000    800.6326     11.8259    122.2485
   332.2500      0.0000    806.0125     11.8394    121.8401
   332.5000      0.0000    806.4375     11.8014    118.8033
   332.7500      0.0000    802.8726     11.7529    114.7053
   333.0000      0.0000    798.2943     11.7289    110.6823
   333.2500      0.0000    795.7871     11.7348    106.8604
   333.5000      0.0000    794.7238     11.7449    103.4639
   333.7500      0.0000    790.7759     11.7290    101.2700
   334.0000      0.0000    780.5734     11.6748    100.5658
   334.2500      0.0000    765.2984     11.5835    100.5656
   334.5000      0.0000    749.6649     11.4585    100.4012
   334.7500      0.0000    738.3936     11.3074    100.1752
   335.0000      0.0000    733.6343     11.1510    100.6180
   335.2500      0.0000    734.6041     11.0192    102.1750
   335.5000      0.0000    738.9614     10.9349    104.8086
   335.7500      0.0000    744.3266     10.8992    108.2525
   336.0000      0.0000    748.8478     10.8877    111.8595
   336.2500      0.0000    751.3894     10.8643    114.2239
   336.5000      0.0000    751.9000     10.8020    113.6040
   336.7500      0.0000    751.2638     10.6923    109.5082
   337.0000      0.0000    750.4333     10.5422    104.0070
   337.2500      0.0000    749.7094     10.3623    100.6969
   337.5000      0.0000    748.5759     10.1487    101.7984
   337.7500      0.0000    745.7700      9.8645    106.5102
   338.0000      0.0000    739.6281      9.4496    112.2056
   338.2500      0.0000    729.3948      8.8831    116.5993
   338.5000      0.0000    717.2874      8.2482    118.6463
   338.7500      0.0000    709.0476      7.7065    118.1211
   339.0000      0.0000    710.8449      7.3973    115.1367
   339.2500      0.0000    724.7140      7.3826    110.2721
   339.5000      0.0000    747.4649      7.6692    104.8067
   339.7500      0.0000    774.0826      8.2113    100.1858
   340.0000      0.0000    801.0348      8.8867     97.0398
   340.2500     -2.0000    825.3306      9.5335     95.1258
   340.5000      2.0000    841.1252     10.0366     94.1656
   340.7500      0.0000    839.6113     10.3740     94.0861
   341.0000      0.0000    815.3640     10.5989     94.4252
   341.2500      0.0000    774.1448     10.7792     94.3330
   341.5000      0.0000    732.7703     10.9199     93.5145
   341.7500      0.0000    707.9747     10.9555     92.7315
   342.0000      0.0000    703.2748     10.8658     93.2165
   342.2500      0.0000    707.8611     10.7590     95.8933
   342.5000      0.0000    709.6151     10.7839    101.1215
   342.7500      0.0000    707.6394     10.9972    108.7310
   343.0000      0.0000    710.5945     11.3494    117.9946
   343.2500      0.0000    724.7126     11.7529    127.4828
   343.5000      0.0000    746.0573     12.1346    135.1720
   343.7500      0.0000    763.7933     12.4573    139.3610
   344.0000      0.0000    767.1084     12.7184    140.0842
   344.2500      0.0000    748.0296     12.9344    139.3667
   344.5000      0.0000    702.8618     13.1204    139.4749
   344.7500      0.0000    636.6243     13.2845    141.0014
   345.0000      0.0000    564.9249     13.4338    142.9920
   345.2500      0.0000    505.2925     13.5837    144.6195
   345.5000      0.0000    464.5324     13.7614    146.2462
   345.7500      0.0000    437.1612     13.9902    148.9407
   346.0000      0.0000    415.9430     14.2626    153.2546
   346.2500      0.0000    400.7423     14.5247    158.1789
   346.5000      0.0000    398.2023     14.6963    160.9463
   346.7500      0.0000    416.8164     14.7152    158.5536
   347.0000      0.0000    460.9788     14.5762    150.4781
   347.2500      0.0000    523.5582     14.3344    139.6986
   347.5000      0.0000    582.5242     14.0698    130.2954
   347.7500      0.0000    610.6648     13.8395    124.1091
   348.0000      0.0000    594.2862     13.6574    120.0227
   348.2500      0.0000    543.0452     13.5133    115.7806
   348.5000      0.0000    480.9956     13.3985    109.8576
   348.7500      0.0000    429.1814     13.3059    102.2391
   349.0000      0.0000    395.9192     13.2165     94.3360
   349.2500      0.0000    379.0107     13.1002     87.9576
   349.5000      0.0000    372.9385     12.9340     83.8805
   349.7500      0.0000    374.1160     12.7115     81.3990
   350.0000      0.0000    382.4274     12.4356     79.3585
   350.2500      0.0000    399.9451     12.1085     77.3556
   350.5000      0.0000    428.6037     11.7344     75.7075
   350.7500      0.0000    468.8391     11.3368     74.5547
   351.0000      0.0000    519.3951     10.9712     73.6977
   351.2500      0.0000    576.0455     10.7091     73.5789
   351.5000      0.0000    629.4988     10.5977     75.8963
   351.7500      0.0000    667.7653     10.6287     82.5039
   352.0000      0.0000    684.4614     10.7461     93.5750
   352.2500      0.0000    684.8176     10.8771    107.2291
   352.5000      0.0000    680.8148     10.9615    121.1350
   352.7500      0.0000    679.7230     10.9700    134.0975
   353.0000      0.0000    679.7644     10.9062    145.7966
   353.2500      0.0000    677.5486     10.7911    155.4424
   353.5000      0.0000    675.4632     10.6575    161.5767
   353.7500      0.0000    678.8375     10.5622    163.3848
   354.0000      0.0000    689.1088     10.5722    161.6637
   354.2500      0.0000    703.0744     10.7093    158.1824
   354.5000      0.0000    716.8613     10.9215    154.4429
   354.7500      0.0000    727.9720     11.1274    151.3023
   355.0000      0.0000    734.7687     11.2789    149.3264
   355.2500      0.0000    736.3102     11.3778    148.9600
   355.5000      0.0000    732.6261     11.4489    150.3353
   355.7500      0.0000    723.6206     11.5100    153.0472
   356.0000      0.0000    706.8250     11.5600    156.1703
   356.2500      0.0000    677.6017     11.5916    158.5875
   356.5000      0.0000    634.0637     11.6123    159.4477
   356.7500      0.0000    582.3588     11.6403    158.4518
   357.0000      0.0000    535.2234     11.6786    155.9133
   357.2500      0.0000    504.4767     11.7089    152.7009
   357.5000      0.0000    495.7295     11.7192    149.8514
   357.7500      0.0000    509.2051     11.7306    147.8532
   358.0000      0.0000    541.9063     11.7904    146.5422
   358.2500      0.0000    586.7044     11.9408    145.8559
   358.5000      0.0000    630.8369     12.1873    146.1782
   358.7500      0.0000    658.9208     12.4863    147.8411
   359.0000      0.0000    660.7827     12.7607    150.8954
   359.2500      0.0000    639.1549     12.9353    155.2266
   359.5000      0.0000    610.8818     12.9665    160.1265
