~Version Information
VERS.                      2.0: CWLS Log ASCII Standard - VERSION 2.0
WRAP.                       NO: One line per depth step
~Well Information Block
STRT.FT                -8.0000: 
STOP.FT              1472.2500: 
STEP.FT                 0.2500: 
NULL.                -999.2500: 
COMP.          Pioneer Natural Resources: COMPANY
WELL.           Amore 32-09 Tr: WELL
FLD.           Purgatoire River: FIELD
LOC.           1941' FNL & 2297' FEL--: LOCATION
PROV.                       CO: PROVINCE
CNTY.               Las Animas: COUNTRY
SRVC.          Patterson Wireline: SERVICE COMPANY
DATE.          Tue Nov 22 11:37:00 2005: LOG DATE
UWI.           05 071 08584 00: UNIQUE WELL ID
~Curve Information Block
DEPT.FT            0 000 00 00: Depth
CCL.                          : Casing Collar Locator
TT3.usec                      : CBL 3' Travel Time
AMP3.mV                       : CBL 3' Amplitude
GR.GAPI                       : Gamma Ray
~Parameter Information Block
~A  Depth       CCL         TT3         AMP3         GR     
# ...
   561.5000      0.0000    743.5189      6.6400     74.7031
   561.7500      0.0000    743.5454      6.6427     75.1017
   562.0000      0.0000    743.4963      6.6310     77.1389
   562.2500      0.0000    743.1401      6.5972     78.8269
   562.5000      0.0000    741.9790      6.5503     79.3961
   562.7500      0.0000    739.3552      6.5048     79.3694
   563.0000      0.0000    735.0460      6.4680     79.2973
   563.2500      0.0000    729.9048      6.4391     79.1848
   563.5000      0.0000    725.5511      6.4178     78.9423
   563.7500      0.0000    723.2278      6.4119     78.6283
   564.0000      0.0000    723.3323      6.4314     78.1813
   564.2500      0.0000    725.8790      6.4767     77.3728
   564.5000      0.0000    730.4028      6.5324     76.2312
   564.7500      0.0000    735.2744      6.5769     75.4803
   565.0000      0.0000    737.9180      6.5996     76.4855
   565.2500      0.0000    735.9573      6.6075     80.6302
   565.5000      0.0000    728.2482      6.6120     88.4126
   565.7500      0.0000    715.6129      6.6116     98.7951
   566.0000      0.0000    700.9838      6.5977    109.5694
   566.2500      0.0000    688.1134      6.5777    118.8523
   566.5000      0.0000    679.4535      6.5860    126.3916
   566.7500      0.0000    675.2737      6.6621    133.1605
   567.0000      0.0000    674.6796      6.8119    139.4907
   567.2500      0.0000    676.8477      6.9942    143.9909
   567.5000      0.0000    680.9194      7.1488    144.9028
   567.7500      0.0000    685.1132      7.2392    142.3144
   568.0000      0.0000    686.9732      7.2668    138.3476
   568.2500      0.0000    685.1421      7.2494    135.4654
   568.5000      0.0000    680.4932      7.1997    135.2122
   568.7500      0.0000    675.0120      7.1288    137.8039
   569.0000      0.0000    669.9769      7.0631    141.6095
   569.2500      0.0000    665.7147      7.0425    143.3985
   569.5000      0.0000    662.6194      7.0942    140.5269
   569.7500      0.0000    661.3934      7.2097    133.3064
   570.0000      0.0000    661.9462      7.3520    124.8824
   570.2500      0.0000    662.5196      7.4855    118.8933
   570.5000      0.0000    660.6411      7.5969    117.2541
   570.7500      0.0000    655.4341      7.6908    119.4325
   571.0000      0.0000    649.0846      7.7707    123.2322
   571.2500      0.0000    645.3436      7.8311    126.5124
   571.5000      0.0000    645.7934      7.8643    128.5849
   571.7500      0.0000    647.7324      7.8706    130.0976
   572.0000      0.0000    645.6862      7.8584    131.7061
   572.2500      0.0000    633.9616      7.8404    133.0975
   572.5000      0.0000    608.3438      7.8311    133.3468
   572.7500      0.0000    568.5535      7.8443    131.9372
   573.0000      0.0000    520.8123      7.8862    129.2223
   573.2500      0.0000    475.9826      7.9478    126.0280
   573.5000      0.0000    443.0390      8.0064    122.9686
   573.7500      0.0000    424.5191      8.0362    120.2270
   574.0000      0.0000    418.4037      8.0199    117.8297
   574.2500      0.0000    423.3190      7.9578    115.7886
   574.5000      0.0000    441.2136      7.8685    113.9339
   574.7500      0.0000    474.5053      7.7776    111.8273
   575.0000      0.0000    520.2935      7.6919    108.8417
   575.2500      0.0000    569.2075      7.5820    104.3300
   575.5000      0.0000    612.6227      7.4014     97.9802
   575.7500      0.0000    650.2458      7.1384     90.1596
   576.0000      0.0000    687.5110      6.8472     81.7997
   576.2500      0.0000    726.2548      6.6201     73.8850
   576.5000      0.0000    761.3361      6.5303     67.1226
   576.7500      0.0000    787.0137      6.5940     61.9630
   577.0000      0.0000    803.9283      6.7695     58.6936
   577.2500      2.0000    817.3246      6.9926     57.4346
   577.5000      0.0000    829.6000      7.2151     58.1091
   577.7500      0.0000    837.3916      7.4056     60.4139
   578.0000      0.0000    834.9885      7.5358     63.7227
   578.2500      0.0000    817.5838      7.6031     67.1345
   578.5000      0.0000    783.8698      7.6698     69.8374
   578.7500      0.0000    740.5301      7.8343     71.3706
   579.0000      0.0000    701.9515      8.1338     71.5001
   579.2500      0.0000    679.9388      8.4940     70.1879
   579.5000      0.0000    674.1868      8.7840     67.9085
   579.7500      0.0000    675.5261      8.9104     65.7022
   580.0000      0.0000    676.2687      8.8694     64.5756
   580.2500      0.0000    674.8867      8.7324     65.0190
   580.5000      0.0000    673.0904      8.5874     67.4089
   580.7500      0.0000    671.9668      8.4937     72.6163
   581.0000      0.0000    670.8975      8.4785     81.5896
   581.2500      0.0000    667.9978      8.5466     94.1255
   581.5000      0.0000    661.3727      8.6752    108.3299
   581.7500      0.0000    651.8386      8.8075    121.3821
   582.0000      0.0000    645.4481      8.8625    130.5706
   582.2500      0.0000    650.6702      8.7597    133.9492
   582.5000      0.0000    670.1667      8.4572    131.0327
   582.7500      0.0000    696.2121      7.9884    123.2934
   583.0000      0.0000    715.7272      7.4630    113.6126
   583.2500      0.0000    717.8441      7.0257    105.0033
   583.5000      0.0000    696.1454      6.8027     99.6338
   583.7500      0.0000    648.7464      6.8625     98.3375
   584.0000      0.0000    581.1951      7.1924    100.4974
   584.2500      0.0000    507.9176      7.7036    104.5844
   584.5000      0.0000    446.3430      8.2718    109.1086
   584.7500      0.0000    408.0138      8.7846    113.1748
   585.0000      0.0000    396.3765      9.1567    116.3588
   585.2500      0.0000    411.4968      9.3190    118.4041
   585.5000      0.0000    452.5705      9.2281    119.0825
   585.7500      0.0000    513.8551      8.9109    118.2357
   586.0000      0.0000    581.3776      8.4865    116.1606
   586.2500      0.0000    638.0662      8.1153    114.1404
   586.5000      0.0000    672.6000      7.9087    114.1364
   586.7500      0.0000    682.3972      7.8844    117.3190
   587.0000      0.0000    670.1046      7.9926    122.7641
   587.2500      0.0000    639.4287      8.1653    127.9052
   587.5000      0.0000    593.7514      8.3455    130.6401
   587.7500      0.0000    537.8625      8.4900    131.1553
   588.0000      0.0000    480.4303      8.5653    131.6299
   588.2500      0.0000    432.5278      8.5528    134.0895
   588.5000      0.0000    401.8600      8.4586    138.5289
   588.7500      0.0000    388.6817      8.3158    142.9618
   589.0000      0.0000    387.2848      8.1708    145.0983
   589.2500      0.0000    390.2248      8.0687    144.2038
   589.5000      0.0000    391.6846      8.0404    141.7079
   589.7500      0.0000    389.1996      8.0907    139.9432
   590.0000      0.0000    383.6744      8.1929    140.0726
   590.2500      0.0000    377.6868      8.3020    141.3212
   590.5000      0.0000    373.2469      8.3786    141.9370
   590.7500      0.0000    370.8029      8.4049    140.3045
   591.0000      0.0000    369.7343      8.3875    135.4118
   591.2500      0.0000    369.2728      8.3505    127.3823
   591.5000      0.0000    368.9638      8.3219    118.0651
   591.7500      0.0000    368.6644      8.3161    110.5511
   592.0000      0.0000    368.3922      8.3283    107.4947
   592.2500      0.0000    368.2195      8.3488    109.6670
   592.5000      0.0000    368.2743      8.3836    115.8653
   592.7500      0.0000    369.0416      8.4497    123.9365
   593.0000      0.0000    371.9653      8.5443    131.8965
   593.2500      0.0000    379.9199      8.6283    138.2779
   593.5000      0.0000    396.1543      8.6561    141.7856
   593.7500      0.0000    420.7021      8.6195    141.2941
   594.0000      0.0000    446.8709      8.5591    136.5820
   594.2500      0.0000    463.4823      8.5336    128.7314
   594.5000      0.0000    463.3644      8.5744    119.4282
   594.7500      0.0000    449.2147      8.6631    109.9637
