~Version Information
VERS.                      2.0: CWLS Log ASCII Standard - VERSION 2.0
WRAP.                       NO: One line per depth step
~Well Information Block
STRT.FT               588.7000: 
STOP.FT              1820.2000: 
STEP.FT                 0.1000: 
NULL.                -999.2500: 
COMP.          Pioneer Natural Resources: COMPANY
WELL.           Loews 41-32 Tr: WELL
FLD.           Purgatoire River: FIELD
LOC.           706' FNL & 224' FEL--: LOCATION
CNTY.               Las Animas: COUNTY
SRVC.                Patterson: SERVICE COMPANY
DATE.          Tue Feb 21 10:23:46 2006: LOG DATE
UWI.           05 071 08690 00: UNIQUE WELL ID
STAT.                 Colorado: STATE
~Curve Information Block
DEPT.FT            0 000 00 00: Depth
DCAL.in                       : CDL Caliper
RHOB.g/cc                     : CDL Bulk Density
RHOC.g/cc                     : CDL Density Correction
DPOR.pu                       : CDL Density Porosity
GR.GAPI                       : Gamma Ray
~Parameter Information Block
~A  Depth       DCAL        RHOB        RHOC        DPOR         GR     
# ...
   599.9000      8.2436      2.9182     -0.1752    -16.2542     81.8845
   600.0000      8.2447      2.9177     -0.1120    -16.2219     83.8634
   600.1000      8.2447      2.8369     -0.1576    -11.3291     83.3242
   600.2000      8.2447      2.6866     -0.4569     -2.2168     79.2669
   600.3000      8.2479      2.5585     -0.4461      5.5465     75.2144
   600.4000      8.2479      2.5011     -0.6021      9.0222     72.1582
   600.5000      8.2514      2.4972     -0.5714      9.2635     68.3221
   600.6000      8.2514      2.5110     -0.6955      8.4213     64.4397
   600.7000      8.2514      2.5151     -0.6266      8.1768     61.5473
   600.8000      8.2550      2.4961     -0.6808      9.3280     60.8620
   600.9000      8.2550      2.4647     -0.5858     11.2304     64.9965
   601.0000      8.2582      2.4205     -0.6589     13.9106     71.8038
   601.1000      8.2582      2.3807     -0.7597     16.3193     74.8313
   601.2000      8.2582      2.3942     -0.4939     15.5046     73.3212
   601.3000      8.2598      2.4536     -0.3351     11.9056     70.3375
   601.4000      8.2598      2.5132     -0.3368      8.2926     67.1611
   601.5000      8.2603      2.5604     -0.2549      5.4311     64.0336
   601.6000      8.2603      2.6005     -0.1833      2.9983     62.5234
   601.7000      8.2603      2.6315     -0.1665      1.1226     64.6765
   601.8000      8.2596      2.6508     -0.1752     -0.0506     67.4254
   601.9000      8.2596      2.6522     -0.1068     -0.1339     67.3041
   602.0000      8.2600      2.6321     -0.1737      1.0862     66.1862
   602.1000      8.2600      2.6114     -0.1963      2.3384     66.1434
   602.2000      8.2600      2.6146     -0.1682      2.1443     66.8365
   602.3000      8.2622      2.6429     -0.1466      0.4281     66.0956
   602.4000      8.2622      2.6826     -0.1494     -1.9728     63.7707
   602.5000      8.2644      2.7132     -0.1227     -3.8281     62.1471
   602.6000      8.2644      2.7069     -0.0748     -3.4468     62.0521
   602.7000      8.2644      2.6594     -0.1821     -0.5705     62.3599
   602.8000      8.2671      2.6074     -0.2710      2.5797     59.8432
   602.9000      8.2671      2.5900     -0.3078      3.6341     55.1791
   603.0000      8.2688      2.6060     -0.1542      2.6674     53.8750
   603.1000      8.2688      2.6235     -0.2000      1.6079     57.6644
   603.2000      8.2688      2.6265     -0.1881      1.4227     63.9638
   603.3000      8.2681      2.6149     -0.2164      2.1275     68.5729
   603.4000      8.2681      2.5962     -0.2640      3.2589     68.1675
   603.5000      8.2659      2.5816     -0.2371      4.1437     65.5281
   603.6000      8.2659      2.5689     -0.2236      4.9152     67.0605
   603.7000      8.2659      2.5511     -0.2464      5.9947     70.1079
   603.8000      8.2649      2.5401     -0.2614      6.6587     68.8064
   603.9000      8.2649      2.5523     -0.2345      5.9214     66.7747
   604.0000      8.2662      2.5784     -0.2447      4.3373     68.2659
   604.1000      8.2662      2.5914     -0.1896      3.5489     71.9681
   604.2000      8.2662      2.5793     -0.2473      4.2826     76.9377
   604.3000      8.2671      2.5587     -0.1963      5.5353     79.4105
   604.4000      8.2671      2.5428     -0.2300      6.4995     76.1709
   604.5000      8.2672      2.5255     -0.2412      7.5444     71.7985
   604.6000      8.2672      2.5025     -0.2777      8.9376     72.1336
   604.7000      8.2672      2.4896     -0.2980      9.7199     74.0920
   604.8000      8.2660      2.4964     -0.2482      9.3069     69.8999
   604.9000      8.2660      2.5142     -0.2517      8.2310     61.8857
   605.0000      8.2651      2.5390     -0.2303      6.7289     59.5726
   605.1000      8.2651      2.5654     -0.2015      5.1262     63.9733
   605.2000      8.2651      2.5870     -0.2017      3.8155     67.2132
   605.3000      8.2677      2.6106     -0.2320      2.3852     66.0187
   605.4000      8.2677      2.6290     -0.1682      1.2707     64.6403
   605.5000      8.2704      2.6228     -0.1545      1.6490     64.6454
   605.6000      8.2704      2.6150     -0.2830      2.1202     65.0481
   605.7000      8.2704      2.6437     -0.1645      0.3845     67.7275
   605.8000      8.2689      2.6894     -0.1683     -2.3869     72.2891
   605.9000      8.2689      2.7115     -0.1290     -3.7270     74.1199
   606.0000      8.2655      2.7004     -0.1306     -3.0546     72.8737
   606.1000      8.2655      2.6691     -0.1802     -1.1562     69.9076
   606.2000      8.2655      2.6356     -0.1620      0.8751     64.3853
   606.3000      8.2633      2.6161     -0.1979      2.0553     58.4211
   606.4000      8.2633      2.6184     -0.2078      1.9163     55.5182
   606.5000      8.2642      2.6247     -0.1759      1.5315     56.2508
   606.6000      8.2642      2.6090     -0.1703      2.4876     57.7990
   606.7000      8.2642      2.5880     -0.2511      3.7570     58.1184
   606.8000      8.2675      2.5986     -0.2123      3.1133     60.4690
   606.9000      8.2675      2.6229     -0.1107      1.6403     67.5811
   607.0000      8.2695      2.6221     -0.1833      1.6911     74.0370
   607.1000      8.2695      2.6026     -0.2193      2.8713     74.1887
   607.2000      8.2695      2.5796     -0.1399      4.2681     72.9021
   607.3000      8.2697      2.5533     -0.2284      5.8592     75.8059
   607.4000      8.2697      2.5320     -0.2211      7.1492     78.9251
   607.5000      8.2691      2.5161     -0.2398      8.1159     78.7961
   607.6000      8.2691      2.4937     -0.2059      9.4744     76.6208
   607.7000      8.2691      2.4687     -0.2898     10.9885     72.1204
   607.8000      8.2682      2.4747     -0.2898     10.6237     67.5282
   607.9000      8.2682      2.5316     -0.2041      7.1769     65.0313
   608.0000      8.2666      2.6077     -0.1129      2.5609     63.3543
   608.1000      8.2666      2.6514     -0.1352     -0.0846     61.4620
   608.2000      8.2666      2.6411     -0.1355      0.5381     60.9375
   608.3000      8.2667      2.6003     -0.2168      3.0134     62.2239
   608.4000      8.2667      2.5731     -0.1900      4.6627     63.5940
   608.5000      8.2688      2.5804     -0.2064      4.2195     65.5801
   608.6000      8.2688      2.6061     -0.1748      2.6618     67.0631
   608.7000      8.2688      2.6130     -0.1278      2.2438     65.7717
   608.8000      8.2686      2.5814     -0.1498      4.1596     65.9896
   608.9000      8.2686      2.5386     -0.2210      6.7542     70.0618
   609.0000      8.2669      2.5267     -0.2950      7.4711     73.3171
   609.1000      8.2669      2.5493     -0.2384      6.1028     74.2904
   609.2000      8.2669      2.5666     -0.1789      5.0522     75.7480
   609.3000      8.2651      2.5556     -0.2419      5.7191     78.5865
   609.4000      8.2651      2.5398     -0.2549      6.6818     79.2483
   609.5000      8.2645      2.5353     -0.2615      6.9498     76.2002
   609.6000      8.2645      2.5380     -0.2418      6.7859     72.9603
   609.7000      8.2645      2.5603     -0.2311      5.4364     72.0871
   609.8000      8.2630      2.6076     -0.1740      2.5718     74.6515
   609.9000      8.2630      2.6431     -0.1417      0.4163     78.9215
   610.0000      8.2618      2.6348     -0.1685      0.9235     80.4554
   610.1000      8.2618      2.5961     -0.1933      3.2678     79.6488
   610.2000      8.2618      2.5586     -0.2239      5.5382     78.7473
   610.3000      8.2639      2.5425     -0.2462      6.5148     76.4705
   610.4000      8.2639      2.5468     -0.2203      6.2567     72.3447
   610.5000      8.2660      2.5586     -0.2406      5.5367     68.8922
   610.6000      8.2660      2.5776     -0.2163      4.3881     70.9667
   610.7000      8.2660      2.6091     -0.1542      2.4813     79.9840
   610.8000      8.2673      2.6405     -0.2142      0.5777     87.9955
   610.9000      8.2673      2.6477     -0.1307      0.1387     88.2149
   611.0000      8.2679      2.6238     -0.1581      1.5908     84.5092
