~Version Information
VERS.                      2.0: CWLS Log ASCII Standard - VERSION 2.0
WRAP.                       NO: One line per depth step
~Well Information Block
STRT.FT               245.0000: 
STOP.FT              1208.2500: 
STEP.FT                 0.2500: 
NULL.                -999.2500: 
COMP.          Pioneer Natural Resources: COMPANY
WELL.              Davida 34-8: WELL
FLD.           Purgatoire River: FIELD
LOC.           418' FSL & 1923' FEL--: LOCATION
CNTY.               Las Animas: COUNTY
SRVC.                Patterson: SERVICE COMPANY
DATE.          Sat Mar 18 07:00:13 2006: LOG DATE
UWI.           05 071 08722 00: UNIQUE WELL ID
STAT.                 Colorado: STATE
~Curve Information Block
DEPT.FT            0 000 00 00: Depth
GR.GAPI                       : Gamma Ray
DIR.Ohm-m                     : IEL Induction Resistivity
~Parameter Information Block
~A  Depth        GR         DIR     
# ...
  1137.0000     81.5144     33.0813
  1137.2500     82.1254     32.8897
  1137.5000     84.5534     32.6902
  1137.7500     86.6993     32.4591
  1138.0000     90.1312     32.1804
  1138.2500     92.5249     31.8581
  1138.5000     96.1770     31.5189
  1138.7500     98.2847     31.2032
  1139.0000    100.0611     30.9486
  1139.2500    100.0076     30.7733
  1139.5000     98.2494     30.6688
  1139.7500     96.3741     30.6032
  1140.0000     93.2954     30.5348
  1140.2500     91.3845     30.4286
  1140.5000     88.9904     30.2653
  1140.7500     87.7835     30.0427
  1141.0000     86.6755     29.7716
  1141.2500     86.4141     29.4724
  1141.5000     86.5377     29.1690
  1141.7500     86.7588     28.8816
  1142.0000     86.9394     28.6197
  1142.2500     86.8347     28.3866
  1142.5000     86.5405     28.1902
  1142.7500     86.6125     28.0483
  1143.0000     87.5104     27.9794
  1143.2500     88.3921     27.9857
  1143.5000     89.2437     28.0458
  1143.7500     89.2415     28.1235
  1144.0000     88.8736     28.1855
  1144.2500     88.9802     28.2102
  1144.5000     90.4797     28.1846
  1144.7500     92.4118     28.0975
  1145.0000     95.9062     27.9406
  1145.2500     98.0093     27.7152
  1145.5000    100.5390     27.4381
  1145.7500    102.2399     27.1433
  1146.0000    105.7780     26.8774
  1146.2500    108.9754     26.6908
  1146.5000    114.4191     26.6240
  1146.7500    117.8182     26.6942
  1147.0000    121.5859     26.8924
  1147.2500    122.9319     27.1942
  1147.5000    123.1586     27.5787
  1147.7500    122.2505     28.0434
  1148.0000    119.7567     28.6015
  1148.2500    117.7255     29.2671
  1148.5000    114.7432     30.0427
  1148.7500    112.9083     30.9224
  1149.0000    109.9618     31.9043
  1149.2500    107.4785     32.9891
  1149.5000    102.6557     34.1543
  1149.7500     98.8800     35.3245
  1150.0000     93.2414     36.3699
  1150.2500     90.2505     37.1470
  1150.5000     88.1027     37.5558
  1150.7500     88.4168     37.5746
  1151.0000     90.4999     37.2550
  1151.2500     91.9867     36.6908
  1151.5000     93.4237     35.9845
  1151.7500     94.0638     35.2287
  1152.0000     95.4527     34.5016
  1152.2500     96.9654     33.8616
  1152.5000     99.9721     33.3328
  1152.7500    102.0808     32.8916
  1153.0000    104.4888     32.4765
  1153.2500    105.2153     32.0200
  1153.5000    105.0280     31.4855
  1153.7500    104.3515     30.8823
  1154.0000    102.8936     30.2560
  1154.2500    101.5769     29.6616
  1154.5000     98.6756     29.1383
  1154.7500     96.0313     28.6963
  1155.0000     91.6550     28.3225
  1155.2500     89.2167     27.9986
  1155.5000     87.4302     27.7167
  1155.7500     87.7704     27.4805
  1156.0000     90.3354     27.2948
  1156.2500     92.9829     27.1560
  1156.5000     97.5504     27.0511
  1156.7500    100.6109     26.9635
  1157.0000    104.5002     26.8795
  1157.2500    106.0826     26.7905
  1157.5000    106.4326     26.6935
  1157.7500    105.6392     26.5902
  1158.0000    104.1232     26.4868
  1158.2500    103.3909     26.3935
  1158.5000    102.8606     26.3239
  1158.7500    102.8934     26.2924
  1159.0000    103.7888     26.3099
  1159.2500    104.9807     26.3781
  1159.5000    106.8662     26.4873
  1159.7500    107.3815     26.6206
  1160.0000    106.2215     26.7597
  1160.2500    104.5059     26.8890
  1160.5000    102.3050     26.9983
  1160.7500    102.1370     27.0893
  1161.0000    104.3299     27.1812
  1161.2500    106.7755     27.3051
  1161.5000    110.1219     27.4849
  1161.7500    111.4322     27.7176
  1162.0000    112.2032     27.9686
  1162.2500    112.7192     28.1869
  1162.5000    114.8293     28.3317
  1162.7500    117.1534     28.3912
  1163.0000    120.5701     28.3833
  1163.2500    121.7598     28.3440
  1163.5000    121.2703     28.3109
  1163.7500    119.9659     28.3088
  1164.0000    118.2519     28.3426
  1164.2500    118.0020     28.4001
  1164.5000    118.8234     28.4600
  1164.7500    119.4235     28.4990
  1165.0000    119.2772     28.4975
  1165.2500    118.4791     28.4495
  1165.5000    117.2122     28.3725
  1165.7500    116.9402     28.3045
  1166.0000    117.7869     28.2805
  1166.2500    118.9678     28.3071
  1166.5000    120.8534     28.3582
  1166.7500    121.7759     28.3934
  1167.0000    122.6480     28.3883
  1167.2500    123.2963     28.3520
  1167.5000    125.0334     28.3241
  1167.7500    126.7139     28.3539
  1168.0000    129.5558     28.4779
  1168.2500    131.3755     28.7069
  1168.5000    133.5451     29.0271
  1168.7500    134.3016     29.4154
  1169.0000    133.9797     29.8560
  1169.2500    132.8927     30.3481
  1169.5000    130.8573     30.8946
  1169.7500    129.8638     31.4820
  1170.0000    129.3012     32.0723
  1170.2500    129.2292     32.6178
  1170.5000    128.7680     33.0861
  1170.7500    127.9623     33.4732
  1171.0000    125.8588     33.7972
  1171.2500    123.7273     34.0773
  1171.5000    119.4012     34.3101
  1171.7500    116.2634     34.4553
  1172.0000    112.7640     34.4485
  1172.2500    111.8118     34.2431
  1172.5000    111.8778     33.8524
  1172.7500    112.1575     33.3471
  1173.0000    112.3580     32.8076
  1173.2500    112.4912     32.2787
  1173.5000    112.8934     31.7635
  1173.7500    113.2258     31.2501
  1174.0000    113.7418     30.7355
  1174.2500    114.1376     30.2258
  1174.5000    114.9397     29.7236
  1174.7500    115.6124     29.2231
  1175.0000    115.9099     28.7188
  1175.2500    114.0535     28.2179
  1175.5000    104.2691     27.7433
  1175.7500     91.5692     27.3261
  1176.0000     64.9651     26.9909
  1176.2500     45.7992     26.7400
  1176.5000     21.9433     26.5481
  1176.7500     11.5100     26.3728
  1177.0000      3.4056     26.1789
  1177.2500      1.2693     25.9568
  1177.5000      0.2185     25.7196
  1177.7500      0.0548     25.4814
  1178.0000      0.0036     25.2413
  1178.2500   -999.2500     24.9878
  1178.5000   -999.2500     24.7197
  1178.7500   -999.2500     24.4596
  1179.0000   -999.2500     24.2454
  1179.2500   -999.2500     24.1101
  1179.5000   -999.2500     24.0713
  1179.7500   -999.2500     24.1361
  1180.0000   -999.2500     24.3073
  1180.2500   -999.2500     24.5781
  1180.5000   -999.2500     24.9202
  1180.7500   -999.2500     25.2841
  1181.0000   -999.2500     25.6188
  1181.2500   -999.2500     25.8961
  1181.5000   -999.2500     26.1183
  1181.7500   -999.2500     26.3060
  1182.0000   -999.2500     26.4841
  1182.2500   -999.2500     26.6767
  1182.5000   -999.2500     26.9032
  1182.7500   -999.2500     27.1655
  1183.0000   -999.2500     27.4296
  1183.2500   -999.2500     27.6246
  1183.5000   -999.2500     27.6762
  1183.7500   -999.2500     27.5614
  1184.0000   -999.2500     27.3369
  1184.2500   -999.2500     27.1133
  1184.5000   -999.2500     26.9980
  1184.7500   -999.2500     27.0528
  1185.0000   -999.2500     27.2864
  1185.2500   -999.2500     27.6720
  1185.5000   -999.2500     28.1708
  1185.7500   -999.2500     28.7486
  1186.0000   -999.2500     29.3754
  1186.2500   -999.2500     30.0131
  1186.5000   -999.2500     30.6059
  1186.7500   -999.2500     31.0880
  1187.0000   -999.2500     31.4074
  1187.2500   -999.2500     31.5483
  1187.5000   -999.2500     31.5306
  1187.7500   -999.2500     31.3915
  1188.0000   -999.2500     31.1685
  1188.2500   -999.2500     30.8955
  1188.5000   -999.2500     30.6037
  1188.7500   -999.2500     30.3136
  1189.0000   -999.2500     30.0217
  1189.2500   -999.2500     29.7000
  1189.5000   -999.2500     29.3180
  1189.7500   -999.2500     28.8758
  1190.0000   -999.2500     28.4165
  1190.2500   -999.2500     28.0069
  1190.5000   -999.2500     27.7000
  1190.7500   -999.2500     27.5089
  1191.0000   -999.2500     27.4039
  1191.2500   -999.2500     27.3304
  1191.5000   -999.2500     27.2303
  1191.7500   -999.2500     27.0556
  1192.0000   -999.2500     26.7750
  1192.2500   -999.2500     26.3825
  1192.5000   -999.2500     25.9059
