~Version Information
VERS.                      2.0: CWLS Log ASCII Standard - VERSION 2.0
WRAP.                       NO: One line per depth step
~Well Information Block
STRT.FT               795.0000: 
STOP.FT              2276.0000: 
STEP.FT                 0.1000: 
NULL.                -999.2500: 
COMP.          Pioneer Natural Resources: COMPANY
WELL.            Wildcard 31-5: WELL
FLD.           Purgatoire River: FIELD
LOC.           624' FNL & 1852' FEL--: LOCATION
CNTY.               Las Animas: COUNTY
SRVC.                Patterson: SERVICE COMPANY
DATE.          Tue Mar 07 07:04:10 2006: LOG DATE
UWI.           05 071 08707 00: UNIQUE WELL ID
STAT.                 Colorado: STATE
~Curve Information Block
DEPT.FT            0 000 00 00: Depth
DCAL.in                       : CDL Caliper
DPOR.pu                       : CDL Density Porosity
NPOR.pu                       : Neutron Porosity
RHOB.g/cc                     : CDL Bulk Density
RHOC.g/cc                     : CDL Density Correction
GR.GAPI                       : Gamma Ray
~Parameter Information Block
~A  Depth       DCAL        DPOR        NPOR        RHOB        RHOC         GR     
   795.0000      8.1588     15.0579     36.5493      2.4015     -0.1697     73.8450
   795.1000      8.1588     15.2686     36.1001      2.3981     -0.1925     73.1298
   795.2000      8.1588     15.3433     36.0659      2.3968     -0.2461     72.0859
   795.3000      8.1588     14.2694     36.1032      2.4146     -0.2467     70.7980
   795.4000      8.1588     12.4429     35.9786      2.4447     -0.1196     68.1613
   795.5000      8.1576     11.4457     35.9987      2.4611     -0.1411     65.5786
   795.6000      8.1576     11.5263     36.2511      2.4598     -0.1418     65.8313
   795.7000      8.1576     12.0853     36.3854      2.4506     -0.1347     68.9313
   795.8000      8.1582     12.9540     36.1754      2.4363     -0.1861     70.7263
   795.9000      8.1582     13.5852     35.6827      2.4258     -0.2159     68.5122
   796.0000      8.1604     13.0632     35.2165      2.4345     -0.1741     64.3315
   796.1000      8.1604     11.1993     34.9462      2.4652     -0.1663     60.0652
   796.2000      8.1604      9.1150     34.5941      2.4996     -0.1465     55.8670
   796.3000      8.1630      8.1301     34.1782      2.5159     -0.1076     51.2785
   796.4000      8.1630      7.9790     33.9768      2.5183     -0.1890     47.0273
   796.5000      8.1650      7.8968     33.9628      2.5197     -0.1137     47.0785
   796.6000      8.1650      8.4036     34.0518      2.5113     -0.1310     53.2876
   796.7000      8.1650      9.9384     34.2341      2.4860     -0.1740     59.7775
   796.8000      8.1660     11.6748     34.5017      2.4574     -0.1613     60.1805
   796.9000      8.1660     12.1381     34.7935      2.4497     -0.2245     55.7644
   797.0000      8.1655     11.2092     35.0103      2.4650     -0.1228     51.0997
   797.1000      8.1655     10.7094     35.1643      2.4733     -0.1154     49.2649
   797.2000      8.1655     11.4765     35.3457      2.4606     -0.1764     50.0891
   797.3000      8.1641     12.8136     35.5785      2.4386     -0.1666     51.3807
   797.4000      8.1641     14.1618     35.8074      2.4163     -0.2066     53.4089
   797.5000      8.1655     15.3140     36.1624      2.3973     -0.1328     56.6287
   797.6000      8.1655     15.8939     36.7227      2.3878     -0.2349     59.2528
   797.7000      8.1655     15.4479     37.2722      2.3951     -0.1565     60.2067
   797.8000      8.1677     14.5116     37.5921      2.4106     -0.1551     60.2052
   797.9000      8.1677     13.8569     37.6118      2.4214     -0.1874     60.7028
   798.0000      8.1658     13.6625     37.5074      2.4246     -0.1556     61.9302
   798.1000      8.1658     13.5318     37.5775      2.4267     -0.1712     62.4995
   798.2000      8.1658     12.9441     37.9077      2.4364     -0.1431     62.5348
   798.3000      8.1647     12.2990     38.4205      2.4471     -0.1645     62.2139
   798.4000      8.1647     12.5458     39.0504      2.4430     -0.1693     60.0292
   798.5000      8.1672     14.1753     39.5301      2.4161     -0.1659     58.0844
   798.6000      8.1672     16.6481     39.7055      2.3753     -0.2349     60.8497
   798.7000      8.1672     18.8239     39.8156      2.3394     -0.2524     67.3628
   798.8000      8.1686     20.0190     39.9456      2.3197     -0.2544     74.1329
   798.9000      8.1686     20.4000     40.0329      2.3134     -0.2156     79.5571
   799.0000      8.1682     20.7373     40.2035      2.3078     -0.1912     83.4416
   799.1000      8.1682     21.1697     40.3343      2.3007     -0.2477     85.4009
   799.2000      8.1682     20.7461     40.2655      2.3077     -0.2345     84.7414
   799.3000      8.1675     19.4537     40.1337      2.3290     -0.2081     83.3822
   799.4000      8.1675     18.5149     39.8802      2.3445     -0.1941     83.6080
   799.5000      8.1668     18.3426     39.3150      2.3473     -0.1902     82.8536
   799.6000      8.1668     18.5673     38.6553      2.3436     -0.1732     76.8581
   799.7000      8.1668     18.8733     38.2708      2.3386     -0.2377     68.7596
   799.8000      8.1673     18.7565     38.2313      2.3405     -0.1980     68.0433
   799.9000      8.1673     18.3526     38.4603      2.3472     -0.1548     75.5715
   800.0000      8.1669     18.4735     38.8737      2.3452     -0.1792     83.3439
   800.1000      8.1669     18.5384     39.1253      2.3441     -0.2518     88.0360
   800.2000      8.1669     16.9347     38.7963      2.3706     -0.1789     91.7187
   800.3000      8.1659     13.9620     38.0898      2.4196     -0.1481     93.3677
   800.4000      8.1659     12.3125     37.6295      2.4468     -0.0926     88.6625
   800.5000      8.1659     13.6644     37.5526      2.4245     -0.1522     81.0309
   800.6000      8.1659     16.1518     37.4372      2.3835     -0.2024     77.5541
   800.7000      8.1659     17.4093     37.0773      2.3627     -0.2144     77.2786
   800.8000      8.1652     16.9368     36.7386      2.3705     -0.2188     77.2479
   800.9000      8.1652     15.2099     36.7300      2.3990     -0.1628     76.5746
   801.0000      8.1645     13.1504     36.6934      2.4330     -0.1994     74.3201
   801.1000      8.1645     11.4445     36.2203      2.4612     -0.1422     70.9866
   801.2000      8.1645     10.7345     35.8162      2.4729     -0.1534     68.2574
   801.3000      8.1641     11.6438     35.6542      2.4579     -0.1739     67.8300
   801.4000      8.1641     13.3238     35.4110      2.4302     -0.2066     68.1631
   801.5000      8.1642     13.9385     35.2713      2.4200     -0.2002     67.1875
   801.6000      8.1642     13.2057     35.2923      2.4321     -0.1877     66.4762
   801.7000      8.1642     12.2704     35.1476      2.4475     -0.1945     66.7095
   801.8000      8.1649     11.2103     35.0015      2.4650     -0.1963     66.2478
   801.9000      8.1649      9.8419     35.1676      2.4876     -0.1317     66.0360
   802.0000      8.1655      9.2462     35.4173      2.4974     -0.1501     67.0132
   802.1000      8.1655      9.9949     35.4560      2.4851     -0.1931     66.1546
   802.2000      8.1655     10.9213     35.4388      2.4698     -0.2577     62.8990
   802.3000      8.1662     10.4887     35.5276      2.4769     -0.1658     60.0432
   802.4000      8.1662      8.5874     35.5975      2.5083     -0.1808     56.4435
   802.5000      8.1666      5.6941     35.6242      2.5560     -0.1333     51.9693
   802.6000      8.1666      1.5499     35.7250      2.6244     -0.1716     49.5870
   802.7000      8.1666     -3.4624     35.9069      2.7071     -0.1130     48.5119
   802.8000      8.1668     -7.6751     36.1200      2.7766     -0.1229     47.0012
   802.9000      8.1668     -9.6089     36.3886      2.8085     -0.0610     46.2015
   803.0000      8.1668     -8.1671     36.7077      2.7848     -0.1110     47.2563
   803.1000      8.1668     -3.1201     37.0904      2.7015     -0.1591     49.3761
   803.2000      8.1668      4.1240     37.6451      2.5820     -0.2175     49.8852
   803.3000      8.1680     10.7210     38.1793      2.4731     -0.3801     47.2733
   803.4000      8.1680     14.0302     38.4180      2.4185     -0.4459     44.4389
   803.5000      8.1681     13.8986     38.4488      2.4207     -0.4340     44.1092
   803.6000      8.1681     13.0753     38.2923      2.4343     -0.3145     45.4920
   803.7000      8.1681     14.1923     37.6943      2.4158     -0.5258     47.2970
   803.8000      8.1663     15.7124     36.3842      2.3907     -0.6906     48.9331
   803.9000      8.1663     14.2917     34.3022      2.4142     -0.5934     49.8462
   804.0000      8.1665      9.8845     31.6348      2.4869     -0.3960     52.2121
   804.1000      8.1665      5.3430     28.9277      2.5618     -0.2038     57.5070
   804.2000      8.1665      3.7777     26.7337      2.5877     -0.0017     64.2094
   804.3000      8.1693      5.5156     25.1761      2.5590      0.0982     73.3802
   804.4000      8.1693      7.6807     24.1117      2.5233      0.0769     83.6594
   804.5000      8.1698      8.5289     23.1331      2.5093      0.0846     88.7050
