~Version Information
VERS.                      2.0: CWLS Log ASCII Standard - VERSION 2.0
WRAP.                       NO: One line per depth step
~Well Information Block
STRT.FT                65.0000: 
STOP.FT               998.0000: 
STEP.FT                 0.2500: 
NULL.                -999.2500: 
COMP.          Pioneer Natural Resources: COMPANY
WELL.              Gough 14-29: WELL
FLD.           Purgatorie River: FIELD
LOC.           1199' FSL & 676' FWL: LOCATION
PROV.                 Colorado: PROVINCE
CNTY.               Las Animas: COUNTRY
SRVC.                Patterson: SERVICE COMPANY
DATE.          Wed Dec 28 08:38:26 2005: LOG DATE
UWI.                          : UNIQUE WELL ID
~Curve Information Block
DEPT.FT            0 000 00 00: Depth
CCL.                          : Casing Collar Locator
TT3.usec                      : CBL 3' Travel Time
AMP3.mV                       : CBL 3' Amplitude
GR.GAPI                       : Gamma Ray
~Parameter Information Block
~A  Depth       CCL         TT3         AMP3         GR     
# ...
   132.0000      0.0000    258.9781     84.3775     38.5625
   132.2500      0.0000    258.9736     84.3908     37.0103
   132.5000      0.0000    258.9552     84.4510     35.5451
   132.7500      0.0000    258.9413     84.5072     35.1552
   133.0000      0.0000    258.9467     84.4991     36.5493
   133.2500      0.0000    258.9613     84.4417     39.3761
   133.5000      0.0000    258.9735     84.3652     42.5009
   133.7500      0.0000    258.9836     84.2821     44.8534
   134.0000      0.0000    258.9955     84.2123     45.9979
   134.2500      0.0000    259.0153     84.1549     46.2818
   134.5000      0.0000    259.0568     83.9840     46.5963
   134.7500      0.0000    259.1724     83.2164     47.6782
   135.0000      0.0000    259.5581     80.7873     49.4547
   135.2500      0.0000    260.5715     75.8628     51.1282
   135.5000      0.0000    262.3133     69.8711     51.8653
   135.7500      0.0000    264.1960     65.9752     51.3605
   136.0000      0.0000    265.4637     64.9082     49.9402
   136.2500      0.0000    266.0005     64.5450     48.3333
   136.5000      0.0000    266.1540     63.8181     47.2131
   136.7500      0.0000    266.2056     63.1368     46.7193
   137.0000      0.0000    266.2465     62.6693     46.4831
   137.2500     -2.0000    266.2631     62.3968     46.1880
   137.5000     -2.0000    266.2377     62.3911     45.9376
   137.7500      0.0000    266.1948     62.6104     45.9724
   138.0000      0.0000    266.1438     63.0336     46.2583
   138.2500      0.0000    265.8843     64.3909     46.5103
   138.5000      0.0000    264.9460     67.8867     46.4755
   138.7500      0.0000    263.1353     73.0227     46.0577
   139.0000      0.0000    261.0738     77.6988     45.3077
   139.2500      0.0000    259.6294     80.9573     44.5208
   139.5000      0.0000    259.0149     83.0293     44.3029
   139.7500      0.0000    258.8765     84.1046     45.1946
   140.0000      0.0000    258.8810     84.4589     47.0596
   140.2500      0.0000    258.9048     84.4930     49.1081
   140.5000      0.0000    258.9197     84.4717     50.6722
   140.7500      0.0000    258.9162     84.4911     51.6468
   141.0000      0.0000    258.8957     84.5568     52.0898
   141.2500      0.0000    258.8710     84.6389     51.8194
   141.5000      0.0000    258.8536     84.6984     50.7244
   141.7500      0.0000    258.8401     84.7373     49.3222
   142.0000      0.0000    258.8214     84.8052     48.6724
   142.2500      0.0000    258.7991     84.9196     49.5459
   142.5000      0.0000    258.7853     85.0090     51.6599
   142.7500      0.0000    258.7866     84.9867     53.7082
   143.0000      0.0000    258.7961     84.8657     54.1945
   143.2500      0.0000    258.8069     84.7270     52.4889
   143.5000      0.0000    258.8167     84.6204     49.3629
   143.7500      0.0000    258.8158     84.5842     46.5004
   144.0000      0.0000    258.7997     84.6649     45.3133
   144.2500      0.0000    258.7865     84.8208     46.0372
   144.5000      0.0000    258.7974     84.9163     47.7717
   144.7500      0.0000    258.8297     84.8729     49.2761
   145.0000      0.0000    258.8636     84.7380     49.8873
   145.2500      0.0000    258.8830     84.6139     49.8922
   145.5000      0.0000    258.8823     84.5822     50.0469
   145.7500      0.0000    258.8665     84.6542     50.6480
   146.0000      0.0000    258.8495     84.7430     51.1455
   146.2500      0.0000    258.8485     84.7233     50.7779
   146.5000      0.0000    258.8675     84.5694     49.4674
   146.7500      0.0000    258.8922     84.3929     47.8541
   147.0000      0.0000    258.9081     84.3071     46.5426
   147.2500      0.0000    258.9132     84.3202     45.6419
   147.5000      0.0000    258.9092     84.3735     45.0101
   147.7500      0.0000    258.8936     84.4298     44.5816
   148.0000      0.0000    258.8652     84.5027     44.4089
   148.2500      0.0000    258.8343     84.5999     44.6243
   148.5000      0.0000    258.8202     84.6817     45.3757
   148.7500      0.0000    258.8329     84.6980     46.6772
   149.0000      0.0000    258.8620     84.6406     48.4300
   149.2500      0.0000    258.8916     84.5480     50.6034
   149.5000      0.0000    258.9113     84.4762     53.0585
   149.7500      0.0000    258.9131     84.4718     55.1145
   150.0000      0.0000    258.8946     84.5415     55.8101
   150.2500      0.0000    258.8669     84.6454     54.8724
   150.5000      0.0000    258.8457     84.7403     53.1057
   150.7500      0.0000    258.8373     84.8026     51.5962
   151.0000      0.0000    258.8387     84.8213     50.7789
   151.2500      0.0000    258.8451     84.7893     50.4203
   151.5000      0.0000    258.8551     84.7118     50.3000
   151.7500      0.0000    258.8682     84.6173     50.7701
   152.0000      0.0000    258.8832     84.5261     52.7497
   152.2500      0.0000    258.8997     84.4435     57.1797
   152.5000      0.0000    258.9180     84.3950     64.1927
   152.7500      0.0000    258.9379     84.3907     72.5669
   153.0000      0.0000    258.9554     84.4077     80.1650
   153.2500      0.0000    258.9609     84.4415     85.1023
   153.5000      0.0000    258.9518     84.4892     86.3990
   153.7500      0.0000    258.9362     84.5347     83.7076
   154.0000      0.0000    258.9207     84.5840     77.1593
   154.2500      0.0000    258.9054     84.6488     67.8658
   154.5000      0.0000    258.8866     84.7234     58.0864
   154.7500      0.0000    258.8639     84.7905     50.2781
   155.0000      0.0000    258.8451     84.8410     45.8172
   155.2500      0.0000    258.8369     84.8856     44.5538
   155.5000      0.0000    258.8358     84.9294     45.3738
   155.7500      0.0000    258.8341     84.9558     47.1234
   156.0000      0.0000    258.8336     84.9233     49.1306
   156.2500      0.0000    258.8450     84.7923     51.1768
   156.5000      0.0000    258.8655     84.6073     53.4436
   156.7500      0.0000    258.8775     84.4849     56.5509
   157.0000      0.0000    258.8725     84.4840     61.0784
   157.2500      0.0000    258.8604     84.5549     66.5756
   157.5000      0.0000    258.8485     84.6282     71.2806
   157.7500      0.0000    258.8330     84.6904     73.2846
   158.0000      0.0000    258.8166     84.7316     72.1297
   158.2500      0.0000    258.8138     84.7166     69.2008
   158.5000      0.0000    258.8271     84.6618     66.6427
   158.7500      0.0000    258.8454     84.6202     66.1264
   159.0000      0.0000    258.8610     84.6047     68.4211
   159.2500      0.0000    258.8698     84.6057     73.3207
   159.5000      0.0000    258.8712     84.6140     79.4966
   159.7500      0.0000    258.8704     84.6105     84.7313
   160.0000      0.0000    258.8715     84.5926     86.8472
   160.2500      0.0000    258.8741     84.5892     84.9415
   160.5000      0.0000    258.8776     84.6184     80.0663
   160.7500      0.0000    258.8781     84.6567     74.5482
   161.0000      0.0000    258.8732     84.6694     70.3636
   161.2500      0.0000    258.8684     84.6696     68.1786
   161.5000      0.0000    258.8725     84.6981     67.8280
   161.7500      0.0000    258.8877     84.7351     69.1122
   162.0000      0.0000    258.9065     84.7270     71.7914
   162.2500      0.0000    258.9209     84.6784     75.1087
   162.5000      0.0000    258.9304     84.6299     77.8456
   162.7500      0.0000    258.9362     84.5931     79.1383
   163.0000      0.0000    258.9391     84.5493     79.2405
   163.2500      0.0000    258.9458     84.4848     79.2849
   163.5000      0.0000    258.9610     84.4178     80.3090
   163.7500      0.0000    258.9772     84.3790     82.7367
   164.0000      0.0000    258.9792     84.3904     86.6284
   164.2500      0.0000    258.9630     84.4517     91.7781
   164.5000      0.0000    258.9420     84.5235     97.3604
   164.7500      0.0000    258.9268     84.5623    102.0964
   165.0000      0.0000    258.9162     84.5591    105.1175
   165.2500      0.0000    258.9148     84.5092    106.3019
