~Version Information
VERS.                      2.0: CWLS Log ASCII Standard - VERSION 2.0
WRAP.                       NO: One line per depth step
~Well Information Block
STRT.FT                 0.0000: 
STOP.FT              1674.7500: 
STEP.FT                 0.2500: 
NULL.                -999.2500: 
COMP.          Pioneer Natural Resources: COMPANY
WELL.          Culver 14-12 Tr: WELL
FLD.           Purgatorie River: FIELD
LOC.           915' FSL & 1048' FWL: LOCATION
STAT.                 Colorado: Colorado
CNTY.               Las Animas: COUNTY
CTRY. USA : Country
SECT. 12 : Section
TOWN. 32S : Township
RANG. 66W : Range
SRVC.                Patterson: SERVICE COMPANY
DATE.          Mon Oct 03 12:52:29 2005: LOG DATE
API. 05-071-08520                         : UNIQUE WELL ID
~Curve Information Block
DEPT.FT            0 000 00 00: Depth
CCL.                          : Casing Collar Locator
TT3.usec                      : CBL 3' Travel Time
AMP3.mV                       : CBL 3' Amplitude
GR.GAPI                       : Gamma Ray
~Parameter Information Block
~A  Depth       CCL         TT3         AMP3         GR     
# ...
  1641.5000      0.0000    842.1216     12.0246     84.6561
  1641.7500      0.0000    841.6130     12.0106     87.4253
  1642.0000      0.0000    839.7395     11.9413     91.2372
  1642.2500      0.0000    836.3108     11.8111     96.2795
  1642.5000      0.0000    837.4837     11.7190    101.8995
  1642.7500      0.0000    857.1885     11.7600    106.7750
  1643.0000      0.0000    898.6719     11.9038    109.9568
  1643.2500      0.0000    938.6557     12.0009    111.3153
  1643.5000      0.0000    950.5252     11.9374    111.4055
  1643.7500      0.0000    929.9002     11.7602    111.6365
  1644.0000      0.0000    889.5075     11.5965    114.2339
  1644.2500      0.0000    849.2115     11.4942    120.8536
  1644.5000      0.0000    822.3873     11.3890    130.8860
  1644.7500      0.0000    807.6541     11.1921    141.7907
  1645.0000      0.0000    799.4348     10.8860    151.2389
  1645.2500      0.0000    795.3300     10.5554    158.2527
  1645.5000      0.0000    793.8093     10.2955    162.2257
  1645.7500      0.0000    793.3011     10.0919    162.1262
  1646.0000      0.0000    792.9916      9.8539    157.6812
  1646.2500      0.0000    792.6823      9.5482    150.8515
  1646.5000      0.0000    792.3504      9.2395    145.2132
  1646.7500      0.0000    792.0589      9.0047    143.6420
  1647.0000      0.0000    791.8747      8.8484    146.5211
  1647.2500      0.0000    791.6133      8.7378    151.7457
  1647.5000      0.0000    790.5173      8.6707    156.0721
  1647.7500      0.0000    787.4980      8.6540    156.9044
  1648.0000      0.0000    783.0768      8.6647    153.7287
  1648.2500      0.0000    780.5650      8.6882    148.2867
  1648.5000      0.0000    781.8237      8.7512    143.2938
  1648.7500      0.0000    783.7341      8.8913    140.8542
  1649.0000      0.0000    784.0590      9.1155    141.7891
  1649.2500      0.0000    786.6226      9.3587    145.6418
  1649.5000      0.0000    794.1757      9.4847    150.6480
  1649.7500      0.0000    801.3716      9.4069    153.9740
  1650.0000      0.0000    802.3613      9.1766    153.0047
  1650.2500      0.0000    798.9733      8.9165    147.1438
  1650.5000      0.0000    795.8330      8.7288    138.2421
  1650.7500      0.0000    794.4072      8.6775    128.9450
  1651.0000      0.0000    794.2614      8.7878    120.7090
  1651.2500      0.0000    795.7590      9.0133    113.4298
  1651.5000      0.0000    800.4611      9.2415    106.6245
  1651.7500      0.0000    809.0185      9.4074    100.6671
  1652.0000      0.0000    819.1555      9.5682     96.7640
  1652.2500      0.0000    830.4216      9.8330     95.7001
  1652.5000      0.0000    850.2448     10.2900     96.7738
  1652.7500      0.0000    881.9088     10.9894     98.1744
  1653.0000      0.0000    906.1660     11.9796     98.5423
  1653.2500      0.0000    897.5746     13.3296     97.9815
  1653.5000      0.0000    860.2643     14.9512     97.3691
  1653.7500      0.0000    822.5707     16.4592     97.0958
  1654.0000      0.0000    801.4929     17.4349     97.2995
  1654.2500      0.0000    793.3273     17.7695     99.1358
  1654.5000      0.0000    788.2308     17.6515    104.5989
  1654.7500      0.0000    778.7076     17.3454    114.5074
  1655.0000      0.0000    762.1140     17.0111    127.1148
  1655.2500      0.0000    744.1738     16.6697    139.0322
  1655.5000      0.0000    734.0488     16.3287    147.4342
  1655.7500      0.0000    732.0275     16.0328    151.4531
  1656.0000      0.0000    730.6541     15.7803    151.8672
  1656.2500      0.0000    727.8732     15.5142    149.8517
  1656.5000      0.0000    728.0818     15.1860    146.1327
  1656.7500      0.0000    731.8145     14.7805    141.1925
  1657.0000      0.0000    735.9191     14.2842    135.9528
  1657.2500      0.0000    742.3530     13.6986    131.7909
  1657.5000      0.0000    755.3664     13.0908    129.6997
  1657.7500      0.0000    771.8145     12.5374    129.4064
  1658.0000      0.0000    784.0583     12.0474    129.2068
  1658.2500      0.0000    789.5060     11.6103    126.3314
  1658.5000      0.0000    790.9279     11.2422    117.5977
  1658.7500      0.0000    790.8715     10.9194    100.8399
  1659.0000      0.0000    789.2487     10.5360     76.9768
  1659.2500      0.0000    784.0989     10.0165     50.6977
  1659.5000      0.0000    773.6240      9.4192     28.0703
  1659.7500      0.0000    759.0483      8.8637     12.8049
  1660.0000      0.0000    745.3726      8.4411      4.7398
  1660.2500      0.0000    738.0291      8.1864      1.4077
  1660.5000      0.0000    738.0587      8.0547      0.3322
  1660.7500      0.0000    741.4023      7.9745      0.0611
  1661.0000      0.0000    743.9870      7.9437      0.0081
  1661.2500      0.0000    745.1133      8.0161      0.0000
  1661.5000      0.0000    745.6819      8.1872   -999.2500
  1661.7500      0.0000    746.1996      8.3503   -999.2500
  1662.0000      0.0000    746.7557      8.4024   -999.2500
  1662.2500      0.0000    747.4294      8.3256   -999.2500
  1662.5000      0.0000    748.4401      8.1527   -999.2500
  1662.7500      0.0000    750.5886      7.9306   -999.2500
  1663.0000      0.0000    755.6257      7.7173   -999.2500
  1663.2500      0.0000    764.1894      7.5643   -999.2500
  1663.5000      0.0000    769.7271      7.4614   -999.2500
  1663.7500      0.0000    750.4637      7.2150   -999.2500
  1664.0000      0.0000    668.6066      6.3712   -999.2500
  1664.2500      0.0000    501.4105      4.5704   -999.2500
  1664.5000      0.0000    290.9227      2.2118   -999.2500
  1664.7500      0.0000    122.1327      0.2736   -999.2500
  1665.0000      0.0000     35.4479     -0.7366   -999.2500
  1665.2500      0.0000      6.9097     -1.0721   -999.2500
  1665.5000      0.0000      0.8860     -1.1433   -999.2500
  1665.7500      0.0000      0.0707     -1.1530   -999.2500
  1666.0000      0.0000   -999.2500   -999.2500   -999.2500
  1666.2500      0.0000   -999.2500   -999.2500   -999.2500
  1666.5000      0.0000   -999.2500   -999.2500   -999.2500
  1666.7500      0.0000   -999.2500   -999.2500   -999.2500
  1667.0000      0.0000   -999.2500   -999.2500   -999.2500
  1667.2500      0.0000   -999.2500   -999.2500   -999.2500
  1667.5000      0.0000   -999.2500   -999.2500   -999.2500
  1667.7500      0.0000   -999.2500   -999.2500   -999.2500
  1668.0000      0.0000   -999.2500   -999.2500   -999.2500
  1668.2500      0.0000   -999.2500   -999.2500   -999.2500
  1668.5000      0.0000   -999.2500   -999.2500   -999.2500
  1668.7500      0.0000   -999.2500   -999.2500   -999.2500
  1669.0000      0.0000   -999.2500   -999.2500   -999.2500
  1669.2500      0.0000   -999.2500   -999.2500   -999.2500
  1669.5000      0.0000   -999.2500   -999.2500   -999.2500
  1669.7500      0.0000   -999.2500   -999.2500   -999.2500
  1670.0000      0.0000   -999.2500   -999.2500   -999.2500
  1670.2500      0.0000   -999.2500   -999.2500   -999.2500
  1670.5000      0.0000   -999.2500   -999.2500   -999.2500
  1670.7500      0.0000   -999.2500   -999.2500   -999.2500
  1671.0000      2.0000   -999.2500   -999.2500   -999.2500
  1671.2500      0.0000   -999.2500   -999.2500   -999.2500
  1671.5000      0.0000   -999.2500   -999.2500   -999.2500
  1671.7500      0.0000   -999.2500   -999.2500   -999.2500
  1672.0000      0.0000   -999.2500   -999.2500   -999.2500
  1672.2500   -999.2500   -999.2500   -999.2500   -999.2500
  1672.5000   -999.2500   -999.2500   -999.2500   -999.2500
  1672.7500   -999.2500   -999.2500   -999.2500   -999.2500
  1673.0000   -999.2500   -999.2500   -999.2500   -999.2500
  1673.2500   -999.2500   -999.2500   -999.2500   -999.2500
  1673.5000   -999.2500   -999.2500   -999.2500   -999.2500
  1673.7500   -999.2500   -999.2500   -999.2500   -999.2500
  1674.0000   -999.2500   -999.2500   -999.2500   -999.2500
  1674.2500   -999.2500   -999.2500   -999.2500   -999.2500
  1674.5000   -999.2500   -999.2500   -999.2500   -999.2500
  1674.7500   -999.2500   -999.2500   -999.2500   -999.2500
