~Version Information
 VERS.                                  2.0 : CWLS LAS VERSION
 WRAP.                                   NO : WRAPING MODE
 SWARE .                 MController 2.5.0N : SOFTWARE VERSION
~Well Information
 WELL.                        Avant 14-3 Tr : WELL
 COMP.  Pioneer Natural Resources USA, Inc. : COMPANY
 FLD.                      Purgatoire River : FIELD
 LOC.               SW/SW Sec 3 T33S  R67W  : LOCATION
 DATE.                             08/18/05 : DATE(S) LOGGED
 SRVC.       BLANCO Geological Services LLC : SERVICE COMPANY
 STAT.                                   CO : STATE
 CNTY.                           Las Animas : COUNTY
 CTRY.                                  USA : COUNTRY
 API.                       05 071 08463 00 : API NUMBER
 STRT.FT                             585.00 : START DEPTH
 STOP.FT                            1345.00 : STOP DEPTH
 STEP.FT                               1.00 : DEPTH INCREMENT
 NULL.                                -9999 : NULL VALUE
~Curve information
 DEPTH.FT                                   :
 ROP.MIN/FT                                 :
 GAS.UNITS                                  :
~ASCII Log data
# ...
       785.0         0.17         10.2 
       786.0         0.20         10.6 
       787.0         0.20         11.6 
       788.0         0.23         10.3 
       789.0         0.17          8.6 
       790.0         0.20          8.1 
       791.0         0.23          7.4 
       792.0         0.18          6.4 
       793.0         0.17          5.9 
       794.0         0.13          5.0 
       795.0         0.20          5.8 
       796.0         0.23          4.8 
       797.0         0.27          4.7 
       798.0         0.20          4.3 
       799.0         0.17          4.3 
       800.0         0.20          4.3 
       801.0         0.20          4.2 
       802.0         0.23          3.8 
       803.0         0.17          3.3 
       804.0         0.23          3.5 
       805.0         0.27          3.4 
       806.0         4.80         12.4 
       807.0         0.23          5.0 
       808.0         0.23          6.7 
       809.0         0.20          8.5 
       810.0         0.20          9.4 
       811.0         0.20         10.1 
       812.0         0.17          9.6 
       813.0         0.13          9.8 
       814.0         0.20         10.1 
       815.0         0.17          9.9 
       816.0         0.13          9.5 
       817.0         0.17          9.8 
       818.0         0.13          9.7 
       819.0         0.25          9.9 
       820.0         0.27          9.8 
       821.0         0.23          9.4 
       822.0         0.20          9.5 
       823.0         0.23          9.0 
       824.0         0.23          9.2 
       825.0         0.17          7.6 
       826.0         0.20          6.3 
       827.0         0.20          5.0 
       828.0         0.23          4.4 
       829.0         0.23          3.8 
       830.0         0.17          3.8 
       831.0         0.27          3.0 
       832.0         0.17          2.2 
       833.0         0.20          2.2 
       834.0         0.20          2.0 
       835.0         0.15          1.5 
       836.0         1.10          6.5 
       837.0         0.47         20.9 
       838.0         0.17         29.2 
       839.0         0.20         35.5 
       840.0         0.43         37.0 
       841.0         0.23         27.4 
       842.0         0.20         23.4 
       843.0         0.17         18.3 
       844.0         0.17         15.9 
       845.0         0.15         13.5 
       846.0         0.13         11.7 
       847.0         0.13         10.1 
       848.0         0.17          9.1 
       849.0         0.17          8.3 
       850.0         0.27          7.2 
       851.0         0.13          6.1 
       852.0         0.17          5.8 
       853.0         0.30          5.0 
       854.0         0.37          4.4 
       855.0         0.40          3.4 
       856.0         0.37          2.8 
       857.0         0.37          2.3 
       858.0         0.42          2.8 
       859.0         0.43          5.7 
       860.0         0.47          4.6 
       861.0         0.40          3.7 
       862.0         0.43          3.4 
       863.0         0.23          2.5 
       864.0         0.13          2.4 
       865.0         0.43          2.4 
       866.0         2.32         22.0 
       867.0         0.30         11.2 
       868.0         0.23         10.4 
       869.0         0.27          8.6 
       870.0         0.20          7.1 
       871.0         0.23          4.3 
       872.0         0.23          2.3 
       873.0         0.20          2.3 
       874.0         0.22          1.5 
       875.0         0.23          0.5 
       876.0         0.23          0.4 
       877.0         0.27          0.4 
       878.0         0.23          0.8 
       879.0         0.27          1.1 
       880.0         0.30          1.3 
       881.0         0.27         -2.0 
       882.0         0.30          1.9 
       883.0         0.23          0.5 
       884.0         0.30          1.4 
       885.0         0.30          1.7 
       886.0         0.28          1.3 
       887.0         0.27          1.3 
       888.0         0.27          1.1 
       889.0         0.43          1.5 
       890.0         0.23          1.2 
       891.0         0.20          1.7 
       892.0         0.23          1.1 
       893.0         0.23          1.4 
       894.0         0.27          0.9 
       895.0         0.27          1.2 
       896.0         1.38          1.3 
       897.0         0.30          1.2 
       898.0         0.07          0.7 
       899.0         0.33          1.4 
       900.0         0.17          1.1 
       901.0         0.57          1.7 
       902.0         0.47          1.6 
       903.0         0.27          1.9 
       904.0         0.33          1.3 
       905.0         0.32          2.2 
       906.0         0.33          2.5 
       907.0         0.37          7.0 
       908.0         0.30         10.9 
       909.0         0.27         12.2 
       910.0         0.20         11.6 
       911.0         0.27         11.1 
       912.0         0.20          9.2 
       913.0         0.17          8.9 
       914.0         0.20          8.1 
       915.0         0.20          8.2 
       916.0         0.17          8.5 
       917.0         0.82          7.7 
       918.0         0.27          4.8 
       919.0         0.27          4.2 
       920.0         0.27          3.6 
       921.0         0.30          3.5 
       922.0         0.30          3.0 
       923.0         0.10          3.2 
       924.0         0.17          3.2 
       925.0         0.20          3.6 
       926.0         2.55          4.3 
       927.0         0.23          4.1 
       928.0         0.20          3.7 
       929.0         0.27          3.9 
       930.0         0.17          4.1 
       931.0         0.17          4.5 
       932.0         0.17          4.2 
       933.0         0.13          4.0 
       934.0         0.23          4.4 
       935.0         0.27          4.7 
       936.0         0.32          5.0 
       937.0         0.17          5.1 
       938.0         0.20          5.5 
       939.0         0.23          5.2 
       940.0         0.23          5.0 
       941.0         0.20          5.4 
       942.0         0.27          5.5 
       943.0         0.30          4.9 
       944.0         0.17          4.3 
       945.0         0.23          3.6 
       946.0         0.20          3.6 
       947.0         0.20          2.7 
       948.0         0.17          2.6 
       949.0         0.17          2.3 
       950.0         0.20          2.5 
       951.0         0.20          2.6 
       952.0         0.18          1.9 
       953.0         0.20          2.3 
       954.0         0.23          1.9 
       955.0         0.40          1.8 
       956.0         2.23          2.7 
       957.0         0.25          2.8 
       958.0         0.23          3.1 
       959.0         0.27          3.1 
       960.0         0.23          3.5 
       961.0         0.20          3.8 
       962.0         0.20          4.0 
       963.0         0.20          4.1 
       964.0         0.20          4.3 
       965.0         0.17          4.6 
       966.0         0.20          4.6 
       967.0         0.20          5.1 
       968.0         0.17          5.8 
       969.0         0.17          5.4 
       970.0         0.17          5.3 
       971.0         0.17          5.8 
       972.0         0.10          5.0 
       973.0         0.17          4.8 
       974.0         0.20          4.8 
       975.0         0.22          3.4 
       976.0         0.17          3.1 
       977.0         0.30          2.7 
       978.0         0.30          2.7 
       979.0         0.17          2.0 
       980.0         0.17          1.8 
       981.0         0.17          1.9 
       982.0         0.23          1.9 
       983.0         0.30          1.3 
       984.0         0.17          1.6 
