~Version Information
VERS.                      2.0: CWLS Log ASCII Standard - VERSION 2.0
WRAP.                       NO: One line per depth step
~Well Information Block
STRT.FT               330.0000: 
STOP.FT              1972.5000: 
STEP.FT                 0.1000: 
NULL.                -999.2500: 
COMP.          Pioneer Natural Resources: COMPANY
WELL.           Willys 32-8 Tr: WELL
FLD.           Purgatoire River: FIELD
LOC.           1843' FNL & 2355' FEL: LOCATION
CNTY.               Las Animas: COUNTY
SRVC.                Patterson: SERVICE COMPANY
DATE.          Thu Feb 09 10:31:59 2006: LOG DATE
UWI.           05 071 08688 00: UNIQUE WELL ID
STAT.                 Colorado: STATE
~Curve Information Block
DEPT.FT            0 000 00 00: Depth
DCAL.in                       : CDL Caliper
RHOB.g/cc                     : CDL Bulk Density
RHOC.g/cc                     : CDL Density Correction
DPOR.pu                       : CDL Density Porosity
GR.GAPI                       : Gamma Ray
~Parameter Information Block
~A  Depth       DCAL        RHOB        RHOC        DPOR         GR     
# ...
  1752.4000      8.0607      2.3488      0.1090     18.2555    159.7493
  1752.5000      8.0002      2.3687      0.1529     17.0484    154.2780
  1752.6000      8.0002      2.4047      0.1951     14.8691    148.1026
  1752.7000      8.0002      2.4255      0.2899     13.6061    145.3681
  1752.8000      8.0079      2.3954      0.3147     15.4320    147.1998
  1752.9000      8.0079      2.3021      0.2853     21.0861    147.4992
  1753.0000      8.0619      2.1685      0.2358     29.1813    140.8709
  1753.1000      8.0619      2.0440      0.1031     36.7264    131.3658
  1753.2000      8.0619      1.9768      0.0755     40.7988    126.0317
  1753.3000      8.0348      1.9745      0.1743     40.9377    122.9505
  1753.4000      8.0348      2.0118      0.1508     38.6773    116.5976
  1753.5000      8.0536      2.0706      0.2231     35.1153    107.1366
  1753.6000      8.0536      2.1449      0.2034     30.6120     97.7453
  1753.7000      8.0536      2.2266      0.3268     25.6623     93.6505
  1753.8000      8.0581      2.3059      0.3238     20.8546     97.1903
  1753.9000      8.0581      2.3756      0.3170     16.6287    103.6866
  1754.0000      8.1715      2.4248      0.2212     13.6468    107.2660
  1754.1000      8.1715      2.4517      0.0802     12.0189    107.1316
  1754.2000      8.1715      2.4646      0.0913     11.2362    106.9375
  1754.3000      7.9510      2.4707      0.0618     10.8669    107.7049
  1754.4000      7.9510      2.4806      0.0513     10.2661    108.6711
  1754.5000      7.8575      2.5039      0.0638      8.8530    109.9117
  1754.6000      7.8575      2.5354      0.1212      6.9426    112.4894
  1754.7000      7.8575      2.5528      0.1379      5.8903    117.9251
  1754.8000      7.8508      2.5450      0.1006      6.3607    124.3814
  1754.9000      7.8508      2.5413      0.0209      6.5891    129.6340
  1755.0000      7.8576      2.5715      0.0807      4.7581    134.1286
  1755.1000      7.8576      2.6103      0.1417      2.4069    138.5875
  1755.2000      7.8576      2.6211      0.0866      1.7495    141.1108
  1755.3000      7.8753      2.6130      0.1176      2.2446    138.8351
  1755.4000      7.8753      2.6113      0.0917      2.3432    133.0354
  1755.5000      7.8347      2.6204      0.1284      1.7929    127.1075
  1755.6000      7.8347      2.6276      0.1758      1.3591    121.3253
  1755.7000      7.8347      2.6313      0.1257      1.1341    117.3090
  1755.8000      7.8204      2.6368      0.1550      0.8021    119.4002
  1755.9000      7.8204      2.6284      0.1227      1.3083    125.4499
  1756.0000      7.8202      2.5948      0.0718      3.3472    126.8721
  1756.1000      7.8202      2.5544      0.0709      5.7966    118.6528
  1756.2000      7.8202      2.5314      0.0079      7.1889    104.6674
  1756.3000      7.8163      2.5408      0.0339      6.6165     94.2227
  1756.4000      7.8163      2.5804      0.0609      4.2192     92.7983
  1756.5000      7.8297      2.6216      0.1211      1.7193     96.9305
  1756.6000      7.8297      2.6316      0.1159      1.1159    100.3698
  1756.7000      7.8297      2.6166      0.0188      2.0225    101.8556
  1756.8000      7.8417      2.6078      0.0728      2.5563    101.5273
  1756.9000      7.8417      2.6059      0.0705      2.6755     99.9560
  1757.0000      7.8285      2.5930      0.0897      3.4516     99.8242
  1757.1000      7.8285      2.5742      0.0613      4.5922    101.1638
  1757.2000      7.8285      2.5719      0.0446      4.7357    102.6254
  1757.3000      7.8515      2.5951      0.0396      3.3269    104.6700
  1757.4000      7.8515      2.6324      0.0868      1.0663    104.9587
  1757.5000      7.8392      2.6601      0.1799     -0.6115    101.3627
  1757.6000      7.8392      2.6633      0.1196     -0.8052     99.1220
  1757.7000      7.8392      2.6521      0.1297     -0.1251    102.0138
  1757.8000      7.8236      2.6373      0.1366      0.7675    107.1354
  1757.9000      7.8236      2.6183      0.0968      1.9188    113.1396
  1758.0000      7.8266      2.5922      0.0840      3.5047    120.3103
  1758.1000      7.8266      2.5584      0.0687      5.5525    125.2617
  1758.2000      7.8266      2.5315     -0.0056      7.1809    124.2693
  1758.3000      7.8398      2.5308      0.0322      7.2228    117.9395
  1758.4000      7.8398      2.5464      0.0593      6.2764    111.5855
  1758.5000      7.8552      2.5526      0.0937      5.9053    111.2734
  1758.6000      7.8552      2.5364      0.0677      6.8819    116.9250
  1758.7000      7.8552      2.5042      0.0219      8.8352    123.6132
  1758.8000      7.8244      2.4797      0.0317     10.3215    130.8762
  1758.9000      7.8244      2.4783      0.0709     10.4046    138.6847
  1759.0000      7.8237      2.4908      0.0919      9.6460    145.9934
  1759.1000      7.8237      2.5032      0.0946      8.8988    158.2693
  1759.2000      7.8237      2.5089      0.1312      8.5485    174.1384
  1759.3000      7.8343      2.5038      0.1321      8.8631    181.4983
  1759.4000      7.8343      2.4930      0.1066      9.5159    177.5060
  1759.5000      7.8548      2.4925      0.1037      9.5472    172.0513
  1759.6000      7.8548      2.5056      0.1381      8.7507    169.3274
  1759.7000      7.8548      2.5192      0.1069      7.9290    165.2318
  1759.8000      7.9263      2.5206      0.1483      7.8448    157.9827
  1759.9000      7.9263      2.5140      0.1010      8.2441    151.8831
  1760.0000      7.9562      2.5199      0.1014      7.8863    151.5875
  1760.1000      7.9562      2.5433      0.1482      6.4636    156.6750
  1760.2000      7.9562      2.5678      0.2014      4.9826    164.5329
  1760.3000      7.9623      2.5812      0.2054      4.1675    170.9370
  1760.4000      7.9623      2.5791      0.2385      4.2980    172.8044
  1760.5000      8.0111      2.5633      0.1598      5.2575    169.3288
  1760.6000      8.0111      2.5484      0.0917      6.1564    157.6259
  1760.7000      8.0111      2.5427      0.1034      6.5021    139.8259
  1760.8000      7.9834      2.5385      0.0988      6.7569    124.0741
  1760.9000      7.9834      2.5281      0.0516      7.3908    115.6451
  1761.0000      7.9439      2.5106      0.0302      8.4497    115.5506
  1761.1000      7.9439      2.5034     -0.0168      8.8825    118.9282
  1761.2000      7.9439      2.5334      0.0525      7.0695    118.3668
  1761.3000      7.8666      2.5858      0.1444      3.8909    115.0075
  1761.4000      7.8666      2.6139      0.1682      2.1899    111.7462
  1761.5000      7.8374      2.6052      0.1228      2.7150    106.8775
  1761.6000      7.8374      2.5921      0.1080      3.5086    101.9168
  1761.7000      7.8374      2.6041      0.1360      2.7825     98.7956
  1761.8000      7.8253      2.6369      0.1157      0.7949     96.4085
  1761.9000      7.8253      2.6606      0.1793     -0.6396     93.7706
  1762.0000      7.8077      2.6505      0.1208     -0.0284     90.1558
  1762.1000      7.8077      2.6165      0.0783      2.0279     85.6732
  1762.2000      7.8077      2.5841      0.0628      3.9939     83.5130
  1762.3000      7.8202      2.5600      0.0684      5.4524     84.8322
  1762.4000      7.8202      2.5392      0.0549      6.7153     86.4584
  1762.5000      7.8245      2.5233      0.0135      7.6814     89.4145
  1762.6000      7.8245      2.5214      0.0023      7.7952     93.8172
  1762.7000      7.8245      2.5378     -0.0054      6.8014     94.0007
  1762.8000      7.8205      2.5627      0.0561      5.2915     89.9725
  1762.9000      7.8205      2.5871      0.0624      3.8130     87.5820
  1763.0000      7.8265      2.6065      0.0992      2.6372     86.2114
  1763.1000      7.8265      2.6066      0.1648      2.6310     81.8539
  1763.2000      7.8265      2.5828      0.0830      4.0725     78.9069
  1763.3000      7.8275      2.5532      0.0867      5.8686     80.9376
  1763.4000      7.8275      2.5289      0.0976      7.3404     83.3994
  1763.5000      7.8252      2.5119     -0.0043      8.3688     81.7732
