~Version Information
VERS.                      2.0: CWLS Log ASCII Standard - VERSION 2.0
WRAP.                       NO: One line per depth step
~Well Information Block
STRT.FT                -2.0000: 
STOP.FT              2017.5000: 
STEP.FT                 0.2500: 
NULL.                -999.2500: 
COMP.          Pioneer Natural Resources: COMPANY
WELL.            Zink 44-10 Tr: WELL
FLD.           Purgatoire River: FIELD
LOC.           486' FSL & 554' FEL--: LOCATION
PROV.                 Colorado: PROVINCE
CNTY.               Las Animas: COUNTRY
SRVC.                Patterson: SERVICE COMPANY
DATE.          Mon Aug 01 14:01:23 2005: LOG DATE
UWI.           05 071 08446 00: UNIQUE WELL ID
~Curve Information Block
DEPT.FT            0 000 00 00: Depth
CCL.                          : Casing Collar Locator
TT3.usec                      : CBL 3' Travel Time
AMP3.mV                       : CBL 3' Amplitude
GR.GAPI                       : Gamma Ray
~Parameter Information Block
~A  Depth       CCL         TT3         AMP3         GR     
# ...
  1438.5000      0.0000    926.9274     10.3013    123.0226
  1438.7500      0.0000    953.2285      9.9632    111.2188
  1439.0000      0.0000    972.2568      9.4723     97.5025
  1439.2500      0.0000    988.2661      8.9827     84.6133
  1439.5000      0.0000   1009.0618      8.6319     74.6930
  1439.7500      0.0000   1039.2516      8.4232     68.7640
  1440.0000      0.0000   1075.0839      8.2700     66.5066
  1440.2500      0.0000   1105.2209      8.1329     66.4300
  1440.5000      0.0000   1118.2329      8.0466     66.4890
  1440.7500     -2.0000   1110.4127      8.0346     65.0628
  1441.0000      2.0000   1086.5437      8.0669     61.9732
  1441.2500      0.0000   1055.9597      8.0992     58.6469
  1441.5000     -2.0000   1029.0182      8.1236     57.0815
  1441.7500      0.0000   1012.1405      8.1804     58.5867
  1442.0000      0.0000   1002.5757      8.3208     63.4182
  1442.2500      0.0000    991.3906      8.5419     71.1592
  1442.5000      0.0000    974.7086      8.7747     81.0692
  1442.7500      0.0000    959.5745      8.9655     91.9685
  1443.0000      0.0000    955.9412      9.1291    102.0147
  1443.2500      0.0000    965.4526      9.2847    109.1805
  1443.5000      0.0000    981.6364      9.3947    112.4382
  1443.7500      0.0000    999.0609      9.4128    112.6097
  1444.0000      0.0000   1017.1903      9.3495    112.0442
  1444.2500      0.0000   1035.3032      9.2563    113.4531
  1444.5000      0.0000   1047.7871      9.1683    118.6579
  1444.7500      0.0000   1045.7881      9.0849    127.7035
  1445.0000      0.0000   1022.6158      8.9911    138.7307
  1445.2500      0.0000    979.0960      8.8826    148.9236
  1445.5000      0.0000    925.5326      8.7750    156.0566
  1445.7500      0.0000    877.2147      8.6925    159.3552
  1446.0000      0.0000    845.5988      8.6503    159.1279
  1446.2500      0.0000    832.6390      8.6467    155.9298
  1446.5000      0.0000    832.5314      8.6701    150.2775
  1446.7500      0.0000    837.5023      8.7117    142.8967
  1447.0000      0.0000    842.2539      8.7698    134.8931
  1447.2500      0.0000    844.9126      8.8456    127.5839
  1447.5000      0.0000    845.7059      8.9360    122.1026
  1447.7500      0.0000    845.2827      9.0312    119.1178
  1448.0000      0.0000    843.6454      9.1162    118.7618
  1448.2500      0.0000    839.8876      9.1759    120.6576
  1448.5000      0.0000    832.8454      9.2001    123.9198
  1448.7500      0.0000    822.5623      9.1868    126.9558
  1449.0000      0.0000    811.3632      9.1441    127.3250
  1449.2500      0.0000    802.9103      9.0905    122.8326
  1449.5000      0.0000    799.7061      9.0507    113.8231
  1449.7500      0.0000    801.6502      9.0472    103.9562
  1450.0000      0.0000    806.9449      9.0952     97.7448
  1450.2500      0.0000    813.7553      9.2023     97.2337
  1450.5000      0.0000    820.9443      9.3635    101.1263
  1450.7500      0.0000    827.8987      9.5514    106.4095
  1451.0000      0.0000    834.0447      9.7216    110.4271
  1451.2500      0.0000    838.5248      9.8327    112.0903
  1451.5000      0.0000    840.5084      9.8656    111.9708
  1451.7500      0.0000    839.9709      9.8239    111.4365
  1452.0000      0.0000    838.0246      9.7237    111.4795
  1452.2500      0.0000    836.0685      9.5854    112.2639
  1452.5000      0.0000    834.3699      9.4310    113.5450
  1452.7500      0.0000    831.8484      9.2813    115.1323
  1453.0000      0.0000    827.7715      9.1550    116.7858
  1453.2500      0.0000    823.3835      9.0709    117.9815
  1453.5000      0.0000    821.0969      9.0436    118.0229
  1453.7500      0.0000    821.9320      9.0722    116.3197
  1454.0000      0.0000    824.2816      9.1340    112.8683
  1454.2500      0.0000    825.4292      9.1964    108.9746
  1454.5000      0.0000    823.9178      9.2380    107.2557
  1454.7500      0.0000    820.3738      9.2614    109.9544
  1455.0000      0.0000    816.6590      9.2871    116.6899
  1455.2500      0.0000    814.4988      9.3321    124.0710
  1455.5000      0.0000    814.5116      9.3930    127.9574
  1455.7500      0.0000    816.3447      9.4503    126.3678
  1456.0000      0.0000    819.7150      9.4890    120.3744
  1456.2500      0.0000    824.7529      9.5098    112.6211
  1456.5000      0.0000    831.0826      9.5219    105.4877
  1456.7500      0.0000    837.3084      9.5262    100.4619
  1457.0000      0.0000    841.9460      9.5071     98.2698
  1457.2500      0.0000    844.5171      9.4448     99.0676
  1457.5000      0.0000    845.4872      9.3397    102.5552
  1457.7500      0.0000    845.4424      9.2243    107.9594
  1458.0000      0.0000    844.4346      9.1436    114.1488
  1458.2500      0.0000    841.9634      9.1205    120.2677
  1458.5000      0.0000    837.7194      9.1424    126.1568
  1458.7500      0.0000    832.6964      9.1804    131.6176
  1459.0000      0.0000    829.5302      9.2182    135.3526
  1459.2500      0.0000    831.3544      9.2631    135.2555
  1459.5000      0.0000    840.5400      9.3256    130.1115
  1459.7500      0.0000    858.8673      9.3931    120.8430
  1460.0000      0.0000    887.5843      9.4320    109.8004
  1460.2500      0.0000    924.7838      9.4187     99.0812
  1460.5000      0.0000    962.0104      9.3640     90.0226
  1460.7500      0.0000    985.5423      9.3045     83.9379
  1461.0000      0.0000    983.8230      9.2719     82.2013
  1461.2500      0.0000    955.6384      9.2726     85.1483
  1461.5000      0.0000    911.9232      9.2918     91.3805
  1461.7500      0.0000    869.0255      9.3121     98.6205
  1462.0000      0.0000    838.7462      9.3270    105.2181
  1462.2500      0.0000    823.4342      9.3404    110.8025
  1462.5000      0.0000    818.9157      9.3576    115.7176
  1462.7500      0.0000    820.3472      9.3766    120.1652
  1463.0000      0.0000    825.0150      9.3867    123.8982
  1463.2500      0.0000    831.3591      9.3765    126.3754
  1463.5000      0.0000    837.6711      9.3438    127.0917
  1463.7500      0.0000    842.4537      9.2951    126.1688
  1464.0000      0.0000    845.2383      9.2367    124.6882
  1464.2500      0.0000    846.4705      9.1679    123.8863
  1464.5000      0.0000    846.7725      9.0843    123.9966
  1464.7500      0.0000    846.4554      8.9824    124.4427
  1465.0000      0.0000    845.4624      8.8616    125.0371
  1465.2500      0.0000    843.6027      8.7247    126.2693
  1465.5000      0.0000    841.0232      8.5802    128.2803
  1465.7500      0.0000    838.5959      8.4442    130.0041
  1466.0000      0.0000    837.5159      8.3360    129.4596
  1466.2500      0.0000    838.1205      8.2716    124.8285
  1466.5000      0.0000    839.1906      8.2611    115.6171
  1466.7500      0.0000    838.8336      8.3061    103.1870
  1467.0000      0.0000    836.3018      8.3915     90.2042
  1467.2500      0.0000    833.0001      8.4816     79.3550
  1467.5000      0.0000    831.4966      8.5295     72.1819
  1467.7500      0.0000    833.2097      8.4979     68.5842
  1468.0000      0.0000    837.1608      8.3820     67.2811
  1468.2500      0.0000    841.0928      8.2210     67.0655
  1468.5000      0.0000    843.3417      8.0805     68.0042
  1468.7500      0.0000    843.3698      8.0146     71.5709
  1469.0000      0.0000    841.2480      8.0406     79.2336
  1469.2500      0.0000    837.5938      8.1426     90.1459
  1469.5000      0.0000    834.0264      8.2891    100.1238
  1469.7500      0.0000    832.6856      8.4469    104.0055
  1470.0000      0.0000    834.4549      8.5931     99.7581
  1470.2500      0.0000    837.8806      8.7219     89.8422
  1470.5000      0.0000    840.3937      8.8413     78.5125
  1470.7500      0.0000    840.5700      8.9588     68.6171
  1471.0000      0.0000    839.0651      9.0661     60.9604
  1471.2500      0.0000    837.5466      9.1417     55.5095
  1471.5000      0.0000    836.9814      9.1721     52.5833
  1471.7500      0.0000    837.2106      9.1735     53.1361
