~Version Information
VERS.                      2.0: CWLS Log ASCII Standard - VERSION 2.0
WRAP.                       NO: One line per depth step
~Well Information Block
STRT.FT                -7.2500: 
STOP.FT              1196.2500: 
STEP.FT                 0.2500: 
NULL.                -999.2500: 
COMP.          Pioneer Natural Resources: COMPANY
WELL.             Mahalo 12-20: WELL
FLD.           Purgatorie River: FIELD
LOC.           1689' FNL & 479' FWL--: LOCATION
CNTY.               Las Animas: COUNTY
SRVC.          Patterson Wireline: SERVICE COMPANY
DATE.          Tue Mar 14 15:40:32 2006: LOG DATE
UWI.           05 071 08700 00: UNIQUE WELL ID
STAT.                       CO: STATE
~Curve Information Block
DEPT.FT            0 000 00 00: Depth
CCL.                          : Casing Collar Locator
TT3.usec                      : CBL 3' Travel Time
AMP3.mV                       : CBL 3' Amplitude
GR.GAPI                       : Gamma Ray
~Parameter Information Block
~A  Depth       CCL         TT3         AMP3         GR     
# ...
   294.2500      0.0000    696.9943      3.5142    133.1144
   294.5000      0.0000    695.1546      3.4992    132.9188
   294.7500      0.0000    691.4543      3.4981    127.7994
   295.0000      0.0000    687.4225      3.5165    118.4423
   295.2500      0.0000    683.8467      3.5487    107.4038
   295.5000      0.0000    680.8000      3.5856     98.0299
   295.7500      0.0000    678.6988      3.6250     93.1177
   296.0000      0.0000    678.5630      3.6729     93.8405
   296.2500      0.0000    681.1313      3.7329     99.4507
   296.5000      0.0000    685.9480      3.7969    107.8384
   296.7500      0.0000    691.5115      3.8441    116.4974
   297.0000      0.0000    696.4787      3.8528    123.5087
   297.2500      0.0000    700.5977      3.8226    128.2057
   297.5000      0.0000    704.2503      3.7860    130.9934
   297.7500      0.0000    707.4470      3.7946    132.3643
   298.0000      0.0000    709.7654      3.8900    132.2078
   298.2500      0.0000    711.0762      4.0841    130.1119
   298.5000      0.0000    711.8414      4.3584    125.8727
   298.7500      0.0000    712.7160      4.6746    119.4226
   299.0000      0.0000    713.8897      4.9856    110.6658
   299.2500      0.0000    714.5422      5.2450     99.8569
   299.5000      0.0000    712.8571      5.4172     88.1223
   299.7500      0.0000    707.2790      5.4870     77.2607
   300.0000      0.0000    698.4875      5.4616     68.9044
   300.2500      0.0000    689.8183      5.3626     64.2134
   300.5000      0.0000    684.9702      5.2195     64.1873
   300.7500      0.0000    685.2736      5.0708     69.2616
   301.0000      0.0000    689.4402      4.9550     78.0637
   301.2500      0.0000    695.3157      4.8831     87.4395
   301.5000      0.0000    701.1394      4.8177     94.8527
   301.7500      0.0000    705.6567      4.6920    100.7132
   302.0000      0.0000    708.0945      4.4616    107.6805
   302.2500      0.0000    708.1968      4.1434    117.6433
   302.5000      0.0000    705.9714      3.8074    129.7048
   302.7500      0.0000    701.5847      3.5334    140.9699
   303.0000      0.0000    695.8991      3.3705    148.8656
   303.2500      0.0000    690.9371      3.3247    152.7114
   303.5000      0.0000    689.0325      3.3685    153.5207
   303.7500      0.0000    690.9834      3.4578    152.7528
   304.0000      0.0000    695.1982      3.5496    151.3934
   304.2500      0.0000    699.0828      3.6179    149.8727
   304.5000      0.0000    701.2657      3.6593    148.1449
   304.7500      0.0000    702.1401      3.6886    145.6764
   305.0000      0.0000    702.4209      3.7238    142.0661
   305.2500      0.0000    702.0552      3.7713    138.1590
   305.5000      0.0000    700.9793      3.8188    136.0165
   305.7500      0.0000    700.1596      3.8415    137.0140
   306.0000      0.0000    700.9482      3.8181    139.9569
   306.2500      0.0000    703.5432      3.7459    141.6223
   306.5000      0.0000    706.7410      3.6478    139.3687
   306.7500      0.0000    709.1593      3.5670    133.0059
   307.0000      0.0000    710.2079      3.5486    124.2843
   307.2500      0.0000    709.8877      3.6125    115.1381
   307.5000      0.0000    708.1788      3.7342    106.6896
   307.7500      0.0000    705.0165      3.8571     99.6013
   308.0000      0.0000    700.8540      3.9332     94.6561
   308.2500      0.0000    696.9170      3.9550     92.3939
   308.5000      0.0000    694.4868      3.9501     92.3175
   308.7500      0.0000    693.7435      3.9519     93.1727
   309.0000      0.0000    693.3726      3.9779     94.3120
   309.2500      0.0000    691.5037      4.0270     96.2471
   309.5000      0.0000    687.5136      4.0889     99.4538
   309.7500      0.0000    683.2528      4.1517    103.1768
   310.0000      0.0000    681.9947      4.2000    106.1067
   310.2500      0.0000    685.5278      4.2134    107.7896
   310.5000      0.0000    692.4731      4.1732    108.5850
   310.7500      0.0000    699.6973      4.0784    108.8086
   311.0000      0.0000    704.8875      3.9526    108.9903
   311.2500      0.0000    707.3945      3.8306    110.6336
   311.5000      0.0000    707.0104      3.7356    115.4288
   311.7500      0.0000    702.2369      3.6675    123.2955
   312.0000      0.0000    689.8025      3.6098    131.7962
   312.2500      0.0000    666.9570      3.5471    137.8708
   312.5000      0.0000    636.2677      3.4775    139.9196
   312.7500      0.0000    608.3524      3.4130    138.0746
   313.0000      0.0000    596.9584      3.3674    132.8929
   313.2500      0.0000    608.4514      3.3458    124.4279
   313.5000      0.0000    636.1248      3.3438    112.9365
   313.7500      0.0000    665.5615      3.3536    100.1733
   314.0000      0.0000    684.7441      3.3712     89.1452
   314.2500      0.0000    688.9620      3.3962     82.0969
   314.5000      0.0000    679.0906      3.4261     78.9731
   314.7500      0.0000    659.0522      3.4486     77.9327
   315.0000      0.0000    635.3395      3.4456     77.0468
   315.2500      0.0000    615.7394      3.4095     75.7551
   315.5000      0.0000    605.2613      3.3581     75.2820
   315.7500      0.0000    602.9945      3.3266     77.5635
   316.0000      0.0000    603.8784      3.3391     83.2809
   316.2500      0.0000    602.8929      3.3915     90.9065
   316.5000      0.0000    597.5082      3.4628     97.7658
   316.7500      0.0000    588.5228      3.5370    102.0693
   317.0000      0.0000    579.7487      3.6066    104.1173
   317.2500      0.0000    575.3076      3.6651    105.7137
   317.5000     -2.0000    576.1844      3.7051    108.2199
   317.7500      2.0000    579.6347      3.7224    111.0750
   318.0000      0.0000    581.7070      3.7164    112.5344
   318.2500      0.0000    580.2726      3.6861    111.8672
   318.5000      0.0000    576.3196      3.6312    110.3385
   318.7500      0.0000    572.3569      3.5589    109.8241
   319.0000      0.0000    570.1507      3.4869    110.9083
   319.2500      0.0000    571.7181      3.4364    112.4864
   319.5000      0.0000    580.7593      3.4175    112.6678
   319.7500      0.0000    599.1022      3.4215    109.8476
   320.0000      0.0000    622.2081      3.4284    103.5951
   320.2500      0.0000    641.4484      3.4241     95.2989
   320.5000      0.0000    650.2714      3.4080     87.9054
   320.7500      0.0000    646.5563      3.3878     84.4402
   321.0000      0.0000    631.7744      3.3712     86.3921
   321.2500      0.0000    611.1263      3.3620     93.1972
   321.5000      0.0000    592.1783      3.3618    102.5811
   321.7500      0.0000    579.5958      3.3730    111.3538
   322.0000      0.0000    571.4415      3.3967    116.8896
   322.2500      0.0000    562.4128      3.4292    118.6940
   322.5000      0.0000    550.1553      3.4616    118.4866
   322.7500      0.0000    536.9417      3.4844    118.5647
   323.0000      0.0000    526.1366      3.4939    120.1669
   323.2500      0.0000    519.2292      3.4947    123.1786
   323.5000      0.0000    516.0756      3.4948    126.7552
   323.7500      0.0000    515.9037      3.4984    129.8506
   324.0000      0.0000    517.4740      3.5036    131.3565
   324.2500      0.0000    519.3484      3.5071    130.2228
   324.5000      0.0000    520.5848      3.5076    125.8808
   324.7500      0.0000    520.9871      3.5061    118.8102
   325.0000      0.0000    520.6716      3.5048    110.6944
   325.2500      0.0000    519.6068      3.5062    103.8744
   325.5000      0.0000    517.5944      3.5123    100.2714
   325.7500      0.0000    514.7478      3.5243    100.3074
   326.0000      0.0000    511.9380      3.5428    102.5454
   326.2500      0.0000    510.4638      3.5687    104.4474
   326.5000      0.0000    510.9767      3.5996    103.9171
   326.7500      0.0000    512.8689      3.6275    100.7563
   327.0000      0.0000    514.8970      3.6430     96.8810
   327.2500      0.0000    516.2166      3.6445     94.8021
   327.5000      0.0000    516.7087      3.6387     95.4698
