~Version Information
VERS.                      2.0: CWLS Log ASCII Standard - VERSION 2.0
WRAP.                       NO: One line per depth step
~Well Information Block
STRT.FT                -7.7500: 
STOP.FT              1519.0000: 
STEP.FT                 0.2500: 
NULL.                -999.2500: 
COMP.          Pioneer Natural Resources: COMPANY
WELL.          Mow 8-14-33-67 Tr: WELL
FLD.           Purgatorie River: FIELD
LOC.           2258' FNL & 929' FEL--: LOCATION
CNTY.               Las Animas: COUNTY
SRVC.          Patterson Wireline: SERVICE COMPANY
DATE.          Thu Feb 02 10:06:28 2006: LOG DATE
UWI.           05 071 08684 00: UNIQUE WELL ID
STAT.                       CO: STATE
~Curve Information Block
DEPT.FT            0 000 00 00: Depth
MINMK.                        : Magnetic Mark Ticks
CCL.                          : Casing Collar Locator
TT3.usec                      : CBL 3' Travel Time
AMP3.mV                       : CBL 3' Amplitude
GR.GAPI                       : Gamma Ray
~Parameter Information Block
~A  Depth      MINMK        CCL         TT3         AMP3         GR     
# ...
   496.2500      0.0000      0.0000    263.2531     85.2665    176.1693
   496.5000      0.0000      0.0000    263.4242     83.3131    176.2600
   496.7500      0.0000      0.0000    263.8577     80.3623    172.8107
   497.0000      0.0000      0.0000    264.6798     76.7244    167.4051
   497.2500      0.0000      0.0000    265.8782     72.8679    162.4014
   497.5000      0.0000      0.0000    267.2362     69.1431    159.2670
   497.7500      0.0000      0.0000    268.4346     65.8494    157.5163
   498.0000      0.0000      0.0000    269.2522     63.3658    155.4006
   498.2500      0.0000      0.0000    269.6758     61.9348    151.4331
   498.5000      0.0000      2.0000    269.8376     61.4058    145.3155
   498.7500      0.0000      0.0000    269.8825     61.3926    137.8397
   499.0000      0.0000      0.0000    269.8905     61.6425    130.0376
   499.2500      0.0000      0.0000    269.8661     62.2548    122.2453
   499.5000      0.0000      0.0000    269.7405     63.6430    114.0703
   499.7500      0.0000      0.0000    269.3790     66.2243    105.5725
   500.0000      0.0000      0.0000    268.6411     69.9512     98.3728
   500.2500      0.0000      0.0000    267.5088     74.1631     94.8786
   500.5000      0.0000      0.0000    266.1752     78.0729     96.1034
   500.7500      0.0000      0.0000    264.9677     81.3058    100.7141
   501.0000      0.0000      0.0000    264.1483     83.8530    106.5805
   501.2500      0.0000      0.0000    263.7802     85.7438    112.8964
   501.5000      0.0000      0.0000    263.7477     86.9915    120.3510
   501.7500      0.0000      0.0000    263.8523     87.7090    129.5336
   502.0000      0.0000      0.0000    263.9117     88.0892    139.8548
   502.2500      0.0000      0.0000    263.8396     88.2933    149.7928
   502.5000      0.0000      0.0000    263.6703     88.3975    157.4111
   502.7500      0.0000      0.0000    263.4946     88.4238    160.7982
   503.0000      0.0000      0.0000    263.3741     88.3818    159.2015
   503.2500      0.0000      0.0000    263.3151     88.2893    154.3123
   503.5000      0.0000      0.0000    263.2964     88.1572    149.7272
   503.7500      0.0000      0.0000    263.2974     87.9741    148.3513
   504.0000      0.0000      0.0000    263.3062     87.7140    150.3963
   504.2500      0.0000      0.0000    263.3165     87.3593    154.1941
   504.5000      0.0000      0.0000    263.3249     86.9233    158.5306
   504.7500      0.0000      0.0000    263.3291     86.4601    163.3982
   505.0000      0.0000      0.0000    263.3279     86.0446    168.6247
   505.2500      0.0000      0.0000    263.3223     85.7307    172.9235
   505.5000      0.0000      0.0000    263.3159     85.5327    174.8258
   505.7500      0.0000      0.0000    263.3120     85.4508    173.9615
   506.0000      0.0000      0.0000    263.3119     85.4943    170.9991
   506.2500      0.0000      0.0000    263.3136     85.6501    166.6793
   506.5000      0.0000      0.0000    263.3148     85.8264    161.3490
   506.7500      0.0000      0.0000    263.3164     85.8605    155.4968
   507.0000      0.0000      0.0000    263.3233     85.6184    150.3948
   507.2500      0.0000      0.0000    263.3405     85.0977    147.6235
   507.5000      0.0000      0.0000    263.3685     84.4311    147.7016
   507.7500      0.0000      0.0000    263.4022     83.7942    149.4456
   508.0000      0.0000      0.0000    263.4335     83.3055    150.9537
   508.2500      0.0000      0.0000    263.4570     82.9921    151.1938
   508.5000      0.0000      0.0000    263.4716     82.8286    150.2434
   508.7500      0.0000      0.0000    263.4792     82.7935    148.1484
   509.0000      0.0000      0.0000    263.4824     82.8772    144.5621
   509.2500      0.0000      0.0000    263.4837     83.0309    139.8807
   509.5000      0.0000      0.0000    263.4864     83.1287    135.7988
   509.7500      0.0000      0.0000    263.4931     83.0206    134.0310
   510.0000      0.0000      0.0000    263.5033     82.6476    134.6730
   510.2500      0.0000      0.0000    263.5139     82.0919    136.1798
   510.5000      0.0000      0.0000    263.5216     81.5077    136.8975
   510.7500      0.0000      0.0000    263.5254     81.0107    136.3052
   511.0000      0.0000      0.0000    263.5268     80.6339    134.7427
   511.2500      0.0000      0.0000    263.5275     80.3521    132.4366
   511.5000      0.0000      0.0000    263.5279     80.1234    129.2538
   511.7500      0.0000      0.0000    263.5278     79.9125    125.3386
   512.0000      0.0000      0.0000    263.5270     79.6975    121.7373
   512.2500      0.0000      0.0000    263.5255     79.4678    120.1683
   512.5000      0.0000      0.0000    263.5234     79.2227    121.6408
   512.7500      0.0000      0.0000    263.5208     78.9740    125.0711
   513.0000      0.0000      0.0000    263.5167     78.7437    127.7438
   513.2500      0.0000      0.0000    263.5099     78.5517    127.5591
   513.5000      0.0000      0.0000    263.5001     78.4100    124.5824
   513.7500      0.0000      0.0000    263.4885     78.3234    120.2546
   514.0000      0.0000      0.0000    263.4772     78.2863    115.5199
   514.2500      0.0000      0.0000    263.4696     78.2737    110.0476
   514.5000      0.0000      0.0000    263.4684     78.2475    103.0399
   514.7500      0.0000      0.0000    263.4742     78.1824     94.4907
   515.0000      0.0000      0.0000    263.4853     78.0856     85.7618
   515.2500      0.0000      0.0000    263.4978     77.9890     79.1311
   515.5000      0.0000      0.0000    263.5080     77.9253     76.7134
   515.7500      0.0000      0.0000    263.5128     77.9135     79.3792
   516.0000      0.0000      0.0000    263.5109     77.9574     86.1553
   516.2500      0.0000      0.0000    263.5029     78.0452     94.5285
   516.5000      0.0000      0.0000    263.4920     78.1503    101.6667
   516.7500      1.0000      0.0000    263.4826     78.2401    105.7120
   517.0000      0.0000      0.0000    263.4776     78.2890    106.3592
   517.2500      0.0000      0.0000    263.4777     78.2812    104.8193
   517.5000      0.0000      0.0000    263.4817     78.2039    103.2656
   517.7500      0.0000      0.0000    263.4878     78.0465    103.5978
   518.0000      0.0000      0.0000    263.4942     77.8129    106.0871
   518.2500      0.0000      0.0000    263.4992     77.5324    109.3153
   518.5000      0.0000      0.0000    263.5016     77.2498    111.7926
   518.7500      0.0000      0.0000    263.5012     76.9989    113.4570
   519.0000      0.0000      0.0000    263.4986     76.7850    115.3275
   519.2500      0.0000      0.0000    263.4948     76.5896    117.9694
   519.5000      0.0000      0.0000    263.4914     76.3878    120.8459
   519.7500      0.0000      0.0000    263.4896     76.1652    123.0949
   520.0000      0.0000      0.0000    263.4899     75.9305    124.4893
   520.2500      0.0000      0.0000    263.4903     75.7164    125.5672
   520.5000      0.0000      0.0000    263.4876     75.5590    127.0349
   520.7500      0.0000      0.0000    263.4808     75.4697    129.0528
   521.0000      0.0000      0.0000    263.4719     75.4322    131.1451
   521.2500      0.0000      0.0000    263.4642     75.4266    132.9177
   521.5000      0.0000      0.0000    263.4591     75.4467    134.6208
   521.7500      0.0000      0.0000    263.4558     75.4936    136.7561
   522.0000      0.0000      0.0000    263.4528     75.5651    139.2551
   522.2500      0.0000      0.0000    263.4495     75.6581    141.2140
   522.5000      0.0000      0.0000    263.4462     75.7763    141.6389
   522.7500      0.0000      0.0000    263.4438     75.9272    140.7929
   523.0000      0.0000      0.0000    263.4437     76.1132    140.5054
   523.2500      0.0000      0.0000    263.4461     76.3261    142.2607
   523.5000      0.0000      0.0000    263.4503     76.5500    145.1561
   523.7500      0.0000      0.0000    263.4548     76.7678    146.7754
   524.0000      0.0000      0.0000    263.4590     76.9681    145.9970
