~Version Information
VERS.                      2.0: CWLS Log ASCII Standard - VERSION 2.0
WRAP.                       NO: One line per depth step
~Well Information Block
STRT.FT                -9.5000: 
STOP.FT              1401.5000: 
STEP.FT                 0.2500: 
NULL.                -999.2500: 
COMP.          Pioneer Natural Resources: COMPANY
WELL.             John K 12-28: WELL
FLD.           Purgatorie River: FIELD
LOC.           1476' FNL & 465' FWL--: LOCATION
CNTY.               Las Animas: COUNTY
SRVC.          Patterson Wireline: SERVICE COMPANY
DATE.          Fri Apr 28 08:36:46 2006: LOG DATE
UWI.           05 071 08723 00: UNIQUE WELL ID
STAT.                       CO: STATE
~Curve Information Block
DEPT.FT            0 000 00 00: Depth
CCL.                          : Casing Collar Locator
TT3.usec                      : CBL 3' Travel Time
AMP3.mV                       : CBL 3' Amplitude
GR.GAPI                       : Gamma Ray
~Parameter Information Block
~A  Depth       CCL         TT3         AMP3         GR     
# ...
   727.5000      0.0000    500.5518      5.8565    105.9990
   727.7500      0.0000    542.7051      5.7936    103.6452
   728.0000      0.0000    580.6052      5.7183    100.6024
   728.2500      0.0000    609.0142      5.6436     96.9927
   728.5000      0.0000    630.3931      5.5690     94.3465
   728.7500      0.0000    647.0378      5.4948     93.6473
   729.0000      0.0000    657.4713      5.4441     94.8533
   729.2500      0.0000    659.4878      5.4573     97.7473
   729.5000      0.0000    654.4377      5.5422    102.3325
   729.7500      0.0000    648.4007      5.6463    108.3255
   730.0000      0.0000    649.3924      5.7134    114.6846
   730.2500      0.0000    661.9626      5.7494    119.8639
   730.5000      0.0000    683.5442      5.7996    122.7440
   730.7500      0.0000    707.0521      5.8808    123.5796
   731.0000     -2.0000    726.9722      5.9701    123.9476
   731.2500      2.0000    741.5358      6.0455    125.3409
   731.5000      0.0000    750.1316      6.1118    127.7034
   731.7500      0.0000    752.4523      6.1816    129.5138
   732.0000      0.0000    750.8858      6.2319    129.2016
   732.2500      0.0000    749.9096      6.1873    126.3558
   732.5000      0.0000    750.8985      5.9800    121.9246
   732.7500      0.0000    749.8132      5.6400    117.5579
   733.0000      0.0000    742.0613      5.2988    114.3711
   733.2500      0.0000    727.9674      5.0810    111.7447
   733.5000      0.0000    711.9697      5.0143    107.6610
   733.7500      0.0000    698.2787      5.0465    101.0297
   734.0000      0.0000    689.0452      5.1203     93.6492
   734.2500      0.0000    684.9628      5.2147     89.2018
   734.5000      0.0000    684.8277      5.3315     90.1907
   734.7500      0.0000    684.5922      5.4628     96.2807
   735.0000      0.0000    678.6220      5.5797    105.3492
   735.2500      0.0000    663.0104      5.6524    115.1720
   735.5000      0.0000    638.7895      5.6755    123.7820
   735.7500      0.0000    613.1548      5.6710    129.2805
   736.0000      0.0000    596.6637      5.6675    130.5027
   736.2500      0.0000    596.3929      5.6792    127.8941
   736.5000      0.0000    609.2643      5.7041    123.1074
   736.7500      0.0000    621.6501      5.7330    117.5601
   737.0000      0.0000    617.6105      5.7567    111.4815
   737.2500      0.0000    590.7199      5.7668    104.2560
   737.5000      0.0000    549.7827      5.7581     95.5709
   737.7500      0.0000    513.4038      5.7306     86.3769
   738.0000      0.0000    498.7320      5.6903     78.8427
   738.2500      0.0000    513.1632      5.6486     75.2126
   738.5000      0.0000    552.0759      5.6200     76.3856
   738.7500      0.0000    601.7524      5.6179     81.4364
   739.0000      0.0000    646.8299      5.6480     88.4268
   739.2500      0.0000    678.3902      5.7065     95.7459
   739.5000      0.0000    696.1898      5.7799    102.7927
   739.7500      0.0000    704.3733      5.8473    109.5155
   740.0000      0.0000    706.5731      5.8877    115.6022
   740.2500      0.0000    704.6014      5.8904    120.3839
   740.5000      0.0000    699.6744      5.8614    123.2562
   740.7500      0.0000    693.5823      5.8160    123.7148
   741.0000      0.0000    688.4575      5.7650    121.2598
   741.2500      0.0000    685.5432      5.7109    116.0157
   741.5000      0.0000    684.2954      5.6523    109.5197
   741.7500      0.0000    682.9426      5.5902    104.2533
   742.0000      0.0000    679.8331      5.5276    102.0595
   742.2500      0.0000    674.0771      5.4661    103.1664
   742.5000      0.0000    665.3282      5.4066    106.5861
   742.7500      0.0000    654.2193      5.3540    110.9182
   743.0000      0.0000    643.5779      5.3158    114.6669
   743.2500      0.0000    638.0902      5.2962    116.4998
   743.5000      0.0000    641.2419      5.2936    115.9539
   743.7500      0.0000    652.2017      5.3057    113.9364
   744.0000      0.0000    666.3688      5.3328    112.3163
   744.2500      0.0000    679.4050      5.3732    113.0546
   744.5000      0.0000    690.2291      5.4203    117.4269
   744.7500      0.0000    700.1971      5.4668    125.0526
   745.0000      0.0000    710.2824      5.5119    133.2453
   745.2500      0.0000    718.7639      5.5583    138.1202
   745.5000      0.0000    720.3557      5.6058    137.0993
   745.7500      0.0000    708.5040      5.6511    130.2975
   746.0000      0.0000    681.4670      5.6931    119.7220
   746.2500      0.0000    647.1923      5.7334    107.8811
   746.5000      0.0000    619.5670      5.7715     97.1853
   746.7500      0.0000    607.0109      5.8016     89.8158
   747.0000      0.0000    605.6794      5.8157     87.3303
   747.2500      0.0000    606.7098      5.8066     89.8486
   747.5000      0.0000    608.6646      5.7698     95.4805
   747.7500      0.0000    618.1920      5.7084    101.0321
   748.0000      0.0000    639.1478      5.6356    103.8297
   748.2500      0.0000    666.6624      5.5678    103.0586
   748.5000      0.0000    692.5718      5.5140     99.7095
   748.7500      0.0000    712.0874      5.4751     95.7105
   749.0000      0.0000    723.8839      5.4510     92.7932
   749.2500      0.0000    727.3571      5.4432     91.3556
   749.5000      0.0000    722.1823      5.4496     90.3266
   749.7500      0.0000    709.4336      5.4633     88.8036
   750.0000      0.0000    692.0837      5.4770     88.1610
   750.2500      0.0000    674.9338      5.4852     92.1150
   750.5000      0.0000    663.5249      5.4857    103.9809
   750.7500      0.0000    660.9058      5.4810    123.2707
   751.0000      0.0000    664.7886      5.4795    144.7419
   751.2500      0.0000    669.4384      5.4916    161.2720
   751.5000      0.0000    671.3887      5.5218    168.5435
   751.7500      0.0000    672.6251      5.5649    167.4807
   752.0000      0.0000    677.6735      5.6114    162.4650
   752.2500      0.0000    688.3809      5.6535    157.7483
   752.5000      0.0000    702.2595      5.6878    155.5024
   752.7500      0.0000    715.1320      5.7139    155.9473
   753.0000      0.0000    723.9589      5.7345    157.9888
   753.2500      0.0000    727.4412      5.7537    159.8164
   753.5000      0.0000    725.6214      5.7731    159.8299
   753.7500      0.0000    719.7111      5.7906    157.5450
   754.0000      0.0000    711.9011      5.8051    153.7242
   754.2500      0.0000    704.8329      5.8175    149.7162
   754.5000      0.0000    700.8266      5.8259    146.7676
   754.7500      0.0000    701.0363      5.8215    145.9189
   755.0000      0.0000    704.7758      5.7942    148.0099
   755.2500      0.0000    709.4298      5.7414    153.0198
   755.5000      0.0000    711.0283      5.6705    159.3478
   755.7500      0.0000    705.2679      5.5965    164.4978
   756.0000      0.0000    689.1193      5.5378    167.0300
   756.2500      0.0000    662.9550      5.5096    167.6647
   756.5000      0.0000    631.5884      5.5162    168.2082
   756.7500      0.0000    602.3483      5.5491    169.7373
   757.0000      0.0000    581.2294      5.5939    171.9949
   757.2500      0.0000    570.7390      5.6386    174.1098
   757.5000      0.0000    570.3914      5.6737    175.5438
   757.7500      0.0000    577.4167      5.6912    176.5091
   758.0000      0.0000    587.0182      5.6875    177.6285
   758.2500      0.0000    594.2834      5.6708    178.9792
   758.5000      0.0000    597.5928      5.6595    179.2895
   758.7500      0.0000    599.7557      5.6698    176.4135
   759.0000      0.0000    605.1714      5.7021    169.0383
   759.2500      0.0000    616.2956      5.7400    158.1345
   759.5000      0.0000    632.6011      5.7625    146.4702
   759.7500      0.0000    651.5491      5.7590    136.3991
   760.0000      0.0000    669.8659      5.7338    128.2892
   760.2500      0.0000    684.6559      5.6981    121.1906
   760.5000      0.0000    694.0690      5.6622    114.6025
   760.7500      0.0000    697.3522      5.6347    109.3257
