~Version Information
VERS.                      2.0: CWLS Log ASCII Standard - VERSION 2.0
WRAP.                       NO: One line per depth step
~Well Information Block
STRT.FT               -16.2500: 
STOP.FT               938.7500: 
STEP.FT                 0.2500: 
NULL.                -999.2500: 
COMP.          XTO Energy Inc.: COMPANY
WELL.          Golden Eagle 20-04: WELL
FLD.           Purgatrorie River: FIELD
LOC.           702' FNL & 487' FWL--: LOCATION
STAT.                       CO: PROVINCE
CNTY.               Las Animas: COUNTY
CTRY. USA : Country
SECT. 20 : Section 
TOWN. 33S : Township
RANG. 67W : Range
SRVC.          Patterson Wireline: SERVICE COMPANY
DATE.          Mon Dec 05 10:32:54 2005: LOG DATE
API.           05 071 08599 00: UNIQUE WELL ID
~Curve Information Block
DEPT.FT            0 000 00 00: Depth
CCL.                          : Casing Collar Locator
TT3.usec                      : CBL 3' Travel Time
AMP3.mV                       : CBL 3' Amplitude
GR.GAPI                       : Gamma Ray
~Parameter Information Block
~A  Depth       CCL         TT3         AMP3         GR     
# ...
   921.7500      0.0000    704.5259      3.7807    121.9933
   922.0000      0.0000    703.5686      3.4518    126.4212
   922.2500      0.0000    702.5863      3.1644    132.0027
   922.5000      0.0000    702.6528      2.9501    138.5067
   922.7500      0.0000    704.1764      2.8125    145.2221
   923.0000      0.0000    706.5612      2.7349    150.7807
   923.2500      0.0000    708.9023      2.6986    153.4417
   923.5000      0.0000    710.9979      2.6937    151.9011
   923.7500      0.0000    713.5187      2.7137    146.0723
   924.0000      0.0000    717.2064      2.7475    136.8217
   924.2500      0.0000    722.0725      2.7837    124.3896
   924.5000      0.0000    727.6481      2.8247    107.3169
   924.7500      0.0000    734.0605      2.8916     84.3280
   925.0000      0.0000    742.4506      3.0142     57.6880
   925.2500      0.0000    753.9281      3.2103     33.1175
   925.5000      0.0000    768.0568      3.4647     15.5576
   925.7500      0.0000    782.2303      3.7306      5.8855
   926.0000      0.0000    792.8368      3.9576      1.7745
   926.2500      0.0000    797.9202      4.1225      0.4230
   926.5000      0.0000    798.5903      4.2369      0.0793
   926.7500      0.0000    797.0593      4.3307      0.0105
   927.0000      0.0000    794.0827      4.4338      0.0000
   927.2500      0.0000    789.2582      4.5714   -999.2500
   927.5000      0.0000    782.3815      4.7653   -999.2500
   927.7500      0.0000    773.2766      5.0247   -999.2500
   928.0000      0.0000    761.8210      5.3313   -999.2500
   928.2500      0.0000    749.1026      5.6428   -999.2500
   928.5000      0.0000    737.2729      5.9181   -999.2500
   928.7500      0.0000    727.7228      6.1293   -999.2500
   929.0000      0.0000    719.5082      6.2452   -999.2500
   929.2500      0.0000    708.3010      6.2243   -999.2500
   929.5000      0.0000    684.9312      6.0278   -999.2500
   929.7500      0.0000    635.4809      5.6182   -999.2500
   930.0000      0.0000    547.5074      4.9592   -999.2500
   930.2500      0.0000    422.2541      4.0696   -999.2500
   930.5000      0.0000    281.6214      3.0871   -999.2500
   930.7500      0.0000    157.8704      2.2237   -999.2500
   931.0000      0.0000     72.7969      1.6287   -999.2500
   931.2500      0.0000     27.1841      1.3091   -999.2500
   931.5000      0.0000      8.1284      1.1754   -999.2500
   931.7500      0.0000      1.9282      1.1319   -999.2500
   932.0000      0.0000      0.3574      1.1209   -999.2500
   932.2500      0.0000      0.0479      1.1188   -999.2500
   932.5000      0.0000   -999.2500   -999.2500   -999.2500
   932.7500      0.0000   -999.2500   -999.2500   -999.2500
   933.0000      0.0000   -999.2500   -999.2500   -999.2500
   933.2500      0.0000   -999.2500   -999.2500   -999.2500
   933.5000      0.0000   -999.2500   -999.2500   -999.2500
   933.7500      0.0000   -999.2500   -999.2500   -999.2500
   934.0000      0.0000   -999.2500   -999.2500   -999.2500
   934.2500      0.0000   -999.2500   -999.2500   -999.2500
   934.5000      0.0000   -999.2500   -999.2500   -999.2500
   934.7500      0.0000   -999.2500   -999.2500   -999.2500
   935.0000      0.0000   -999.2500   -999.2500   -999.2500
   935.2500      0.0000   -999.2500   -999.2500   -999.2500
   935.5000      0.0000   -999.2500   -999.2500   -999.2500
   935.7500      0.0000   -999.2500   -999.2500   -999.2500
   936.0000      0.0000   -999.2500   -999.2500   -999.2500
   936.2500      0.0000   -999.2500   -999.2500   -999.2500
   936.5000      0.0000   -999.2500   -999.2500   -999.2500
   936.7500      0.0000   -999.2500   -999.2500   -999.2500
   937.0000      0.0000   -999.2500   -999.2500   -999.2500
   937.2500      0.0000   -999.2500   -999.2500   -999.2500
   937.5000      0.0000   -999.2500   -999.2500   -999.2500
   937.7500      0.0000   -999.2500   -999.2500   -999.2500
   938.0000   -999.2500   -999.2500   -999.2500   -999.2500
   938.2500   -999.2500   -999.2500   -999.2500   -999.2500
   938.5000   -999.2500   -999.2500   -999.2500   -999.2500
   938.7500   -999.2500   -999.2500   -999.2500   -999.2500
