~Version Information
VERS.                      2.0: CWLS Log ASCII Standard - VERSION 2.0
WRAP.                       NO: One line per depth step
~Well Information Block
STRT.FT                 0.0000: 
STOP.FT              2792.7500: 
STEP.FT                 0.2500: 
NULL.                -999.2500: 
COMP.          Pioneer Natural Resources: COMPANY
WELL.          Black Cat 13-32: WELL
FLD.           Purgatorie River: FIELD
LOC.           1865' FSL & 1120' FWL: LOCATION
PROV.                 Colorado: PROVINCE
CNTY.               Las Animas: COUNTRY
SRVC.                Patterson: SERVICE COMPANY
DATE.          Fri Aug 19 09:19:21 2005: LOG DATE
UWI.                          : UNIQUE WELL ID
~Curve Information Block
DEPT.FT            0 000 00 00: Depth
CCL.                          : Casing Collar Locator
TT3.usec                      : CBL 3' Travel Time
AMP3.mV                       : CBL 3' Amplitude
GR.GAPI                       : Gamma Ray
~Parameter Information Block
~A  Depth       CCL         TT3         AMP3         GR     
# ...
  2747.0000      0.0000    522.0410     17.9370     64.4764
  2747.2500      0.0000    525.6866     17.8771     62.3706
  2747.5000      0.0000    545.9754     17.7847     60.5713
  2747.7500      0.0000    556.4635     17.6969     59.8530
  2748.0000      0.0000    540.7485     17.6496     60.7751
  2748.2500      0.0000    513.8157     17.6437     62.9231
  2748.5000      0.0000    494.2549     17.6746     65.2262
  2748.7500      0.0000    485.4427     17.7373     66.9748
  2749.0000      0.0000    481.9053     17.8197     68.0807
  2749.2500      0.0000    477.9248     17.9252     68.3472
  2749.5000      0.0000    470.2083     18.0839     67.2068
  2749.7500      0.0000    461.8381     18.3051     64.5980
  2750.0000      0.0000    466.6984     18.5614     61.5868
  2750.2500      0.0000    501.3665     18.8611     59.5516
  2750.5000      0.0000    565.0666     19.2830     59.0139
  2750.7500      0.0000    632.8738     19.8983     59.6033
  2751.0000      0.0000    679.7261     20.6772     60.7373
  2751.2500      0.0000    699.0564     21.4926     61.8760
  2751.5000      0.0000    680.6168     22.2070     62.4242
  2751.7500      0.0000    606.1570     22.7511     62.0494
  2752.0000      0.0000    491.9682     23.1165     61.2606
  2752.2500      0.0000    390.6289     23.3057     61.2685
  2752.5000      0.0000    335.5607     23.3164     62.8714
  2752.7500      0.0000    322.9664     23.1320     65.4825
  2753.0000      0.0000    344.3013     22.7111     67.4334
  2753.2500      0.0000    401.7541     22.0384     67.3988
  2753.5000      0.0000    488.5254     21.1919     65.6329
  2753.7500      0.0000    575.8796     20.2993     63.7860
  2754.0000      0.0000    635.2949     19.4524     63.3959
  2754.2500      0.0000    662.8851     18.6926     64.4922
  2754.5000      0.0000    669.8494     18.0345     65.7327
  2754.7500      0.0000    658.3075     17.4829     65.9352
  2755.0000      0.0000    619.7855     17.0306     65.3072
  2755.2500      0.0000    557.7463     16.6633     65.0159
  2755.5000      0.0000    493.6085     16.3752     65.7837
  2755.7500      0.0000    444.3591     16.1674     67.3794
  2756.0000      0.0000    412.5447     16.0358     69.3538
  2756.2500      0.0000    395.0544     15.9684     71.5873
  2756.5000      0.0000    387.4924     15.9439     73.8890
  2756.7500      0.0000    384.9825     15.9386     75.6045
  2757.0000      0.0000    384.2294     15.9450     76.0502
  2757.2500      0.0000    383.9151     15.9838     75.1842
  2757.5000      0.0000    383.6829     16.0865     73.5674
  2757.7500      0.0000    383.4826     16.2417     71.7324
  2758.0000      0.0000    383.3806     16.3852     69.8539
  2758.2500      0.0000    383.3965     16.4689     67.9985
  2758.5000      0.0000    383.2935     16.5044     66.4463
  2758.7500      0.0000    382.3653     16.5320     65.6715
  2759.0000      0.0000    379.7100     16.5799     66.0192
  2759.2500      0.0000    375.8675     16.6414     67.3727
  2759.5000      0.0000    373.7709     16.6853     69.1609
  2759.7500      0.0000    375.4423     16.6897     70.6782
  2760.0000      0.0000    379.0465     16.6599     71.2931
  2760.2500      0.0000    382.2534     16.6094     70.4922
  2760.5000      0.0000    387.0807     16.5269     68.1202
  2760.7500      0.0000    402.4449     16.3734     64.7147
  2761.0000      0.0000    442.7697     16.1432     61.3703
  2761.2500      0.0000    513.4766     15.8972     59.0279
  2761.5000      0.0000    591.3986     15.6922     57.8808
  2761.7500      0.0000    633.9036     15.5351     57.4567
  2762.0000      0.0000    614.8248     15.4228     57.1537
  2762.2500      0.0000    544.6112     15.3545     56.6158
  2762.5000      0.0000    459.8364     15.3039     55.8357
  2762.7500      0.0000    395.1183     15.2436     55.2095
  2763.0000      0.0000    361.0464     15.2027     55.4648
  2763.2500      0.0000    348.1687     15.2493     57.1857
  2763.5000      0.0000    344.3501     15.4175     60.1745
  2763.7500      0.0000    343.1490     15.6907     63.2974
  2764.0000      0.0000    342.4904     16.0383     65.1357
  2764.2500      0.0000    341.9847     16.4331     65.0163
  2764.5000      0.0000    341.6704     16.8488     63.5915
  2764.7500      0.0000    341.5876     17.2766     62.5010
  2765.0000      0.0000    341.7357     17.7240     63.3421
  2765.2500      0.0000    342.1358     18.1856     66.4559
  2765.5000      0.0000    342.8131     18.5930     70.3110
  2765.7500      0.0000    343.8579     18.7558     72.4026
  2766.0000      0.0000    345.7076     18.4200     71.4778
  2766.2500      0.0000    349.2712     17.6793     68.9821
  2766.5000      0.0000    356.7262     17.2424     67.8645
  2766.7500      0.0000    376.7590     17.4542     69.7264
  2767.0000      0.0000    428.1143     17.4308     73.2916
  2767.2500      0.0000    519.9630     16.5258     75.6938
  2767.5000      0.0000    623.5629     15.5173     74.9778
  2767.7500      0.0000    690.6631     15.1789     71.2301
  2768.0000      2.0000    703.5757     15.3021     65.8766
  2768.2500      0.0000    679.6149     15.4413     60.6319
  2768.5000     -2.0000    637.6226     15.4525     57.0027
  2768.7500      0.0000    591.0031     15.4341     55.9912
  2769.0000      0.0000    550.4423     15.6776     57.7318
  2769.2500      0.0000    510.8445     16.6129     61.4151
  2769.5000      0.0000    470.4884     18.2116     65.6886
  2769.7500      0.0000    455.9835     19.4425     69.3022
  2770.0000      0.0000    484.9171     19.5289     71.6283
  2770.2500      0.0000    535.5799     19.2532     72.7083
  2770.5000      0.0000    583.2318     19.5347     72.8323
  2770.7500      0.0000    613.0995     20.1005     72.1204
  2771.0000      0.0000    597.3845     20.4072     70.5992
  2771.2500      0.0000    527.0949     20.4287     68.6473
  2771.5000      0.0000    441.3416     20.3392     67.0969
  2771.7500      0.0000    382.5251     20.2216     66.6056
  2772.0000      0.0000    356.9316     20.0891     66.9486
  2772.2500      0.0000    349.5667     19.9199     67.1170
  2772.5000      0.0000    348.0933     19.6925     66.1208
  2772.7500      0.0000    347.7913     19.4163     63.6607
  2773.0000      0.0000    347.8100     19.0945     60.3267
  2773.2500      0.0000    349.0443     18.7099     57.4089
  2773.5000      0.0000    355.1108     18.2668     56.1837
  2773.7500      0.0000    373.9813     17.7928     57.0603
  2774.0000      0.0000    412.3991     17.3261     59.4472
  2774.2500      0.0000    460.7593     16.9169     62.3203
  2774.5000      0.0000    492.5805     16.5920     64.7555
  2774.7500      0.0000    494.0200     16.3333     66.3763
  2775.0000      0.0000    480.1997     16.1156     67.7819
  2775.2500      0.0000    468.4309     15.9434     70.1793
  2775.5000      0.0000    455.0803     15.8452     74.0576
  2775.7500      0.0000    429.6163     15.8332     78.4202
  2776.0000      0.0000    395.7088     15.8866     81.6937
  2776.2500      0.0000    367.7577     15.9759     83.1455
  2776.5000      0.0000    353.2312     16.0717     83.0839
  2776.7500      0.0000    348.5230     16.1531     81.9261
  2777.0000      0.0000    348.0247     16.2290     79.4134
  2777.2500      0.0000    349.8034     16.3190     74.6001
  2777.5000      0.0000    354.9709     16.4112     66.4458
  2777.7500      0.0000    364.3135     16.4724     54.6525
  2778.0000      0.0000    374.5339     16.4964     40.3256
  2778.2500      0.0000    379.0622     16.5016     25.9209
  2778.5000      0.0000    374.3908     16.5194     14.1279
  2778.7500      0.0000    364.0420     16.5876      6.3834
  2779.0000      0.0000    354.6143     16.7082      2.3496
  2779.2500      0.0000    349.3272     16.8555      0.6954
  2779.5000      0.0000    347.1949     17.0115      0.1635
  2779.7500      0.0000    346.3733     17.1502      0.0301
  2780.0000      0.0000    345.9978     17.2520      0.0040
  2780.2500      0.0000    346.0809     17.3286      0.0000
