~Version Information
VERS.                      2.0: CWLS Log ASCII Standard - VERSION 2.0
WRAP.                       NO: One line per depth step
~Well Information Block
STRT.FT                 0.0000: 
STOP.FT              1238.2500: 
STEP.FT                 0.2500: 
NULL.                -999.2500: 
COMP.          Pioneer Natural Resources: COMPANY
WELL.                 Ray 34-6: WELL
FLD.           Purgatoire River: FIELD
LOC.           684' FSL & 2254' FEL: LOCATION
CNTY.               Las Animas: COUNTY
SRVC.                         : SERVICE COMPANY
DATE.          Fri Jun 23 09:23:24 2006: LOG DATE
UWI.           05 071 08695 00: UNIQUE WELL ID
STAT.                       CO: STATE
~Curve Information Block
DEPT.FT            0 000 00 00: Depth
GR.GAPI                       : Gamma Ray
CCL.                          : Casing Collar Locator
TT3.usec                      : CBL 3' Travel Time
AMP3.mV                       : CBL 3' Amplitude
~Parameter Information Block
~A  Depth        GR         CCL         TT3         AMP3    
# ...
   636.5000     91.2094      0.0000    775.5359      6.1184
   636.7500     85.1498      0.0000    772.6118      6.1532
   637.0000     82.1070      0.0000    773.4866      6.1643
   637.2500     83.2174      0.0000    777.8201      6.1529
   637.5000     87.8624      0.0000    782.9239      6.1362
   637.7500     94.3056      0.0000    786.2444      6.1338
   638.0000    101.3674      0.0000    786.1787      6.1556
   638.2500    109.4945      0.0000    782.5031      6.1998
   638.5000    119.7262      0.0000    776.9752      6.2562
   638.7500    131.3779      0.0000    772.3722      6.3104
   639.0000    141.3474      0.0000    770.2651      6.3509
   639.2500    146.1046      0.0000    770.5259      6.3794
   639.5000    143.7737      0.0000    772.9488      6.4077
   639.7500    134.3404      0.0000    777.7964      6.4397
   640.0000    119.3942      0.0000    784.4674      6.4635
   640.2500    102.5452      0.0000    790.9145      6.4660
   640.5000     88.8435      0.0000    794.8300      6.4517
   640.7500     82.3662      0.0000    794.8536      6.4414
   641.0000     84.2674      0.0000    790.8282      6.4536
   641.2500     92.9480      0.0000    783.8050      6.4872
   641.5000    105.1345      0.0000    776.0405      6.5194
   641.7500    116.7349      0.0000    770.1861      6.5223
   642.0000    124.1155      0.0000    767.7864      6.4852
   642.2500    125.7315      0.0000    768.4954      6.4189
   642.5000    122.5362      0.0000    771.0425      6.3437
   642.7500    116.7628      0.0000    774.8830      6.2785
   643.0000    110.6315      0.0000    780.5120      6.2362
   643.2500    105.9083      0.0000    788.1376      6.2197
   643.5000    103.8952      0.0000    796.5729      6.2173
   643.7500    105.4092      0.0000    803.6132      6.2083
   644.0000    110.7073      0.0000    807.3112      6.1798
   644.2500    119.3892      0.0000    807.0228      6.1403
   644.5000    130.3844      0.0000    803.5469      6.1115
   644.7500    142.1672      0.0000    798.1929      6.1085
   645.0000    153.2076      0.0000    791.4468      6.1316
   645.2500    162.4062      0.0000    782.3940      6.1702
   645.5000    169.1768      0.0000    770.3137      6.2015
   645.7500    173.2663      0.0000    757.6181      6.1965
   646.0000    174.6796      0.0000    750.1743      6.1494
   646.2500    173.7651      0.0000    752.6048      6.0933
   646.5000    171.2422      0.0000    763.5630      6.0722
   646.7500    167.9145      0.0000    777.3945      6.1059
   647.0000    164.3103      1.3559    790.1088      6.1829
   647.2500    160.7907      2.0000    801.9752      6.2692
   647.5000    158.1198      0.0000    814.1574      6.3211
   647.7500    157.5972      0.0000    824.7672      6.3099
   648.0000    160.1818      0.0000    830.0792      6.2433
   648.2500    165.4081      0.0000    829.0328      6.1617
   648.5000    171.4611      0.0000    824.4450      6.1143
   648.7500    176.3994      0.0000    819.4599      6.1407
   649.0000    179.2995      0.0000    814.6144      6.2568
   649.2500    180.3841      0.0000    808.9263      6.4386
   649.5000    180.2815      0.0000    802.2406      6.6345
   649.7500    179.2633      0.0000    795.5104      6.8031
   650.0000    177.0865      0.0000    789.7895      6.9338
   650.2500    173.4034      0.0000    785.4997      7.0293
   650.5000    168.2777      0.0000    782.2725      7.0833
   650.7500    162.3621      0.0000    779.2867      7.0822
   651.0000    156.6896      0.0000    776.1588      7.0258
   651.2500    152.2426      0.0000    773.7372      6.9421
   651.5000    149.4987      0.0000    774.0226      6.8746
   651.7500    148.1471      0.0000    779.0118      6.8512
   652.0000    147.4061      0.0000    788.9758      6.8629
   652.2500    146.9171      0.0000    801.4676      6.8755
   652.5000    147.0660      0.0000    811.9588      6.8628
   652.7500    148.1058      0.0000    815.5254      6.8266
   653.0000    149.4160      0.0000    808.0446      6.7842
   653.2500    150.0374      0.0000    786.2938      6.7473
   653.5000    149.6147      0.0000    748.5185      6.7155
   653.7500    148.5888      0.0000    697.2379      6.6859
   654.0000    147.8287      0.0000    642.0314      6.6612
   654.2500    148.3211      0.0000    597.4222      6.6501
   654.5000    150.9505      0.0000    575.6760      6.6598
   654.7500    155.9657      0.0000    580.5153      6.6897
   655.0000    162.3349      0.0000    606.6107      6.7308
   655.2500    167.9093      0.0000    644.1747      6.7736
   655.5000    170.6877      0.0000    684.6396      6.8142
   655.7500    169.9434      0.0000    723.2662      6.8526
   656.0000    166.0480      0.0000    757.7535      6.8870
   656.2500    159.6720      0.0000    786.1082      6.9107
   656.5000    151.6843      0.0000    806.7642      6.9170
   656.7500    143.4860      0.0000    820.0453      6.9082
   657.0000    136.6456      0.0000    828.2640      6.8967
   657.2500    131.9389      0.0000    833.9310      6.8951
   657.5000    128.7470      0.0000    838.0991      6.9035
   657.7500    125.3284      0.0000    840.7559      6.9106
   658.0000    119.9745      0.0000    842.7341      6.9058
   658.2500    112.4412      0.0000    847.3401      6.8895
   658.5000    104.2558      0.0000    860.0665      6.8741
   658.7500     97.3290      0.0000    885.6262      6.8793
   659.0000     92.5274      0.0000    923.6260      6.9193
   659.2500     89.7287      0.0000    966.7673      6.9894
   659.5000     88.6640      0.0000   1004.4540      7.0676
   659.7500     89.2180      0.0000   1029.3624      7.1329
   660.0000     91.2337      0.0000   1041.1862      7.1767
   660.2500     94.3882      0.0000   1045.0535      7.1971
   660.5000     98.0532      0.0000   1047.2936      7.1916
   660.7500    101.1548      0.0000   1052.0427      7.1639
   661.0000    102.5631      0.0000   1059.5018      7.1298
   661.2500    101.8817      0.0000   1065.1602      7.1044
   661.5000     99.7644      0.0000   1060.7029      7.0851
   661.7500     97.4228      0.0000   1038.3643      7.0571
   662.0000     95.7831      0.0000    997.4895      7.0139
   662.2500     94.9352      0.0000    947.3959      6.9638
   662.5000     94.3634      0.0000    901.9374      6.9177
   662.7500     93.8490      0.0000    870.1785      6.8775
   663.0000     94.0993      0.0000    852.1854      6.8386
   663.2500     96.3463      0.0000    842.3192      6.7982
   663.5000    101.2861      0.0000    834.7635      6.7567
   663.7500    108.2790      0.0000    826.6336      6.7134
   664.0000    115.4251      0.0000    818.1853      6.6686
   664.2500    120.4992      0.0000    811.3718      6.6312
   664.5000    122.1026      0.0000    808.1432      6.6166
   664.7500    120.5185      0.0000    809.8040      6.6329
   665.0000    117.8717      0.0000    818.0035      6.6702
   665.2500    116.9707      0.0000    836.1315      6.7082
   665.5000    119.1557      0.0000    868.2685      6.7310
   665.7500    123.2343      0.0000    914.5725      6.7368
   666.0000    127.0337      0.0000    967.7990      6.7346
   666.2500    129.7678      0.0000   1017.1082      6.7344
   666.5000    132.1038      0.0000   1056.2694      6.7399
   666.7500    134.0980      0.0000   1086.4084      6.7481
   667.0000    134.3587      0.0000   1110.6742      6.7557
   667.2500    131.9336      0.0000   1128.3660      6.7618
   667.5000    128.0530      0.0000   1134.9666      6.7683
   667.7500    124.8156      0.0000   1127.5403      6.7761
   668.0000    122.6317      0.0000   1110.4841      6.7829
   668.2500    120.1348      0.0000   1094.9092      6.7872
   668.5000    116.2690      0.0000   1088.3784      6.7949
   668.7500    111.2992      0.0000   1083.9207      6.8186
   669.0000    106.0107      0.0000   1063.5062      6.8678
   669.2500    101.0810      0.0000   1016.0257      6.9370
   669.5000     97.1622      0.0000    950.2278      7.0059
   669.7500     94.6500      0.0000    887.8123      7.0492
