~Version Information
VERS.                      2.0: CWLS Log ASCII Standard - VERSION 2.0
WRAP.                       NO: One line per depth step
~Well Information Block
STRT.FT               538.0000: 
STOP.FT              1769.0000: 
STEP.FT                 0.1000: 
NULL.                -999.2500: 
COMP.          Pioneer Natural Resources: COMPANY
WELL.            Dude 43-34 Tr: WELL
FLD.           Purgatoire River: FIELD
LOC.           2083' FSL & 1042' FEL: LOCATION
PROV.                 Colorado: PROVINCE
CNTY.               Las Animas: COUNTRY
SRVC.                Patterson: SERVICE COMPANY
DATE.          Thu Jan 26 07:02:09 2006: LOG DATE
UWI.           05 071 08676 00: UNIQUE WELL ID
~Curve Information Block
DEPT.FT            0 000 00 00: Depth
DCAL.in                       : CDL Caliper
RHOB.g/cc                     : CDL Bulk Density
RHOC.g/cc                     : CDL Density Correction
DPOR.pu                       : CDL Density Porosity
GR.GAPI                       : Gamma Ray
~Parameter Information Block
~A  Depth       DCAL        RHOB        RHOC        DPOR         GR     
# ...
  1434.0000      7.8951      2.6291      0.0891      1.2674    120.9819
  1434.1000      7.8951      2.6361      0.0303      0.8439    117.7841
  1434.2000      7.8951      2.6505      0.0966     -0.0323    110.0459
  1434.3000      7.9168      2.6714      0.1750     -1.2988    102.9318
  1434.4000      7.9168      2.6871      0.1944     -2.2470     98.0023
  1434.5000      7.8864      2.6982      0.1669     -2.9226     99.3851
  1434.6000      7.8864      2.7135      0.1596     -3.8514    103.6935
  1434.7000      7.8864      2.7221      0.1648     -4.3707    101.9267
  1434.8000      7.8691      2.7051      0.0938     -3.3416     95.1368
  1434.9000      7.8691      2.6649      0.0842     -0.9047     90.7498
  1435.0000      7.8897      2.6256      0.0303      1.4813     88.0920
  1435.1000      7.8897      2.6081      0.0669      2.5409     82.0742
  1435.2000      7.8897      2.6120      0.0208      2.3025     76.6425
  1435.3000      7.8972      2.6269      0.0333      1.4021     77.0844
  1435.4000      7.8972      2.6440      0.0330      0.3627     78.1031
  1435.5000      7.8991      2.6568      0.0967     -0.4111     77.2575
  1435.6000      7.8991      2.6572      0.1105     -0.4367     79.8835
  1435.7000      7.8991      2.6389      0.0989      0.6736     88.9836
  1435.8000      7.9022      2.6012      0.0829      2.9595     97.8288
  1435.9000      7.9022      2.5544      0.0220      5.7957     94.6762
  1436.0000      7.9008      2.5221      0.0164      7.7510     82.0231
  1436.1000      7.9008      2.5194      0.0577      7.9151     73.6370
  1436.2000      7.9008      2.5373      0.0368      6.8304     72.6295
  1436.3000      7.8984      2.5584      0.0856      5.5527     73.0475
  1436.4000      7.8984      2.5721      0.0775      4.7183     73.3458
  1436.5000      7.9078      2.5846      0.0859      3.9628     75.2853
  1436.6000      7.9078      2.6067      0.0956      2.6266     77.1900
  1436.7000      7.9078      2.6304      0.1753      1.1875     76.0217
  1436.8000      7.9081      2.6379      0.1486      0.7354     72.0952
  1436.9000      7.9081      2.6260      0.1765      1.4561     68.0511
  1437.0000      7.9119      2.6046      0.1576      2.7526     68.2423
  1437.1000      7.9119      2.5903      0.1318      3.6207     73.7121
  1437.2000      7.9119      2.6002      0.1135      3.0162     79.5628
  1437.3000      7.8798      2.6399      0.1198      0.6152     79.3518
  1437.4000      7.8798      2.6923      0.1233     -2.5607     72.6242
  1437.5000      7.8686      2.7278      0.2137     -4.7123     66.7196
  1437.6000      7.8686      2.7315      0.1710     -4.9369     65.4423
  1437.7000      7.8686      2.7147      0.1939     -3.9234     67.0939
  1437.8000      7.8660      2.6964      0.1495     -2.8093     68.1204
  1437.9000      7.8660      2.6842      0.1319     -2.0748     65.6479
  1438.0000      7.8681      2.6662      0.1708     -0.9817     61.5801
  1438.1000      7.8681      2.6322      0.0270      1.0761     60.5806
  1438.2000      7.8681      2.6002      0.0587      3.0162     65.1769
  1438.3000      7.8827      2.5892      0.0051      3.6823     72.8192
  1438.4000      7.8827      2.6003      0.0282      3.0149     77.7627
  1438.5000      7.9099      2.6205      0.0466      1.7907     77.2688
  1438.6000      7.9099      2.6321      0.0592      1.0829     72.1493
  1438.7000      7.9099      2.6306      0.0797      1.1753     66.8106
  1438.8000      7.9205      2.6280      0.0416      1.3347     66.1136
  1438.9000      7.9205      2.6322      0.0942      1.0806     68.9644
  1439.0000      7.9249      2.6366      0.0906      0.8122     73.3684
  1439.1000      7.9249      2.6347      0.1034      0.9250     79.4957
  1439.2000      7.9249      2.6270      0.0897      1.3914     86.4770
  1439.3000      7.9389      2.6197      0.0658      1.8377     91.6126
  1439.4000      7.9389      2.6165      0.1155      2.0283     93.0616
  1439.5000      7.9047      2.6082      0.0620      2.5311     91.6923
  1439.6000      7.9047      2.5881      0.0561      3.7533     86.2799
  1439.7000      7.9047      2.5563      0.0559      5.6767     79.0640
  1439.8000      7.9094      2.5167      0.0231      8.0795     77.5491
  1439.9000      7.9094      2.4814     -0.0143     10.2152     81.5805
  1440.0000      7.9149      2.4569     -0.0020     11.7017     85.0557
  1440.1000      7.9149      2.4385     -0.0438     12.8165     85.4117
  1440.2000      7.9149      2.4320     -0.0413     13.2099     81.3961
  1440.3000      7.9497      2.4483      0.0066     12.2232     74.7580
  1440.4000      7.9497      2.4751      0.1160     10.6017     69.3470
  1440.5000      7.9817      2.4885      0.0944      9.7851     64.7882
  1440.6000      7.9817      2.4836      0.0743     10.0865     60.5291
  1440.7000      7.9817      2.4671      0.0679     11.0866     57.0283
  1440.8000      7.9744      2.4454      0.0845     12.3983     54.1706
  1440.9000      7.9744      2.4335      0.0595     13.1232     52.3033
  1441.0000      7.9455      2.4411      0.0866     12.6605     49.3658
  1441.1000      7.9455      2.4540      0.0658     11.8803     44.1399
  1441.2000      7.9455      2.4574      0.0599     11.6753     39.0919
  1441.3000      7.9356      2.4479      0.1050     12.2465     36.4793
  1441.4000      7.9356      2.4304      0.0294     13.3117     37.7614
  1441.5000      7.9369      2.4220      0.0086     13.8208     44.6591
  1441.6000      7.9369      2.4257      0.0976     13.5948     55.0038
  1441.7000      7.9369      2.4213      0.0962     13.8583     61.3565
  1441.8000      7.9310      2.4053      0.0503     14.8329     59.4142
  1441.9000      7.9310      2.3993      0.0374     15.1917     52.8674
  1442.0000      7.9321      2.4182      0.0188     14.0498     47.8381
  1442.1000      7.9321      2.4473      0.1463     12.2856     47.1551
  1442.2000      7.9321      2.4614      0.1238     11.4294     48.0744
  1442.3000      7.9276      2.4601      0.1349     11.5116     47.4588
  1442.4000      7.9276      2.4546      0.1138     11.8416     47.2198
  1442.5000      7.9250      2.4450      0.1009     12.4218     48.1998
  1442.6000      7.9250      2.4353      0.0734     13.0122     48.2304
  1442.7000      7.9250      2.4375      0.1143     12.8816     46.8315
  1442.8000      7.9105      2.4448      0.1294     12.4380     45.5066
  1442.9000      7.9105      2.4404      0.1421     12.7023     45.0023
  1443.0000      7.9105      2.4242      0.1065     13.6860     44.4768
  1443.1000      7.9105      2.4130      0.0978     14.3661     43.9989
  1443.2000      7.9105      2.4155      0.1160     14.2147     43.8353
  1443.3000      7.9183      2.4198      0.1126     13.9532     43.6732
  1443.4000      7.9183      2.4131      0.0840     14.3577     43.7816
  1443.5000      7.9180      2.3963      0.0240     15.3768     45.4551
  1443.6000      7.9180      2.3855     -0.0048     16.0332     48.0135
  1443.7000      7.9180      2.3916      0.0646     15.6579     48.3166
  1443.8000      7.9277      2.4083      0.0416     14.6503     45.8776
  1443.9000      7.9277      2.4297      0.0752     13.3524     44.2563
  1444.0000      7.9510      2.4500      0.1314     12.1227     46.0023
  1444.1000      7.9510      2.4556      0.1149     11.7819     49.5822
  1444.2000      7.9510      2.4474      0.0509     12.2768     51.2727
  1444.3000      7.9361      2.4438      0.0219     12.4948     49.6525
  1444.4000      7.9361      2.4492      0.0651     12.1678     48.0041
  1444.5000      7.9333      2.4597      0.0563     11.5307     48.7193
  1444.6000      7.9333      2.4784      0.0946     10.3973     49.0165
  1444.7000      7.9333      2.4938      0.0987      9.4691     46.5167
  1444.8000      7.9346      2.4923      0.1076      9.5579     44.3640
  1444.9000      7.9346      2.4854      0.0784      9.9751     44.7132
  1445.0000      7.9386      2.4881      0.0984      9.8094     44.6532
  1445.1000      7.9386      2.4986      0.0774      9.1786     43.4386
