~Version Information
VERS.                      2.0: CWLS Log ASCII Standard - VERSION 2.0
WRAP.                       NO: One line per depth step
~Well Information Block
STRT.FT               370.0000: 
STOP.FT              2832.5000: 
STEP.FT                 0.1000: 
NULL.                -999.2500: 
COMP.          Pioneer Natural Resources: COMPANY
WELL.          Black Cat 13-32: WELL
FLD.           Purgatoire River: FIELD
LOC.           1865' FSL & 1120' FWL--: LOCATION
PROV.                 Colorado: PROVINCE
CNTY.               Las Animas: COUNTRY
SRVC.                Patterson: SERVICE COMPANY
DATE.          Sun Jul 31 08:38:44 2005: LOG DATE
UWI.           05 071 08450 00: UNIQUE WELL ID
~Curve Information Block
DEPT.FT            0 000 00 00: Depth
DCAL.in                       : CDL Caliper
DPOR.pu                       : CDL Density Porosity
NPOR.pu                       : Neutron Porosity
RHOB.g/cc                     : CDL Bulk Density
RHOC.g/cc                     : CDL Density Correction
GR.GAPI                       : Gamma Ray
~Parameter Information Block
~A  Depth       DCAL        DPOR        NPOR        RHOB        RHOC         GR     
# ...
  2357.2000      7.9713      7.2752     29.4686      2.5300      0.0355    132.2099
  2357.3000      7.9728      7.3199     29.2866      2.5292      0.0450    138.1911
  2357.4000      7.9728      6.8201     29.0815      2.5375      0.0671    148.7489
  2357.5000      7.9763      6.1780     28.8683      2.5481      0.0752    159.5573
  2357.6000      7.9763      5.6502     28.5317      2.5568      0.0736    164.9412
  2357.7000      7.9763      5.2934     28.2830      2.5627      0.0726    156.0565
  2357.8000      7.9795      5.0752     28.0900      2.5663      0.0706    141.7046
  2357.9000      7.9795      4.7635     27.7661      2.5714      0.0643    137.7340
  2358.0000      7.9794      4.2123     27.3285      2.5805      0.0672    139.3974
  2358.1000      7.9794      3.7309     26.8378      2.5884      0.0563    132.5101
  2358.2000      7.9794      3.5620     26.4990      2.5912      0.0546    120.5022
  2358.3000      7.9777      3.4738     26.5048      2.5927      0.0368    115.1383
  2358.4000      7.9777      3.5300     26.5820      2.5918      0.0717    112.9679
  2358.5000      7.9771      4.2489     26.3438      2.5799      0.0094    105.7859
  2358.6000      7.9771      5.5520     26.1681      2.5584      0.0347     96.7273
  2358.7000      7.9771      6.7194     26.5288      2.5391     -0.0027     90.8641
  2358.8000      7.9779      6.7070     26.8912      2.5393     -0.0330     89.2494
  2358.9000      7.9779      5.4418     26.5089      2.5602      0.0527     98.2431
  2359.0000      7.9778      3.9170     25.7181      2.5854      0.0310    127.5109
  2359.1000      7.9778      2.7481     25.4889      2.6047      0.0826    163.2795
  2359.2000      7.9778      2.3109     26.0914      2.6119      0.0992    174.7997
  2359.3000      7.9774      2.4356     26.8138      2.6098      0.0601    159.2388
  2359.4000      7.9774      2.2520     27.1975      2.6128      0.0504    135.9516
  2359.5000      7.9781      2.0065     27.5989      2.6169      0.1281    114.9046
  2359.6000      7.9781      2.5542     27.9762      2.6079      0.0390    101.8118
  2359.7000      7.9781      3.5968     27.9919      2.5907      0.0520    101.9303
  2359.8000      7.9771      4.7811     27.9422      2.5711      0.0375    109.9073
  2359.9000      7.9771      5.7532     28.2721      2.5551      0.0299    121.8332
  2360.0000      7.9758      6.0067     28.8041      2.5509      0.0151    138.0873
  2360.1000      7.9758      6.1491     28.9207      2.5485      0.0294    147.7059
  2360.2000      7.9758      7.1381     28.5080      2.5322      0.0119    145.8181
  2360.3000      7.9762      8.4453     28.3488      2.5107     -0.0046    146.6461
  2360.4000      7.9762      8.5879     28.8341      2.5083     -0.0208    154.0884
  2360.5000      7.9762      7.3231     29.3049      2.5292      0.0454    157.6256
  2360.6000      7.9762      6.1132     29.2964      2.5491      0.0521    157.8757
  2360.7000      7.9762      6.1989     29.0985      2.5477      0.0670    158.7296
  2360.8000      7.9754      7.3597     28.9440      2.5286      0.0624    160.9544
  2360.9000      7.9754      8.2921     28.7882      2.5132      0.0214    164.3293
  2361.0000      7.9762      8.2472     28.5664      2.5139      0.0727    164.6471
  2361.1000      7.9762      7.4601     27.9564      2.5269      0.0119    154.2513
  2361.2000      7.9762      6.1118     27.2013      2.5492      0.0794    132.0514
  2361.3000      7.9785      4.7561     27.1533      2.5715      0.1025    112.5210
  2361.4000      7.9785      3.9746     27.7286      2.5844      0.0738    111.7416
  2361.5000      7.9791      4.0014     28.1941      2.5840      0.0947    124.7515
  2361.6000      7.9791      5.2541     28.4971      2.5633      0.0935    134.3015
  2361.7000      7.9791      7.3706     28.9242      2.5284      0.0673    131.1143
  2361.8000      7.9782      8.8829     29.4908      2.5034      0.0375    121.4112
  2361.9000      7.9782      8.9630     29.6772      2.5021      0.0294    120.8972
  2362.0000      7.9772      8.3721     29.0950      2.5119      0.0870    133.5800
  2362.1000      7.9772      7.8644     28.2246      2.5202      0.0500    151.4789
  2362.2000      7.9772      7.4658     27.6944      2.5268      0.0587    166.3041
  2362.3000      7.9783      7.6712     27.8143      2.5234      0.0459    173.0099
  2362.4000      7.9783      8.3118     28.3112      2.5129     -0.0346    172.2073
  2362.5000      7.9808      8.2887     28.5928      2.5132      0.0226    165.0503
  2362.6000      7.9808      7.5366     28.5625      2.5256      0.0162    150.6071
  2362.7000      7.9808      6.8043     28.5470      2.5377      0.0497    133.3328
  2362.8000      7.9817      6.5591     28.6859      2.5418      0.0485    120.1788
  2362.9000      7.9817      6.6063     28.8735      2.5410      0.0424    112.3884
  2363.0000      7.9798      6.7806     29.0440      2.5381      0.0559    108.6806
  2363.1000      7.9798      7.5008     29.0047      2.5262      0.0424    109.9793
  2363.2000      7.9798      8.6169     28.6173      2.5078      0.0229    117.3979
  2363.3000      7.9776      8.6743     28.2105      2.5069      0.0020    126.3735
  2363.4000      7.9776      7.1819     27.9980      2.5315      0.0572    131.2665
  2363.5000      7.9774      5.9251     27.8746      2.5522      0.0751    136.3283
  2363.6000      7.9774      6.4357     27.8841      2.5438      0.0547    147.0934
  2363.7000      7.9774      8.2848     28.3410      2.5133      0.0585    156.8839
  2363.8000      7.9782      9.6852     29.1449      2.4902      0.0076    157.9856
  2363.9000      7.9782      9.0913     29.5038      2.5000      0.0168    155.7051
  2364.0000      7.9777      6.8593     29.3024      2.5368      0.0649    155.4368
  2364.1000      7.9777      4.8523     29.2534      2.5699      0.0866    153.9052
  2364.2000      7.9777      4.7679     29.3895      2.5713      0.1100    148.6669
  2364.3000      7.9770      6.7392     29.2177      2.5388      0.0811    140.2992
  2364.4000      7.9770      9.0414     28.6382      2.5008      0.0008    132.9953
  2364.5000      7.9774     10.0650     27.8724      2.4839      0.0413    128.6764
  2364.6000      7.9774     10.0607     27.5373      2.4840      0.0449    124.0288
  2364.7000      7.9774      9.8146     28.0439      2.4881      0.0547    121.1680
  2364.8000      7.9785      9.6915     28.9253      2.4901      0.0287    128.7927
  2364.9000      7.9785     10.3941     29.6389      2.4785      0.0159    144.5933
  2365.0000      7.9790     12.8867     30.6636      2.4374      0.0205    152.5440
  2365.1000      7.9790     16.9843     32.2459      2.3698     -0.0275    144.1476
  2365.2000      7.9790     21.4600     33.5372      2.2959     -0.0489    126.4317
  2365.3000      7.9788     26.2820     33.8318      2.2163     -0.0324    111.6761
  2365.4000      7.9788     32.4157     33.2722      2.1151     -0.0613    105.0471
  2365.5000      7.9793     39.4854     32.7741      1.9985     -0.0413    103.8294
  2365.6000      7.9793     45.8045     32.9423      1.8942     -0.1099    106.3941
  2365.7000      7.9793     50.2493     33.3382      1.8209     -0.0861    110.8662
  2365.8000      7.9822     52.9221     33.4947      1.7768     -0.0880    111.4743
  2365.9000      7.9822     54.3062     33.4910      1.7539     -0.0219    106.6426
  2366.0000      7.9900     54.9015     33.3594      1.7441      0.0288    101.7506
  2366.1000      7.9900     54.8232     33.0168      1.7454      0.0593     98.1840
  2366.2000      7.9900     53.8105     32.5857      1.7621      0.1056     92.3546
  2366.3000      8.0014     51.9975     32.5479      1.7920      0.1325     86.9669
  2366.4000      8.0014     49.9614     32.9849      1.8256      0.1156     85.5350
  2366.5000      8.0101     48.5345     33.3651      1.8492      0.1304     82.2815
  2366.6000      8.0101     48.7098     33.3773      1.8463      0.1188     74.0129
  2366.7000      8.0101     50.5627     33.3942      1.8157      0.0195     69.8686
