~Version Information
VERS.                      2.0: CWLS Log ASCII Standard - VERSION 2.0
WRAP.                       NO: One line per depth step
~Well Information Block
STRT.FT               595.0000: 
STOP.FT              1693.0000: 
STEP.FT                 0.1000: 
NULL.                -999.2500: 
COMP.          Pioneer Natural Resources: COMPANY
WELL.          Rollerball 34-30: WELL
FLD.           Purgatoire River: FIELD
LOC.           893' FSL & 2408' FEL: LOCATION
CNTY.               Las Animas: COUNTY
SRVC.                Patterson: SERVICE COMPANY
DATE.          Tue Feb 14 15:43:01 2006: LOG DATE
UWI.           05 071 08581 00: UNIQUE WELL ID
STAT.                 Colorado: STATE
~Curve Information Block
DEPT.FT            0 000 00 00: Depth
DCAL.in                       : CDL Caliper
RHOB.g/cc                     : CDL Bulk Density
RHOC.g/cc                     : CDL Density Correction
DPOR.pu                       : CDL Density Porosity
GR.GAPI                       : Gamma Ray
NPOR.pu                       : Neutron Porosity
~Parameter Information Block
~A  Depth       DCAL        RHOB        RHOC        DPOR         GR         NPOR    
# ...
  1171.0000      8.0681      2.5500     -0.0079      6.0596    177.2537     27.4284
  1171.1000      8.0681      2.5373     -0.0315      6.8306    178.5371     27.3789
  1171.2000      8.0681      2.5352      0.0329      6.9592    174.4649     26.9708
  1171.3000      8.0685      2.5414     -0.0318      6.5797    173.0993     26.4824
  1171.4000      8.0685      2.5536     -0.0011      5.8436    178.6364     26.3439
  1171.5000      8.0715      2.5572      0.0258      5.6268    184.6354     26.5620
  1171.6000      8.0715      2.5432     -0.0000      6.4703    188.2668     26.9294
  1171.7000      8.0715      2.5287      0.0018      7.3516    191.2062     26.8547
  1171.8000      8.0779      2.5285      0.0041      7.3638    189.0443     26.2002
  1171.9000      8.0779      2.5343      0.0255      7.0151    182.9152     25.7924
  1172.0000      8.0831      2.5306     -0.0026      7.2346    183.3911     25.5400
  1172.1000      8.0831      2.5194     -0.0199      7.9167    189.8252     24.6453
  1172.2000      8.0831      2.5093      0.0105      8.5256    193.3474     23.7559
  1172.3000      8.0843      2.5015     -0.0370      9.0019    193.0164     23.7513
  1172.4000      8.0843      2.4912      0.0096      9.6215    187.8981     24.0117
  1172.5000      8.0835      2.4674     -0.0319     11.0688    173.7013     23.5972
  1172.6000      8.0835      2.4273     -0.0284     13.4959    161.4551     22.4768
  1172.7000      8.0835      2.3826      0.0221     16.2064    162.8987     21.7254
  1172.8000      8.0822      2.3400     -0.0050     18.7850    169.2735     22.1813
  1172.9000      8.0822      2.3017     -0.0716     21.1096    171.5248     22.9534
  1173.0000      8.0846      2.2657     -0.0303     23.2906    173.5699     22.8116
  1173.1000      8.0846      2.2267     -0.0484     25.6538    180.0332     22.2184
  1173.2000      8.0846      2.1872     -0.0267     28.0479    182.6261     22.3991
  1173.3000      8.0834      2.1570      0.0026     29.8799    175.1965     23.3864
  1173.4000      8.0834      2.1498      0.0144     30.3152    166.2731     24.4282
  1173.5000      8.0844      2.1778      0.0267     28.6169    162.5320     25.4925
  1173.6000      8.0844      2.2383      0.0870     24.9537    162.5263     26.6467
  1173.7000      8.0844      2.3116      0.1069     20.5110    162.7640     27.2821
  1173.8000      8.0783      2.3817      0.1259     16.2580    162.3777     27.1870
  1173.9000      8.0783      2.4430      0.1750     12.5449    163.3916     26.9325
  1174.0000      8.0784      2.4958      0.1681      9.3474    165.9317     26.9189
  1174.1000      8.0784      2.5436      0.2166      6.4511    165.9966     27.0134
  1174.2000      8.0784      2.5754      0.2090      4.5231    158.1716     27.1479
  1174.3000      8.0784      2.5779      0.1331      4.3710    148.1509     27.2886
  1174.4000      8.0784      2.5598      0.0404      5.4685    144.3164     26.7723
  1174.5000      8.0755      2.5370      0.1039      6.8500    141.8057     25.4146
  1174.6000      8.0755      2.5199      0.0543      7.8872    138.0529     24.3643
  1174.7000      8.0755      2.5174      0.0704      8.0381    137.2844     24.4388
  1174.8000      8.0757      2.5218      0.0656      7.7676    137.5116     25.1798
  1174.9000      8.0757      2.5197      0.0440      7.8970    135.7537     25.8986
  1175.0000      8.0767      2.5123      0.0475      8.3432    134.2613     25.9347
  1175.1000      8.0767      2.5083      0.0344      8.5879    134.8094     24.8960
  1175.2000      8.0767      2.5061      0.0471      8.7241    136.4964     23.7067
  1175.3000      8.0783      2.4934      0.0242      9.4921    137.5053     23.5891
  1175.4000      8.0783      2.4690      0.0303     10.9696    138.4799     24.5910
  1175.5000      8.0787      2.4455      0.0153     12.3914    141.4408     25.6714
  1175.6000      8.0787      2.4395     -0.0454     12.7581    146.2027     25.8059
  1175.7000      8.0787      2.4589      0.0131     11.5845    149.1452     25.4908
  1175.8000      8.0828      2.4907      0.0463      9.6562    150.2049     25.7490
  1175.9000      8.0828      2.5134      0.0578      8.2784    151.7057     25.9954
  1176.0000      8.0837      2.5098      0.1058      8.4989    151.2603     25.5845
  1176.1000      8.0837      2.4798     -0.0010     10.3145    147.4462     25.1341
  1176.2000      8.0837      2.4523      0.0199     11.9816    143.9985     25.2577
  1176.3000      8.0814      2.4497      0.0133     12.1365    145.1780     26.0147
  1176.4000      8.0814      2.4610      0.0718     11.4552    149.3548     26.8881
  1176.5000      8.0778      2.4699      0.0873     10.9171    152.3251     27.6072
  1176.6000      8.0778      2.4746      0.1170     10.6323    157.5414     28.1733
  1176.7000      8.0778      2.4670      0.1175     11.0921    166.8822     27.9338
  1176.8000      8.0799      2.4405      0.0256     12.6995    174.9270     26.7771
  1176.9000      8.0799      2.4110      0.0187     14.4855    180.9596     25.6190
  1177.0000      8.0786      2.3989      0.0137     15.2176    183.6985     25.1154
  1177.1000      8.0786      2.4047      0.0487     14.8687    176.4753     25.1302
  1177.2000      8.0786      2.4131      0.0831     14.3556    162.3718     25.0540
  1177.3000      8.0774      2.4196      0.0827     13.9663    156.6481     24.6955
  1177.4000      8.0774      2.4349      0.0758     13.0356    166.3022     24.4342
  1177.5000      8.0772      2.4547      0.1725     11.8387    180.7311     24.4333
  1177.6000      8.0772      2.4599      0.1825     11.5184    184.0555     24.0813
  1177.7000      8.0772      2.4595      0.1527     11.5440    174.7989     23.3005
  1177.8000      8.0766      2.4785      0.2288     10.3937    167.1086     23.4017
  1177.9000      8.0766      2.5194      0.2541      7.9138    168.4986     25.0410
  1178.0000      8.0788      2.5713      0.2284      4.7722    169.6688     26.4362
  1178.1000      8.0788      2.6243      0.2435      1.5560    165.7234     26.1254
  1178.2000      8.0788      2.6620      0.3241     -0.7270    161.9726     25.0921
  1178.3000      8.0752      2.6746      0.2787     -1.4934    159.5678     24.4275
  1178.4000      8.0752      2.6722      0.2889     -1.3476    156.1642     24.6768
  1178.5000      8.0728      2.6586      0.2719     -0.5226    152.8624     25.8639
  1178.6000      8.0728      2.6365      0.2180      0.8172    150.9481     26.9686
  1178.7000      8.0728      2.6210      0.1499      1.7580    146.4487     27.0218
  1178.8000      8.0718      2.6127      0.1623      2.2607    137.8710     26.2699
  1178.9000      8.0718      2.6029      0.0349      2.8575    133.5137     25.7615
  1179.0000      8.0711      2.6002      0.0355      3.0157    136.5799     26.0994
  1179.1000      8.0711      2.6103      0.0433      2.4038    140.5182     26.8738
  1179.2000      8.0711      2.6229      0.0378      1.6418    144.8885     27.1310
  1179.3000      8.0709      2.6281      0.0212      1.3301    151.2877     26.5213
  1179.4000      8.0709      2.6238      0.0366      1.5876    151.3173     25.5999
  1179.5000      8.0696      2.6106      0.0169      2.3889    143.4685     24.9068
  1179.6000      8.0696      2.5917     -0.0004      3.5322    138.4636     24.5869
  1179.7000      8.0696      2.5787     -0.0157      4.3202    140.9636     24.8863
  1179.8000      8.0666      2.5733      0.0158      4.6457    146.6628     25.9413
  1179.9000      8.0666      2.5640      0.0049      5.2120    152.9575     27.3743
  1180.0000      8.0663      2.5565     -0.0094      5.6694    157.9281     28.4742
  1180.1000      8.0663      2.5668      0.0146      5.0445    160.2339     28.6315
  1180.2000      8.0663      2.5848      0.0398      3.9492    160.0654     28.1400
  1180.3000      8.0662      2.5859      0.0414      3.8865    156.2812     27.9233
  1180.4000      8.0662      2.5706      0.0100      4.8118    152.3995     27.9234
  1180.5000      8.0656      2.5650     -0.0489      5.1498    155.3422     27.5067
