~Version Information
VERS.                      2.0: CWLS Log ASCII Standard - VERSION 2.0
WRAP.                       NO: One line per depth step
~Well Information Block
STRT.FT               325.0000: 
STOP.FT              1013.5000: 
STEP.FT                 0.1000: 
NULL.                -999.2500: 
COMP.          Pioneer Natural Resources: COMPANY
WELL.                Doc 34-30: WELL
FLD.           Purgatoire River: FIELD
LOC.           454' FSL & 1386' FEL: LOCATION
CNTY.               Las Animas: COUNTY
SRVC.                Patterson: SERVICE COMPANY
DATE.          Thu Feb 16 07:19:58 2006: LOG DATE
UWI.           05 071 08694 00: UNIQUE WELL ID
STAT.                 Colorado: STATE
~Curve Information Block
DEPT.FT            0 000 00 00: Depth
DCAL.in                       : CDL Caliper
RHOB.g/cc                     : CDL Bulk Density
RHOC.g/cc                     : CDL Density Correction
DPOR.pu                       : CDL Density Porosity
GR.GAPI                       : Gamma Ray
NPOR.pu                       : Neutron Porosity
~Parameter Information Block
~A  Depth       DCAL        RHOB        RHOC        DPOR         GR         NPOR    
# ...
   997.0000      7.8374      2.4371      0.0419     12.9021   -999.2500     21.7328
   997.1000      7.8374      2.4418      0.0163     12.6168   -999.2500     22.4130
   997.2000      7.8374      2.4380      0.0490     12.8470   -999.2500     22.7144
   997.3000      7.8329      2.4294      0.0236     13.3685   -999.2500     21.8634
   997.4000      7.8329      2.4291      0.0154     13.3904   -999.2500     20.7031
   997.5000      7.8252      2.4394      0.0567     12.7612   -999.2500     20.4069
   997.6000      7.8252      2.4430      0.0844     12.5470   -999.2500     21.6602
   997.7000      7.8252      2.4303      0.0635     13.3148   -999.2500     23.2944
   997.8000      7.8204      2.4135      0.0345     14.3330   -999.2500     23.2684
   997.9000      7.8204      2.4058      0.0523     14.7978   -999.2500     22.2587
   998.0000      7.8234      2.4109      0.0365     14.4926   -999.2500     22.0417
   998.1000      7.8234      2.4274      0.0387     13.4886   -999.2500     22.5170
   998.2000      7.8234      2.4458      0.0650     12.3746   -999.2500     22.5853
   998.3000      7.8386      2.4483      0.0796     12.2253   -999.2500     21.9482
   998.4000      7.8386      2.4309      0.0330     13.2762   -999.2500     21.3948
   998.5000      7.8533      2.4149     -0.0187     14.2506   -999.2500     21.9076
   998.6000      7.8533      2.4202     -0.0246     13.9257   -999.2500     23.6181
   998.7000      7.8533      2.4332      0.0720     13.1385   -999.2500     24.9202
   998.8000      7.8520      2.4245      0.0490     13.6669   -999.2500     24.7556
   998.9000      7.8520      2.4009     -0.0363     15.0947   -999.2500     24.0221
   999.0000      7.8432      2.3964     -0.0145     15.3708   -999.2500     23.2743
   999.1000      7.8432      2.4202      0.0382     13.9294   -999.2500     22.2944
   999.2000      7.8432      2.4489      0.0590     12.1905   -999.2500     21.4258
   999.3000      7.8350      2.4537      0.0569     11.9000   -999.2500     21.4944
   999.4000      7.8350      2.4295      0.0120     13.3614   -999.2500     22.4458
   999.5000      7.8270      2.4041     -0.0278     14.9011   -999.2500     23.3754
   999.6000      7.8270      2.4006      0.0247     15.1143   -999.2500     24.4130
   999.7000      7.8270      2.4086      0.0681     14.6279   -999.2500     27.6509
   999.8000      7.8194      2.4122      0.0419     14.4118   -999.2500     35.4113
   999.9000      7.8194      2.4156      0.0453     14.2056   -999.2500     45.1729
  1000.0000      7.8181      2.4244      0.0094     13.6700   -999.2500     51.3101
  1000.1000      7.8181      2.4326      0.0399     13.1768   -999.2500     53.3803
  1000.2000      7.8181      2.4322      0.0393     13.1987   -999.2500     53.7743
  1000.3000      7.8195      2.4248      0.0057     13.6504   -999.2500     53.8154
  1000.4000      7.8195      2.4160      0.0441     14.1848   -999.2500     53.8177
  1000.5000      7.8177      2.4100      0.0162     14.5440   -999.2500   -999.2500
  1000.6000      7.8177      2.4141      0.0240     14.2980   -999.2500   -999.2500
  1000.7000      7.8177      2.4370      0.0043     12.9074   -999.2500   -999.2500
  1000.8000      7.8179      2.4719      0.0767     10.7953   -999.2500   -999.2500
  1000.9000      7.8179      2.4890      0.1005      9.7568   -999.2500   -999.2500
  1001.0000      7.8263      2.4761      0.0503     10.5388   -999.2500   -999.2500
  1001.1000      7.8263      2.4519      0.0343     12.0072   -999.2500   -999.2500
  1001.2000      7.8263      2.4298      0.0482     13.3455   -999.2500   -999.2500
  1001.3000      7.8354      2.4104     -0.0166     14.5206   -999.2500   -999.2500
  1001.4000      7.8354      2.3974     -0.0090     15.3086   -999.2500   -999.2500
  1001.5000      7.8401      2.3940      0.0150     15.5162   -999.2500   -999.2500
  1001.6000      7.8401      2.4002     -0.0005     15.1422   -999.2500   -999.2500
  1001.7000      7.8401      2.4153     -0.0183     14.2240   -999.2500   -999.2500
  1001.8000      7.8392      2.4347      0.0213     13.0479   -999.2500   -999.2500
  1001.9000      7.8392      2.4477      0.0510     12.2589   -999.2500   -999.2500
  1002.0000      7.8266      2.4472      0.0389     12.2906   -999.2500   -999.2500
  1002.1000      7.8266      2.4401      0.0466     12.7242   -999.2500   -999.2500
  1002.2000      7.8266      2.4384      0.0954     12.8229   -999.2500   -999.2500
  1002.3000      7.8104      2.4478      0.0583     12.2571   -999.2500   -999.2500
  1002.4000      7.8104      2.4633      0.0741     11.3156   -999.2500   -999.2500
  1002.5000      7.8074      2.4726      0.0727     10.7515   -999.2500   -999.2500
  1002.6000      7.8074      2.4685      0.0568     11.0025   -999.2500   -999.2500
  1002.7000      7.8074      2.4516      0.0588     12.0259   -999.2500   -999.2500
  1002.8000      7.8132      2.4290      0.0193     13.3940   -999.2500   -999.2500
  1002.9000      7.8132      2.4134      0.0400     14.3381   -999.2500   -999.2500
  1003.0000      7.8177      2.4123      0.0104     14.4038   -999.2500   -999.2500
  1003.1000      7.8177      2.4233      0.0087     13.7422   -999.2500   -999.2500
  1003.2000      7.8177      2.4400      0.0139     12.7253   -999.2500   -999.2500
  1003.3000      7.8196      2.4585      0.0243     11.6036   -999.2500   -999.2500
  1003.4000      7.8196      2.4691      0.0802     10.9644   -999.2500   -999.2500
  1003.5000      7.8218      2.4638      0.0397     11.2854   -999.2500   -999.2500
  1003.6000      7.8218      2.4516      0.0442     12.0272   -999.2500   -999.2500
  1003.7000      7.8218      2.4437      0.0058     12.5030   -999.2500   -999.2500
  1003.8000      7.8248      2.4430      0.0181     12.5427   -999.2500   -999.2500
  1003.9000      7.8248      2.4462      0.0509     12.3534   -999.2500   -999.2500
  1004.0000      7.8271      2.4524     -0.0133     11.9737   -999.2500   -999.2500
  1004.1000      7.8271      2.4561      0.0661     11.7539   -999.2500   -999.2500
  1004.2000      7.8271      2.4475      0.0349     12.2735   -999.2500   -999.2500
  1004.3000      7.8266      2.4367      0.0276     12.9261   -999.2500   -999.2500
  1004.4000      7.8266      2.4343      0.0259     13.0729   -999.2500   -999.2500
  1004.5000      7.8259      2.4337      0.0395     13.1074   -999.2500   -999.2500
  1004.6000      7.8259      2.4358      0.0247     12.9820   -999.2500   -999.2500
  1004.7000      7.8259      2.4478      0.0519     12.2543   -999.2500   -999.2500
  1004.8000      7.8281      2.4609      0.0450     11.4627   -999.2500   -999.2500
  1004.9000      7.8281      2.4643      0.0353     11.2540   -999.2500   -999.2500
  1005.0000      7.8283      2.4656     -0.0063     11.1757   -999.2500   -999.2500
  1005.1000      7.8283      2.4759      0.0066     10.5487   -999.2500   -999.2500
  1005.2000      7.8283      2.4898      0.0622      9.7091   -999.2500   -999.2500
  1005.3000      7.8237      2.4963      0.0202      9.3145   -999.2500   -999.2500
  1005.4000      7.8237      2.4929      0.0598      9.5217   -999.2500   -999.2500
  1005.5000      7.8188      2.4821      0.0029     10.1785   -999.2500   -999.2500
  1005.6000      7.8188      2.4727      0.0221     10.7455   -999.2500   -999.2500
  1005.7000      7.8188      2.4660      0.0595     11.1508   -999.2500   -999.2500
  1005.8000      7.8159      2.4525      0.0233     11.9720   -999.2500   -999.2500
  1005.9000      7.8159      2.4327     -0.0201     13.1667   -999.2500   -999.2500
  1006.0000      7.8179      2.4218     -0.0429     13.8305   -999.2500   -999.2500
  1006.1000      7.8179      2.4280     -0.0123     13.4539   -999.2500   -999.2500
  1006.2000      7.8179      2.4409      0.0276     12.6708   -999.2500   -999.2500
  1006.3000      7.8248      2.4440      0.0270     12.4862   -999.2500   -999.2500
  1006.4000      7.8248      2.4276      0.0184     13.4762   -999.2500   -999.2500
  1006.5000      7.8328      2.3971     -0.0144     15.3258   -999.2500   -999.2500
