~Version Information
VERS.                      2.0: CWLS Log ASCII Standard - VERSION 2.0
WRAP.                       NO: One line per depth step
~Well Information Block
STRT.FT                -5.0000: 
STOP.FT              1761.2500: 
STEP.FT                 0.2500: 
NULL.                -999.2500: 
COMP.          Pioneer Natural Resources: COMPANY
WELL.          Manville 42-14 Tr: WELL
FLD.           Purgatoire River: FIELD
LOC.           2018'FNL & 562' FEL: LOCATION
STAT.                 Colorado: State
CNTY.               Las Animas: COUNTY
CTRY. USA : Country
SECT. 14 : Section
TOWN. 32S : Township
RANG. 66W : Range
SRVC.                Patterson: SERVICE COMPANY
DATE.          Fri Sep 23 10:37:02 2005: LOG DATE
API. 05-071-08522             : UNIQUE WELL ID
~Curve Information Block
DEPT.FT            0 000 00 00: Depth
CCL.                          : Casing Collar Locator
TT3.usec                      : CBL 3' Travel Time
AMP3.mV                       : CBL 3' Amplitude
AMP5.mV                       : CBL 5' Amplitude
GR.GAPI                       : Gamma Ray
~Parameter Information Block
~A  Depth       CCL         TT3         AMP3        AMP5         GR     
# ...
   471.0000      0.0000    303.0316     22.2192     10.8327     54.6631
   471.2500      0.0000    303.2712     21.6518     10.9197     57.9806
   471.5000      0.0000    303.5226     20.9537     11.1808     60.4502
   471.7500      0.0000    303.7654     20.2022     10.4845     62.0096
   472.0000      0.0000    303.9975     19.4616     10.6586     63.2957
   472.2500      0.0000    304.2252     18.7568      9.9622     64.6912
   472.5000      0.0000    304.4501     18.0823     10.4845     66.1009
   472.7500      0.0000    304.6643     17.4437      9.1788     67.2699
   473.0000      0.0000    304.8547     16.8770      9.2658     67.8652
   473.2500      0.0000    305.0131     16.4199      8.5694     67.5410
   473.5000      0.0000    305.1379     16.0799      9.0047     66.4397
   473.7500      0.0000    305.2238     15.8448      7.8731     65.5391
   474.0000      0.0000    305.2537     15.7105      8.2213     66.2016
   474.2500      0.0000    305.2112     15.6815      7.6990     69.3770
   474.5000      0.0000    305.1035     15.7446      8.0472     74.9932
   474.7500      0.0000    304.9701     15.8509      7.0896     81.7523
   475.0000      0.0000    304.8640     15.9295      7.6119     87.7763
   475.2500      0.0000    304.8180     15.9294      6.9156     91.8767
   475.5000      0.0000    304.8280     15.8536      7.6990     94.0086
   475.7500      0.0000    304.8657     15.7543      7.0896     94.5280
   476.0000      0.0000    304.9047     15.6882      7.7860     93.8195
   476.2500      0.0000    304.9342     15.6737      7.6119     92.8286
   476.5000      0.0000    304.9580     15.6877      7.8731     92.8755
   476.7500      0.0000    304.9871     15.6920      6.9156     94.2536
   477.0000      0.0000    305.0348     15.6526      7.6119     95.6810
   477.2500      0.0000    305.1135     15.5465      7.3508     95.9002
   477.5000      0.0000    305.2279     15.3713      7.6990     95.3448
   477.7500      0.0000    305.3676     15.1603      7.3508     95.4400
   478.0000      0.0000    305.5049     14.9766      7.3508     96.6225
   478.2500      0.0000    305.6107     14.8759      7.6119     97.9016
   478.5000      0.0000    305.6741     14.8724      7.3508     98.2332
   478.7500      0.0000    305.7049     14.9377      7.3508     97.5533
   479.0000      0.0000    305.7152     15.0307      7.2637     96.3977
   479.2500      0.0000    305.7028     15.1264      7.9601     95.2040
   479.5000      0.0000    305.6547     15.2242      7.2637     94.2711
   479.7500      0.0000    305.5672     15.3294      7.6990     93.8932
   480.0000      0.0000    305.4606     15.4286      7.3508     94.0816
   480.2500      0.0000    305.3709     15.4926      7.3508     94.3046
   480.5000      0.0000    305.3242     15.5101      7.1767     93.8849
   480.7500      0.0000    305.3177     15.5087      7.5249     92.6792
   481.0000      0.0000    305.3268     15.5306      7.1767     91.1467
   481.2500      0.0000    305.3264     15.5945      8.1342     89.9029
   481.5000      0.0000    305.3066     15.6889      7.3508     89.4413
   481.7500      0.0000    305.2726     15.7906      7.6990     90.0427
   482.0000      0.0000    305.2411     15.8736      7.1767     91.4636
   482.2500      0.0000    305.2320     15.9153      8.2213     92.8077
   482.5000      0.0000    305.2513     15.9140      7.8731     93.1943
   482.7500      0.0000    305.2804     15.8999      8.7435     92.5451
   483.0000      0.0000    305.2881     15.9150      8.2213     91.2955
   483.2500      0.0000    305.2570     15.9794      8.5694     89.5758
   483.5000      0.0000    305.1970     16.0765      8.1342     87.4134
   483.7500      0.0000    305.1417     16.1599      8.1342     85.6478
   484.0000      0.0000    305.1318     16.1714      7.9601     85.6753
   484.2500      0.0000    305.1950     16.0725      8.4824     87.8930
   484.5000      0.0000    305.3316     15.8748      7.6990     91.1842
   484.7500      0.0000    305.5208     15.6335      7.5249     94.4951
   485.0000      0.0000    305.7365     15.4088      7.6119     98.1926
   485.2500      0.0000    305.9431     15.2443      7.6119    103.0421
   485.5000      0.0000    306.0797     15.1838      7.5249    108.3731
   485.7500      0.0000    306.0735     15.2786      8.1342    112.1452
   486.0000      0.0000    305.8952     15.5546      8.0472    112.5782
   486.2500      0.0000    305.5944     15.9736      8.6565    109.2986
   486.5000      0.0000    305.2723     16.4370      8.2213    103.4473
   486.7500      0.0000    305.0166     16.8329      8.5694     97.1461
   487.0000      0.0000    304.8603     17.0910      8.6565     92.3383
   487.2500      0.0000    304.7846     17.2134      9.9622     89.6475
   487.5000      0.0000    304.7449     17.2664      9.4399     88.4676
   487.7500      0.0000    304.6973     17.3340     10.3104     88.2052
   488.0000      0.0000    304.6179     17.4652      9.3529     89.0801
   488.2500      0.0000    304.5097     17.6558      9.2658     91.4990
   488.5000      0.0000    304.3951     17.8679      8.6565     94.8929
   488.7500      0.0000    304.3014     18.0598      8.7435     97.5643
   489.0000      0.0000    304.2440     18.2065      8.9176     97.8471
   489.2500      0.0000    304.2112     18.3125      9.3529     95.3828
   489.5000      0.0000    304.1685     18.4063      8.9176     91.2302
   489.7500      0.0000    304.0862     18.5107      9.4399     86.7790
   490.0000      0.0000    303.9661     18.6183      9.7881     82.6410
   490.2500      0.0000    303.8417     18.7030      9.9622     78.4848
   490.5000      0.0000    303.7524     18.7487      9.8751     73.7952
   490.7500      0.0000    303.7208     18.7554     10.0492     68.8303
   491.0000      0.0000    303.7504     18.7176     10.2233     64.8851
   491.2500      0.0000    303.8367     18.6135      9.7881     63.4957
   491.5000      0.0000    303.9721     18.4264     10.1363     65.2608
   491.7500      0.0000    304.1382     18.1739      9.6140     69.4237
   492.0000      0.0000    304.2975     17.9141     10.5715     74.4772
   492.2500      0.0000    304.4024     17.7209      9.5270     79.1188
   492.5000      0.0000    304.4230     17.6418     10.0492     82.9288
   492.7500      0.0000    304.3729     17.6646      9.0917     86.4241
   493.0000      0.0000    304.3045     17.7240      9.3529     90.3648
   493.2500      0.0000    304.2737     17.7480      8.0472     94.8992
   493.5000      0.0000    304.3052     17.7033      8.3083     99.4031
   493.7500      0.0000    304.3852     17.6036      8.3083    102.9661
   494.0000      0.0000    304.4825     17.4883      8.7435    104.8660
   494.2500      0.0000    304.5719     17.3990      8.6565    104.7226
   494.5000      0.0000    304.6434     17.3647      9.2658    102.5204
   494.7500      0.0000    304.6947     17.3958      9.3529     98.7500
   495.0000      0.0000    304.7234     17.4846      9.1788     94.3226
   495.2500      0.0000    304.7277     17.6112      9.3529     89.8444
   495.5000      0.0000    304.7113     17.7468      9.5270     85.1718
   495.7500      0.0000    304.6847     17.8603      9.8751     80.3212
   496.0000      0.0000    304.6563     17.9326      9.7881     76.4613
   496.2500      0.0000    304.6282     17.9639      9.3529     75.2313
   496.5000      0.0000    304.6006     17.9567      9.2658     77.3593
   496.7500      0.0000    304.5783     17.8994      9.1788     82.3506
   497.0000      0.0000    304.5647     17.7849      9.2658     88.7643
   497.2500      0.0000    304.5531     17.6421      8.4824     94.2529
   497.5000      0.0000    304.5291     17.5266      8.9176     96.3966
   497.7500      0.0000    304.4830     17.4763      8.3953     94.6154
   498.0000      0.0000    304.4178     17.4873      8.4824     90.8714
   498.2500      0.0000    304.3456     17.5282      7.7860     87.7852
   498.5000      0.0000    304.2803     17.5625      8.0472     86.4153
   498.7500      0.0000    304.2331     17.5590      8.0472     86.2861
