~Version Information
VERS.                      2.0: CWLS Log ASCII Standard - VERSION 2.0
WRAP.                       NO: One line per depth step
~Well Information Block
STRT.FT                 0.0000: 
STOP.FT              1426.7500: 
STEP.FT                 0.2500: 
NULL.                -999.2500: 
COMP.          Pioneer Natural Resources: COMPANY
WELL.            Bordeaux 42-2: WELL
FLD.           Purgatorie River: FIELD
LOC.           1963' FNL & 1148' FEL: LOCATION
PROV.                 Colorado: PROVINCE
CNTY.               Las Animas: COUNTRY
SRVC.                Patterson: SERVICE COMPANY
DATE.          Fri Dec 02 09:28:20 2005: LOG DATE
UWI.                          : UNIQUE WELL ID
~Curve Information Block
DEPT.FT            0 000 00 00: Depth
CCL.                          : Casing Collar Locator
TT3.usec                      : CBL 3' Travel Time
AMP3.mV                       : CBL 3' Amplitude
GR.GAPI                       : Gamma Ray
~Parameter Information Block
~A  Depth       CCL         TT3         AMP3         GR     
# ...
   469.0000      0.0000    735.3257     12.4490     85.6374
   469.2500      0.0000    745.9781     12.2866     87.5732
   469.5000      0.0000    752.4230     12.1718     89.6326
   469.7500      0.0000    734.4077     12.1109     91.3097
   470.0000      0.0000    679.2133     12.1157     91.4480
   470.2500      0.0000    609.5403     12.1973     89.0573
   470.5000      0.0000    573.8261     12.3103     84.3797
   470.7500      0.0000    593.2207     12.3922     79.2157
   471.0000      0.0000    630.6133     12.4459     75.9466
   471.2500      0.0000    631.6390     12.5038     75.8658
   471.5000      0.0000    594.3325     12.5728     78.2334
   471.7500      0.0000    569.6614     12.6417     80.9184
   472.0000      0.0000    589.6900     12.6856     81.9881
   472.2500      0.0000    624.4960     12.6914     80.7616
   472.5000      0.0000    623.6207     12.6807     77.6620
   472.7500      0.0000    586.1069     12.6742     73.6261
   473.0000      0.0000    561.2823     12.6788     69.9056
   473.2500      0.0000    584.1462     12.6969     67.8226
   473.5000      0.0000    639.4396     12.7027     67.9079
   473.7500      0.0000    689.2280     12.6618     69.3984
   474.0000      0.0000    714.2673     12.5862     71.0950
   474.2500      0.0000    719.5917     12.5125     72.5912
   474.5000      0.0000    717.1014     12.4487     74.3847
   474.7500      0.0000    716.8804     12.3643     77.0829
   475.0000      0.0000    724.7048     12.2211     80.7728
   475.2500      0.0000    738.7448     12.0382     84.8921
   475.5000      0.0000    751.6054     11.9029     88.4343
   475.7500      0.0000    758.1940     11.8716     90.4285
   476.0000      0.0000    761.0515     11.9092     90.4260
   476.2500      0.0000    765.0009     11.9698     88.6979
   476.5000      0.0000    769.4844     12.0599     86.2571
   476.7500      0.0000    771.1160     12.1863     84.6205
   477.0000      0.0000    769.3383     12.3373     84.9514
   477.2500      0.0000    766.2562     12.5314     87.0257
   477.5000      0.0000    763.4929     12.7814     89.2083
   477.7500      0.0000    760.0318     13.0372     89.8164
   478.0000      0.0000    749.5180     13.2414     88.7624
   478.2500      0.0000    721.7519     13.3865     87.8124
   478.5000      0.0000    682.7731     13.4807     89.0593
   478.7500      0.0000    666.0016     13.5184     93.0453
   479.0000      0.0000    692.0725     13.4870     98.2610
   479.2500      0.0000    737.4879     13.3818    102.2789
   479.5000      0.0000    770.1547     13.2285    103.4079
   479.7500      0.0000    782.6095     13.0788    101.4803
   480.0000      0.0000    782.9944     12.9519     97.3413
   480.2500      0.0000    780.1863     12.8203     92.1344
   480.5000      0.0000    778.8478     12.6777     87.2518
   480.7500      0.0000    779.9232     12.5441     84.0991
   481.0000      0.0000    782.2525     12.3998     83.1529
   481.2500      0.0000    783.1183     12.2149     83.5847
   481.5000      0.0000    780.3684     12.0379     84.1112
   481.7500      0.0000    775.3729     11.9540     83.9883
   482.0000      0.0000    772.0135     11.9591     83.2782
   482.2500      0.0000    772.0982     11.9678     82.6441
   482.5000      0.0000    772.4721     11.9439     82.9734
   482.7500      0.0000    765.6815     11.9289     84.7766
   483.0000      0.0000    743.5424     11.9451     87.6233
   483.2500      0.0000    708.0352     11.9607     90.0241
   483.5000      0.0000    674.8534     11.9588     89.9386
   483.7500      0.0000    647.8282     11.9705     85.9308
   484.0000      0.0000    614.4357     12.0054     78.4798
   484.2500      0.0000    589.0252     11.9514     70.1203
   484.5000      0.0000    607.8900     11.5564     63.6779
   484.7500      0.0000    671.2982     10.6484     60.1493
   485.0000      0.0000    738.8294      9.5130     58.5291
   485.2500      0.0000    775.5828      8.7272     57.4950
   485.5000      0.0000    777.6559      8.4733     56.7221
   485.7500     -2.0000    758.8868      8.4773     56.6426
   486.0000      0.0000    735.4841      8.5107     57.4143
   486.2500      2.0000    726.9026      8.5956     58.3818
   486.5000      0.0000    740.6363      8.9243     58.5517
   486.7500      0.0000    749.5404      9.7689     57.5208
   487.0000      0.0000    713.8646     11.2777     55.8163
   487.2500      0.0000    631.1507     13.0692     54.3943
   487.5000      0.0000    554.2846     14.2555     53.9345
   487.7500      0.0000    543.9965     14.3339     54.5025
   488.0000      0.0000    596.7578     13.7097     55.6471
   488.2500      0.0000    653.9884     13.0538     56.7036
   488.5000      0.0000    674.8871     12.6934     57.0890
   488.7500      0.0000    664.5220     12.6342     56.5395
   489.0000      0.0000    652.0616     12.7472     55.2887
   489.2500      0.0000    656.2859     12.8930     54.0309
   489.5000      0.0000    669.0555     12.9684     53.4485
   489.7500      0.0000    676.7058     12.9233     53.6074
   490.0000      0.0000    678.2343     12.7805     53.9807
   490.2500      0.0000    677.8275     12.6098     54.1433
   490.5000      0.0000    677.3751     12.4638     54.1394
   490.7500      0.0000    677.2203     12.3627     54.1673
   491.0000      0.0000    677.4772     12.3415     54.3210
   491.2500      0.0000    678.1373     12.4515     54.7681
   491.5000      0.0000    679.2206     12.6811     55.8971
   491.7500      0.0000    681.4704     12.9298     58.1187
   492.0000      0.0000    686.8481     13.0981     61.3938
   492.2500      0.0000    696.9130     13.1555     64.9135
   492.5000      0.0000    709.9663     13.1112     67.5313
   492.7500      0.0000    722.1729     12.9722     68.8011
   493.0000      0.0000    731.2352     12.7458     69.4613
   493.2500      0.0000    736.1171     12.4626     70.7675
   493.5000      0.0000    737.0061     12.1962     73.3632
   493.7500      0.0000    737.2602     12.0231     76.6891
   494.0000      0.0000    738.5547     11.9556     79.4143
   494.2500      0.0000    737.4008     11.9434     80.6240
   494.5000      0.0000    734.6836     11.9184     80.6895
   494.7500      0.0000    738.6304     11.8230     80.7919
   495.0000      0.0000    751.2386     11.6395     81.5815
   495.2500      0.0000    764.1938     11.4022     82.6689
   495.5000      0.0000    770.3641     11.1681     83.5213
   495.7500      0.0000    769.3550     10.9845     84.4163
   496.0000      0.0000    764.7718     10.8670     86.1473
   496.2500      0.0000    761.8178     10.7930     88.8456
   496.5000      0.0000    762.7383     10.7190     91.3594
   496.7500      0.0000    763.6733     10.6097     92.0546
   497.0000      0.0000    760.5150     10.4630     90.3067
   497.2500      0.0000    754.2661     10.3171     87.0987
   497.5000      0.0000    747.1830     10.2212     84.0765
   497.7500      0.0000    739.6873     10.1805     82.1687
   498.0000      0.0000    732.9752     10.1437     81.1426
   498.2500      0.0000    728.7782     10.0620     80.1762
   498.5000      0.0000    727.0555      9.9361     78.7401
   498.7500      0.0000    726.6771      9.8124     77.2516
   499.0000      0.0000    726.7750      9.7452     76.9380
   499.2500      0.0000    726.9615      9.7442     78.7168
   499.5000      0.0000    727.1648      9.7786     82.3050
   499.7500      0.0000    727.3950      9.8241     86.6544
   500.0000      0.0000    727.5649      9.8645     90.7677
   500.2500      0.0000    727.5301      9.8733     93.7064
   500.5000      0.0000    727.2420      9.8308     94.5006
   500.7500      0.0000    726.8080      9.7434     92.9419
   501.0000      0.0000    726.4226      9.6492     90.2725
   501.2500      0.0000    726.2008      9.6080     88.2536
   501.5000      0.0000    726.0950      9.6597     87.4507
   501.7500      0.0000    726.0477      9.7868     86.9958
   502.0000      0.0000    726.1045      9.9246     86.0290
   502.2500      0.0000    726.2651     10.0108     84.7797
