~Version Information
VERS.                      2.0: CWLS Log ASCII Standard - VERSION 2.0
WRAP.                       NO: One line per depth step
~Well Information Block
STRT.FT               390.0000: 
STOP.FT              1434.5000: 
STEP.FT                 0.1000: 
NULL.                -999.2500: 
COMP.          Pioneer Natural Resources: COMPANY
WELL.             John K 12-28: WELL
FLD.           Purgatoire River: FIELD
LOC.           1476' FNL & 465' FWL: LOCATION
CNTY.               Las Animas: COUNTY
SRVC.                Patterson: SERVICE COMPANY
DATE.          Mon Apr 10 06:53:47 2006: LOG DATE
UWI.           05 071 08723 00: UNIQUE WELL ID
STAT.                 Colorado: STATE
~Curve Information Block
DEPT.FT            0 000 00 00: Depth
DCAL.in                       : CDL Caliper
RHOB.g/cc                     : CDL Bulk Density
RHOC.g/cc                     : CDL Density Correction
DPOR.pu                       : CDL Density Porosity
GR.GAPI                       : Gamma Ray
NPOR.pu                       : Neutron Porosity
~Parameter Information Block
~A  Depth       DCAL        RHOB        RHOC        DPOR         GR         NPOR    
# ...
   870.0000      7.8445      2.6495      0.1317      0.0309     71.5594     23.0188
   870.1000      7.8445      2.6358      0.0927      0.8583     72.0017     23.2005
   870.2000      7.8445      2.6096      0.0461      2.4459     74.4496     22.8405
   870.3000      7.8496      2.5899     -0.0141      3.6430     77.6294     22.2022
   870.4000      7.8496      2.5831      0.0139      4.0550     81.8232     21.5283
   870.5000      7.8571      2.5797      0.0258      4.2586     91.3893     20.8821
   870.6000      7.8571      2.5691      0.0232      4.9034    102.4180     20.5287
   870.7000      7.8571      2.5479      0.0047      6.1855    105.7385     20.6202
   870.8000      7.8700      2.5245     -0.0259      7.6035    103.5558     21.1843
   870.9000      7.8700      2.5026     -0.0117      8.9305    101.4766     21.9956
   871.0000      7.8845      2.4703     -0.0105     10.8914    100.5828     22.4800
   871.1000      7.8845      2.4193     -0.0133     13.9794    101.9115     22.6295
   871.2000      7.8845      2.3612     -0.0641     17.5041    104.3544     22.7371
   871.3000      7.8908      2.3126     -0.0697     20.4477    104.9202     22.7805
   871.4000      7.8908      2.2756     -0.0750     22.6885    104.7855     22.8978
   871.5000      7.8854      2.2478     -0.0860     24.3734    105.5108     23.4441
   871.6000      7.8854      2.2357     -0.0316     25.1089    105.3580     24.3022
   871.7000      7.8854      2.2488     -0.0426     24.3129    102.4617     24.6984
   871.8000      7.8732      2.2937     -0.0070     21.5911     97.1550     24.2315
   871.9000      7.8732      2.3576      0.0614     17.7200     89.7894     23.4745
   872.0000      7.8600      2.4244      0.0510     13.6720     81.2248     22.9863
   872.1000      7.8600      2.4965      0.1721      9.3039     74.6802     22.7322
   872.2000      7.8600      2.5656      0.2596      5.1181     71.8838     22.4678
   872.3000      7.8520      2.6158      0.2143      2.0722     69.5336     22.1859
   872.4000      7.8520      2.6376      0.2766      0.7531     66.8276     22.2362
   872.5000      7.8576      2.6184      0.1673      1.9178     68.4229     22.6978
   872.6000      7.8576      2.5745      0.0203      4.5769     74.9741     23.1624
   872.7000      7.8576      2.5459      0.0264      6.3116     83.6712     23.3539
   872.8000      7.8749      2.5401      0.0338      6.6579     90.5261     23.0832
   872.9000      7.8749      2.5379      0.0283      6.7932     90.6252     22.5106
   873.0000      7.8897      2.5338      0.0189      7.0413     86.2005     22.3530
   873.1000      7.8897      2.5380      0.0258      6.7857     84.2509     22.7704
   873.2000      7.8897      2.5483      0.0794      6.1631     84.3600     23.1247
   873.3000      7.8901      2.5508      0.0624      6.0091     83.6629     22.9682
   873.4000      7.8901      2.5431      0.0696      6.4760     84.8974     22.4986
   873.5000      7.8805      2.5275      0.0534      7.4250     87.5346     22.0759
   873.6000      7.8805      2.5033      0.0482      8.8923     87.8488     21.7176
   873.7000      7.8805      2.4837     -0.0060     10.0770     89.2828     21.3287
   873.8000      7.8816      2.4845      0.0247     10.0274     93.4226     21.1515
   873.9000      7.8816      2.4989      0.0536      9.1557     95.2267     21.6132
   874.0000      7.8983      2.5178      0.0516      8.0145     93.9646     22.7571
   874.1000      7.8983      2.5416      0.0438      6.5724     93.2903     24.0652
   874.2000      7.8983      2.5640      0.0841      5.2093     93.9548     24.9147
   874.3000      7.9116      2.5820      0.0851      4.1224     94.8139     25.0331
   874.4000      7.9116      2.6038      0.1077      2.7975     96.0799     24.4626
   874.5000      7.9177      2.6273      0.1551      1.3729     97.8878     23.7207
   874.6000      7.9177      2.6346      0.1493      0.9351     99.2818     23.5586
   874.7000      7.9177      2.6146      0.1397      2.1455    100.2058     23.9397
   874.8000      7.9235      2.5826      0.0391      4.0873    103.0749     24.3066
   874.9000      7.9235      2.5592      0.0616      5.5055    107.6468     24.4366
   875.0000      7.9280      2.5455      0.0348      6.3347    112.0189     24.6134
   875.1000      7.9280      2.5405      0.0054      6.6354    118.5030     25.1842
   875.2000      7.9280      2.5366      0.0804      6.8721    127.1136     25.8952
   875.3000      7.9289      2.5225      0.0327      7.7280    132.3967     26.2699
   875.4000      7.9289      2.5143      0.0205      8.2242    132.8508     26.2832
   875.5000      7.9258      2.5269      0.0761      7.4598    134.5720     26.2775
   875.6000      7.9258      2.5430      0.1048      6.4851    139.7559     26.4625
   875.7000      7.9258      2.5393      0.1152      6.7069    144.2054     26.7704
   875.8000      7.9246      2.5196      0.0888      7.9038    144.8656     27.2091
   875.9000      7.9246      2.5110      0.0677      8.4252    143.5936     27.8143
   876.0000      7.9300      2.5257      0.0846      7.5346    145.5101     28.2131
   876.1000      7.9300      2.5434      0.1182      6.4580    150.7778     28.2387
   876.2000      7.9300      2.5458      0.0540      6.3151    154.5140     28.1896
   876.3000      7.9412      2.5407      0.0947      6.6254    154.2528     28.3728
   876.4000      7.9412      2.5356      0.1273      6.9347    152.0574     28.9487
   876.5000      7.9527      2.5265      0.1062      7.4862    149.4839     29.7630
   876.6000      7.9527      2.5198      0.0583      7.8891    146.4436     30.4682
   876.7000      7.9527      2.5235      0.0961      7.6640    143.7903     30.8836
   876.8000      7.9607      2.5288      0.0756      7.3434    142.4163     30.9171
   876.9000      7.9607      2.5353      0.0604      6.9538    141.3044     30.5480
   877.0000      7.9676      2.5561      0.0745      5.6892    138.2627     29.9760
   877.1000      7.9676      2.5895      0.1449      3.6663    134.1582     29.5771
   877.2000      7.9676      2.6144      0.1591      2.1576    133.3735     29.6737
   877.3000      7.9722      2.6143      0.1495      2.1626    137.5494     29.9745
   877.4000      7.9722      2.5965      0.1176      3.2453    142.0421     29.8417
   877.5000      7.9728      2.5775      0.1271      4.3944    142.4231     29.0659
   877.6000      7.9728      2.5664      0.0936      5.0694    138.8405     28.0799
   877.7000      7.9728      2.5688      0.0808      4.9220    132.2029     27.4661
   877.8000      7.9716      2.5768      0.0978      4.4357    125.2025     27.5001
   877.9000      7.9716      2.5719      0.1104      4.7344    122.7601     27.6996
   878.0000      7.9716      2.5529      0.1202      5.8867    128.2803     27.8421
   878.1000      7.9716      2.5357      0.0729      6.9283    139.5846     28.4102
   878.2000      7.9716      2.5286      0.0827      7.3548    149.4805     29.2374
   878.3000      7.9724      2.5224      0.0907      7.7347    152.4010     29.7873
   878.4000      7.9724      2.5065      0.0742      8.6977    148.6639     29.6426
   878.5000      7.9701      2.4882      0.0343      9.8057    141.5876     28.8284
   878.6000      7.9701      2.4817      0.0544     10.1998    135.7046     28.2686
   878.7000      7.9701      2.4890      0.0659      9.7553    134.2872     28.5033
   878.8000      7.9648      2.4981      0.1202      9.2044    136.9209     29.2724
   878.9000      7.9648      2.4945      0.1012      9.4258    140.3304     30.1508
   879.0000      7.9633      2.4897      0.0234      9.7133    140.1975     30.9833
   879.1000      7.9633      2.5135      0.0473      8.2713    136.0275     31.7185
   879.2000      7.9633      2.5681      0.1341      4.9645    131.4682     31.9504
   879.3000      7.9643      2.6339      0.1284      0.9733    127.4791     31.4940
   879.4000      7.9643      2.7005      0.1544     -3.0631    124.7587     30.9019
   879.5000      7.9639      2.7568      0.1975     -6.4752    124.4620     30.5694
