~Version Information
VERS.                      2.0: CWLS Log ASCII Standard - VERSION 2.0
WRAP.                       NO: One line per depth step
~Well Information Block
STRT.FT               525.0000: 
STOP.FT              2377.2000: 
STEP.FT                 0.1000: 
NULL.                -999.2500: 
COMP.          Pioneer Natural Resources: COMPANY
WELL.          Sparrowhawk 22-12: WELL
FLD.           Purgatoire River: FIELD
LOC.           2049' FNL & 2060' FWL--: LOCATION
CNTY.               Las Animas: COUNTY
SRVC.                Patterson: SERVICE COMPANY
DATE.          Thu Mar 23 13:24:48 2006: LOG DATE
UWI.           05 071 08484 00: UNIQUE WELL ID
STAT.                 Colorado: STATE
~Curve Information Block
DEPT.FT            0 000 00 00: Depth
DCAL.in                       : CDL Caliper
RHOB.g/cc                     : CDL Bulk Density
RHOC.g/cc                     : CDL Density Correction
DPOR.pu                       : CDL Density Porosity
NPOR.pu                       : Neutron Porosity
GR.GAPI                       : Gamma Ray
~Parameter Information Block
~A  Depth       DCAL        RHOB        RHOC        DPOR        NPOR         GR     
# ...
  1984.2000      8.0055      2.5179     -0.0292      8.0083     21.9243     76.2522
  1984.3000      8.0011      2.4950     -0.0047      9.3949     22.0391     74.9425
  1984.4000      8.0011      2.4869      0.0418      9.8864     22.1695     71.4215
  1984.5000      8.0006      2.4628      0.0038     11.3434     22.3965     67.7330
  1984.6000      8.0006      2.4251     -0.0286     13.6274     22.6247     65.6021
  1984.7000      8.0006      2.4035     -0.0153     14.9381     22.4530     64.4887
  1984.8000      8.0002      2.4052      0.0445     14.8337     21.9638     64.6833
  1984.9000      8.0002      2.4104      0.0379     14.5228     21.4163     65.5857
  1985.0000      7.9990      2.3997      0.0645     15.1727     20.9759     62.9342
  1985.1000      7.9990      2.3775      0.0089     16.5154     20.8509     55.1508
  1985.2000      7.9990      2.3705      0.0146     16.9376     20.9633     46.6095
  1985.3000      7.9948      2.3843      0.0631     16.1008     21.0126     41.5303
  1985.4000      7.9948      2.3925      0.0796     15.6080     20.8350     39.8525
  1985.5000      7.9892      2.3831      0.0572     16.1750     20.6647     38.8551
  1985.6000      7.9892      2.3725      0.0390     16.8174     20.7609     36.7886
  1985.7000      7.9892      2.3685      0.0549     17.0588     20.8787     35.9429
  1985.8000      7.9869      2.3660      0.0228     17.2103     20.8018     38.9529
  1985.9000      7.9869      2.3705      0.0255     16.9404     20.5248     44.7021
  1986.0000      7.9875      2.3852      0.0695     16.0485     20.1404     49.9062
  1986.1000      7.9875      2.3979      0.0699     15.2759     20.0110     50.3219
  1986.2000      7.9875      2.3998      0.0723     15.1636     20.0753     46.9746
  1986.3000      7.9864      2.3918      0.0495     15.6500     19.9934     46.3673
  1986.4000      7.9864      2.3743      0.0518     16.7084     19.8380     48.7994
  1986.5000      7.9854      2.3498      0.0328     18.1939     19.7902     47.6264
  1986.6000      7.9854      2.3339     -0.0054     19.1576     19.9346     43.1243
  1986.7000      7.9854      2.3372      0.0138     18.9556     20.1066     41.1452
  1986.8000      7.9820      2.3483      0.0182     18.2872     20.0788     42.5324
  1986.9000      7.9820      2.3566      0.0391     17.7834     19.7794     44.7678
  1987.0000      7.9809      2.3666      0.0306     17.1760     19.4390     44.9895
  1987.1000      7.9809      2.3808      0.0564     16.3135     19.2735     41.7189
  1987.2000      7.9809      2.3918      0.0499     15.6468     19.0352     37.8039
  1987.3000      7.9838      2.3922      0.0892     15.6268     18.7235     35.3059
  1987.4000      7.9838      2.3808      0.0727     16.3165     18.6607     34.2194
  1987.5000      7.9891      2.3689      0.0088     17.0336     18.8861     34.5541
  1987.6000      7.9891      2.3687      0.0327     17.0515     19.0727     34.1171
  1987.7000      7.9891      2.3719      0.0353     16.8522     19.1462     33.5408
  1987.8000      7.9945      2.3681      0.0194     17.0823     19.3681     38.0430
  1987.9000      7.9945      2.3634      0.0181     17.3677     19.6772     48.1459
  1988.0000      7.9970      2.3674      0.0444     17.1250     19.7693     55.9283
  1988.1000      7.9970      2.3793      0.0724     16.4065     19.6690     54.0854
  1988.2000      7.9970      2.3946      0.0323     15.4766     19.5382     46.0633
  1988.3000      7.9991      2.4065      0.0699     14.7554     19.4508     40.6825
  1988.4000      7.9991      2.3948      0.0861     15.4667     19.4220     40.7145
  1988.5000      8.0069      2.3569      0.0296     17.7634     19.4905     42.4018
  1988.6000      8.0069      2.3286     -0.0353     19.4762     19.4398     42.1747
  1988.7000      8.0069      2.3309      0.0172     19.3406     19.1894     39.2266
  1988.8000      8.0190      2.3415      0.0273     18.6951     18.9945     35.9433
  1988.9000      8.0190      2.3442     -0.0041     18.5317     18.9068     33.9614
  1989.0000      8.0254      2.3448      0.0249     18.4958     18.8442     31.9517
  1989.1000      8.0254      2.3418      0.0594     18.6761     18.6959     30.5508
  1989.2000      8.0254      2.3336      0.0203     19.1783     18.5310     31.4489
  1989.3000      8.0247      2.3300      0.0382     19.3968     18.5630     32.8822
  1989.4000      8.0247      2.3385      0.0381     18.8809     18.6125     33.7603
  1989.5000      8.0210      2.3622      0.0022     17.4406     18.5858     36.5930
  1989.6000      8.0210      2.4029      0.0181     14.9768     18.7137     42.6539
  1989.7000      8.0210      2.4542      0.0859     11.8682     18.9251     49.9217
  1989.8000      8.0160      2.4974      0.0927      9.2487     19.0214     55.2906
  1989.9000      8.0160      2.5119      0.1362      8.3690     19.0266     58.7905
  1990.0000      8.0112      2.4996      0.0849      9.1140     18.9788     59.7094
  1990.1000      8.0112      2.4870      0.0611      9.8787     18.9152     55.1795
  1990.2000      8.0112      2.4845      0.0617     10.0288     18.9111     49.3004
  1990.3000      8.0144      2.4735      0.0731     10.6962     19.0160     46.8462
  1990.4000      8.0144      2.4470      0.0307     12.3001     19.1335     45.9288
  1990.5000      8.0237      2.4191      0.0317     13.9919     18.8781     44.8769
  1990.6000      8.0237      2.3961      0.0220     15.3888     18.2554     43.5268
  1990.7000      8.0237      2.3736     -0.0030     16.7500     17.9080     41.6840
  1990.8000      8.0302      2.3493      0.0027     18.2229     18.0010     41.0429
  1990.9000      8.0302      2.3297     -0.0234     19.4131     18.1640     40.9784
  1991.0000      8.0341      2.3278     -0.0199     19.5285     18.1356     38.4050
  1991.1000      8.0341      2.3443      0.0470     18.5276     17.9462     33.5787
  1991.2000      8.0341      2.3677      0.0234     17.1066     17.8731     29.9748
  1991.3000      8.0379      2.3910      0.0513     15.6980     18.0559     29.8972
  1991.4000      8.0379      2.4088      0.0868     14.6199     18.4357     30.9563
  1991.5000      8.0355      2.4207      0.0555     13.8984     18.7061     29.3619
  1991.6000      8.0355      2.4261      0.1216     13.5704     18.5179     25.3093
  1991.7000      8.0355      2.4201      0.0746     13.9312     18.3288     22.3246
  1991.8000      8.0276      2.4130      0.0307     14.3665     18.5002     21.9827
  1991.9000      8.0276      2.4187      0.0538     14.0210     18.6505     22.9703
  1992.0000      8.0215      2.4369      0.0449     12.9148     18.7142     24.8494
  1992.1000      8.0215      2.4624      0.0820     11.3675     19.0700     28.2924
  1992.2000      8.0215      2.4819      0.1187     10.1905     19.5411     31.0370
  1992.3000      8.0215      2.4793      0.1140     10.3456     19.4518     32.3879
  1992.4000      8.0215      2.4595      0.0648     11.5427     18.9017     34.4125
  1992.5000      8.0260      2.4394      0.0515     12.7649     18.5462     36.5021
  1992.6000      8.0260      2.4235      0.0597     13.7302     18.5382     38.6337
  1992.7000      8.0260      2.4115      0.0306     14.4560     18.6605     40.9160
  1992.8000      8.0286      2.4052      0.0373     14.8349     18.8034     40.6137
  1992.9000      8.0286      2.3965      0.0468     15.3639     18.9401     37.7843
  1993.0000      8.0279      2.3760      0.0413     16.6066     19.0683     34.5306
  1993.1000      8.0279      2.3503      0.0154     18.1635     19.2088     31.3682
  1993.2000      8.0279      2.3317     -0.0155     19.2902     19.3803     28.4145
  1993.3000      8.0267      2.3209      0.0274     19.9426     19.5833     26.1928
  1993.4000      8.0267      2.3146      0.0124     20.3246     19.6350     26.1417
  1993.5000      8.0248      2.3212     -0.0134     19.9275     19.2383     28.0853
  1993.6000      8.0248      2.3454      0.0375     18.4589     18.5529     29.9339
  1993.7000      8.0248      2.3727      0.0673     16.8041     18.3140     30.2654
