~Version Information
VERS.                      2.0: CWLS Log ASCII Standard - VERSION 2.0
WRAP.                       NO: One line per depth step
~Well Information Block
STRT.FT               335.0000: 
STOP.FT              1154.7000: 
STEP.FT                 0.1000: 
NULL.                -999.2500: 
COMP.          Pioneer Natural Resources: COMPANY
WELL.             Croc 42-9 Tr: WELL
FLD.           Purgatoire River: FIELD
LOC.           2429' FNL & 315' FEL--: LOCATION
STAT.                 Colorado: State
CNTY.               Las Animas: COUNTY
CTRY. USA : Country
SECT. 9 : Section
TOWN. 32S : Township
RANG. 66W : Range
SRVC.                Patterson: SERVICE COMPANY
DATE.          Fri Oct 14 07:56:23 2005: LOG DATE
API.           05 071 08550 00: UNIQUE WELL ID
~Curve Information Block
DEPT.FT            0 000 00 00: Depth
DCAL.in                       : CDL Caliper
RHOB.g/cc                     : CDL Bulk Density
RHOC.g/cc                     : CDL Density Correction
DPOR.pu                       : CDL Density Porosity
NPOR.pu                       : Neutron Porosity
GR.GAPI                       : Gamma Ray
~Parameter Information Block
~A  Depth       DCAL        RHOB        RHOC        DPOR        NPOR         GR     
# ...
   911.0000      7.9035      2.5926      0.0439      3.4793     29.5349    135.2896
   911.1000      7.9035      2.6072      0.0525      2.5943     29.1614    134.1811
   911.2000      7.9035      2.6135      0.0501      2.2138     29.4416    129.4987
   911.3000      7.9118      2.6070      0.0203      2.6047     30.1271    127.7737
   911.4000      7.9118      2.5920      0.0056      3.5140     30.5074    129.2641
   911.5000      7.9222      2.5749      0.0166      4.5508     30.5923    133.0016
   911.6000      7.9222      2.5554      0.0213      5.7338     30.9583    136.9308
   911.7000      7.9222      2.5289      0.0470      7.3392     31.3953    140.1398
   911.8000      7.9267      2.5087     -0.0130      8.5643     31.4251    140.7847
   911.9000      7.9267      2.5140      0.0275      8.2447     31.3355    137.4486
   912.0000      7.9283      2.5358      0.0581      6.9197     31.4051    132.3965
   912.1000      7.9283      2.5534      0.0585      5.8559     31.4407    124.3884
   912.2000      7.9283      2.5585      0.0832      5.5424     31.3837    114.9416
   912.3000      7.9310      2.5570      0.0476      5.6388     31.2494    111.9652
   912.4000      7.9310      2.5545      0.0898      5.7859     31.0372    116.9445
   912.5000      7.9318      2.5512      0.0688      5.9902     31.0388    125.4619
   912.6000      7.9318      2.5510      0.0602      6.0023     31.3600    132.8203
   912.7000      7.9318      2.5562      0.0624      5.6849     31.6219    137.3378
   912.8000      7.9313      2.5623      0.0530      5.3143     31.5167    139.2857
   912.9000      7.9313      2.5614      0.0788      5.3679     31.2821    135.3010
   913.0000      7.9323      2.5470      0.0531      6.2409     31.2713    127.2294
   913.1000      7.9323      2.5255      0.0203      7.5424     31.4994    124.7263
   913.2000      7.9323      2.5049      0.0404      8.7910     31.7338    130.3934
   913.3000      7.9333      2.4843     -0.0045     10.0436     31.9885    136.4885
   913.4000      7.9333      2.4657      0.0140     11.1667     32.2953    136.8213
   913.5000      7.9337      2.4495      0.0043     12.1515     32.4829    133.5765
   913.6000      7.9337      2.4277      0.0275     13.4739     32.4549    130.0164
   913.7000      7.9337      2.4000     -0.0137     15.1519     32.1053    126.3246
   913.8000      7.9341      2.3788     -0.0090     16.4345     31.6623    125.4867
   913.9000      7.9341      2.3670     -0.0055     17.1508     31.6861    127.5706
   914.0000      7.9335      2.3537     -0.0092     17.9556     32.0636    126.4771
   914.1000      7.9335      2.3342      0.0077     19.1369     32.2900    121.8311
   914.2000      7.9335      2.3186      0.0054     20.0852     32.0270    120.3076
   914.3000      7.9331      2.3225      0.0281     19.8482     31.2456    123.7609
   914.4000      7.9331      2.3511      0.0608     18.1139     30.5831    124.9483
   914.5000      7.9354      2.3921      0.1215     15.6321     30.5950    119.2252
   914.6000      7.9354      2.4295      0.1400     13.3656     30.6746    113.8202
   914.7000      7.9354      2.4583      0.1343     11.6164     30.2875    115.7940
   914.8000      7.9360      2.4775      0.0966     10.4548     29.9982    122.1134
   914.9000      7.9360      2.4845      0.0769     10.0331     30.1278    126.3624
   915.0000      7.9318      2.4815      0.0407     10.2133     30.4732    129.6393
   915.1000      7.9318      2.4778      0.0548     10.4393     30.8931    137.1388
   915.2000      7.9318      2.4812      0.0390     10.2329     31.0696    143.5696
   915.3000      7.9288      2.4907      0.0602      9.6528     31.0372    142.6919
   915.4000      7.9288      2.4989      0.0403      9.1591     31.2703    140.1057
   915.5000      7.9280      2.5027      0.0371      8.9254     31.8650    141.6837
   915.6000      7.9280      2.5023      0.0363      8.9524     32.6922    146.0294
   915.7000      7.9280      2.4927      0.0538      9.5338     33.5284    150.9136
   915.8000      7.9289      2.4645      0.0594     11.2420     33.8611    155.9922
   915.9000      7.9289      2.4201     -0.0113     13.9351     33.6541    157.6335
   916.0000      7.9320      2.3823     -0.0114     16.2218     33.4965    153.9300
   916.1000      7.9320      2.3664      0.0014     17.1904     33.4782    149.6665
   916.2000      7.9320      2.3624      0.0173     17.4319     33.4493    143.8660
   916.3000      7.9332      2.3488      0.0419     18.2560     33.5525    135.1987
   916.4000      7.9332      2.3203      0.0038     19.9823     33.6359    131.1044
   916.5000      7.9316      2.3000      0.0090     21.2127     33.6578    137.4835
   916.6000      7.9316      2.3026      0.0612     21.0552     33.8206    150.6201
   916.7000      7.9316      2.3196      0.0528     20.0255     33.9932    161.4140
   916.8000      7.9304      2.3466      0.0860     18.3897     33.9220    165.1696
   916.9000      7.9304      2.3847      0.0991     16.0780     33.7360    164.3786
   917.0000      7.9309      2.4181      0.1247     14.0546     33.5209    160.9393
   917.1000      7.9309      2.4229      0.0953     13.7648     33.1597    155.1164
   917.2000      7.9309      2.4003      0.0853     15.1311     32.9486    150.9893
   917.3000      7.9292      2.3760      0.0359     16.6079     33.0673    151.5679
   917.4000      7.9292      2.3753      0.0500     16.6504     33.0878    154.5992
   917.5000      7.9206      2.3997      0.0874     15.1725     32.8020    158.8532
   917.6000      7.9206      2.4311      0.0930     13.2681     32.3917    163.3602
   917.7000      7.9206      2.4604      0.0795     11.4908     31.8876    161.8046
   917.8000      7.9033      2.4893      0.0967      9.7404     31.3295    153.3782
   917.9000      7.9033      2.5132      0.0848      8.2881     30.8738    146.8908
   918.0000      7.8840      2.5247      0.1195      7.5938     30.5477    146.3632
   918.1000      7.8840      2.5268      0.0962      7.4688     30.1896    149.3520
   918.2000      7.8840      2.5372      0.0374      6.8353     29.9562    150.3910
   918.3000      7.8738      2.5646      0.1104      5.1759     30.0303    145.9082
   918.4000      7.8738      2.5959      0.1160      3.2783     30.1179    140.6300
   918.5000      7.8730      2.6153      0.1580      2.1016     30.0455    137.7513
   918.6000      7.8730      2.6129      0.1008      2.2501     29.9108    135.9728
   918.7000      7.8730      2.5951      0.0828      3.3249     29.7072    134.5806
   918.8000      7.8745      2.5807      0.0399      4.1995     29.4833    133.1192
   918.9000      7.8745      2.5756      0.0207      4.5073     29.4172    131.9632
   919.0000      7.8751      2.5688      0.0106      4.9206     29.4284    132.8227
   919.1000      7.8751      2.5482     -0.0015      6.1721     29.5544    134.0016
   919.2000      7.8751      2.5171     -0.0337      8.0565     29.8738    131.2569
   919.3000      7.8742      2.4932     -0.0294      9.5008     30.0060    126.0434
   919.4000      7.8742      2.4886      0.0178      9.7832     29.6980    124.1025
   919.5000      7.8737      2.5021      0.0470      8.9648     29.4987    126.4890
   919.6000      7.8737      2.5243      0.0595      7.6208     29.9033    127.8325
   919.7000      7.8737      2.5391      0.0769      6.7215     30.6277    124.8886
   919.8000      7.8810      2.5380      0.0605      6.7886     31.2882    122.5590
   919.9000      7.8810      2.5302      0.0946      7.2608     31.6497    126.4669
   920.0000      7.9016      2.5266      0.0821      7.4759     31.5685    135.0059
   920.1000      7.9016      2.5270      0.0768      7.4518     31.0946    142.6976
   920.2000      7.9016      2.5223      0.0916      7.7422     30.2691    147.4155
   920.3000      7.9232      2.5087      0.0385      8.5658     29.2793    147.3613
   920.4000      7.9232      2.5003      0.0404      9.0751     28.5541    140.8508
   920.5000      7.9322      2.5123      0.0283      8.3443     28.3411    131.6841
