~Version Information
VERS.                      2.0: CWLS Log ASCII Standard - VERSION 2.0
WRAP.                       NO: One line per depth step
~Well Information Block
STRT.FT               595.0000: 
STOP.FT              1693.0000: 
STEP.FT                 0.1000: 
NULL.                -999.2500: 
COMP.          Pioneer Natural Resources: COMPANY
WELL.          Rollerball 34-30: WELL
FLD.           Purgatoire River: FIELD
LOC.           893' FSL & 2408' FEL: LOCATION
CNTY.               Las Animas: COUNTY
SRVC.                Patterson: SERVICE COMPANY
DATE.          Tue Feb 14 15:43:01 2006: LOG DATE
UWI.           05 071 08581 00: UNIQUE WELL ID
STAT.                 Colorado: STATE
~Curve Information Block
DEPT.FT            0 000 00 00: Depth
DCAL.in                       : CDL Caliper
RHOB.g/cc                     : CDL Bulk Density
RHOC.g/cc                     : CDL Density Correction
DPOR.pu                       : CDL Density Porosity
GR.GAPI                       : Gamma Ray
NPOR.pu                       : Neutron Porosity
~Parameter Information Block
~A  Depth       DCAL        RHOB        RHOC        DPOR         GR         NPOR    
# ...
  1247.8000      8.0793      2.4410      0.0594     12.6653    133.2575     28.2559
  1247.9000      8.0793      2.4520      0.0258     12.0014    138.2689     28.3508
  1248.0000      8.0824      2.4656      0.0011     11.1757    139.2510     28.5219
  1248.1000      8.0824      2.4868      0.0446      9.8916    138.8284     28.6212
  1248.2000      8.0824      2.5047      0.0493      8.8064    145.2576     28.1925
  1248.3000      8.0838      2.5108      0.0404      8.4347    157.5587     27.1036
  1248.4000      8.0838      2.5054      0.0848      8.7666    165.2167     25.8455
  1248.5000      8.0906      2.4943      0.0575      9.4353    164.5736     25.4373
  1248.6000      8.0906      2.4896      0.0765      9.7229    161.1199     25.9322
  1248.7000      8.0906      2.4981      0.0457      9.2055    157.5305     26.5992
  1248.8000      8.0851      2.5158      0.0724      8.1363    154.2220     27.0668
  1248.9000      8.0851      2.5295      0.0919      7.3035    151.4728     27.0903
  1249.0000      8.0498      2.5293      0.0526      7.3162    147.6975     26.6631
  1249.1000      8.0498      2.5120      0.0721      8.3626    143.6352     26.1639
  1249.2000      8.0498      2.4818      0.0468     10.1941    139.3654     25.6693
  1249.3000      8.0225      2.4527      0.0033     11.9586    133.5356     25.5411
  1249.4000      8.0225      2.4365      0.0214     12.9368    130.0304     26.0439
  1249.5000      8.0169      2.4321     -0.0114     13.2043    132.9905     26.5758
  1249.6000      8.0169      2.4319      0.0158     13.2199    142.1715     27.0327
  1249.7000      8.0169      2.4321      0.0145     13.2064    152.6921     27.7755
  1249.8000      8.0135      2.4378      0.0434     12.8612    157.4479     28.1334
  1249.9000      8.0135      2.4553      0.0544     11.8005    154.4293     28.0072
  1250.0000      8.0063      2.4798      0.1876     10.3156    149.2013     28.1931
  1250.1000      8.0063      2.4930      0.2145      9.5171    147.7036     28.4749
  1250.2000      8.0063      2.4780      0.2338     10.4264    147.8573     28.6192
  1250.3000      8.0064      2.4287      0.1853     13.4120    145.2350     28.6322
  1250.4000      8.0064      2.3596      0.0677     17.6017    139.8867     27.9089
  1250.5000      8.0182      2.3001      0.0529     21.2068    134.4185     27.1515
  1250.6000      8.0182      2.2674      0.0180     23.1907    133.0689     27.4086
  1250.7000      8.0182      2.2596      0.0055     23.6578    136.0828     27.7587
  1250.8000      8.0181      2.2657      0.0199     23.2918    140.1807     27.7576
  1250.9000      8.0181      2.2764     -0.0094     22.6434    143.9038     28.1148
  1251.0000      8.0163      2.2949      0.0000     21.5188    143.8307     28.4403
  1251.1000      8.0163      2.3263      0.0494     19.6188    136.4283     27.8318
  1251.2000      8.0163      2.3636      0.0868     17.3576    126.9443     26.7594
  1251.3000      8.0184      2.3967      0.0744     15.3505    124.5478     26.4618
  1251.4000      8.0184      2.4224      0.0541     13.7926    128.9101     26.8764
  1251.5000      8.0178      2.4334      0.0611     13.1262    133.9462     27.2147
  1251.6000      8.0178      2.4230     -0.0224     13.7593    137.9332     27.0994
  1251.7000      8.0178      2.4060     -0.0138     14.7853    141.8132     26.5638
  1251.8000      8.0171      2.3996      0.0177     15.1746    144.0947     26.3875
  1251.9000      8.0171      2.3998      0.0195     15.1613    143.1502     26.4843
  1252.0000      8.0180      2.3998      0.0410     15.1650    140.3046     25.8424
  1252.1000      8.0180      2.4004      0.0436     15.1279    136.8654     25.0721
  1252.2000      8.0180      2.4025      0.0335     15.0007    133.8099     25.3675
  1252.3000      8.0175      2.4065      0.0484     14.7553    136.2551     26.5542
  1252.4000      8.0175      2.4111      0.0306     14.4812    142.5742     27.5917
  1252.5000      8.0151      2.4115      0.0380     14.4571    145.1722     28.0620
  1252.6000      8.0151      2.4048      0.0234     14.8611    144.7084     27.9195
  1252.7000      8.0151      2.3978      0.0428     15.2834    140.6928     27.3244
  1252.8000      8.0109      2.4080      0.0062     14.6679    132.1392     26.6727
  1252.9000      8.0109      2.4424      0.0758     12.5801    123.6517     25.9612
  1253.0000      8.0088      2.4834      0.0615     10.0970    119.9630     25.6365
  1253.1000      8.0088      2.5087      0.0633      8.5628    121.4577     25.9538
  1253.2000      8.0088      2.5083      0.0384      8.5884    123.5415     26.3364
  1253.3000      8.0100      2.4895      0.0207      9.7263    124.2049     26.0621
  1253.4000      8.0100      2.4709      0.0092     10.8521    126.3077     24.9495
  1253.5000      8.0081      2.4571      0.0298     11.6929    130.7082     23.7340
  1253.6000      8.0081      2.4439      0.0079     12.4913    134.5804     23.4172
  1253.7000      8.0081      2.4429     -0.0174     12.5539    135.7928     24.3162
  1253.8000      8.0098      2.4533      0.0573     11.9209    133.8256     25.0577
  1253.9000      8.0098      2.4511      0.0370     12.0571    128.4649     24.4740
  1254.0000      8.0058      2.4208      0.0389     13.8888    122.4070     24.2914
  1254.1000      8.0058      2.3596      0.0287     17.6029    120.2436     25.8839
  1254.2000      8.0058      2.2721      0.0054     22.9001    122.5473     27.9067
  1254.3000      8.0015      2.1768     -0.0506     28.6817    124.3594     28.5898
  1254.4000      8.0015      2.0888     -0.0122     34.0144    123.4096     27.9912
  1254.5000      8.0058      2.0185     -0.0674     38.2726    123.5896     27.3820
  1254.6000      8.0058      1.9898     -0.0819     40.0115    123.9851     27.2714
  1254.7000      8.0058      2.0171      0.0051     38.3558    122.0553     27.3443
  1254.8000      8.0120      2.0791      0.1075     34.5996    121.1777     27.6135
  1254.9000      8.0120      2.1414      0.1760     30.8224    120.4241     28.1254
  1255.0000      8.0065      2.1953      0.1598     27.5553    115.2609     28.4010
  1255.1000      8.0065      2.2626      0.1766     23.4802    110.4014     28.0369
  1255.2000      8.0065      2.3541      0.2223     17.9351    108.8067     27.4049
  1255.3000      8.0061      2.4427      0.2309     12.5637    104.5008     27.2055
  1255.4000      8.0061      2.4997      0.0842      9.1074     98.5625     26.9081
  1255.5000      8.0003      2.5307      0.0845      7.2273     97.2690     25.8154
  1255.6000      8.0003      2.5540      0.0599      5.8208     97.4288     24.5382
  1255.7000      8.0003      2.5795      0.0836      4.2732     94.5318     23.4277
  1255.8000      7.9985      2.6118      0.1079      2.3141     91.0641     22.2569
  1255.9000      7.9985      2.6478      0.1249      0.1336     88.3162     21.4486
  1256.0000      7.9958      2.6718      0.1259     -1.3206     85.1954     21.3821
  1256.1000      7.9958      2.6694      0.1139     -1.1763     81.4040     21.7551
  1256.2000      7.9958      2.6453      0.0936      0.2872     74.8099     22.2712
  1256.3000      7.9945      2.6217      0.0717      1.7173     64.7355     22.7093
  1256.4000      7.9945      2.6166      0.0790      2.0234     56.1719     22.8793
  1256.5000      7.9940      2.6208      0.0736      1.7672     54.9011     22.7511
  1256.6000      7.9940      2.6165      0.0326      2.0304     61.1016     22.6477
  1256.7000      7.9940      2.6001      0.0528      3.0262     68.6767     22.8644
  1256.8000      7.9934      2.5768      0.0477      4.4342     71.3056     23.1859
  1256.9000      7.9934      2.5558      0.0134      5.7105     70.3527     23.2585
  1257.0000      7.9958      2.5417      0.0310      6.5644     71.6897     23.2290
  1257.1000      7.9958      2.5310     -0.0110      7.2104     75.9976     23.2608
  1257.2000      7.9958      2.5202      0.0237      7.8684     78.8193     22.9766
  1257.3000      7.9944      2.5110     -0.0169      8.4218     79.6961     22.0018
