~Version Information
VERS.                      2.0: CWLS Log ASCII Standard - VERSION 2.0
WRAP.                       NO: One line per depth step
~Well Information Block
STRT.FT                10.0000: 
STOP.FT               743.5000: 
STEP.FT                 0.1000: 
NULL.                -999.2500: 
COMP.          Pioneer Natural Resources: COMPANY
WELL.                Mia 21-18: WELL
FLD.           Purgatorie River: FIELD
LOC.           1067' FNL & 1824' FWL: LOCATION
PROV.                 Colorado: PROVINCE
CNTY.               Las Animas: COUNTRY
SRVC.                Patterson: SERVICE COMPANY
DATE.          Tue Nov 22 15:40:03 2005: LOG DATE
UWI.           05-071-08559               : UNIQUE WELL ID
~Curve Information Block
DEPT.FT            0 000 00 00: Depth
DCAL.in                       : CDL Caliper
RHOB.g/cc                     : CDL Bulk Density
RHOC.g/cc                     : CDL Density Correction
DPOR.pu                       : CDL Density Porosity
GR.GAPI                       : Gamma Ray
NPOR.pu                       : Neutron Porosity
~Parameter Information Block
~A  Depth       DCAL        RHOB        RHOC        DPOR         GR         NPOR    
# ...
   442.0000      7.9936      2.2198      0.0329     26.0742    110.6003     28.9175
   442.1000      7.9936      2.1296     -0.0369     31.5382    114.2360     29.0191
   442.2000      7.9936      2.0416     -0.0185     36.8702    118.4930     28.9910
   442.3000      8.0129      1.9680     -0.0235     41.3351    121.5170     28.6889
   442.4000      8.0129      1.9183     -0.0516     44.3463    118.3728     28.1737
   442.5000      7.9998      1.9013      0.0263     45.3733    108.4504     28.0540
   442.6000      7.9998      1.9207      0.0119     44.2023     98.9402     28.3762
   442.7000      7.9998      1.9809      0.0862     40.5545     94.8962     28.8295
   442.8000      7.9996      2.0701      0.1907     35.1453     91.8617     29.3793
   442.9000      7.9996      2.1647      0.2056     29.4125     85.0897     29.9138
   443.0000      8.0036      2.2601      0.1957     23.6328     77.3415     30.3958
   443.1000      8.0036      2.3565      0.2868     17.7879     73.5891     30.9691
   443.2000      8.0036      2.4396      0.2603     12.7544     74.7144     31.4370
   443.3000      8.0636      2.4969      0.2568      9.2811     80.4986     31.5369
   443.4000      8.0636      2.5228      0.1869      7.7108     88.8947     31.4016
   443.5000      8.0324      2.5190      0.1077      7.9375     93.9751     31.1226
   443.6000      8.0324      2.4982      0.0746      9.2012     93.2016     30.5890
   443.7000      8.0324      2.4740      0.0784     10.6695     89.7160     29.9258
   443.8000      8.0416      2.4569      0.0186     11.7036     86.6147     29.3593
   443.9000      8.0416      2.4577      0.0125     11.6567     85.2292     28.9573
   444.0000      8.0288      2.4801      0.0276     10.2951     85.8668     28.8345
   444.1000      8.0288      2.5126      0.0784      8.3278     87.5358     29.1212
   444.2000      8.0288      2.5333      0.0790      7.0742     90.0836     29.7127
   444.3000      8.0402      2.5312      0.0739      7.1978     93.8706     30.1267
   444.4000      8.0402      2.5204      0.0410      7.8542     97.5056     29.7608
   444.5000      8.0166      2.5171      0.0550      8.0556    100.5914     28.5835
   444.6000      8.0166      2.5114      0.0917      8.4010    103.7669     27.4440
   444.7000      8.0166      2.4926      0.0254      9.5368    106.7284     27.1246
   444.8000      7.9457      2.4722      0.0335     10.7756    108.2606     27.4872
   444.9000      7.9457      2.4604      0.0197     11.4881    108.1232     28.0740
   445.0000      7.9718      2.4559      0.0241     11.7645    108.1653     28.7765
   445.1000      7.9718      2.4532      0.0347     11.9270    108.9056     29.4055
   445.2000      7.9718      2.4541      0.0062     11.8724    108.3735     29.5949
   445.3000      8.0110      2.4617      0.0079     11.4102    105.8088     29.3547
   445.4000      8.0110      2.4676      0.0587     11.0532    104.2752     29.1714
   445.5000      8.0511      2.4624      0.0339     11.3702    104.6506     29.3812
   445.6000      8.0511      2.4499      0.0201     12.1302    104.4341     29.6637
   445.7000      8.0511      2.4344      0.0116     13.0696    103.8096     29.5864
   445.8000      8.0847      2.4076      0.0472     14.6898    102.5349     29.2269
   445.9000      8.0847      2.3626     -0.0079     17.4155     98.0170     29.0782
   446.0000      8.0749      2.3026     -0.0015     21.0522     91.5751     29.4192
   446.1000      8.0749      2.2244      0.0330     25.7925     88.1286     29.9705
   446.2000      8.0749      2.1231     -0.0133     31.9339     87.7427     30.3622
   446.3000      8.0423      2.0119     -0.0851     38.6703     87.3593     30.5646
   446.4000      8.0423      1.9055     -0.0561     45.1195     87.2839     30.7844
   446.5000      8.0576      1.8043     -0.0803     51.2522     86.0678     31.0168
   446.6000      8.0576      1.7189     -0.0925     56.4330     81.5649     31.0480
   446.7000      8.0576      1.6813     -0.1305     58.7121     76.1261     30.9329
   446.8000      8.0289      1.7164     -0.0446     56.5818     73.3335     30.9370
   446.9000      8.0289      1.8145      0.0554     50.6389     74.1112     31.0858
   447.0000      8.0072      1.9468      0.1546     42.6166     76.6764     31.1345
   447.1000      8.0072      2.0910      0.1891     33.8817     76.9998     31.1788
   447.2000      8.0072      2.2310      0.2638     25.3935     73.8985     31.4442
   447.3000      8.0171      2.3547      0.2662     17.8954     72.1743     31.8944
   447.4000      8.0171      2.4536      0.2474     11.9029     74.0970     32.4027
   447.5000      8.0116      2.5192      0.2259      7.9301     76.4106     32.7987
   447.6000      8.0116      2.5432      0.1841      6.4719     78.9936     32.9766
   447.7000      8.0116      2.5290      0.0603      7.3323     85.0718     33.0138
   447.8000      8.1381      2.4998      0.0227      9.1026     92.2939     32.9027
   447.9000      8.1381      2.4774      0.0319     10.4597     95.6595     32.6716
   448.0000      8.1535      2.4658      0.0024     11.1614     95.6600     32.3857
   448.1000      8.1535      2.4621      0.0145     11.3893     97.4773     32.0995
   448.2000      8.1535      2.4631     -0.0072     11.3276    103.2131     31.9246
   448.3000      8.1428      2.4692     -0.0131     10.9583    109.2896     31.7075
   448.4000      8.1428      2.4765      0.0627     10.5153    111.7932     31.2068
   448.5000      8.1078      2.4758      0.0371     10.5565    110.2921     30.6126
   448.6000      8.1078      2.4710      0.0016     10.8506    108.7747     30.2522
   448.7000      8.1078      2.4695      0.0297     10.9385    110.1322     30.0745
   448.8000      8.0705      2.4643      0.0573     11.2548    113.4606     29.8182
   448.9000      8.0705      2.4447      0.0118     12.4412    117.2442     29.5683
   449.0000      8.0904      2.4121     -0.0220     14.4193    119.6766     29.5486
   449.1000      8.0904      2.3741     -0.0393     16.7197    119.1659     29.4321
   449.2000      8.0904      2.3302     -0.0440     19.3848    116.0170     29.1549
   449.3000      8.1513      2.2683     -0.0179     23.1320    110.7416     29.4862
   449.4000      8.1513      2.1862     -0.0689     28.1069    104.5997     30.5325
   449.5000      8.2505      2.0939     -0.0837     33.7003    100.9656     31.1272
   449.6000      8.2505      1.9891     -0.0661     40.0529    101.2115     30.8160
   449.7000      8.2505      1.8689     -0.1113     47.3379    102.1849     30.5858
   449.8000      8.2256      1.7411     -0.0731     55.0876     98.7862     30.8302
   449.9000      8.2256      1.6130     -0.1398     62.8478     89.7359     31.1118
   450.0000      8.2170      1.5002     -0.1079     69.6838     79.5988     31.4047
   450.1000      8.2170      1.4170     -0.1059     74.7296     71.8460     31.7302
   450.2000      8.2170      1.3637     -0.0633     77.9576     65.0309     32.0491
   450.3000      8.1692      1.3347     -0.0424     79.7180     59.1524     32.5679
   450.4000      8.1692      1.3250     -0.0193     80.3005     54.9607     33.2515
   450.5000      8.1612      1.3298     -0.0158     80.0128     50.4495     33.8044
   450.6000      8.1612      1.3429     -0.0046     79.2175     46.2168     34.0940
   450.7000      8.1612      1.3561      0.0275     78.4200     44.1915     34.0439
   450.8000      8.3034      1.3602      0.0005     78.1710     42.9174     33.6684
   450.9000      8.3034      1.3523      0.0096     78.6465     41.0415     33.2586
   451.0000      8.2642      1.3392     -0.0573     79.4418     40.0028     33.2582
   451.1000      8.2642      1.3307     -0.0291     79.9604     40.1978     33.7434
   451.2000      8.2642      1.3261     -0.0045     80.2357     39.5855     34.2570
   451.3000      8.2165      1.3213     -0.0154     80.5295     36.6427     34.5262
   451.4000      8.2165      1.3177      0.0180     80.7471     32.2193     34.6315
   451.5000      8.2035      1.3157      0.0365     80.8688     29.3284     34.6362
