~Version Information
VERS.                      2.0: CWLS Log ASCII Standard - VERSION 2.0
WRAP.                       NO: One line per depth step
~Well Information Block
STRT.FT               555.0000: 
STOP.FT              2286.5000: 
STEP.FT                 0.1000: 
NULL.                -999.2500: 
COMP.          Pioneer Natural Resources: COMPANY
WELL.          Roadster 41-33 Kv: WELL
FLD.           Purgatoire River: FIELD
LOC.           903' FNL & 248' FEL: LOCATION
PROV.                 Colorado: PROVINCE
CNTY.               Las Animas: COUNTRY
SRVC.                Patterson: SERVICE COMPANY
DATE.          Thu Dec 15 10:28:25 2005: LOG DATE
UWI.           05 071 08615 00: UNIQUE WELL ID
~Curve Information Block
DEPT.FT            0 000 00 00: Depth
DCAL.in                       : CDL Caliper
RHOB.g/cc                     : CDL Bulk Density
RHOC.g/cc                     : CDL Density Correction
DPOR.pu                       : CDL Density Porosity
GR.GAPI                       : Gamma Ray
NPOR.pu                       : Neutron Porosity
~Parameter Information Block
~A  Depth       DCAL        RHOB        RHOC        DPOR         GR         NPOR    
# ...
  1927.8000      8.0033      2.4491     -0.0019     12.1778     80.3188     21.0316
  1927.9000      8.0033      2.4610      0.0273     11.4555     84.2669     21.4771
  1928.0000      8.0172      2.4775      0.0296     10.4530     89.8491     21.9298
  1928.1000      8.0172      2.4971      0.0440      9.2650     91.1838     22.9619
  1928.2000      8.0172      2.5232      0.0643      7.6822     86.1752     24.6784
  1928.3000      7.9871      2.5519      0.1178      5.9430     80.6653     25.8663
  1928.4000      7.9871      2.5755      0.1168      4.5153     76.4590     24.8903
  1928.5000      7.9821      2.5979      0.1095      3.1571     74.1584     22.4445
  1928.6000      7.9821      2.6158      0.1351      2.0697     79.9545     20.6106
  1928.7000      7.9821      2.6195      0.0794      1.8486     89.9752     19.7874
  1928.8000      7.9903      2.6190      0.0771      1.8811     91.0732     19.4528
  1928.9000      7.9903      2.6251      0.0805      1.5082     81.6926     19.6158
  1929.0000      8.0101      2.6344      0.0778      0.9483     72.3966     20.3065
  1929.1000      8.0101      2.6440      0.0586      0.3617     68.5424     20.6422
  1929.2000      8.0101      2.6544      0.0828     -0.2680     68.3913     19.9984
  1929.3000      7.9910      2.6663      0.0463     -0.9862     69.0886     19.2516
  1929.4000      7.9910      2.6791      0.1144     -1.7637     67.8521     19.3296
  1929.5000      8.0048      2.6858      0.0781     -2.1699     66.5723     19.7858
  1929.6000      8.0048      2.6864      0.0758     -2.2087     69.6312     19.8691
  1929.7000      8.0048      2.6856      0.1287     -2.1575     74.0936     20.0078
  1929.8000      7.9768      2.6816      0.1098     -1.9134     73.8989     20.8059
  1929.9000      7.9768      2.6694      0.0973     -1.1774     69.9612     21.6110
  1930.0000      7.9769      2.6458      0.0720      0.2546     67.5289     21.6128
  1930.1000      7.9769      2.6149      0.0545      2.1287     71.3699     21.5239
  1930.2000      7.9769      2.5849      0.0155      3.9441     80.0668     22.2424
  1930.3000      7.9975      2.5565      0.0270      5.6695     86.0551     23.4043
  1930.4000      7.9975      2.5276     -0.0147      7.4154     87.3715     23.7468
  1930.5000      8.0204      2.5102     -0.0327      8.4737     89.3955     22.9371
  1930.6000      8.0204      2.5072      0.0355      8.6534     93.1133     22.2068
  1930.7000      8.0204      2.5000      0.0414      9.0917     93.5503     22.2547
  1930.8000      8.0342      2.4794      0.0135     10.3406     92.8999     22.7522
  1930.9000      8.0342      2.4548      0.0229     11.8290     98.4352     23.4544
  1931.0000      8.0331      2.4347      0.0305     13.0515    107.0398     24.4706
  1931.1000      8.0331      2.4280      0.0066     13.4569    112.3453     25.8895
  1931.2000      8.0331      2.4376      0.0843     12.8716    116.5866     27.1073
  1931.3000      8.0084      2.4436      0.1063     12.5077    119.7132     28.1512
  1931.4000      8.0084      2.4280      0.0912     13.4570    117.9279     29.2981
  1931.5000      8.0365      2.4022      0.0469     15.0159    112.7830     29.5475
  1931.6000      8.0365      2.3878      0.0947     15.8905    108.8554     28.8148
  1931.7000      8.0365      2.3895      0.0886     15.7878    107.2486     28.8038
  1931.8000      8.0655      2.4038      0.0783     14.9182    108.4700     30.1455
  1931.9000      8.0655      2.4255      0.1287     13.6051    112.9837     31.4433
  1932.0000      8.1037      2.4471      0.1109     12.2979    117.4880     31.2740
  1932.1000      8.1037      2.4619      0.1645     11.3974    119.8850     30.0574
  1932.2000      8.1037      2.4635      0.1840     11.3047    121.6186     28.8777
  1932.3000      8.1162      2.4546      0.1557     11.8414    121.1818     27.9916
  1932.4000      8.1162      2.4447      0.1667     12.4451    119.0946     27.6852
  1932.5000      8.0794      2.4324      0.1633     13.1876    121.8699     28.3778
  1932.6000      8.0794      2.4159      0.0580     14.1853    130.5825     29.2342
  1932.7000      8.0794      2.4027      0.0873     14.9887    136.9696     29.1676
  1932.8000      8.0631      2.4001      0.0434     15.1463    134.3723     28.6188
  1932.9000      8.0631      2.4124      0.0623     14.3990    129.9871     28.0801
  1933.0000      8.0759      2.4288      0.0898     13.4065    132.5564     27.5044
  1933.1000      8.0759      2.4366      0.0548     12.9311    137.4007     27.5350
  1933.2000      8.0759      2.4359      0.1160     12.9734    135.7514     28.7042
  1933.3000      8.0852      2.4234      0.0794     13.7319    126.6557     30.3628
  1933.4000      8.0852      2.4007      0.0837     15.1120    119.1590     31.7979
  1933.5000      8.1210      2.3724      0.0585     16.8239    121.2865     32.0545
  1933.6000      8.1210      2.3247      0.1031     19.7132    128.5155     30.7669
  1933.7000      8.1210      2.2329      0.0783     25.2774    129.5843     29.7600
  1933.8000      8.0600      2.0969      0.0163     33.5225    123.4306     30.0449
  1933.9000      8.0600      1.9472     -0.0606     42.5968    113.0315     31.1729
  1934.0000      8.0582      1.8143     -0.0731     50.6512     96.6924     32.5013
  1934.1000      8.0582      1.6998     -0.1117     57.5908     78.7564     32.9021
  1934.2000      8.0582      1.5916     -0.1550     64.1432     67.0097     31.8157
  1934.3000      8.1319      1.5054     -0.1883     69.3696     62.5249     30.0385
  1934.4000      8.1319      1.4812     -0.1440     70.8389     63.2233     29.1480
  1934.5000      8.1839      1.5322      0.0076     67.7425     66.8238     29.9131
  1934.6000      8.1839      1.6352      0.0800     61.5016     69.1394     31.1412
  1934.7000      8.1839      1.7640      0.1500     53.6990     68.2370     31.3274
  1934.8000      8.2468      1.8913      0.1862     45.9845     70.8335     30.7402
  1934.9000      8.2468      1.9911      0.2259     39.9317     80.5667     30.4612
  1935.0000      8.6484      2.0680      0.1984     35.2757     89.9013     30.5111
  1935.1000      8.6484      2.1480      0.1981     30.4229     96.5568     30.0525
  1935.2000      8.6484      2.2294      0.2231     25.4921    101.7063     28.8955
  1935.3000      8.7779      2.2868      0.1236     22.0115    102.1927     27.8681
  1935.4000      8.7779      2.3207      0.0294     19.9569     99.7461     27.2776
  1935.5000      8.1698      2.3548      0.0083     17.8891    100.0515     26.7351
  1935.6000      8.1698      2.4060     -0.0067     14.7905    103.0656     26.2775
  1935.7000      8.1698      2.4624      0.0872     11.3667    102.7382     25.8301
  1935.8000      8.0690      2.4926      0.0909      9.5404     98.9177     24.7165
  1935.9000      8.0690      2.4853      0.0560      9.9824     99.3628     23.5390
  1936.0000      8.0557      2.4614      0.0229     11.4327    104.5937     23.4809
  1936.1000      8.0557      2.4511     -0.0182     12.0552    108.7014     24.5293
  1936.2000      8.0557      2.4636      0.0184     11.2943    111.8474     25.7426
  1936.3000      8.0649      2.4763      0.0780     10.5302    113.9175     25.6771
  1936.4000      8.0649      2.4802     -0.0123     10.2910    112.5898     24.3374
  1936.5000      8.0371      2.4987      0.0066      9.1725    111.8874     23.2151
  1936.6000      8.0371      2.5340      0.0625      7.0278    113.7085     22.8713
  1936.7000      8.0371      2.5634      0.0784      5.2479    114.6090     22.8479
  1936.8000      8.0056      2.5722      0.0975      4.7142    115.6103     22.7980
  1936.9000      8.0056      2.5586      0.0670      5.5386    113.3755     22.9651
  1937.0000      8.0000      2.5328      0.0516      7.1050    101.2042     22.5796
  1937.1000      8.0000      2.5078      0.0100      8.6161     86.4829     20.5270
  1937.2000      8.0000      2.4913     -0.0048      9.6195     80.5731     18.3283
  1937.3000      8.0058      2.4891     -0.0003      9.7516     82.6189     18.0327
