~Version Information
VERS.                      2.0: CWLS Log ASCII Standard - VERSION 2.0
WRAP.                       NO: One line per depth step
~Well Information Block
STRT.FT                -7.5000: 
STOP.FT               988.5000: 
STEP.FT                 0.2500: 
NULL.                -999.2500: 
COMP.          Pioneer Natural Resources: COMPANY
WELL.          Stags Leap 13-30: WELL
FLD.           Purgatorie River: FIELD
LOC.           1813' FSL & 117' FWL--: LOCATION
PROV.                       CO: PROVINCE
CNTY.               Las Animas: COUNTRY
SRVC.          Patterson Wireline: SERVICE COMPANY
DATE.          Tue Dec 13 11:29:26 2005: LOG DATE
UWI.           05 071 08595 00: UNIQUE WELL ID
~Curve Information Block
DEPT.FT            0 000 00 00: Depth
CCL.                          : Casing Collar Locator
TT3.usec                      : CBL 3' Travel Time
AMP3.mV                       : CBL 3' Amplitude
GR.GAPI                       : Gamma Ray
~Parameter Information Block
~A  Depth       CCL         TT3         AMP3         GR     
# ...
   394.5000      0.0000    747.0171      9.8306    153.1270
   394.7500      0.0000    747.3134      9.9021    164.8339
   395.0000      0.0000    747.3147      9.9103    174.2871
   395.2500      0.0000    747.1729      9.8865    180.9717
   395.5000      0.0000    746.8987      9.8432    185.5997
   395.7500      0.0000    746.4952      9.7511    189.5351
   396.0000      0.0000    745.9615      9.5679    193.3674
   396.2500      0.0000    745.1716      9.2952    195.6682
   396.5000      0.0000    743.6996      8.9912    193.5868
   396.7500      0.0000    740.7753      8.7228    185.5057
   397.0000      0.0000    735.6429      8.5253    173.1784
   397.2500      0.0000    728.3208      8.4092    160.7620
   397.5000      0.0000    720.0563      8.3861    151.7769
   397.7500      0.0000    712.7167      8.4639    147.2378
   398.0000      0.0000    707.5423      8.6145    146.2883
   398.2500      0.0000    704.5562      8.7542    147.7190
   398.5000      0.0000    703.0444      8.7766    150.4386
   398.7500      0.0000    702.2980      8.6255    153.0109
   399.0000      0.0000    701.9064      8.3380    153.5729
   399.2500      0.0000    701.6379      8.0043    150.6418
   399.5000      0.0000    701.2774      7.6818    144.1296
   399.7500      0.0000    700.5815      7.3523    135.6970
   400.0000      0.0000    699.5467      6.9787    128.0724
   400.2500      0.0000    699.0595      6.6087    123.7312
   400.5000      0.0000    701.3516      6.3881    123.8269
   400.7500      0.0000    709.0640      6.4274    128.2099
   401.0000      0.0000    722.8596      6.6709    136.2671
   401.2500      0.0000    739.6853      6.9481    146.9646
   401.5000      0.0000    754.2826      7.1375    157.8702
   401.7500      0.0000    763.6057      7.2338    165.3536
   402.0000      0.0000    769.8318      7.2788    166.9823
   402.2500     -2.0000    778.4007      7.2913    163.4149
   402.5000      2.0000    793.1144      7.2724    157.1696
   402.7500      0.0000    812.8427      7.2531    150.1327
   403.0000      0.0000    831.1406      7.3140    143.1572
   403.2500      0.0000    838.9580      7.5423    137.3465
   403.5000      0.0000    830.8060      7.9515    134.3753
   403.7500      0.0000    809.7935      8.4596    135.4770
   404.0000      0.0000    785.3811      8.9633    140.6586
   404.2500      0.0000    766.0065      9.4084    148.8120
   404.5000      0.0000    754.5272      9.7752    158.1497
   404.7500      0.0000    749.3011     10.0401    166.6012
   405.0000      0.0000    747.4707     10.1839    172.3464
   405.2500      0.0000    746.9755     10.2209    174.3278
   405.5000      0.0000    746.8505     10.2015    172.4220
   405.7500      0.0000    746.7761     10.1847    167.3701
   406.0000      0.0000    746.6561     10.2107    160.7142
   406.2500      0.0000    746.4777     10.2934    154.6106
   406.5000      0.0000    746.2720     10.4233    151.3067
   406.7500      0.0000    746.0746     10.5626    152.2202
   407.0000      0.0000    745.8776     10.6451    156.9031
   407.2500      0.0000    745.6401     10.6052    162.7869
   407.5000      0.0000    745.3102     10.4180    166.6291
   407.7500      0.0000    744.7577     10.1144    166.8399
   408.0000      0.0000    743.6230      9.7620    164.2573
   408.2500      0.0000    741.3257      9.4316    160.5289
   408.5000      0.0000    737.5558      9.1672    156.4904
   408.7500      0.0000    733.0424      8.9761    152.2897
   409.0000      0.0000    729.5526      8.8456    147.9967
   409.2500      0.0000    728.4077      8.7692    143.3409
   409.5000      0.0000    728.8140      8.7460    137.5602
   409.7500      0.0000    728.2299      8.7598    130.2554
   410.0000      0.0000    724.7339      8.7730    122.1426
   410.2500      0.0000    718.7780      8.7472    114.5812
   410.5000      0.0000    712.5281      8.6655    108.6142
   410.7500      0.0000    707.9044      8.5375    104.7332
   411.0000      0.0000    705.5737      8.3855    103.0954
   411.2500      0.0000    705.5262      8.2252    103.5286
   411.5000      0.0000    708.2923      8.0566    105.4555
   411.7500      0.0000    715.5520      7.8747    107.8415
   412.0000      0.0000    729.5021      7.6901    109.0842
   412.2500      0.0000    751.1297      7.5340    107.4903
   412.5000      0.0000    778.6423      7.4396    102.7200
   412.7500      0.0000    807.4056      7.4173     96.5631
   413.0000      0.0000    832.1231      7.4471     91.5869
   413.2500      0.0000    850.7946      7.4949     89.0174
   413.5000      0.0000    867.3646      7.5397     88.3670
   413.7500      0.0000    888.8043      7.5845     88.7085
   414.0000      0.0000    917.6749      7.6416     89.4641
   414.2500      0.0000    947.8373      7.7105     90.1186
   414.5000      0.0000    968.3741      7.7756     90.1730
   414.7500      0.0000    971.7031      7.8253     89.8683
   415.0000      0.0000    958.0458      7.8675     90.6071
   415.2500      0.0000    932.7661      7.9234     94.1963
   415.5000      0.0000    900.4202      8.0058    101.2772
   415.7500      0.0000    862.3419      8.1058    110.2852
   416.0000      0.0000    819.8440      8.2010    118.2513
   416.2500      0.0000    777.7938      8.2794    122.9733
   416.5000      0.0000    743.1967      8.3586    124.3444
   416.7500      0.0000    720.3483      8.4743    123.7002
   417.0000      0.0000    708.4438      8.6486    122.3617
   417.2500      0.0000    703.6031      8.8671    120.5118
   417.5000      0.0000    702.0953      9.0917    116.7546
   417.7500      0.0000    701.7758      9.2912    109.1719
   418.0000      0.0000    701.7838      9.4583     97.6424
   418.2500      0.0000    701.8407      9.6007     84.7348
   418.5000      0.0000    701.8510      9.7225     73.7341
   418.7500      0.0000    701.7845      9.8140     66.3328
   419.0000      0.0000    701.6768      9.8541     62.4623
   419.2500      0.0000    701.6122      9.8244     61.2690
   419.5000      0.0000    701.7946      9.7217     61.5050
   419.7500      0.0000    702.8185      9.5613     61.7074
   420.0000      0.0000    706.0477      9.3712     61.2018
   420.2500      0.0000    713.4595      9.1821     60.9674
   420.5000      0.0000    726.0948      9.0171     62.8030
   420.7500      0.0000    741.6907      8.8856     67.3425
   421.0000      0.0000    754.7291      8.7888     73.2637
   421.2500      0.0000    760.8258      8.7293     78.6240
   421.5000      0.0000    761.2215      8.7088     83.0296
   421.7500      0.0000    761.3137      8.7226     88.7573
   422.0000      0.0000    764.5829      8.7596     99.4312
   422.2500      0.0000    769.0050      8.8044    116.6621
   422.5000      0.0000    769.0984      8.8354    137.7717
   422.7500      0.0000    760.9930      8.8272    157.4447
   423.0000      0.0000    746.2919      8.7641    171.7390
   423.2500      0.0000    731.4778      8.6481    180.2124
   423.5000      0.0000    723.3077      8.4922    184.6824
   423.7500      0.0000    724.3415      8.3064    186.8482
   424.0000      0.0000    731.8504      8.0931    187.1392
   424.2500      0.0000    740.3954      7.8645    185.0501
   424.5000      0.0000    746.5720      7.6676    180.0291
   424.7500      0.0000    752.0541      7.5779    172.1689
   425.0000      0.0000    761.2256      7.6489    162.5936
   425.2500      0.0000    775.6880      7.8597    153.3334
   425.5000      0.0000    792.3425      8.1176    146.3178
   425.7500      0.0000    806.6184      8.3154    141.9829
   426.0000      0.0000    815.9549      8.3979    139.0774
   426.2500      0.0000    820.2836      8.3918    136.3262
   426.5000      0.0000    820.9015      8.3842    134.1873
   426.7500      0.0000    819.4248      8.4630    134.4088
   427.0000      0.0000    817.0774      8.6682    137.7911
   427.2500      0.0000    814.6241      8.9944    143.1301
   427.5000      0.0000    812.6462      9.4320    148.6208
   427.7500      0.0000    810.7678      9.9834    153.2626
