~Version Information
 VERS.                                  2.0 : CWLS LAS VERSION
 WRAP.                                   NO : WRAPING MODE
 SWARE .                  MController 2.5.1 : SOFTWARE VERSION
~Well Information
 WELL.                   Touchstone 11-32Tr : WELL
 COMP.  Pioneer Natural Resources USA, Inc. : COMPANY
 FLD.                      Purgatoire River : FIELD
 LOC.             NW/NW Sec. 32, T32S, R67W : LOCATION
 DATE.                02/24/2006-02/25/2006 : DATE(S) LOGGED
 SRVC.                  Entrada GeoSciences : SERVICE COMPANY
 STAT.                             Colorado : STATE
 CNTY.                           Las Animas : COUNTY
 CTRY.                        United States : COUNTRY
 API.                          05-071-08626 : API NUMBER
 STRT.FT                             393.00 : START DEPTH
 STOP.FT                            1800.00 : STOP DEPTH
 STEP.FT                               1.00 : DEPTH INCREMENT
 NULL.                                -9999 : NULL VALUE
~Curve information
 DEPTH.FT                                   :
 ROP.MIN/FT                                 :
 GAS.UNITS                                  :
~ASCII Log data
# ...
      993.00         0.23          6.8 
      994.00         0.18          6.5 
      995.00         0.10          6.5 
      996.00         0.17          6.7 
      997.00         0.17          6.5 
      998.00         0.27          6.7 
      999.00         0.27          7.1 
     1000.00         0.23          6.3 
     1001.00         0.17          5.2 
     1002.00         0.13          5.7 
     1003.00         0.27          5.8 
     1004.00         0.30          4.5 
     1005.00         0.30          5.4 
     1006.00         0.27          5.8 
     1007.00         0.33          5.3 
     1008.00         0.23          4.8 
     1009.00         0.32          5.3 
     1010.00         0.30          6.0 
     1011.00         0.30          5.7 
     1012.00         0.27          5.3 
     1013.00         0.23          9.1 
     1014.00         0.27          9.1 
     1015.00         0.27          9.2 
     1016.00         0.27          7.2 
     1017.00         0.20          6.5 
     1018.00         0.17          6.5 
     1019.00         0.30          5.9 
     1020.00         0.23          5.6 
     1021.00         0.20          6.1 
     1022.00         0.23          5.0 
     1023.00         0.23          5.0 
     1024.00         0.20          5.7 
     1025.00         0.17          5.4 
     1026.00         0.17          6.3 
     1027.00         0.17          7.1 
     1028.00         0.20          7.3 
     1029.00         0.22          7.2 
     1030.00         0.17          6.5 
     1031.00         0.17          6.1 
     1032.00         0.17          6.7 
     1033.00         0.17          7.1 
     1034.00         0.33          7.2 
     1035.00         0.30          6.3 
     1036.00         0.30          6.2 
     1037.00         0.27          6.2 
     1038.00         0.20          5.1 
     1039.00         0.23          4.9 
     1040.00         0.13          5.9 
     1041.00         0.27          7.1 
     1042.00         0.33          6.7 
     1043.00         0.35         60.9 
     1044.00         0.27         60.9 
     1045.00         0.23         61.9 
     1046.00         0.37         44.0 
     1047.00         0.45         24.8 
     1048.00         0.47         15.0 
     1049.00         0.43         10.6 
     1050.00         0.43         10.0 
     1051.00         0.40          9.7 
     1052.00         0.30          9.2 
     1053.00         0.27          8.4 
     1054.00         0.27          7.5 
     1055.00         0.30          6.4 
     1056.00         0.32          7.2 
     1057.00         0.27          5.0 
     1058.00         0.27          6.1 
     1059.00         0.20          6.1 
     1060.00         0.30          5.0 
     1061.00         0.20          5.0 
     1062.00         0.17          5.0 
     1063.00         0.20          6.0 
     1064.00         0.30          6.7 
     1065.00         0.30          6.1 
     1066.00         0.27          6.4 
     1067.00         0.27          5.8 
     1068.00         0.27          5.0 
     1069.00         0.28          4.9 
     1070.00         0.23          5.7 
     1071.00         0.43          5.7 
     1072.00         0.37          5.7 
     1073.00         0.27         22.0 
     1074.00         0.27          8.9 
     1075.00         0.30          8.7 
     1076.00         0.27          6.8 
     1077.00         0.33          5.6 
     1078.00         0.30          6.4 
     1079.00         0.33          6.0 
     1080.00         0.32          5.4 
     1081.00         0.33          5.9 
     1082.00         0.27          5.8 
     1083.00         0.33          5.4 
     1084.00         0.33          5.3 
     1085.00         0.37          5.4 
     1086.00         0.33          5.5 
     1087.00         0.37          6.4 
     1088.00         0.43          5.4 
     1089.00         0.37          5.5 
     1090.00         0.42          6.3 
     1091.00         0.47          6.2 
     1092.00         0.37          5.9 
     1093.00         0.40          5.7 
     1094.00         0.37          6.2 
     1095.00         0.37          6.3 
     1096.00         0.47          5.9 
     1097.00         0.33          6.3 
     1098.00         0.35          5.5 
     1099.00         0.47          5.4 
     1100.00         0.33          5.8 
     1101.00         0.33          6.0 
     1102.00         0.33         18.4 
     1103.00         0.27         18.4 
     1104.00         0.27         16.6 
     1105.00         0.20         12.0 
     1106.00         0.27         11.5 
     1107.00         0.33          9.3 
     1108.00         0.43          6.9 
     1109.00         0.33          6.0 
     1110.00         0.33          4.9 
     1111.00         0.40          5.6 
     1112.00         0.37          6.0 
     1113.00         0.25          5.8 
     1114.00         0.23          6.4 
     1115.00         0.23          6.7 
     1116.00         0.27          7.0 
     1117.00         0.40          6.8 
     1118.00         0.40          6.2 
     1119.00         0.40          5.3 
     1120.00         0.40          4.6 
     1121.00         0.53          6.1 
     1122.00         0.48          6.2 
     1123.00         0.40          6.2 
     1124.00         0.43          5.6 
     1125.00         0.43          5.1 
     1126.00         0.37          5.7 
     1127.00         0.40          5.0 
     1128.00         0.43          5.8 
     1129.00         0.37          5.5 
     1130.00         0.40          5.9 
     1131.00         0.45          6.6 
     1132.00         0.50          5.7 
     1133.00         0.40         18.4 
     1134.00         0.37          5.6 
     1135.00         0.27          6.6 
     1136.00         0.27          5.7 
     1137.00         0.27          6.8 
     1138.00         0.38          6.7 
     1139.00         0.30          6.1 
     1140.00         0.43          5.6 
     1141.00         0.23          5.7 
     1142.00         0.30          5.9 
     1143.00         0.47          6.0 
     1144.00         0.50          5.0 
     1145.00         0.50          5.7 
     1146.00         0.52          5.9 
     1147.00         0.47          5.6 
     1148.00         0.50          5.0 
     1149.00         0.67          5.7 
     1150.00         0.73          5.6 
     1151.00         0.57          6.5 
     1152.00         0.48          5.7 
     1153.00         0.77          5.4 
     1154.00         0.50          5.2 
     1155.00         0.67          5.1 
     1156.00         0.53          5.2 
     1157.00         0.57          5.3 
     1158.00         0.72          5.6 
     1159.00         0.70          6.0 
     1160.00         0.60          6.1 
     1161.00         0.47          5.7 
     1162.00         0.43          6.0 
     1163.00         0.62          6.0 
     1164.00         0.63         33.7 
     1165.00         0.63          4.7 
     1166.00         0.27          4.6 
     1167.00         0.53          5.7 
     1168.00         0.50          5.3 
     1169.00         0.53          6.2 
     1170.00         0.63          4.8 
     1171.00         0.58          5.3 
     1172.00         0.57          5.2 
     1173.00         0.50          5.1 
     1174.00         0.53          5.4 
     1175.00         0.50          4.7 
     1176.00         0.47          5.5 
     1177.00         0.48          5.6 
     1178.00         0.50          5.7 
     1179.00         0.50          5.6 
     1180.00         0.43          4.9 
     1181.00         0.40          5.4 
     1182.00         0.37          5.9 
     1183.00         0.37          5.6 
     1184.00         0.40          5.5 
     1185.00         0.38          5.4 
     1186.00         0.40          5.3 
     1187.00         0.63          4.9 
     1188.00         0.73          6.3 
     1189.00         0.50          6.0 
     1190.00         0.47          5.1 
     1191.00         0.43          5.1 
     1192.00         0.45          5.6 
