~Version Information
VERS.                      2.0: CWLS Log ASCII Standard - VERSION 2.0
WRAP.                       NO: One line per depth step
~Well Information Block
STRT.FT                -6.5000: 
STOP.FT              1636.7500: 
STEP.FT                 0.2500: 
NULL.                -999.2500: 
COMP.          Pioneer Natural Resources: COMPANY
WELL.          Stock Canyon 34-33: WELL
FLD.           Purgatorie River: FIELD
LOC.           980' FSL & 2191' FEL--: LOCATION
PROV.                       CO: PROVINCE
CNTY.               Las Animas: COUNTRY
SRVC.          Patterson Wireline: SERVICE COMPANY
DATE.          Mon Dec 12 09:29:49 2005: LOG DATE
UWI.           05 071 08601 00: UNIQUE WELL ID
~Curve Information Block
DEPT.FT            0 000 00 00: Depth
CCL.                          : Casing Collar Locator
TT3.usec                      : CBL 3' Travel Time
AMP3.mV                       : CBL 3' Amplitude
GR.GAPI                       : Gamma Ray
~Parameter Information Block
~A  Depth       CCL         TT3         AMP3         GR     
# ...
   429.0000      0.0000    280.4288     82.5882    108.8352
   429.2500      0.0000    280.4342     82.5859    101.0386
   429.5000      0.0000    280.4381     82.5959     91.6508
   429.7500      0.0000    280.4410     82.6161     83.1907
   430.0000      0.0000    280.4444     82.6349     78.0341
   430.2500      0.0000    280.4480     82.6454     77.5337
   430.5000      0.0000    280.4495     82.6505     81.2940
   430.7500      0.0000    280.4470     82.6579     87.3842
   431.0000      0.0000    280.4408     82.6706     93.6648
   431.2500      0.0000    280.4338     82.6818     98.9184
   431.5000      0.0000    280.4276     82.6803    102.6579
   431.7500      0.0000    280.4221     82.6618    104.5724
   432.0000      0.0000    280.4171     82.6322    104.8719
   432.2500      0.0000    280.4145     82.5987    104.5561
   432.5000      0.0000    280.4163     82.5666    104.3272
   432.7500      0.0000    280.4217     82.5427    103.5923
   433.0000      0.0000    280.4259     82.5379    101.5523
   433.2500      0.0000    280.4242     82.5600     98.9266
   433.5000      0.0000    280.4153     82.6060     97.4512
   433.7500      0.0000    280.4021     82.6602     97.8947
   434.0000      0.0000    280.3884     82.7033     99.7801
   434.2500      0.0000    280.3773     82.7251    102.8018
   434.5000      0.0000    280.3702     82.7282    106.9768
   434.7500      0.0000    280.3674     82.7210    111.0977
   435.0000      0.0000    280.3674     82.7094    112.4876
   435.2500      0.0000    280.3685     82.6973    109.3835
   435.5000      0.0000    280.3711     82.6895    103.1657
   435.7500      0.0000    280.3779     82.6873     97.5257
   436.0000      0.0000    280.3922     82.6823     95.4548
   436.2500      0.0000    280.4144     82.6636     97.2672
   436.5000      0.0000    280.4401     82.6322    101.3634
   436.7500      0.0000    280.4619     82.6047    106.0919
   437.0000      0.0000    280.4733     82.5973    110.1802
   437.2500      0.0000    280.4710     82.6088    112.0350
   437.5000      0.0000    280.4564     82.6203    110.2091
   437.7500      0.0000    280.4349     82.6129    105.0225
   438.0000      0.0000    280.4142     82.5862     98.8808
   438.2500      0.0000    280.4004     82.5599     94.5467
   438.5000      0.0000    280.3956     82.5554     93.3305
   438.7500      0.0000    280.3983     82.5759     94.7195
   439.0000      0.0000    280.4057     82.6040     97.2502
   439.2500      0.0000    280.4143     82.6200     99.7781
   439.5000      0.0000    280.4214     82.6209    102.2211
   439.7500      0.0000    280.4261     82.6185    105.1249
   440.0000      0.0000    280.4300     82.6250    108.6295
   440.2500      0.0000    280.4351     82.6440    112.0918
   440.5000      0.0000    280.4409     82.6739    114.7179
   440.7500      0.0000    280.4438     82.7114    116.3030
   441.0000      0.0000    280.4411     82.7506    117.1613
   441.2500      0.0000    280.4339     82.7833    117.3853
   441.5000      0.0000    280.4259     82.8030    116.5892
   441.7500      0.0000    280.4205     82.8083    114.7467
   442.0000      0.0000    280.4184     82.8031    112.9027
   442.2500      0.0000    280.4194     82.7936    112.3820
   442.5000      0.0000    280.4234     82.7837    113.1984
   442.7500      0.0000    280.4295     82.7701    113.6729
   443.0000      0.0000    280.4370     82.7453    111.9528
   443.2500      0.0000    280.4449     82.7094    107.8733
   443.5000      0.0000    280.4514     82.6773    103.0811
   443.7500      0.0000    280.4538     82.6718     99.6119
   444.0000      0.0000    280.4504     82.7059     98.7138
   444.2500      0.0000    280.4425     82.7695    100.3750
   444.5000      0.0000    280.4339     82.8329    103.0576
   444.7500      0.0000    280.4274     82.8661    104.4065
   445.0000      0.0000    280.4240     82.8589    103.1795
   445.2500      0.0000    280.4234     82.8266    100.4054
   445.5000      0.0000    280.4252     82.7948     98.3387
   445.7500      0.0000    280.4290     82.7777     98.6357
   446.0000      0.0000    280.4340     82.7711    101.4682
   446.2500      0.0000    280.4392     82.7660    105.6679
   446.5000      0.0000    280.4443     82.7611    109.3355
   446.7500      0.0000    280.4499     82.7620    110.6578
   447.0000      0.0000    280.4568     82.7716    108.7028
   447.2500      0.0000    280.4648     82.7874    103.8656
   447.5000      0.0000    280.4717     82.8078     97.6725
   447.7500      0.0000    280.4744     82.8370     92.2022
   448.0000      0.0000    280.4720     82.8778     89.3829
   448.2500      0.0000    280.4677     82.9217     90.0264
   448.5000      0.0000    280.4654     82.9519     93.1247
   448.7500      0.0000    280.4669     82.9562     96.5692
   449.0000      0.0000    280.4707     82.9335     98.7744
   449.2500      0.0000    280.4749     82.8933     99.3435
   449.5000      0.0000    280.4784     82.8538     98.5441
   449.7500      0.0000    280.4810     82.8331     97.0203
   450.0000      0.0000    280.4822     82.8378     95.8953
   450.2500      0.0000    280.4814     82.8575     96.2931
   450.5000      0.0000    280.4774     82.8723     98.4635
   450.7500      0.0000    280.4695     82.8678    101.5817
   451.0000      0.0000    280.4586     82.8433    104.3465
   451.2500      0.0000    280.4475     82.8107    105.6303
   451.5000      0.0000    280.4398     82.7849    104.8770
   451.7500      0.0000    280.4373     82.7732    102.3928
   452.0000      0.0000    280.4395     82.7674     99.1310
   452.2500      0.0000    280.4456     82.7498     95.7421
   452.5000      0.0000    280.4540     82.7108     92.0430
   452.7500      0.0000    280.4615     82.6636     87.7950
   453.0000      0.0000    280.4641     82.6343     83.5168
   453.2500      0.0000    280.4591     82.6372     79.9603
   453.5000      0.0000    280.4480     82.6639     77.3091
   453.7500      0.0000    280.4355     82.6961     75.5043
   454.0000      0.0000    280.4261     82.7200     74.8049
   454.2500      0.0000    280.4204     82.7308     75.4077
   454.5000      0.0000    280.4152     82.7321     76.8520
   454.7500      0.0000    280.4077     82.7347     78.0354
   455.0000      0.0000    280.3987     82.7511     77.5897
   455.2500      0.0000    280.3958     82.7838     74.5831
   455.5000      0.0000    280.4168     82.7929     69.5024
   455.7500      0.0000    280.5057     82.6488     64.4264
   456.0000      0.0000    280.7529     82.0702     61.7630
   456.2500      0.0000    281.2917     80.6523     62.7750
   456.5000      0.0000    282.2285     78.1322     67.3094
   456.7500      0.0000    283.5338     74.7735     74.2611
   457.0000      0.0000    284.9980     71.3835     81.6444
   457.2500      0.0000    286.3261     68.7794     86.6214
   457.5000      0.0000    287.2976     67.2594     86.7070
   457.7500      0.0000    287.8610     66.5994     81.7020
   458.0000      0.0000    288.1079     66.3780     74.0081
   458.2500      0.0000    288.1769     66.2128     66.5213
   458.5000      0.0000    288.1688     65.8192     60.5841
   458.7500      2.0000    288.1173     65.0225     56.1777
   459.0000      0.0000    288.0021     63.9189     53.2511
   459.2500      0.0000    287.7645     63.1514     52.1674
   459.5000      0.0000    287.3085     63.8047     53.1182
   459.7500      0.0000    286.5240     66.5641     55.5247
   460.0000      0.0000    285.3712     70.8585     58.0905
   460.2500      0.0000    283.9797     75.1887     59.5715
   460.5000      0.0000    282.6313     78.3920     59.6393
   460.7500      0.0000    281.5951     80.3279     58.8762
   461.0000      0.0000    280.9690     81.4387     57.8895
   461.2500      0.0000    280.6749     82.0996     56.6851
   461.5000      0.0000    280.5712     82.4625     55.0015
   461.7500      0.0000    280.5488     82.5986     52.9582
   462.0000      0.0000    280.5525     82.5926     51.2712
   462.2500      0.0000    280.5620     82.5321     50.9748
