~Version Information
 VERS.                                  2.0 : CWLS LAS VERSION
 WRAP.                                   NO : WRAPING MODE
 SWARE .                 MController 2.5.0N : SOFTWARE VERSION
~Well Information
 WELL.                     CORTINA 23-25 TR : WELL
 COMP.    PIONEER NATURAL RESOURCES USA INC : COMPANY
 FLD.                      PURGATOIRE RIVER : FIELD
 LOC.                NE/SW SEC 25 T32S R67W : LOCATION
 DATE.                             09/24/05 : DATE(S) LOGGED
 SRVC.       BLANCO GEOLOGICAL SERVICES LLC : SERVICE COMPANY
 STAT.                             COLORADO : STATE
 CNTY.                           LAS ANIMAS : COUNTY
 CTRY.                                  USA : COUNTRY
 API.                       05-071-08534-00 : API NUMBER
 STRT.FT                             388.00 : START DEPTH
 STOP.FT                            1890.00 : STOP DEPTH
 STEP.FT                               1.00 : DEPTH INCREMENT
 NULL.                                -9999 : NULL VALUE
~Curve information
 DEPTH.FT                                   :
 ROP.MIN/FT                                 :
 GAS.UNITS                                  :
~ASCII Log data
# ...
       988.0         0.23          3.6 
       989.0         0.32          3.9 
       990.0         0.23          3.1 
       991.0         0.27          3.1 
       992.0         0.33          3.9 
       993.0         0.27          3.1 
       994.0         0.23          3.9 
       995.0         0.27          3.3 
       996.0         0.27          3.9 
       997.0         0.53          3.3 
       998.0         0.43          3.9 
       999.0         0.27          3.3 
      1000.0         0.28          3.9 
      1001.0         0.37          3.7 
      1002.0         0.27          3.8 
      1003.0         0.33          3.7 
      1004.0         0.27          3.2 
      1005.0         0.33          3.7 
      1006.0         0.23          2.7 
      1007.0         1.27          3.4 
      1008.0         2.08          3.5 
      1009.0         0.57          3.1 
      1010.0         0.40          3.3 
      1011.0         0.52          3.3 
      1012.0         0.20          3.3 
      1013.0         0.37          3.4 
      1014.0         0.47          3.2 
      1015.0         0.33          3.1 
      1016.0         0.27          3.0 
      1017.0         0.27          3.2 
      1018.0         0.27          3.1 
      1019.0         0.27          3.4 
      1020.0         0.27          2.6 
      1021.0         0.40          3.1 
      1022.0         0.28          3.1 
      1023.0         0.40          3.4 
      1024.0         0.37          3.6 
      1025.0         0.27          3.0 
      1026.0         0.30          2.4 
      1027.0         0.23          3.1 
      1028.0         0.27          2.9 
      1029.0         0.20          2.1 
      1030.0         0.20          2.6 
      1031.0         0.20          2.4 
      1032.0         0.20          2.5 
      1033.0         0.27          1.9 
      1034.0         0.23          3.1 
      1035.0         0.22          2.7 
      1036.0         0.23          2.7 
      1037.0         1.20          3.0 
      1038.0         2.35          2.9 
      1039.0         0.53          2.6 
      1040.0         0.40          2.7 
      1041.0         0.53          2.2 
      1042.0         0.27          2.8 
      1043.0         0.37          2.3 
      1044.0         0.27          2.3 
      1045.0         0.38          2.8 
      1046.0         0.13          2.8 
      1047.0         0.37          3.4 
      1048.0         0.37          3.7 
      1049.0         0.20          3.7 
      1050.0         0.27          3.3 
      1051.0         0.30          3.2 
      1052.0         0.20          2.3 
      1053.0         0.33          3.2 
      1054.0         0.30          2.4 
      1055.0         0.27          2.9 
      1056.0         0.27          3.2 
      1057.0         0.27          4.7 
      1058.0         0.25          7.5 
      1059.0         0.27          9.6 
      1060.0         0.17          9.9 
      1061.0         0.13         10.2 
      1062.0         0.17         10.4 
      1063.0         0.23          9.7 
      1064.0         0.27          9.2 
      1065.0         0.27          8.9 
      1066.0         0.23          9.1 
      1067.0         1.42          7.5 
      1068.0         2.50          4.7 
      1069.0         0.37          5.5 
      1070.0         0.30         10.0 
      1071.0         0.48         17.3 
      1072.0         0.47         18.7 
      1073.0         0.17         17.2 
      1074.0         0.33         13.8 
      1075.0         0.30         10.9 
      1076.0         0.33          7.0 
      1077.0         0.40          6.5 
      1078.0         0.30          5.3 
      1079.0         0.27          4.7 
      1080.0         0.27          4.7 
      1081.0         0.25          4.5 
      1082.0         0.23          5.0 
      1083.0         0.37          4.9 
      1084.0         0.23          3.9 
      1085.0         0.27          4.9 
      1086.0         0.23          4.9 
      1087.0         0.27          4.1 
      1088.0         0.20          3.8 
      1089.0         0.20          3.8 
      1090.0         0.20          3.6 
      1091.0         0.27          3.4 
      1092.0         0.30          3.7 
      1093.0         0.30          4.3 
      1094.0         0.32          3.9 
      1095.0         0.30          3.4 
      1096.0         0.23          3.2 
      1097.0         1.23          3.4 
      1098.0         3.25         11.2 
      1099.0         0.27          7.9 
      1100.0         0.47          8.2 
      1101.0         0.23          6.6 
      1102.0         0.32          6.8 
      1103.0         0.27          6.3 
      1104.0         0.30          6.0 
      1105.0         0.23          5.3 
      1106.0         0.23          4.9 
      1107.0         0.33          4.8 
      1108.0         0.27          4.4 
      1109.0         0.33          4.8 
      1110.0         0.20          3.8 
      1111.0         0.23          3.6 
      1112.0         0.23          3.4 
      1113.0         0.20          3.7 
      1114.0         0.23          3.5 
      1115.0         0.25          4.0 
      1116.0         0.33          5.0 
      1117.0         0.27          4.6 
      1118.0         0.33          5.5 
      1119.0         0.30          4.8 
      1120.0         0.43          3.2 
      1121.0         0.37          2.0 
      1122.0         0.20          2.1 
      1123.0         0.53          2.7 
      1124.0         0.13          2.7 
      1125.0         0.55          2.9 
      1126.0         0.17          3.9 
      1127.0         1.30         12.0 
      1128.0         2.52         10.0 
      1129.0         0.40          5.3 
      1130.0         0.23          5.3 
      1131.0         0.30          6.1 
      1132.0         0.30          6.3 
      1133.0         0.30          5.8 
      1134.0         0.27          6.0 
      1135.0         0.23          5.3 
      1136.0         0.23          5.9 
      1137.0         0.27          6.0 
      1138.0         0.25          7.5 
      1139.0         0.23         21.4 
      1140.0         0.27         25.6 
      1141.0         0.27         20.2 
      1142.0         0.23         16.5 
      1143.0         0.20         16.5 
      1144.0         0.10         14.2 
      1145.0         0.13         12.7 
      1146.0         0.57         12.6 
      1147.0         0.03         12.6 
      1148.0         0.27         12.8 
      1149.0         0.27         14.8 
      1150.0         0.27         16.8 
      1151.0         0.42         21.4 
      1152.0         0.27         33.3 
      1153.0         0.27         41.1 
      1154.0         0.27         43.3 
      1155.0         0.27         45.5 
      1156.0         0.63         45.7 
      1157.0         1.03         34.6 
      1158.0         1.82         17.6 
      1159.0         0.33         13.3 
      1160.0         0.30         13.1 
      1161.0         0.27         13.0 
      1162.0         0.33         12.4 
      1163.0         0.27         12.1 
      1164.0         0.28         12.2 
      1165.0         0.30         12.1 
      1166.0         0.30         12.3 
      1167.0         0.30         18.4 
      1168.0         0.60         19.8 
      1169.0         0.23         13.8 
      1170.0         0.13         10.7 
      1171.0         0.10         10.7 
      1172.0         0.23         10.3 
      1173.0         0.13          8.9 
      1174.0         0.17          8.5 
      1175.0         0.10          8.5 
      1176.0         0.13          7.4 
      1177.0         0.32          8.4 
      1178.0         0.27          8.7 
      1179.0         0.27          9.4 
      1180.0         0.17          9.7 
      1181.0         0.33         11.1 
      1182.0         0.23         14.4 
      1183.0         0.23         26.2 
      1184.0         0.40         35.7 
      1185.0         0.07         35.7 
      1186.0         0.50         37.3 
      1187.0         1.18         34.2 
