~Version Information
VERS.                      2.0: CWLS Log ASCII Standard - VERSION 2.0
WRAP.                       NO: One line per depth step
~Well Information Block
STRT.FT               545.0000: 
STOP.FT              2200.7000: 
STEP.FT                 0.1000: 
NULL.                -999.2500: 
COMP.          Pioneer Natural Resources: COMPANY
WELL.               Erin 21-15: WELL
FLD.           Purgatoire River: FIELD
LOC.           1217' FNL & 2284' FWL--: LOCATION
CNTY.               Las Animas: COUNTY
SRVC.                Patterson: SERVICE COMPANY
DATE.          Thu Mar 02 09:55:43 2006: LOG DATE
UWI.           05 071 08713 00: UNIQUE WELL ID
STAT.                 Colorado: STATE
~Curve Information Block
DEPT.FT            0 000 00 00: Depth
DCAL.in                       : CDL Caliper
RHOB.g/cc                     : CDL Bulk Density
RHOC.g/cc                     : CDL Density Correction
DPOR.pu                       : CDL Density Porosity
NPOR.pu                       : Neutron Porosity
GR.GAPI                       : Gamma Ray
~Parameter Information Block
~A  Depth       DCAL        RHOB        RHOC        DPOR        NPOR         GR     
# ...
  1735.4000      7.9882      2.5120      0.0388      8.3609     24.6740    138.1852
  1735.5000      8.0013      2.5366      0.0575      6.8719     24.5341    136.0884
  1735.6000      8.0013      2.5610      0.1007      5.3921     24.9477    136.8803
  1735.7000      8.0013      2.5752      0.0976      4.5311     25.5235    137.7593
  1735.8000      7.9985      2.5715      0.1256      4.7568     25.9137    133.1015
  1735.9000      7.9985      2.5455      0.0893      6.3305     26.1362    128.4021
  1736.0000      7.9752      2.5081      0.0337      8.6004     26.0754    129.9127
  1736.1000      7.9752      2.4830      0.0282     10.1240     25.6806    133.0242
  1736.2000      7.9752      2.4822      0.0278     10.1710     25.2088    135.0972
  1736.3000      7.9576      2.4908      0.0460      9.6494     24.9115    137.4041
  1736.4000      7.9576      2.4948      0.0172      9.4069     24.8927    138.2859
  1736.5000      7.9523      2.5048      0.0097      8.7981     24.9574    137.0017
  1736.6000      7.9523      2.5229      0.0664      7.7026     24.7194    135.1175
  1736.7000      7.9523      2.5340      0.0707      7.0281     24.1163    133.6331
  1736.8000      7.9503      2.5363      0.0540      6.8882     23.2097    134.7664
  1736.9000      7.9503      2.5394      0.0379      6.7051     22.1848    138.6455
  1737.0000      7.9490      2.5486      0.0629      6.1461     21.5432    137.3459
  1737.1000      7.9490      2.5617      0.0630      5.3518     21.4707    125.3235
  1737.2000      7.9490      2.5705      0.0707      4.8179     21.6063    112.1707
  1737.3000      7.9487      2.5707      0.0284      4.8064     21.7744    109.2678
  1737.4000      7.9487      2.5679      0.0568      4.9761     21.9731    112.2966
  1737.5000      7.9441      2.5640      0.0573      5.2149     21.8591    112.1778
  1737.6000      7.9441      2.5581      0.0369      5.5669     21.2722    106.2791
  1737.7000      7.9441      2.5584      0.0767      5.5514     20.5662     95.2277
  1737.8000      7.9337      2.5720      0.0680      4.7303     19.9918     85.3115
  1737.9000      7.9337      2.5937      0.0792      3.4119     19.5813     84.1251
  1738.0000      7.9264      2.6054      0.0858      2.7022     19.2892     89.9562
  1738.1000      7.9264      2.5947      0.0548      3.3536     18.8538     92.9045
  1738.2000      7.9264      2.5793      0.0124      4.2871     18.2832     86.7279
  1738.3000      7.9245      2.5779      0.0386      4.3687     17.7271     77.1059
  1738.4000      7.9245      2.5778      0.0273      4.3764     17.0692     72.1327
  1738.5000      7.9277      2.5700     -0.0110      4.8492     16.4889     70.8956
  1738.6000      7.9277      2.5681     -0.0068      4.9659     16.3715     70.3792
  1738.7000      7.9277      2.5727      0.0467      4.6834     16.5525     70.0769
  1738.8000      7.9356      2.5754      0.0185      4.5197     16.5630     69.2766
  1738.9000      7.9356      2.5859      0.0210      3.8856     16.3172     69.0596
  1739.0000      7.9419      2.6045      0.0648      2.7589     16.1661     70.0002
  1739.1000      7.9419      2.6109      0.0535      2.3686     16.3562     70.7521
  1739.2000      7.9419      2.5979      0.0487      3.1553     16.8496     70.9891
  1739.3000      7.9414      2.5724      0.0351      4.7033     17.4194     70.7107
  1739.4000      7.9414      2.5444     -0.0075      6.3991     17.8069     70.9375
  1739.5000      7.9361      2.5372     -0.0354      6.8334     17.8037     72.4961
  1739.6000      7.9361      2.5645      0.0252      5.1818     17.4073     73.7072
  1739.7000      7.9361      2.5992      0.0655      3.0780     17.2596     72.3915
  1739.8000      7.9316      2.6112      0.0581      2.3494     17.9313     70.8781
  1739.9000      7.9316      2.6018      0.0679      2.9205     18.7669     71.7316
  1740.0000      7.9304      2.5881      0.0513      3.7544     18.8370     74.1202
  1740.1000      7.9304      2.5850      0.0158      3.9420     18.4307     77.9128
  1740.2000      7.9304      2.5882      0.0857      3.7476     17.9016     80.9654
  1740.3000      7.9304      2.5826      0.0409      4.0822     17.1850     79.5774
  1740.4000      7.9304      2.5716      0.0719      4.7528     16.7866     75.2236
  1740.5000      7.9306      2.5639      0.0551      5.2182     17.2021     72.8967
  1740.6000      7.9306      2.5605      0.0378      5.4227     18.1047     73.1810
  1740.7000      7.9306      2.5613      0.0116      5.3741     18.9140     74.1595
  1740.8000      7.9307      2.5639      0.0494      5.2204     19.4669     74.8754
  1740.9000      7.9307      2.5633      0.0293      5.2565     19.7447     75.5805
  1741.0000      7.9319      2.5584      0.0726      5.5513     19.7061     76.9429
  1741.1000      7.9319      2.5549      0.0244      5.7613     19.6437     76.9484
  1741.2000      7.9319      2.5600      0.0274      5.4529     20.0895     75.8644
  1741.3000      7.9351      2.5665      0.0395      5.0579     21.0317     77.2104
  1741.4000      7.9351      2.5653      0.0598      5.1348     21.9642     84.2631
  1741.5000      7.9377      2.5654      0.0258      5.1276     22.5681     95.9364
  1741.6000      7.9377      2.5734      0.0627      4.6419     22.7490    106.7274
  1741.7000      7.9377      2.5817      0.0486      4.1389     22.7081    113.9365
  1741.8000      7.9382      2.5852      0.0685      3.9245     22.8668    115.8249
  1741.9000      7.9382      2.5796      0.0804      4.2689     23.1003    112.7528
  1742.0000      7.9385      2.5691      0.0209      4.9030     22.8899    109.8736
  1742.1000      7.9385      2.5668      0.0735      5.0446     22.7184    110.5303
  1742.2000      7.9385      2.5674      0.0754      5.0044     23.0984    112.8511
  1742.3000      7.9404      2.5594      0.0380      5.4933     23.3859    112.1324
  1742.4000      7.9404      2.5432      0.0924      6.4699     23.3133    105.6171
  1742.5000      7.9463      2.5290      0.0243      7.3352     23.3698     96.5691
  1742.6000      7.9463      2.5275      0.0597      7.4243     23.7095     95.0104
  1742.7000      7.9463      2.5379      0.0200      6.7946     23.9486    106.9913
  1742.8000      7.9533      2.5549      0.0377      5.7627     23.8369    120.6678
  1742.9000      7.9533      2.5760      0.0399      4.4875     23.7021    123.3644
  1743.0000      7.9567      2.5937      0.0699      3.4129     23.7040    119.8406
  1743.1000      7.9567      2.6012      0.0473      2.9579     23.5484    116.6159
  1743.2000      7.9567      2.5959      0.0984      3.2792     23.3617    114.5417
  1743.3000      7.9591      2.5706      0.0800      4.8139     23.7744    114.2406
  1743.4000      7.9591      2.5235      0.0567      7.6669     24.8572    114.7557
  1743.5000      7.9628      2.4604      0.0076     11.4886     26.0042    113.5816
  1743.6000      7.9628      2.3843     -0.0140     16.1036     26.8187    111.6773
  1743.7000      7.9628      2.2925     -0.0045     21.6641     27.4111    110.4951
  1743.8000      7.9681      2.1898     -0.0876     27.8915     28.0070    109.0599
  1743.9000      7.9681      2.1029     -0.1291     33.1601     28.4804    107.0872
  1744.0000      7.9772      2.0629     -0.1581     35.5802     28.5841    103.7830
  1744.1000      7.9772      2.0735     -0.0668     34.9419     28.3797    100.0448
  1744.2000      7.9772      2.1122     -0.0532     32.5957     27.8978     97.3972
  1744.3000      7.9868      2.1626      0.0162     29.5408     26.9996     92.8599
  1744.4000      7.9868      2.2235      0.0834     25.8472     25.8748     87.4467
  1744.5000      7.9908      2.3003      0.1385     21.1930     24.7490     86.6390
  1744.6000      7.9908      2.3899      0.2412     15.7643     23.5237     90.8784
  1744.7000      7.9908      2.4693      0.2396     10.9501     22.4017     97.4332
  1744.8000      7.9874      2.5123      0.2082      8.3471     21.8407    101.7390
  1744.9000      7.9874      2.5182      0.0919      7.9896     21.8543    101.8734
