~Version Information
VERS.                      2.0: CWLS Log ASCII Standard - VERSION 2.0
WRAP.                       NO: One line per depth step
~Well Information Block
STRT.FT                10.0000: 
STOP.FT              1380.7500: 
STEP.FT                 0.2500: 
NULL.                -999.2500: 
COMP.          Pioneer Natural Resources: COMPANY
WELL.          Baa Baa 34-1 Tr: WELL
FLD.           Purgatoire River: FIELD
LOC.           785' FSL & 2304' FEL: LOCATION
CNTY.               Las Animas: COUNTY
SRVC.                Patterson: SERVICE COMPANY
DATE.          Tue Mar 07 13:08:19 2006: LOG DATE
UWI.           05 071 08710 00: UNIQUE WELL ID
STAT.                 Colorado: STATE
~Curve Information Block
DEPT.FT            0 000 00 00: Depth
GR.GAPI                       : Gamma Ray
CCL.                          : Casing Collar Locator
TT3.usec                      : CBL 3' Travel Time
AMP3.mV                       : CBL 3' Amplitude
~Parameter Information Block
~A  Depth        GR         CCL         TT3         AMP3    
# ...
   646.5000     98.2395      0.0000    861.7659      3.3973
   646.7500     90.5095      0.0000    853.3167      3.4393
   647.0000     84.9871      0.0000    846.6120      3.7208
   647.2500     83.2507      0.0000    839.9927      4.2074
   647.5000     86.5635      0.0000    831.5245      4.8823
   647.7500     94.3497      0.0000    821.3782      5.7319
   648.0000    103.7598      0.0000    811.5186      6.7165
   648.2500    111.5497      0.0000    803.7380      7.7604
   648.5000    116.6065      0.0000    798.1835      8.7725
   648.7500    120.2488      0.0000    793.5451      9.6728
   649.0000    124.0812      0.0000    788.8115     10.3994
   649.2500    128.0487      0.0000    784.5646     10.9087
   649.5000    130.6452      0.0000    782.0889     11.1871
   649.7500    130.6690      0.0000    781.8384     11.2611
   650.0000    128.5669      0.0000    783.3781     11.1815
   650.2500    126.0297      0.0000    785.9587     10.9935
   650.5000    124.3854      0.0000    788.4350     10.7301
   650.7500    123.5977      0.0000    789.3720     10.4290
   651.0000    122.8173      0.0000    788.0439     10.1405
   651.2500    121.4668      0.0000    785.2366      9.9138
   651.5000    119.5829      0.0000    783.0121      9.7734
   651.7500    117.5840      0.0000    783.6124      9.7068
   652.0000    116.1111      0.0000    787.9911      9.6760
   652.2500    115.9130      0.0000    795.1128      9.6529
   652.5000    117.4390      0.0000    802.9649      9.6477
   652.7500    120.2580      0.0000    810.2830      9.7043
   653.0000    122.9833      0.0000    816.7545      9.8660
   653.2500    124.1244      0.0000    821.5179     10.1462
   653.5000    123.2463      0.0000    822.4431     10.5156
   653.7500    121.1857      0.0000    817.8865     10.9009
   654.0000    119.1959      0.0000    809.0168     11.2029
   654.2500    118.1346      0.0000    799.7006     11.3414
   654.5000    118.3172      0.0000    793.9562     11.2932
   654.7500    119.6034      0.0000    793.4691     11.0867
   655.0000    121.4273      0.0000    796.8618     10.7765
   655.2500    122.9981      0.0000    800.8010     10.4311
   655.5000    123.7401      0.0000    802.0279     10.1252
   655.7500    123.7401      0.0000    798.9983      9.9183
   656.0000    123.7671      0.0000    792.4379      9.8443
   656.2500    124.5891      0.0000    784.9041      9.9237
   656.5000    126.1944      0.0000    779.4892     10.1646
   656.7500    127.8606      0.0000    777.9999     10.5359
   657.0000    128.8525      0.0000    779.6606     10.9568
   657.2500    128.7143      0.0000    781.5793     11.3398
   657.5000    127.1178      0.0000    780.9797     11.6542
   657.7500    124.0653      0.0000    777.3999     11.9409
   658.0000    120.3191      0.0000    772.7942     12.2618
   658.2500    117.1792      0.0000    769.7744     12.6369
   658.5000    115.6812      0.0000    770.0482     13.0309
   658.7500    116.0648      0.0000    773.9830     13.3884
   659.0000    117.8437      0.0000    780.5537     13.6665
   659.2500    120.2791      0.0000    787.4967     13.8431
   659.5000    122.9447      0.0000    792.4031     13.9126
   659.7500    125.8253      0.0000    794.2320     13.8852
   660.0000    128.7157      0.0000    793.4597     13.7779
   660.2500    130.7316      0.0000    790.7508     13.6023
   660.5000    130.7400      0.0000    786.2524     13.3616
   660.7500    128.2417      0.0000    780.3995     13.0604
   661.0000    123.7673      0.0000    774.5477     12.7179
   661.2500    118.6484      0.0000    770.2989     12.3743
   661.5000    114.5374      0.0000    768.6761     12.0819
   661.7500    112.7923      0.0000    770.1865     11.8806
   662.0000    113.7623      0.0000    775.1204     11.7770
   662.2500    116.3990      0.0000    783.3403     11.7515
   662.5000    118.8556      0.0000    794.0567     11.7844
   662.7500    120.0277      0.0000    806.3072     11.8718
   663.0000    120.5585      0.0000    819.3235     12.0152
   663.2500    121.9621      0.0000    831.9497     12.1996
   663.5000    124.7024      0.0000    842.4489     12.3887
   663.7500    127.3985      0.0000    850.0909     12.5472
   664.0000    127.8114      0.0000    856.3023     12.6630
   664.2500    124.4279      0.0000    862.8366     12.7421
   664.5000    117.5441      0.0000    869.4700     12.7845
   664.7500    109.3598      0.0000    874.8574     12.7750
   665.0000    102.8062      0.0000    878.8005     12.7005
   665.2500     99.8849      0.0000    882.4234     12.5698
   665.5000    100.8489      0.0000    886.9816     12.4081
   665.7500    104.5126      0.0000    893.8628     12.2384
   666.0000    109.0717      0.0000    904.9867     12.0766
   666.2500    112.9757      0.0000    920.9415     11.9419
   666.5000    115.5168      0.0000    937.4468     11.8604
   666.7500    116.7028      0.0000    945.1284     11.8512
   667.0000    116.5198      0.0000    935.6961     11.9038
   667.2500    114.5720      0.0000    909.5991     11.9740
   667.5000    110.7528      0.0000    876.6216     12.0051
   667.7500    106.1728      0.0000    848.3519     11.9614
   668.0000    102.9233      0.0000    830.3555     11.8401
   668.2500    102.5179      0.0000    821.0491     11.6538
   668.5000    104.5993      0.0000    816.2246     11.4120
   668.7500    107.3141      0.0000    813.3647     11.1325
   669.0000    108.9006      0.0000    812.3988     10.8609
   669.2500    108.8925      0.0000    814.1007     10.6658
   669.5000    107.9313      0.0000    818.2086     10.6062
   669.7500    106.6794      0.0000    822.5617     10.7017
   670.0000    105.0906      0.0000    824.3940     10.9256
   670.2500    102.6793      0.0000    823.3040     11.2207
   670.5000     99.3083      0.0000    822.0613     11.5253
   670.7500     95.7018      0.0000    823.2726     11.7967
   671.0000     93.1587      0.0000    826.3793     12.0186
   671.2500     92.6980      0.0000    829.4054     12.1893
   671.5000     94.4467      0.0000    832.2271     12.3068
   671.7500     97.7156      0.0000    835.9896     12.3682
   672.0000    101.4211      0.0000    839.9127     12.3799
   672.2500    104.5299      0.0000    840.8983     12.3560
   672.5000    106.4664      0.0000    836.9973     12.3074
   672.7500    107.2178      0.0000    830.2269     12.2380
   673.0000    107.0153      0.0000    825.1823     12.1530
   673.2500    106.0538      0.0000    824.9825     12.0637
   673.5000    104.5832      0.0000    828.5406     11.9874
   673.7500    102.9844      0.0000    831.5715     11.9430
   674.0000    101.6516      0.0000    830.3809     11.9428
   674.2500    100.9293      0.0000    824.8862     11.9880
   674.5000    100.9772      0.0000    818.0692     12.0702
   674.7500    101.4810      0.0000    813.0959     12.1794
   675.0000    101.7909      0.0000    811.3175     12.3071
   675.2500    101.5946      0.0000    812.1693     12.4483
   675.5000    101.0116      0.0000    813.9058     12.6051
   675.7500     99.9297      0.0000    814.6264     12.7904
   676.0000     97.9104      0.0000    813.4703     13.0248
   676.2500     95.0519      0.0000    811.0417     13.3234
   676.5000     92.5018      0.0000    808.4391     13.6732
   676.7500     91.7453      0.0000    805.9346     14.0232
   677.0000     93.3570      0.0000    802.6633     14.3051
   677.2500     96.4908      0.0000    797.4995     14.4731
   677.5000     99.5618      0.0000    790.3282     14.5217
   677.7500    101.5238      0.0000    782.6541     14.4716
   678.0000    102.5695      0.0000    776.7823     14.3462
   678.2500    103.5275      0.0000    774.0540     14.1612
   678.5000    104.8080      0.0000    773.8424     13.9260
   678.7500    106.3075      0.0000    774.5681     13.6494
   679.0000    107.9717      0.0000    775.9640     13.3426
   679.2500    109.7577      0.0000    780.1764     13.0128
   679.5000    111.2383      0.0000    789.9991     12.6421
   679.7500    111.8870      0.0000    805.3880     12.1618
