~Version Information
VERS.                      2.0: CWLS Log ASCII Standard - VERSION 2.0
WRAP.                       NO: One line per depth step
~Well Information Block
STRT.FT               588.7000: 
STOP.FT              1820.2000: 
STEP.FT                 0.1000: 
NULL.                -999.2500: 
COMP.          Pioneer Natural Resources: COMPANY
WELL.           Loews 41-32 Tr: WELL
FLD.           Purgatoire River: FIELD
LOC.           706' FNL & 224' FEL--: LOCATION
CNTY.               Las Animas: COUNTY
SRVC.                Patterson: SERVICE COMPANY
DATE.          Tue Feb 21 10:23:46 2006: LOG DATE
UWI.           05 071 08690 00: UNIQUE WELL ID
STAT.                 Colorado: STATE
~Curve Information Block
DEPT.FT            0 000 00 00: Depth
DCAL.in                       : CDL Caliper
RHOB.g/cc                     : CDL Bulk Density
RHOC.g/cc                     : CDL Density Correction
DPOR.pu                       : CDL Density Porosity
GR.GAPI                       : Gamma Ray
~Parameter Information Block
~A  Depth       DCAL        RHOB        RHOC        DPOR         GR     
# ...
   678.3000      8.1283      2.5850      0.0498      3.9418     82.2525
   678.4000      8.1283      2.5653      0.0048      5.1317     87.7198
   678.5000      8.1293      2.5578     -0.0182      5.5899     87.7334
   678.6000      8.1293      2.5672      0.0045      5.0184     86.1343
   678.7000      8.1293      2.5810      0.0506      4.1845     88.3404
   678.8000      8.1285      2.5917      0.0053      3.5356     90.3845
   678.9000      8.1285      2.5960      0.0623      3.2747     87.7036
   679.0000      8.1282      2.5832      0.0338      4.0508     82.4806
   679.1000      8.1282      2.5645     -0.0370      5.1793     78.3436
   679.2000      8.1282      2.5654      0.0316      5.1247     75.4902
   679.3000      8.1305      2.5812      0.0344      4.1696     73.7930
   679.4000      8.1305      2.5921      0.0256      3.5076     74.7115
   679.5000      8.1319      2.5963      0.0375      3.2525     76.2025
   679.6000      8.1319      2.6010      0.0591      2.9687     75.9590
   679.7000      8.1319      2.6003      0.0415      3.0145     76.6944
   679.8000      8.1318      2.5820      0.0414      4.1224     80.0938
   679.9000      8.1318      2.5559     -0.0047      5.7007     81.8888
   680.0000      8.1350      2.5477     -0.0083      6.1991     77.9115
   680.1000      8.1350      2.5653     -0.0083      5.1364     71.8756
   680.2000      8.1350      2.5894      0.0969      3.6717     70.2988
   680.3000      8.1388      2.5990      0.0471      3.0884     73.7756
   680.4000      8.1388      2.6013      0.0107      2.9520     80.1451
   680.5000      8.1421      2.6050      0.0569      2.7259     89.1720
   680.6000      8.1421      2.5907      0.0767      3.5955     97.1294
   680.7000      8.1421      2.5516      0.0088      5.9666     98.5345
   680.8000      8.1482      2.5145      0.0052      8.2134     96.5361
   680.9000      8.1482      2.4915      0.0277      9.6053     99.2556
   681.0000      8.1570      2.4721      0.0211     10.7819    108.5923
   681.1000      8.1570      2.4602      0.0212     11.5036    121.2800
   681.2000      8.1570      2.4702      0.0052     10.8965    129.4027
   681.3000      8.1686      2.4940      0.0772      9.4548    127.9021
   681.4000      8.1686      2.5050      0.0822      8.7867    122.0771
   681.5000      8.1788      2.4960      0.0550      9.3355    119.1227
   681.6000      8.1788      2.4735      0.0507     10.6995    119.4803
   681.7000      8.1788      2.4373      0.0452     12.8914    120.1806
   681.8000      8.1837      2.4042     -0.0002     14.8963    122.4443
   681.9000      8.1837      2.4018      0.0647     15.0430    130.7657
   682.0000      8.1814      2.4242      0.0830     13.6876    141.7476
   682.1000      8.1814      2.4424      0.1006     12.5814    145.4393
   682.2000      8.1814      2.4476      0.0809     12.2676    142.6584
   682.3000      8.1745      2.4588      0.0906     11.5868    140.2660
   682.4000      8.1745      2.4882      0.1393      9.8031    139.6276
   682.5000      8.1705      2.5186      0.1795      7.9646    140.9077
   682.6000      8.1705      2.5323      0.1632      7.1312    140.7737
   682.7000      8.1705      2.5390      0.1323      6.7299    134.5354
   682.8000      8.1721      2.5557      0.1200      5.7177    128.8105
   682.9000      8.1721      2.5759      0.1831      4.4935    133.2632
   683.0000      8.1739      2.5750      0.1308      4.5430    143.3942
   683.1000      8.1739      2.5497      0.0796      6.0802    147.5088
   683.2000      8.1739      2.5265      0.0357      7.4870    143.7164
   683.3000      8.1732      2.5237      0.0743      7.6533    141.0065
   683.4000      8.1732      2.5250      0.0813      7.5758    143.6724
   683.5000      8.1720      2.5107      0.0455      8.4441    144.5776
   683.6000      8.1720      2.4922     -0.0079      9.5660    139.9736
   683.7000      8.1720      2.4877      0.0563      9.8388    136.7100
   683.8000      8.1752      2.4925      0.0361      9.5434    139.7321
   683.9000      8.1752      2.4960      0.0312      9.3347    145.0836
   684.0000      8.1835      2.4972      0.0336      9.2584    148.4359
   684.1000      8.1835      2.5049     -0.0150      8.7959    149.9963
   684.2000      8.1835      2.5234      0.0379      7.6725    148.5644
   684.3000      8.1870      2.5488     -0.0094      6.1326    142.6098
   684.4000      8.1870      2.5745      0.0925      4.5734    136.4429
   684.5000      8.1829      2.5886      0.0919      3.7205    132.3898
   684.6000      8.1829      2.5932      0.0783      3.4440    127.8394
   684.7000      8.1829      2.5985      0.0593      3.1216    124.9702
   684.8000      8.1784      2.5990      0.0839      3.0910    126.9878
   684.9000      8.1784      2.5870      0.0717      3.8192    131.5926
   685.0000      8.1772      2.5691      0.0655      4.9011    134.7412
   685.1000      8.1772      2.5581      0.0425      5.5668    132.5583
   685.2000      8.1772      2.5592      0.0816      5.5045    124.2953
   685.3000      8.1774      2.5630      0.0868      5.2737    116.8630
   685.4000      8.1774      2.5588      0.0181      5.5248    116.9746
   685.5000      8.1767      2.5475      0.0228      6.2142    120.0065
   685.6000      8.1767      2.5339      0.0053      7.0377    118.0516
   685.7000      8.1767      2.5256      0.0091      7.5397    111.8594
   685.8000      8.1771      2.5281      0.0283      7.3867    107.4749
   685.9000      8.1771      2.5366     -0.0062      6.8745    109.4059
   686.0000      8.1777      2.5467     -0.0041      6.2634    117.8246
   686.1000      8.1777      2.5592      0.0145      5.5045    127.9248
   686.2000      8.1777      2.5708      0.0345      4.8012    134.9458
   686.3000      8.1764      2.5814      0.0504      4.1565    137.0482
   686.4000      8.1764      2.5944      0.0870      3.3673    134.6188
   686.5000      8.1752      2.6011      0.0744      2.9621    130.7211
   686.6000      8.1752      2.5859      0.0656      3.8834    128.0197
   686.7000      8.1752      2.5460      0.0545      6.3028    125.3272
   686.8000      8.1747      2.4990      0.0139      9.1527    120.7252
   686.9000      8.1747      2.4676      0.0078     11.0555    117.8440
   687.0000      8.1763      2.4521      0.0388     11.9938    120.3298
   687.1000      8.1763      2.4420      0.0002     12.6052    123.3121
   687.2000      8.1763      2.4489     -0.0364     12.1856    124.0164
   687.3000      8.1880      2.4777      0.0589     10.4454    126.2744
   687.4000      8.1880      2.4999      0.0624      9.0986    128.6315
   687.5000      8.2020      2.4988      0.0233      9.1632    127.4582
   687.6000      8.2020      2.4820      0.1011     10.1793    126.1849
   687.7000      8.2020      2.4584      0.0437     11.6147    128.0517
   687.8000      8.1977      2.4397      0.0681     12.7429    128.9636
   687.9000      8.1977      2.4308      0.0921     13.2861    124.9160
   688.0000      8.1836      2.4341      0.0472     13.0870    119.9442
   688.1000      8.1836      2.4558      0.1238     11.7683    118.4167
   688.2000      8.1836      2.4788      0.1408     10.3774    120.1066
   688.3000      8.1731      2.4697      0.1389     10.9263    122.7877
   688.4000      8.1731      2.4214      0.0479     13.8549    125.4359
   688.5000      8.1645      2.3621      0.0321     17.4485    130.7576
   688.6000      8.1645      2.3164     -0.0136     20.2166    137.1560
   688.7000      8.1645      2.2870      0.0383     21.9999    137.5984
   688.8000      8.1583      2.2700     -0.0350     23.0317    131.3302
   688.9000      8.1583      2.2669     -0.0080     23.2201    125.0854
   689.0000      8.1586      2.2794      0.0193     22.4612    122.4210
   689.1000      8.1586      2.3064      0.0627     20.8255    120.2492
   689.2000      8.1586      2.3396      0.1110     18.8121    114.5728
   689.3000      8.1608      2.3707      0.1119     16.9265    106.5227
   689.4000      8.1608      2.4017      0.1692     15.0513    103.1229
