~Version Information
VERS.                      2.0: CWLS Log ASCII Standard - VERSION 2.0
WRAP.                       NO: One line per depth step
~Well Information Block
STRT.FT                -6.7500: 
STOP.FT              1544.5000: 
STEP.FT                 0.2500: 
NULL.                -999.2500: 
COMP.          Pioneer Natural Resources: COMPANY
WELL.          Lorencito 10-36-33-67: WELL
FLD.           Purgatorie River: FIELD
LOC.           2130' FSL & 2362' FEL--: LOCATION
STAT.                       CO: State
CNTY.               Las Animas: COUNTY
CTRY. USA : Country
SECT. 36 : Section
TOWN. 33S : Township
RANG. 67W : Range
SRVC.          Patterson Wireline: SERVICE COMPANY
DATE.          Fri Sep 02 09:21:42 2005: LOG DATE
API.           05 071 08501 00: UNIQUE WELL ID
~Curve Information Block
DEPT.FT            0 000 00 00: Depth
CCL.                          : Casing Collar Locator
TT3.usec                      : CBL 3' Travel Time
AMP3.mV                       : CBL 3' Amplitude
GR.GAPI                       : Gamma Ray
~Parameter Information Block
~A  Depth       CCL         TT3         AMP3         GR     
# ...
  1098.7500      0.0000    676.8913      7.8287     95.9014
  1099.0000      0.0000    675.8884      7.9199    101.9232
  1099.2500      0.0000    673.3532      7.9571    108.8338
  1099.5000      0.0000    670.8662      7.9417    115.3998
  1099.7500      0.0000    669.6279      7.8825    120.9528
  1100.0000      0.0000    670.0563      7.7828    125.1087
  1100.2500      0.0000    671.8325      7.6449    127.9579
  1100.5000      0.0000    673.9598      7.4856    130.1575
  1100.7500      0.0000    675.2179      7.3450    132.1332
  1101.0000      0.0000    675.2286      7.2708    133.2010
  1101.2500      0.0000    675.0438      7.2884    132.0051
  1101.5000      0.0000    676.3065      7.3849    127.9557
  1101.7500      0.0000    679.8544      7.5237    121.9012
  1102.0000      0.0000    685.2833      7.6713    115.2553
  1102.2500      0.0000    691.5862      7.8086    108.8781
  1102.5000      0.0000    697.7738      7.9226    102.9495
  1102.7500      0.0000    703.0138      7.9954     97.4766
  1103.0000      0.0000    706.7361      8.0048     92.6309
  1103.2500      0.0000    708.8117      7.9376     88.9164
  1103.5000      0.0000    709.4164      7.8058     87.1729
  1103.7500      0.0000    708.5739      7.6495     88.1842
  1104.0000      0.0000    705.8510      7.5184     92.0515
  1104.2500      0.0000    700.6636      7.4423     97.9590
  1104.5000      0.0000    693.1050      7.4205    104.6703
  1104.7500      0.0000    684.3797      7.4331    111.2930
  1105.0000      0.0000    676.0024      7.4591    117.4158
  1105.2500      0.0000    668.2737      7.4817    122.5486
  1105.5000      0.0000    659.8180      7.4890    125.8128
  1105.7500      0.0000    649.2408      7.4741    126.4454
  1106.0000      0.0000    637.6960      7.4348    124.3157
  1106.2500      0.0000    629.3961      7.3736    119.8648
  1106.5000      0.0000    628.4891      7.3003    113.9192
  1106.7500      0.0000    635.0767      7.2312    107.5223
  1107.0000      0.0000    644.8281      7.1810    101.4753
  1107.2500      0.0000    652.5696      7.1516     96.0397
  1107.5000      0.0000    655.9692      7.1334     91.1590
  1107.7500      0.0000    656.2231      7.1161     86.6827
  1108.0000      0.0000    655.9874      7.0984     82.3632
  1108.2500      0.0000    656.7089      7.0883     78.0450
  1108.5000      0.0000    657.6797      7.0948     74.0596
  1108.7500      0.0000    657.4600      7.1207     71.2852
  1109.0000      0.0000    655.7310      7.1594     70.7421
  1109.2500      0.0000    653.1062      7.1977     73.0247
  1109.5000      0.0000    649.2656      7.2216     77.8652
  1109.7500      0.0000    642.3301      7.2237     84.1771
  1110.0000      0.0000    630.8860      7.2069     90.8396
  1110.2500      0.0000    616.1329      7.1828     97.6090
  1110.5000      0.0000    601.1730      7.1649    104.9007
  1110.7500      0.0000    588.4838      7.1625    112.4842
  1111.0000      0.0000    578.9132      7.1785    118.9045
  1111.2500      0.0000    572.7852      7.2103    122.5620
  1111.5000      0.0000    570.6456      7.2512    123.1417
  1111.7500      0.0000    572.4247      7.2912    121.9148
  1112.0000      0.0000    576.6030      7.3197    120.8053
  1112.2500      0.0000    580.8939      7.3292    120.9191
  1112.5000      0.0000    583.7282      7.3190    121.7269
  1112.7500      0.0000    584.9310      7.2953    121.8451
  1113.0000      0.0000    585.3006      7.2676    120.4709
  1113.2500      0.0000    585.9679      7.2432    117.6029
  1113.5000      0.0000    588.0753      7.2243    113.3878
  1113.7500      0.0000    592.4883      7.2112    108.1784
  1114.0000      0.0000    599.3289      7.2062    102.9543
  1114.2500      0.0000    607.8462      7.2131     98.8538
  1114.5000      0.0000    617.1049      7.2345     96.2866
  1114.7500      0.0000    626.7548      7.2688     94.8313
  1115.0000      0.0000    636.7487      7.3108     93.8662
  1115.2500      0.0000    646.4143      7.3535     93.1284
  1115.5000      0.0000    654.3719      7.3900     92.7787
  1115.7500      0.0000    659.4907      7.4132     93.0105
  1116.0000      0.0000    661.5464      7.4165     93.5494
  1116.2500      0.0000    661.0148      7.3952     93.6262
  1116.5000      0.0000    658.8218      7.3492     92.6312
  1116.7500      0.0000    656.4601      7.2871     90.6971
  1117.0000      0.0000    655.6821      7.2264     88.3360
  1117.2500      0.0000    657.4708      7.1879     85.6713
  1117.5000      0.0000    661.4961      7.1869     82.4763
  1117.7500      0.0000    666.8475      7.2269     78.8533
  1118.0000      0.0000    672.7981      7.2976     75.3210
  1118.2500      0.0000    678.4061      7.3782     72.2269
  1118.5000      0.0000    681.9966      7.4470     69.5037
  1118.7500      0.0000    682.0610      7.4931     67.0688
  1119.0000      0.0000    678.7942      7.5192     65.0476
  1119.2500      0.0000    674.1601      7.5331     63.3591
  1119.5000      0.0000    670.2929      7.5393     61.4741
  1119.7500      0.0000    668.1648      7.5408     59.1138
  1120.0000      0.0000    667.6686      7.5468     57.0198
  1120.2500      0.0000    668.4655      7.5737     56.5596
  1120.5000      0.0000    670.4719      7.6314     58.5915
  1120.7500      0.0000    673.6311      7.7095     62.8509
  1121.0000      0.0000    677.3648      7.7811     68.1385
  1121.2500      0.0000    680.4260      7.8229     72.7999
  1121.5000      0.0000    681.4957      7.8294     75.5078
  1121.7500      0.0000    680.0497      7.8104     76.4569
  1122.0000      0.0000    676.7344      7.7792     77.6992
  1122.2500      0.0000    672.9346      7.7452     81.4761
  1122.5000      0.0000    669.8570      7.7140     88.0074
  1122.7500      0.0000    667.8848      7.6917     95.3768
  1123.0000      0.0000    666.6165      7.6859    101.5865
  1123.2500      0.0000    665.1973      7.7003    106.2836
  1123.5000      0.0000    662.3306      7.7293    110.3555
  1123.7500      0.0000    656.1087      7.7600    114.2005
  1124.0000      0.0000    644.5849      7.7797    116.8459
  1124.2500      0.0000    627.5362      7.7813    116.8536
  1124.5000      0.0000    608.2245      7.7646    113.7553
  1124.7500      0.0000    592.9909      7.7357    108.4592
  1125.0000      0.0000    587.9803      7.7072    102.6948
  1125.2500      0.0000    595.1406      7.6934     98.3055
  1125.5000      0.0000    610.9755      7.7002     96.4968
  1125.7500      0.0000    629.3132      7.7218     97.0854
  1126.0000      0.0000    645.3774      7.7461     98.3928
  1126.2500      0.0000    657.5398      7.7638     98.2075
  1126.5000      0.0000    666.2737      7.7693     95.2533
  1126.7500      0.0000    672.4165      7.7591     89.8456
  1127.0000      0.0000    676.4174      7.7345     83.1466
  1127.2500      0.0000    678.5471      7.7065     76.1785
  1127.5000      0.0000    679.0548      7.6926     69.8376
  1127.7500      0.0000    678.0289      7.7031     65.3704
  1128.0000      0.0000    675.6342      7.7302     64.0016
  1128.2500      0.0000    672.5624      7.7575     65.7323
  1128.5000      0.0000    669.8177      7.7764     68.6188
  1128.7500      0.0000    667.9927      7.7842     69.7338
  1129.0000      0.0000    667.0261      7.7695     67.4847
  1129.2500      0.0000    666.5682      7.7132     63.1329
  1129.5000      0.0000    666.3565      7.6104     59.7332
  1129.7500      0.0000    666.2804      7.4873     59.6489
  1130.0000      0.0000    666.2977      7.3827     63.1457
  1130.2500      0.0000    666.3878      7.3081     68.8298
  1130.5000      0.0000    666.6661      7.2264     75.0303
  1130.7500      0.0000    667.6188      7.0797     81.0163
  1131.0000      0.0000    670.2576      6.8486     87.1654
  1131.2500      0.0000    675.7618      6.5831     93.9512
  1131.5000      0.0000    684.4581      6.3576    101.0424
  1131.7500      0.0000    695.2034      6.1922    107.6884
  1132.0000      0.0000    706.8185      6.0438    113.5290
