~Version Information
VERS.                      2.0: CWLS Log ASCII Standard - VERSION 2.0
WRAP.                       NO: One line per depth step
~Well Information Block
STRT.FT               350.0000: 
STOP.FT               906.0000: 
STEP.FT                 0.2500: 
NULL.                -999.2500: 
COMP.          Pioneer Natural Resources: COMPANY
WELL.           Hartford 31-18: WELL
FLD.           Purgatorie River: FIELD
LOC.           375' FNL & 1660' FEL: LOCATION
PROV.                 Colorado: PROVINCE
CNTY.               Las Animas: COUNTRY
SRVC.                Patterson: SERVICE COMPANY
DATE.          Sat Nov 19 19:02:38 2005: LOG DATE
UWI.           05-071-08555               : UNIQUE WELL ID
~Curve Information Block
DEPT.FT            0 000 00 00: Depth
SN.Ohm-m                      : IEL Short Normal
SP.mV                         : IEL Spontaneous Potential
DIR.Ohm-m                     : IEL Induction Resistivity
GR.GAPI                       : Gamma Ray
~Parameter Information Block
~A  Depth        SN          SP         DIR          GR     
# ...
   852.5000     39.3906    262.7170     35.4661     67.7182
   852.7500     39.1560    262.2979     34.9682     73.1738
   853.0000     38.8821    261.8876     34.5803     82.4631
   853.2500     38.5368    261.5040     34.2373     87.8118
   853.5000     38.1118    261.1601     33.8886     92.5776
   853.7500     37.6147    260.8702     33.5143     93.1531
   854.0000     37.0595    260.6546     33.1157     90.8743
   854.2500     36.4651    260.5381     32.6959     88.4154
   854.5000     35.8521    260.5437     32.2491     85.2016
   854.7500     35.2364    260.6819     31.7656     83.4437
   855.0000     34.6264    260.9389     31.2446     79.4399
   855.2500     34.0236    261.2704     30.7002     74.6622
   855.5000     33.4165    261.6109     30.1583     64.4873
   855.7500     32.7844    261.8991     29.6451     57.0657
   856.0000     32.1214    262.1039     29.1763     47.5393
   856.2500     31.4463    262.2342     28.7506     43.1015
   856.5000     30.7846    262.3273     28.3506     39.6881
   856.7500     30.1508    262.4275     27.9513     39.4389
   857.0000     29.5533    262.5726     27.5335     41.3194
   857.2500     29.0070    262.7916     27.0945     43.2574
   857.5000     28.5298    263.1056     26.6477     45.6220
   857.7500     28.1296    263.5245     26.2147     46.3526
   858.0000     27.8020    264.0457     25.8153     46.5449
   858.2500     27.5296    264.6621     25.4643     46.5807
   858.5000     27.2805    265.3724     25.1687     46.7043
   858.7500     27.0173    266.1821     24.9235     46.4672
   859.0000     26.7099    267.0956     24.7065     45.0200
   859.2500     26.3414    268.1078     24.4792     43.3969
   859.5000     25.9034    269.1974     24.1971     40.8541
   859.7500     25.3822    270.3225     23.8264     39.8006
   860.0000     24.7568    271.4223     23.3552     40.1607
   860.2500     24.0261    272.4307     22.7928     41.8441
   860.5000     23.2321    273.2972     22.1592     45.9764
   860.7500     22.4561    274.0023     21.4733     49.2283
   861.0000     21.7950    274.5572     20.7525     53.9366
   861.2500     21.3071    274.9933     20.0186     56.6006
   861.5000     20.9616    275.3480     19.3037     59.7212
   861.7500     20.6613    275.6547     18.6473     61.4336
   862.0000     20.3086    275.9360     18.0853     64.0433
   862.2500     19.8458    276.2004     17.6401     65.8985
   862.5000     19.2683    276.4451     17.3165     68.1508
   862.7500     18.6318    276.6629     17.1040     68.6968
   863.0000     18.0232    276.8468     16.9810     68.0293
   863.2500     17.4980    276.9916     16.9189     67.5265
   863.5000     17.0519    277.0947     16.8842     69.0221
   863.7500     16.6709    277.1596     16.8408     72.2896
   864.0000     16.3970    277.1970     16.7568     79.8192
   864.2500     16.3269    277.2171     16.6154     85.2313
   864.5000     16.5486    277.2181     16.4251     91.5528
   864.7500     17.0873    277.1795     16.2204     93.7514
   865.0000     17.8883    277.0683     16.0499     93.6746
   865.2500     18.8240    276.8561     15.9594     91.6126
   865.5000     19.7239    276.5367     15.9798     86.7021
   865.7500     20.4233    276.1327     16.1245     83.3407
   866.0000     20.8134    275.6876     16.3932     80.0448
   866.2500     20.8736    275.2511     16.7760     79.6483
   866.5000     20.6643    274.8633     17.2532     81.9912
   866.7500     20.2857    274.5452     17.7893     85.1064
   867.0000     19.8641    274.2960     18.3292     90.2736
   867.2500     19.5709    274.0997     18.8030     92.7833
   867.5000     19.5862    273.9369     19.1457     94.3408
   867.7500     19.9957    273.7985     19.3237     94.4336
   868.0000     20.7507    273.6938     19.3508     94.2118
   868.2500     21.7319    273.6469     19.2821     93.7634
   868.5000     22.8217    273.6837     19.1902     91.6731
   868.7500     23.9110    273.8175     19.1415     88.8925
   869.0000     24.8526    274.0398     19.1833     82.7557
   869.2500     25.4748    274.3172     19.3419     77.9240
   869.5000     25.6946    274.5950     19.6241     71.1519
   869.7500     25.5564    274.8121     20.0184     67.9946
   870.0000     25.1553    274.9214     20.4956     66.6643
   870.2500     24.6067    274.9052     21.0123     68.2859
   870.5000     24.0750    274.7733     21.5211     73.5751
   870.7500     23.7514    274.5531     21.9837     77.8654
   871.0000     23.7613    274.2766     22.3835     83.5046
   871.2500     24.0964    273.9707     22.7285     86.1451
   871.5000     24.6583    273.6489     23.0428     88.4260
   871.7500     25.3613    273.3107     23.3512     89.0878
   872.0000     26.1768    272.9496     23.6678     89.1625
   872.2500     27.1091    272.5660     23.9955     88.6169
   872.5000     28.1560    272.1741     24.3336     86.5691
   872.7500     29.2742    271.7968     24.6823     84.2014
   873.0000     30.3629    271.4547     25.0396     79.3170
   873.2500     31.2900    271.1544     25.3929     75.6347
   873.5000     31.9560    270.8830     25.7139     70.6827
   873.7500     32.3338    270.6077     25.9631     68.3732
   874.0000     32.4555    270.2804     26.1009     66.3794
   874.2500     32.3768    269.8493     26.1022     65.3540
   874.5000     32.1435    269.2744     25.9661     63.1892
   874.7500     31.7773    268.5406     25.7165     61.3297
   875.0000     31.2763    267.6626     25.3935     58.7220
   875.2500     30.6196    266.6786     25.0392     57.5063
   875.5000     29.7983    265.6404     24.6826     56.5913
   875.7500     28.8643    264.6023     24.3319     56.5249
   876.0000     27.9302    263.6107     23.9767     57.4003
   876.2500     27.1038    262.6931     23.5972     58.8619
   876.5000     26.4248    261.8539     23.1763     62.5667
   876.7500     25.8619    261.0780     22.7061     65.8891
   877.0000     25.3776    260.3453     22.1901     71.4819
   877.2500     25.0010    259.6495     21.6406     75.0296
   877.5000     24.8092    259.0115     21.0744     78.8087
   877.7500     24.8065    258.4769     20.5071     79.6752
   878.0000     24.8422    258.0979     19.9481     78.6380
   878.2500     24.6953    257.9072     19.3992     77.4688
   878.5000     24.2561    257.8990     18.8557     77.4422
   878.7500     23.6041    258.0247     18.3104     79.2475
   879.0000     22.8904    258.2073     17.7593     83.7182
   879.2500     22.1659    258.3667     17.2080     86.7023
   879.5000     21.3755    258.4432     16.6736     89.9687
   879.7500     20.5036    258.4051     16.1815     91.5313
   880.0000     19.6375    258.2416     15.7587     94.1659
   880.2500     18.8630    257.9509     15.4275     96.6735
   880.5000     18.1740    257.5342     15.2012    101.6139
   880.7500     17.5308    256.9976     15.0847    105.3038
   881.0000     16.9623    256.3565     15.0758    110.2703
   881.2500     16.5644    255.6381     15.1683    112.2537
   881.5000     16.4236    254.8797     15.3550    111.8859
   881.7500     16.5779    254.1266     15.6294    109.4899
   882.0000     17.0355    253.4326     15.9858    104.3640
   882.2500     17.7978    252.8543     16.4189    100.9505
   882.5000     18.8607    252.4375     16.9254     96.5953
   882.7500     20.2178    252.2005     17.5060     94.3982
   883.0000     21.8814    252.1252     18.1662     92.6080
   883.2500     23.8636    252.1573     18.9160     92.3337
   883.5000     26.0991    252.2203     19.7658     92.0427
   883.7500     28.4000    252.2419     20.7228     91.0197
   884.0000     30.5314    252.1802     21.7869     87.5036
   884.2500     32.3267    252.0335     22.9497     83.9174
   884.5000     33.6945    251.8302     24.1919     77.2572
   884.7500     34.5761    251.6084     25.4795     72.5677
   885.0000     34.9561    251.4000     26.7599     66.5639
   885.2500     34.8787    251.2248     27.9643     63.8624
   885.5000     34.4624    251.0930     29.0194     61.8651
   885.7500     33.9201    251.0088     29.8649     61.6588
