~Version Information
VERS.                      2.0: CWLS Log ASCII Standard - VERSION 2.0
WRAP.                       NO: One line per depth step
~Well Information Block
STRT.FT                 0.0000: 
STOP.FT              1538.0000: 
STEP.FT                 0.2500: 
NULL.                -999.2500: 
COMP.          Pioneer Natural Resources: COMPANY
WELL.           Butch 33-10 TR: WELL
FLD.           Purgatorie River: FIELD
LOC.           2309' FSL & 1337' FEL: LOCATION
PROV.                 Colorado: PROVINCE
CNTY.               Las Animas: COUNTRY
SRVC.                Patterson: SERVICE COMPANY
DATE.          Thu Jan 19 12:40:27 2006: LOG DATE
UWI.                          : UNIQUE WELL ID
~Curve Information Block
DEPT.FT            0 000 00 00: Depth
CCL.                          : Casing Collar Locator
TT3.usec                      : CBL 3' Travel Time
AMP3.mV                       : CBL 3' Amplitude
GR.GAPI                       : Gamma Ray
~Parameter Information Block
~A  Depth       CCL         TT3         AMP3         GR     
# ...
   804.0000      0.0000    301.4906     26.6783    142.8538
   804.2500      0.0000    301.4604     26.6885    144.7137
   804.5000      0.0000    301.4949     26.5964    143.5912
   804.7500      0.0000    301.5788     26.3705    139.5946
   805.0000      0.0000    301.6946     26.0421    133.4057
   805.2500      0.0000    301.8383     25.6595    126.1779
   805.5000      0.0000    301.9813     25.2527    119.4186
   805.7500      0.0000    302.0826     24.8199    114.5093
   806.0000      0.0000    302.1551     24.3408    112.1104
   806.2500      0.0000    302.2500     23.8540    112.0969
   806.5000      0.0000    302.3792     23.4772    113.9719
   806.7500      0.0000    302.5005     23.2851    117.0291
   807.0000      0.0000    302.5667     23.2331    120.2172
   807.2500      0.0000    302.5747     23.2160    122.6864
   807.5000      0.0000    302.5756     23.1327    124.9104
   807.7500      0.0000    302.6221     22.9417    128.3828
   808.0000      0.0000    302.7184     22.6928    133.5348
   808.2500      0.0000    302.8433     22.4490    138.6789
   808.5000      0.0000    302.9795     22.2174    141.5816
   808.7500      0.0000    303.0826     22.0277    141.5907
   809.0000      0.0000    303.0638     22.0210    139.8774
   809.2500      0.0000    302.8893     22.3172    137.9941
   809.5000      0.0000    302.6552     22.8116    136.4125
   809.7500      0.0000    302.4786     23.2630    134.2857
   810.0000      0.0000    302.3886     23.5276    130.5802
   810.2500      0.0000    302.3716     23.5803    125.4341
   810.5000      0.0000    302.4171     23.4540    120.3483
   810.7500      0.0000    302.5028     23.2395    117.1644
   811.0000      0.0000    302.6235     22.9895    116.9191
   811.2500      0.0000    302.8125     22.6615    119.4003
   811.5000      0.0000    303.0493     22.2993    123.4896
   811.7500      0.0000    303.1909     22.1196    127.8091
   812.0000      0.0000    303.1104     22.2594    131.2508
   812.2500      0.0000    302.8688     22.5761    133.2477
   812.5000      0.0000    302.6531     22.8131    133.8222
   812.7500      0.0000    302.5792     22.8631    133.2854
   813.0000      0.0000    302.6084     22.8191    131.7296
   813.2500      0.0000    302.6248     22.8361    129.0332
   813.5000      0.0000    302.5581     22.9680    125.5049
   813.7500      0.0000    302.4436     23.1113    122.1441
   814.0000      0.0000    302.3635     23.1406    119.9401
   814.2500      0.0000    302.3329     23.0969    119.1527
   814.5000      0.0000    302.2723     23.1725    119.5310
   814.7500      0.0000    302.1051     23.4923    120.7545
   815.0000      0.0000    301.8650     23.9604    122.0047
   815.2500      0.0000    301.6802     24.3338    121.5727
   815.5000      0.0000    301.6614     24.4015    118.0756
   815.7500      0.0000    301.8140     24.1061    112.2682
   816.0000      0.0000    302.0485     23.5662    107.0036
   816.2500      0.0000    302.2868     22.9604    105.0481
   816.5000      0.0000    302.5248     22.3835    106.9769
   816.7500      0.0000    302.7792     21.8658    111.1324
   817.0000      0.0000    303.0447     21.4395    115.3650
   817.2500      0.0000    303.3054     21.1033    118.6231
   817.5000      0.0000    303.5467     20.8180    121.1483
   817.7500      0.0000    303.7766     20.5665    123.5972
   818.0000      0.0000    304.0368     20.3374    126.1497
   818.2500      0.0000    304.4131     20.0714    128.3620
   818.5000      0.0000    305.2651     19.6833    129.7396
   818.7500      0.0000    307.7570     19.1571    130.2042
   819.0000      0.0000    313.5338     18.5988    129.9843
   819.2500      0.0000    321.4417     18.2008    129.5031
   819.5000      0.0000    325.4076     18.1309    129.4822
   819.7500      0.0000    321.3137     18.3607    130.6003
   820.0000      0.0000    313.3942     18.6614    132.6879
   820.2500      0.0000    307.7884     18.8378    134.3618
   820.5000      0.0000    305.6021     18.8663    133.7378
   820.7500      0.0000    305.0824     18.8325    129.7799
   821.0000      0.0000    304.9793     18.8533    123.0653
   821.2500      0.0000    304.8552     19.0060    115.1515
   821.5000      0.0000    304.6107     19.2835    107.3716
   821.7500      0.0000    304.2774     19.6701    100.5958
   822.0000      0.0000    303.8873     20.2178     95.9156
   822.2500      0.0000    303.4466     20.9705     94.6089
   822.5000      0.0000    303.0070     21.8411     96.9552
   822.7500      0.0000    302.6508     22.6258    101.4505
   823.0000      0.0000    302.4146     23.1342    105.5327
   823.2500      0.0000    302.2910     23.2771    107.1607
   823.5000      0.0000    302.2596     23.1274    105.9623
   823.7500      0.0000    302.2853     22.9324    103.0943
   824.0000      0.0000    302.3404     22.9148     99.9816
   824.2500      0.0000    302.4338     23.0513     97.2293
   824.5000      0.0000    302.5852     23.1427     94.7295
   824.7500      0.0000    302.7880     23.0631     92.2919
   825.0000      0.0000    302.9928     22.8701     89.7738
   825.2500      0.0000    303.1115     22.7007     86.9396
   825.5000      0.0000    303.0883     22.6117     83.6552
   825.7500      0.0000    302.9904     22.5352     80.0932
   826.0000      0.0000    302.9504     22.3779     76.5354
   826.2500      0.0000    303.0326     22.1337     73.0357
   826.5000      0.0000    303.2170     21.8749     69.3496
   826.7500      0.0000    303.4522     21.6672     65.2911
   827.0000      0.0000    303.6959     21.5288     61.3045
   827.2500      0.0000    303.9263     21.4376     58.4874
   827.5000      0.0000    304.1231     21.3444     57.6523
   827.7500      0.0000    304.2777     21.2186     58.4411
   828.0000      0.0000    304.4112     21.0756     59.6683
   828.2500      0.0000    304.5480     20.9169     60.3485
   828.5000      0.0000    304.6765     20.7273     60.1589
   828.7500      0.0000    304.7633     20.5469     59.3422
   829.0000      0.0000    304.8232     20.4257     58.6569
   829.2500      0.0000    304.8985     20.3596     59.0798
   829.5000      0.0000    304.9689     20.3434     61.0681
   829.7500      0.0000    304.9951     20.3676     64.2044
   830.0000      0.0000    304.9916     20.3662     67.7893
   830.2500      0.0000    304.9896     20.2913     71.5907
   830.5000      0.0000    305.0040     20.1989     75.8575
   830.7500      0.0000    305.0283     20.1877     80.7723
   831.0000      0.0000    305.0348     20.2897     86.1967
   831.2500      0.0000    305.0087     20.4567     92.0617
   831.5000      0.0000    304.9349     20.6343     98.5982
   831.7500      0.0000    304.7629     20.7994    105.4434
   832.0000      0.0000    304.4937     20.9326    110.6210
   832.2500      0.0000    304.2797     20.9909    111.5811
   832.5000      0.0000    304.2779     20.9349    107.9310
   832.7500      0.0000    304.4345     20.7915    102.5961
   833.0000      0.0000    304.5742     20.6442     99.7677
   833.2500      0.0000    304.6221     20.5661    101.8631
   833.5000      0.0000    304.6221     20.6141    108.3003
   833.7500      0.0000    304.6390     20.8153    116.3354
   834.0000      0.0000    304.7009     21.0992    122.6869
   834.2500      0.0000    304.7823     21.3151    125.1424
   834.5000      0.0000    304.8138     21.3794    123.6758
   834.7500      0.0000    304.7357     21.3641    120.2641
   835.0000      0.0000    304.5689     21.3968    117.2649
   835.2500      0.0000    304.3913     21.5275    115.7318
   835.5000      0.0000    304.2320     21.7307    115.1305
   835.7500      0.0000    304.0526     21.9580    114.3012
   836.0000      0.0000    303.8269     22.1648    112.5147
   836.2500      0.0000    303.5764     22.3492    109.9999
   836.5000      0.0000    303.3793     22.5566    107.9482
   836.7500      0.0000    303.4010     22.7992    107.9023
   837.0000      0.0000    304.0057     23.0384    110.4333
   837.2500      0.0000    306.9937     23.2728    114.2515
