~Version Information
VERS.                      2.0: CWLS Log ASCII Standard - VERSION 2.0
WRAP.                       NO: One line per depth step
~Well Information Block
STRT.FT               400.0000: 
STOP.FT              1804.7000: 
STEP.FT                 0.1000: 
NULL.                -999.2500: 
COMP.          Pioneer Natural Resources: COMPANY
WELL.           Lynch 43-30 Tr: WELL
FLD.           Purgatoire River: FIELD
LOC.           1431' FSL & 296' FEL--: LOCATION
PROV.                 Colorado: PROVINCE
CNTY.               Las Animas: COUNTRY
SRVC.                Patterson: SERVICE COMPANY
DATE.          Thu Jul 28 10:43:37 2005: LOG DATE
UWI.           05 071 08447 00: UNIQUE WELL ID
~Curve Information Block
DEPT.FT            0 000 00 00: Depth
DCAL.in                       : CDL Caliper
RHOB.g/cc                     : CDL Bulk Density
RHOC.g/cc                     : CDL Density Correction
DPOR.pu                       : CDL Density Porosity
NPOR.pu                       : Neutron Porosity
GR.GAPI                       : Gamma Ray
~Parameter Information Block
~A  Depth       DCAL        RHOB        RHOC        DPOR        NPOR         GR     
# ...
   860.8000      8.2153      2.6564      0.2174     -0.3849     15.9197    116.6848
   860.9000      8.2153      2.7249      0.2327     -4.5401     18.0246    118.6018
   861.0000      8.2127      2.7311      0.1974     -4.9168     19.7966    119.1154
   861.1000      8.2127      2.6975      0.1580     -2.8814     21.0591    116.8781
   861.2000      8.2127      2.6599      0.1201     -0.5983     21.9519    112.1839
   861.3000      8.2119      2.6374      0.1056      0.7632     22.6817    107.3115
   861.4000      8.2119      2.6333      0.0815      1.0141     23.5210    106.8991
   861.5000      8.2092      2.6427      0.0809      0.4445     24.3492    112.5219
   861.6000      8.2092      2.6486      0.0855      0.0842     24.5676    118.6334
   861.7000      8.2092      2.6359      0.0695      0.8517     24.2508    118.1459
   861.8000      8.2067      2.6147      0.0354      2.1373     24.0675    112.8932
   861.9000      8.2067      2.6015      0.0480      2.9388     24.2073    108.8227
   862.0000      8.2054      2.5940      0.0342      3.3949     24.4446    106.1767
   862.1000      8.2054      2.5873      0.0357      3.7974     24.6097    102.3604
   862.2000      8.2054      2.5870      0.0175      3.8157     24.9599     98.9364
   862.3000      8.2020      2.5951      0.0408      3.3271     25.8264     99.0730
   862.4000      8.2020      2.6035      0.0311      2.8160     26.8723    100.3276
   862.5000      8.1975      2.6091      0.0343      2.4769     27.6218    100.1902
   862.6000      8.1975      2.6121      0.0378      2.2973     27.9671    102.4516
   862.7000      8.1975      2.6100      0.0369      2.4239     28.0599    106.0845
   862.8000      8.1962      2.6042      0.0291      2.7775     28.2710    104.4363
   862.9000      8.1962      2.5963      0.0336      3.2572     28.7817     98.3626
   863.0000      8.1987      2.5830      0.0315      4.0626     29.2065     94.4700
   863.1000      8.1987      2.5680      0.0154      4.9687     29.0867     95.9447
   863.2000      8.1987      2.5658      0.0157      5.1027     28.5911     99.2015
   863.3000      8.2003      2.5807      0.0197      4.2012     28.2082    102.8844
   863.4000      8.2003      2.5929      0.0554      3.4621     28.1685    108.6552
   863.5000      8.1996      2.5844      0.0222      3.9758     28.3309    115.0368
   863.6000      8.1996      2.5663      0.0248      5.0710     28.4451    120.0649
   863.7000      8.1996      2.5573      0.0160      5.6164     28.4461    123.2632
   863.8000      8.2022      2.5640      0.0188      5.2116     28.4616    126.6696
   863.9000      8.2022      2.5771      0.0406      4.4199     28.5452    131.8674
   864.0000      8.2074      2.5815      0.0375      4.1497     28.4645    136.1441
   864.1000      8.2074      2.5780      0.0248      4.3634     28.2243    136.8011
   864.2000      8.2074      2.5725      0.0429      4.6998     28.0602    134.5806
   864.3000      8.2096      2.5638      0.0260      5.2228     27.7736    130.6367
   864.4000      8.2096      2.5535      0.0251      5.8507     27.1694    127.6068
   864.5000      8.2106      2.5383      0.0367      6.7681     26.6861    128.2165
   864.6000      8.2106      2.5167      0.0055      8.0761     26.4653    130.2089
   864.7000      8.2106      2.4989      0.0114      9.1599     26.0850    131.6283
   864.8000      8.2116      2.4897      0.0096      9.7153     25.8020    132.8978
   864.9000      8.2116      2.4904      0.0022      9.6747     26.2464    131.5877
   865.0000      8.2112      2.5047      0.0171      8.8063     26.9732    126.6192
   865.1000      8.2112      2.5305      0.0234      7.2448     27.0772    124.3674
   865.2000      8.2112      2.5582      0.0495      5.5649     26.4816    129.3122
   865.3000      8.2106      2.5788      0.0495      4.3169     25.6745    134.2877
   865.4000      8.2106      2.5888      0.0657      3.7112     25.2918    131.0508
   865.5000      8.2109      2.5866      0.0689      3.8427     25.7882    123.6401
   865.6000      8.2109      2.5767      0.0594      4.4448     26.7521    121.9382
   865.7000      8.2109      2.5678      0.0692      4.9801     27.1795    124.7932
   865.8000      8.2091      2.5643      0.0609      5.1932     26.6748    124.7400
   865.9000      8.2091      2.5684      0.0737      4.9434     26.0385    124.2969
   866.0000      8.2022      2.5866      0.0597      3.8416     25.9605    127.1050
   866.1000      8.2022      2.6248      0.0845      1.5292     26.2217    129.5122
   866.2000      8.2022      2.6745      0.0947     -1.4867     26.4268    128.4827
   866.3000      8.1929      2.7161      0.1112     -4.0038     26.4401    124.9591
   866.4000      8.1929      2.7327      0.1150     -5.0091     26.5625    120.0460
   866.5000      8.1874      2.7313      0.0801     -4.9251     27.1836    117.5069
   866.6000      8.1874      2.7392      0.0767     -5.4067     28.0333    119.1679
   866.7000      8.1874      2.7642      0.0845     -6.9221     28.4844    118.4842
   866.8000      8.1867      2.7826      0.1002     -8.0369     28.4534    113.3669
   866.9000      8.1867      2.7746      0.0762     -7.5523     28.3978    111.0498
   867.0000      8.1865      2.7487      0.0548     -5.9836     28.4718    113.1955
   867.1000      8.1865      2.7195      0.0517     -4.2092     28.4791    115.9427
   867.2000      8.1865      2.6878      0.0311     -2.2896     28.2260    118.1151
   867.3000      8.1854      2.6491      0.0318      0.0523     27.7036    120.8723
   867.4000      8.1854      2.6057      0.0007      2.6859     27.1545    125.5999
   867.5000      8.1848      2.5711     -0.0075      4.7833     26.6922    132.1808
   867.6000      8.1848      2.5548     -0.0093      5.7712     26.2203    136.3001
   867.7000      8.1848      2.5539     -0.0035      5.8219     25.8773    134.6776
   867.8000      8.1846      2.5637     -0.0039      5.2329     25.8864    131.2265
   867.9000      8.1846      2.5795      0.0107      4.2703     26.0110    130.0379
   868.0000      8.1844      2.5946      0.0171      3.3550     25.9198    128.7061
   868.1000      8.1844      2.6054      0.0149      2.7026     26.1447    125.3383
   868.2000      8.1844      2.6095      0.0274      2.4553     27.0445    123.0439
   868.3000      8.1829      2.6041      0.0243      2.7814     27.9324    122.7032
   868.4000      8.1829      2.5998     -0.0002      3.0420     28.3634    122.8399
   868.5000      8.1837      2.6068      0.0300      2.6165     28.4341    124.0253
   868.6000      8.1837      2.6176      0.0235      1.9630     28.4766    123.9764
   868.7000      8.1837      2.6286      0.0220      1.2951     28.7915    119.2751
   868.8000      8.1861      2.6409      0.0366      0.5544     29.0989    115.0196
   868.9000      8.1861      2.6471      0.0410      0.1761     29.0841    115.9000
   869.0000      8.1870      2.6472      0.0252      0.1671     28.9659    118.5035
   869.1000      8.1870      2.6505      0.0397     -0.0332     29.1069    120.2560
   869.2000      8.1870      2.6618      0.0269     -0.7139     29.5729    122.2059
   869.3000      8.1865      2.6769      0.0491     -1.6274     30.0036    123.2863
   869.4000      8.1865      2.6833      0.0471     -2.0155     29.9066    122.2994
   869.5000      8.1856      2.6756      0.0366     -1.5519     29.3676    122.6227
   869.6000      8.1856      2.6603      0.0323     -0.6213     29.0511    124.4001
   869.7000      8.1856      2.6458      0.0230      0.2552     29.3538    122.7389
   869.8000      8.1850      2.6422      0.0098      0.4755     30.1121    118.5967
   869.9000      8.1850      2.6514      0.0314     -0.0875     30.7890    116.5604
   870.0000      8.1857      2.6632      0.0240     -0.8018     30.9311    117.5905
   870.1000      8.1857      2.6654      0.0358     -0.9359     30.5966    120.9680
   870.2000      8.1857      2.6473      0.0370      0.1655     30.1318    125.8373
   870.3000      8.1867      2.6143      0.0060      2.1655     29.7833    130.1846
