~Version Information
 VERS.                                  2.0 : CWLS LAS VERSION
 WRAP.                                   NO : WRAPING MODE
 SWARE .                 MController 2.5.0N : SOFTWARE VERSION
~Well Information
 WELL.                       Weissach 32-32 : WELL
 COMP.    Pioneer Natural Resources USA Inc : COMPANY
 FLD.                      Purgatoire River : FIELD
 LOC.                SW/NE Sec 32 T33S R65W : LOCATION
 DATE.                             09/24/05 : DATE(S) LOGGED
 SRVC.       BLANCO Geological Services LLC : SERVICE COMPANY
 STAT.                                   CO : STATE
 CNTY.                           Las Animas : COUNTY
 CTRY.                                  USA : COUNTRY
 API.                       05-071-08523-00 : API NUMBER
 STRT.FT                             178.00 : START DEPTH
 STOP.FT                             811.00 : STOP DEPTH
 STEP.FT                               1.00 : DEPTH INCREMENT
 NULL.                                -9999 : NULL VALUE
~Curve information
 DEPTH.FT                                   :
 ROP.MIN/FT                                 :
 GAS.UNITS                                  :
~ASCII Log data
# ...
       578.0         0.17        105.6 
       579.0         0.13        105.0 
       580.0         0.10        105.1 
       581.0         0.20        105.7 
       582.0         0.33        105.4 
       583.0         0.35        105.0 
       584.0         0.30        118.6 
       585.0         0.33        149.3 
       586.0         0.33        172.8 
       587.0         0.33        186.8 
       588.0         0.13        187.7 
       589.0         0.17        187.1 
       590.0         0.20        185.6 
       591.0         0.27        183.8 
       592.0         3.32        259.9 
       593.0         0.37       1241.8 
       594.0         0.23       1067.8 
       595.0         0.23        770.4 
       596.0         0.23        823.9 
       597.0         0.32        836.6 
       598.0         0.30        775.9 
       599.0         0.27        732.7 
       600.0         0.20        684.3 
       601.0         0.20        666.1 
       602.0         0.20        660.9 
       603.0         0.20        636.3 
       604.0         0.17        625.2 
       605.0         0.23        615.2 
       606.0         0.23        607.7 
       607.0         0.33        607.0 
       608.0         0.47        602.8 
       609.0         0.32        599.9 
       610.0         0.33        598.3 
       611.0         0.30        599.2 
       612.0         0.27        600.5 
       613.0         0.30        600.9 
       614.0         0.30        601.8 
       615.0         0.30        600.9 
       616.0         0.33        602.2 
       617.0         0.27        601.5 
       618.0         0.27        601.2 
       619.0         0.27        601.2 
       620.0         0.17        600.2 
       621.0         0.13        603.1 
       622.0         3.18        601.8 
       623.0         0.22        332.5 
       624.0         0.40       1318.5 
       625.0         0.33       1206.4 
       626.0         0.43        852.2 
       627.0         0.33        752.5 
       628.0         0.30        744.7 
       629.0         0.33        736.3 
       630.0         0.23        710.6 
       631.0         0.20        677.8 
       632.0         0.23        654.4 
       633.0         0.27        642.8 
       634.0         0.23        638.5 
       635.0         0.35        625.2 
       636.0         0.30        630.4 
       637.0         0.23        646.3 
       638.0         0.23        652.5 
       639.0         0.17        657.0 
       640.0         0.13        657.4 
       641.0         0.20        655.1 
       642.0         0.33        653.5 
       643.0         0.27        645.0 
       644.0         0.33        645.3 
       645.0         0.30        660.3 
       646.0         0.28        661.6 
       647.0         0.27        680.4 
       648.0         0.37        668.1 
       649.0         0.27        661.3 
       650.0         0.27        660.9 
       651.0         0.33        659.0 
       652.0         2.75        660.6 
       653.0         0.60       1130.1 
       654.0         0.47       1194.1 
       655.0         0.87       1006.7 
       656.0         0.37        760.3 
       657.0         0.45        747.3 
       658.0         0.43        713.2 
       659.0         0.33        677.2 
       660.0         0.30        654.4 
       661.0         0.30        649.2 
       662.0         0.30        651.5 
       663.0         0.27        660.9 
       664.0         0.30        663.2 
       665.0         0.27        659.6 
       666.0         0.30        659.0 
       667.0         0.28        645.0 
       668.0         0.27        643.1 
       669.0         0.23        641.8 
       670.0         0.27        641.5 
       671.0         0.27        637.9 
       672.0         0.20        636.9 
       673.0         0.20        636.6 
       674.0         0.23        635.6 
       675.0         0.20        652.2 
       676.0         0.23        796.7 
       677.0         0.27       1260.7 
       678.0         0.23       1636.7 
       679.0         0.23       1793.2 
       680.0         0.33       1791.9 
       681.0         0.42       1590.9 
       682.0         2.77       1347.7 
       683.0         0.38       1503.2 
       684.0         0.47       1619.5 
       685.0         0.37       1229.2 
       686.0         0.33        943.4 
       687.0         0.30        873.9 
       688.0         0.27        861.0 
       689.0         0.27        819.4 
       690.0         0.27        807.4 
       691.0         0.27        749.6 
       692.0         0.27        730.7 
       693.0         0.23        725.2 
       694.0         0.28        713.2 
       695.0         0.27        713.2 
       696.0         0.27        712.2 
       697.0         0.30        711.3 
       698.0         0.27        705.4 
       699.0         0.33        703.5 
       700.0         0.27        698.0 
       701.0         0.30        697.6 
       702.0         0.27        698.0 
       703.0         0.27        698.6 
       704.0         0.27        697.0 
       705.0         0.27        691.5 
       706.0         0.28        688.5 
       707.0         0.30        691.5 
       708.0         0.27        692.4 
       709.0         0.30        692.4 
       710.0         0.30        690.5 
       711.0         0.23        687.2 
       712.0         2.12        702.2 
       713.0         0.60        501.8 
       714.0         0.37       1022.0 
       715.0         0.33       1490.2 
       716.0         0.27       1597.4 
       717.0         0.33       1341.2 
       718.0         0.27       1057.7 
       719.0         0.30        949.6 
       720.0         0.30        897.0 
       721.0         0.35        830.1 
       722.0         0.27        773.9 
       723.0         0.27        715.8 
       724.0         0.27        700.9 
       725.0         0.27        698.6 
       726.0         0.27        693.4 
       727.0         0.27        694.4 
       728.0         0.27        692.4 
       729.0         0.27        689.2 
       730.0         0.27        688.9 
       731.0         0.23        689.2 
       732.0         0.23        686.9 
       733.0         0.23        683.3 
       734.0         0.25        682.0 
       735.0         0.23        681.4 
       736.0         0.27        678.1 
       737.0         0.23        677.2 
       738.0         0.27        674.9 
       739.0         0.23        672.3 
       740.0         0.27        673.3 
       741.0         0.30        675.2 
       742.0         2.98        691.8 
       743.0         0.67       1316.5 
       744.0         0.53       1146.7 
       745.0         0.33        883.7 
       746.0         0.35        845.7 
       747.0         0.30        840.5 
       748.0         0.30        763.2 
       749.0         0.33        756.1 
       750.0         0.33        736.3 
       751.0         0.37        715.5 
       752.0         0.33        700.5 
       753.0         0.37        691.5 
       754.0         0.50        685.0 
       755.0         0.43        701.2 
       756.0         0.45        720.0 
       757.0         0.37        719.7 
       758.0         0.37        713.2 
       759.0         0.40        698.6 
       760.0         0.43        703.1 
       761.0         0.43        731.1 
       762.0         0.43        747.0 
       763.0         0.40        750.2 
       764.0         0.45        748.0 
       765.0         0.40        737.6 
       766.0         0.43        727.2 
       767.0         0.33        718.1 
       768.0         0.30        713.5 
       769.0         0.30        709.0 
       770.0         0.53        712.2 
       771.0         0.40        736.3 
       772.0         4.17       1540.2 
       773.0         0.97       1016.2 
       774.0         0.47       1002.9 
       775.0         0.43        988.6 
       776.0         0.40        921.3 
       777.0         0.43        887.9 
