~Version Information
VERS.                      2.0: CWLS Log ASCII Standard - VERSION 2.0
WRAP.                       NO: One line per depth step
~Well Information Block
STRT.FT               322.3000: 
STOP.FT              1375.0000: 
STEP.FT                 0.1000: 
NULL.                -999.2500: 
COMP.          Pioneer Natural Resources: COMPANY
WELL.          Buffet 41-36 Tr: WELL
FLD.           Purgatoire River: FIELD
LOC.           119' FNL & 271' FEL: LOCATION
PROV.                 Colorado: PROVINCE
CNTY.               Las Animas: COUNTRY
SRVC.                Patterson: SERVICE COMPANY
DATE.          Thu Dec 29 07:13:13 2005: LOG DATE
UWI.           05 071 08627 00: UNIQUE WELL ID
~Curve Information Block
DEPT.FT            0 000 00 00: Depth
DCAL.in                       : CDL Caliper
RHOB.g/cc                     : CDL Bulk Density
RHOC.g/cc                     : CDL Density Correction
DPOR.pu                       : CDL Density Porosity
GR.GAPI                       : Gamma Ray
~Parameter Information Block
~A  Depth       DCAL        RHOB        RHOC        DPOR         GR     
# ...
  1162.3000      7.9658      2.6195      0.0457      1.8462    130.0641
  1162.4000      7.9658      2.6033      0.0638      2.8303    133.4290
  1162.5000      7.9654      2.5866      0.0553      3.8396    137.1542
  1162.6000      7.9654      2.5646      0.0464      5.1763    135.2922
  1162.7000      7.9654      2.5378      0.0378      6.8002    128.7199
  1162.8000      7.9664      2.5231      0.0315      7.6892    124.7416
  1162.9000      7.9664      2.5297      0.0338      7.2930    125.1208
  1163.0000      7.9666      2.5520      0.0127      5.9401    124.0568
  1163.1000      7.9666      2.5859      0.0289      3.8820    119.6912
  1163.2000      7.9666      2.6244      0.0737      1.5520    115.8774
  1163.3000      7.9651      2.6542      0.1198     -0.2549    115.1668
  1163.4000      7.9651      2.6707      0.1507     -1.2566    116.8886
  1163.5000      7.9638      2.6767      0.1725     -1.6153    119.1864
  1163.6000      7.9638      2.6746      0.1689     -1.4921    119.4820
  1163.7000      7.9638      2.6714      0.1481     -1.2982    118.0196
  1163.8000      7.9635      2.6799      0.0542     -1.8124    117.0397
  1163.9000      7.9635      2.7032      0.0722     -3.2234    114.5093
  1164.0000      7.9638      2.7166      0.0963     -4.0357    108.4511
  1164.1000      7.9638      2.7020      0.0422     -3.1497    103.8059
  1164.2000      7.9638      2.6763      0.0296     -1.5961    104.5458
  1164.3000      7.9636      2.6580      0.0612     -0.4854    106.2149
  1164.4000      7.9636      2.6451      0.0397      0.2967    104.7467
  1164.5000      7.9622      2.6324      0.0431      1.0660    102.8262
  1164.6000      7.9622      2.6197      0.0371      1.8361    104.8866
  1164.7000      7.9622      2.6087     -0.0129      2.5023    111.3184
  1164.8000      7.9608      2.5989      0.0271      3.0963    116.6147
  1164.9000      7.9608      2.5914     -0.0138      3.5532    115.7475
  1165.0000      7.9584      2.5927      0.0267      3.4714    112.4564
  1165.1000      7.9584      2.6054      0.0323      2.7040    111.5145
  1165.2000      7.9584      2.6323      0.0565      1.0748    112.0215
  1165.3000      7.9551      2.6623      0.1359     -0.7424    113.0569
  1165.4000      7.9551      2.6705      0.0743     -1.2451    115.0684
  1165.5000      7.9539      2.6596      0.0613     -0.5828    118.0805
  1165.6000      7.9539      2.6513      0.0573     -0.0793    119.4448
  1165.7000      7.9539      2.6531      0.0705     -0.1905    116.4179
  1165.8000      7.9532      2.6584      0.0536     -0.5117    114.4041
  1165.9000      7.9532      2.6615      0.0661     -0.6984    120.5435
  1166.0000      7.9520      2.6582      0.0822     -0.4951    130.5527
  1166.1000      7.9520      2.6445      0.0664      0.3333    136.9598
  1166.2000      7.9520      2.6348      0.0378      0.9231    139.7402
  1166.3000      7.9565      2.6488      0.0524      0.0719    141.6569
  1166.4000      7.9565      2.6734      0.1205     -1.4192    140.7976
  1166.5000      7.9644      2.6767      0.0927     -1.6152    134.7795
  1166.6000      7.9644      2.6575      0.0346     -0.4562    129.2669
  1166.7000      7.9644      2.6389      0.0178      0.6702    129.2569
  1166.8000      7.9673      2.6245      0.0773      1.5460    130.6850
  1166.9000      7.9673      2.6065      0.0371      2.6366    129.9194
  1167.0000      7.9665      2.5979     -0.0108      3.1595    130.0445
  1167.1000      7.9665      2.6085      0.0301      2.5130    131.4956
  1167.2000      7.9665      2.6198      0.0739      1.8292    132.3520
  1167.3000      7.9673      2.6154      0.0569      2.0978    135.2259
  1167.4000      7.9673      2.5997      0.0369      3.0460    139.2919
  1167.5000      7.9683      2.5850     -0.0029      3.9388    138.8726
  1167.6000      7.9683      2.5859     -0.0253      3.8862    135.7071
  1167.7000      7.9683      2.6027      0.0330      2.8647    131.7677
  1167.8000      7.9681      2.6175      0.0139      1.9676    127.3677
  1167.9000      7.9681      2.6255     -0.0197      1.4835    128.4587
  1168.0000      7.9671      2.6360      0.0252      0.8463    135.0395
  1168.1000      7.9671      2.6458      0.0462      0.2522    140.9457
  1168.2000      7.9671      2.6415      0.0483      0.5172    144.5218
  1168.3000      7.9656      2.6159      0.0292      2.0652    147.1566
  1168.4000      7.9656      2.5755     -0.0028      4.5139    146.4571
  1168.5000      7.9643      2.5399     -0.0567      6.6742    139.8993
  1168.6000      7.9643      2.5296     -0.0200      7.2996    132.5587
  1168.7000      7.9643      2.5423      0.0101      6.5263    131.7054
  1168.8000      7.9637      2.5538      0.0473      5.8327    136.9145
  1168.9000      7.9637      2.5549      0.0233      5.7631    140.8837
  1169.0000      7.9624      2.5673      0.0174      5.0128    139.9211
  1169.1000      7.9624      2.6057      0.0653      2.6835    135.8999
  1169.2000      7.9624      2.6641      0.0217     -0.8573    131.4283
  1169.3000      7.9602      2.7253      0.1007     -4.5638    129.3130
  1169.4000      7.9602      2.7636      0.1013     -6.8861    129.6565
  1169.5000      7.9587      2.7699      0.1093     -7.2659    126.4979
  1169.6000      7.9587      2.7531      0.1198     -6.2508    115.4469
  1169.7000      7.9587      2.7255      0.0585     -4.5748    102.7802
  1169.8000      7.9586      2.7041      0.0400     -3.2784     97.4039
  1169.9000      7.9586      2.7019     -0.0038     -3.1432    100.7590
  1170.0000      7.9581      2.7120     -0.0071     -3.7594    111.0983
  1170.1000      7.9581      2.7177     -0.0368     -4.1026    124.1244
  1170.2000      7.9581      2.7190      0.0295     -4.1827    130.6053
  1170.3000      7.9550      2.7255      0.0377     -4.5730    127.1924
  1170.4000      7.9550      2.7300      0.1032     -4.8486    122.7143
  1170.5000      7.9507      2.7216      0.0760     -4.3398    128.4222
  1170.6000      7.9507      2.7072      0.0426     -3.4696    140.6997
  1170.7000      7.9507      2.6878      0.0690     -2.2925    146.8147
  1170.8000      7.9484      2.6520      0.0068     -0.1199    144.2516
  1170.9000      7.9484      2.6112     -0.0787      2.3505    138.1422
  1171.0000      7.9491      2.5811     -0.0176      4.1782    131.8118
  1171.1000      7.9491      2.5543     -0.0881      5.7986    128.8297
  1171.2000      7.9491      2.5313     -0.0493      7.1932    132.2651
  1171.3000      7.9486      2.5269     -0.0404      7.4603    141.1000
  1171.4000      7.9486      2.5467      0.0285      6.2597    150.2424
  1171.5000      7.9449      2.5738      0.0366      4.6193    154.4966
  1171.6000      7.9449      2.5928      0.0357      3.4697    154.5699
  1171.7000      7.9449      2.6173      0.0610      1.9825    151.5539
  1171.8000      7.9394      2.6597      0.1315     -0.5854    144.6654
  1171.9000      7.9394      2.6931      0.2028     -2.6118    136.3008
  1172.0000      7.9346      2.6863      0.1431     -2.2014    130.5655
  1172.1000      7.9346      2.6540      0.1058     -0.2407    128.4660
  1172.2000      7.9346      2.6258      0.1107      1.4644    130.6123
  1172.3000      7.9374      2.5922      0.1304      3.5047    136.0865
  1172.4000      7.9374      2.5163      0.0939      8.1027    139.4510
  1172.5000      7.9575      2.3853      0.0147     16.0409    138.8720
  1172.6000      7.9575      2.2145     -0.0089     26.3929    135.3696
  1172.7000      7.9575      2.0341     -0.0866     37.3278    127.3018
  1172.8000      7.9990      1.8840     -0.1818     46.4241    116.2057
  1172.9000      7.9990      1.7725     -0.1268     53.1809    104.4370
  1173.0000      8.0488      1.6742     -0.1236     59.1385     93.0208
  1173.1000      8.0488      1.5788     -0.1534     64.9218     85.0130
  1173.2000      8.0488      1.4969     -0.1153     69.8847     82.0552
  1173.3000      8.1110      1.4365     -0.0371     73.5481     79.7622
  1173.4000      8.1110      1.3933      0.0149     76.1648     72.2312
