~Version Information
VERS.                      2.0: CWLS Log ASCII Standard - VERSION 2.0
WRAP.                       NO: One line per depth step
~Well Information Block
STRT.FT               694.2000: 
STOP.FT              1498.5000: 
STEP.FT                 0.1000: 
NULL.                -999.2500: 
COMP.          Pioneer Natural Resources: COMPANY
WELL.          Pallet Ranch 34-25 Tr: WELL
FLD.           Purgatoire River: FIELD
LOC.           465' FSL & 2138' FEL: LOCATION
PROV.                 Colorado: PROVINCE
CNTY.               Las Animas: COUNTRY
SRVC.                Patterson: SERVICE COMPANY
DATE.          Thu Jan 19 06:39:54 2006: LOG DATE
UWI.           05 071 08657 00: UNIQUE WELL ID
~Curve Information Block
DEPT.FT            0 000 00 00: Depth
DCAL.in                       : CDL Caliper
RHOB.g/cc                     : CDL Bulk Density
RHOC.g/cc                     : CDL Density Correction
DPOR.pu                       : CDL Density Porosity
GR.GAPI                       : Gamma Ray
~Parameter Information Block
~A  Depth       DCAL        RHOB        RHOC        DPOR         GR     
# ...
   918.2000      7.9318      2.6150      0.0006      2.1200     74.6763
   918.3000      7.9377      2.6131      0.0627      2.2385     78.0550
   918.4000      7.9377      2.6032      0.0832      2.8387     80.8564
   918.5000      7.9414      2.5728      0.0275      4.6768     79.8163
   918.6000      7.9414      2.5387      0.0155      6.7471     75.6370
   918.7000      7.9414      2.5181     -0.0062      7.9944     71.7780
   918.8000      7.9508      2.5077      0.0257      8.6254     68.7153
   918.9000      7.9508      2.5029     -0.0108      8.9130     66.3153
   919.0000      7.9793      2.5067      0.0605      8.6826     65.2983
   919.1000      7.9793      2.5147      0.0210      8.2000     64.9137
   919.2000      7.9793      2.5121      0.0933      8.3584     64.9067
   919.3000      7.9809      2.4851      0.0463      9.9942     62.2684
   919.4000      7.9809      2.4392     -0.0256     12.7755     55.0831
   919.5000      7.9441      2.3930     -0.0344     15.5775     48.7367
   919.6000      7.9441      2.3622     -0.0525     17.4414     47.5710
   919.7000      7.9441      2.3554      0.0248     17.8528     49.6033
   919.8000      7.9246      2.3776     -0.0190     16.5091     51.8909
   919.9000      7.9246      2.4240      0.0782     13.6955     54.0976
   920.0000      7.9383      2.4663      0.1054     11.1358     55.0055
   920.1000      7.9383      2.4937      0.0746      9.4752     53.1103
   920.2000      7.9383      2.5287      0.1638      7.3536     52.4162
   920.3000      7.9468      2.5783      0.2013      4.3473     57.2891
   920.4000      7.9468      2.6264      0.2316      1.4302     62.5984
   920.5000      7.9307      2.6488      0.2939      0.0708     60.1328
   920.6000      7.9307      2.6340      0.2303      0.9713     51.5797
   920.7000      7.9307      2.6038      0.2341      2.7978     46.7923
   920.8000      7.8577      2.5804      0.2062      4.2154     48.1345
   920.9000      7.8577      2.5582      0.2224      5.5637     49.7486
   921.0000      7.8194      2.5303      0.1308      7.2543     49.5041
   921.1000      7.8194      2.5123      0.0807      8.3484     49.4556
   921.2000      7.8194      2.5235      0.1084      7.6640     51.7011
   921.3000      7.8325      2.5619      0.1638      5.3416     56.3932
   921.4000      7.8325      2.6052      0.2356      2.7174     58.9472
   921.5000      7.8852      2.6339      0.2301      0.9750     56.8887
   921.6000      7.8852      2.6444      0.2376      0.3372     53.9122
   921.7000      7.8852      2.6414      0.2006      0.5210     50.5076
   921.8000      7.8607      2.6334      0.1495      1.0078     46.2030
   921.9000      7.8607      2.6323      0.1816      1.0710     45.2680
   922.0000      7.8597      2.6387      0.2028      0.6829     48.1792
   922.1000      7.8597      2.6318      0.2079      1.1051     49.4338
   922.2000      7.8597      2.5970      0.1238      3.2104     48.1871
   922.3000      7.8752      2.5583      0.0319      5.5550     48.2177
   922.4000      7.8752      2.5453      0.0628      6.3443     51.1629
   922.5000      7.9039      2.5463      0.1109      6.2865     55.5946
   922.6000      7.9039      2.5318      0.1062      7.1666     60.2387
   922.7000      7.9039      2.5048      0.0363      8.7999     65.5557
   922.8000      7.8975      2.4923      0.0107      9.5592     71.4585
   922.9000      7.8975      2.5058      0.0392      8.7424     74.4743
   923.0000      7.8904      2.5352      0.1067      6.9555     72.5234
   923.1000      7.8904      2.5545      0.1413      5.7906     70.9404
   923.2000      7.8904      2.5445      0.0858      6.3934     75.6586
   923.3000      7.8955      2.5287      0.0418      7.3530     84.2133
   923.4000      7.8955      2.5328      0.0816      7.1001     88.3121
   923.5000      7.8988      2.5444      0.0828      6.4006     88.7234
   923.6000      7.8988      2.5457      0.0908      6.3237     97.0773
   923.7000      7.8988      2.5419      0.0924      6.5492    115.9782
   923.8000      7.9040      2.5405      0.0995      6.6371    132.9610
   923.9000      7.9040      2.5401      0.0326      6.6632    140.3121
   924.0000      7.9003      2.5436      0.0480      6.4511    142.7308
   924.1000      7.9003      2.5510      0.0705      6.0009    142.5970
   924.2000      7.9003      2.5566      0.0597      5.6588    143.1037
   924.3000      7.9092      2.5576      0.0884      5.6025    146.8729
   924.4000      7.9092      2.5522      0.0868      5.9246    146.9011
   924.5000      7.9178      2.5458      0.0348      6.3160    140.8880
   924.6000      7.9178      2.5466      0.0518      6.2690    138.1376
   924.7000      7.9178      2.5491      0.0673      6.1133    143.7978
   924.8000      7.9282      2.5496      0.0532      6.0861    148.8804
   924.9000      7.9282      2.5540      0.0690      5.8202    145.7476
   925.0000      7.9295      2.5609      0.0466      5.3975    136.9934
   925.1000      7.9295      2.5665      0.0488      5.0582    125.2544
   925.2000      7.9295      2.5712      0.1059      4.7782    114.9157
   925.3000      7.9158      2.5845      0.0441      3.9710    112.9894
   925.4000      7.9158      2.6144      0.1072      2.1582    117.5916
   925.5000      7.9057      2.6416      0.1362      0.5099    120.0605
   925.6000      7.9057      2.6488      0.0823      0.0725    117.5098
   925.7000      7.9057      2.6390      0.1431      0.6647    112.8304
   925.8000      7.9024      2.6215      0.0686      1.7277    108.6296
   925.9000      7.9024      2.6132      0.0882      2.2289    106.5859
   926.0000      7.9061      2.6166      0.0766      2.0270    107.7565
   926.1000      7.9061      2.6195      0.1136      1.8482    111.4755
   926.2000      7.9061      2.6201      0.0601      1.8131    114.5017
   926.3000      7.9137      2.6238      0.0751      1.5872    113.6132
   926.4000      7.9137      2.6254      0.0583      1.4905    112.1345
   926.5000      7.9164      2.6209      0.1125      1.7613    113.1557
   926.6000      7.9164      2.6193      0.0857      1.8580    110.2684
   926.7000      7.9164      2.6277      0.1130      1.3489    102.8932
   926.8000      7.9006      2.6411      0.1151      0.5415     99.3089
   926.9000      7.9006      2.6548      0.1297     -0.2911    101.1906
   927.0000      7.8902      2.6707      0.1536     -1.2516    103.7726
   927.1000      7.8902      2.6839      0.1678     -2.0562    106.8533
   927.2000      7.8902      2.6800      0.1426     -1.8154    112.4886
   927.3000      7.8753      2.6550      0.1071     -0.3021    118.5076
   927.4000      7.8753      2.6288      0.0250      1.2830    121.3524
   927.5000      7.8641      2.6188      0.0666      1.8898    120.7397
   927.6000      7.8641      2.6224      0.0393      1.6749    120.0842
   927.7000      7.8641      2.6368      0.0645      0.8016    120.2125
   927.8000      7.8800      2.6535      0.1006     -0.2099    120.6923
   927.9000      7.8800      2.6541      0.0806     -0.2504    121.6986
   928.0000      7.9058      2.6357      0.0321      0.8639    123.6646
   928.1000      7.9058      2.6012      0.0759      2.9577    127.4521
   928.2000      7.9058      2.5564     -0.0367      5.6753    130.0689
   928.3000      7.9061      2.5323     -0.0793      7.1329    126.5111
   928.4000      7.9061      2.5464      0.0218      6.2797    118.0460
   928.5000      7.9343      2.5774     -0.0478      4.3997    110.5017
   928.6000      7.9343      2.5972      0.0535      3.1998    108.1183
   928.7000      7.9343      2.5881     -0.0260      3.7518    110.1817
   928.8000      7.9564      2.5617      0.0007      5.3501    111.3075
   928.9000      7.9564      2.5457     -0.0113      6.3213    110.6590
   929.0000      7.9581      2.5513      0.0228      5.9810    113.1822
   929.1000      7.9581      2.5759     -0.0437      4.4919    119.1081
   929.2000      7.9581      2.6097      0.0161      2.4439    123.4452
   929.3000      7.9564      2.6285      0.0685      1.3003    124.1131
