~Version Information
VERS.                      2.0: CWLS Log ASCII Standard - VERSION 2.0
WRAP.                       NO: One line per depth step
~Well Information Block
STRT.FT               -11.5000: 
STOP.FT              1961.7500: 
STEP.FT                 0.2500: 
NULL.                -999.2500: 
COMP.          Petrogulf Corporation: COMPANY
WELL.           State 16-23R-X: WELL
FLD.           Purgatorie River: FIELD
LOC.           2381' FSL & 2072' FWL--: LOCATION
PROV.                       CO: PROVINCE
CNTY.               Las Animas: COUNTRY
SRVC.          Patterson Wireline: SERVICE COMPANY
DATE.          Fri Sep 09 14:32:42 2005: LOG DATE
UWI.           05 071 08324 00: UNIQUE WELL ID
~Curve Information Block
DEPT.FT            0 000 00 00: Depth
CCL.                          : Casing Collar Locator
TT3.usec                      : CBL 3' Travel Time
AMP3.mV                       : CBL 3' Amplitude
GR.GAPI                       : Gamma Ray
~Parameter Information Block
~A  Depth       CCL         TT3         AMP3         GR     
# ...
   759.0000      0.0000    587.1664      7.5774    127.5760
   759.2500      0.0000    604.8154      7.3327    131.3913
   759.5000      0.0000    631.2973      7.1847    134.0116
   759.7500      0.0000    654.6004      7.0975    133.4961
   760.0000      0.0000    669.0991      7.0425    129.3803
   760.2500      0.0000    675.7935      7.0138    124.0282
   760.5000      0.0000    678.0167      7.0243    121.3375
   760.7500      0.0000    678.3300      7.0825    123.4915
   761.0000      0.0000    677.9979      7.1723    129.1177
   761.2500      0.0000    677.5357      7.2589    134.9613
   761.5000      0.0000    677.1589      7.3141    139.0939
   761.7500      0.0000    676.9333      7.3322    142.0139
   762.0000      0.0000    676.8230      7.3206    144.7491
   762.2500      0.0000    676.7596      7.2837    146.7515
   762.5000      0.0000    676.7030      7.2192    146.4707
   762.7500      0.0000    676.6612      7.1274    143.7223
   763.0000      0.0000    676.6630      7.0195    140.4133
   763.2500      0.0000    676.7157      6.9177    138.5726
   763.5000      0.0000    676.7918      6.8486    138.5052
   763.7500      0.0000    676.8440      6.8300    139.2893
   764.0000      0.0000    676.8264      6.8588    140.3298
   764.2500      0.0000    676.7187      6.9145    141.6913
   764.5000      0.0000    676.5491      6.9768    143.2840
   764.7500      0.0000    676.3779      7.0374    144.5375
   765.0000      0.0000    676.2381      7.0942    145.1727
   765.2500      0.0000    676.1028      7.1367    145.9643
   765.5000      0.0000    675.9451      7.1469    148.0733
   765.7500      0.0000    675.8300      7.1139    151.2543
   766.0000      0.0000    675.9674      7.0469    153.3718
   766.2500      0.0000    676.7712      6.9723    152.5567
   766.5000      0.0000    679.0345      6.9201    149.6107
   766.7500      0.0000    683.9660      6.9056    147.4841
   767.0000      0.0000    692.4600      6.9231    148.3777
   767.2500      0.0000    703.5376      6.9556    151.7322
   767.5000      0.0000    713.4818      6.9936    154.9685
   767.7500      0.0000    717.5411      7.0394    155.7168
   768.0000      0.0000    713.4716      7.0921    153.3285
   768.2500      0.0000    703.4234      7.1401    148.7624
   768.5000      0.0000    692.0723      7.1732    143.4981
   768.7500      0.0000    682.8785      7.1953    138.5338
   769.0000      0.0000    675.9279      7.2180    134.0869
   769.2500      0.0000    668.3295      7.2469    129.9350
   769.5000      0.0000    656.5001      7.2805    126.0131
   769.7500      0.0000    639.8705      7.3183    122.7104
   770.0000      0.0000    623.8317      7.3640    120.6288
   770.2500      0.0000    617.2372      7.4194    120.1510
   770.5000      0.0000    624.4881      7.4769    121.1850
   770.7500      0.0000    640.6617      7.5196    123.0374
   771.0000      0.0000    655.6703      7.5301    124.3027
   771.2500      0.0000    661.5672      7.4976    123.1335
   771.5000      0.0000    655.4990      7.4198    118.2717
   771.7500      0.0000    639.6511      7.3026    110.0817
   772.0000      0.0000    621.2704      7.1600    100.3587
   772.2500      0.0000    609.5959      7.0139     90.9914
   772.5000      0.0000    607.8565      6.8872     82.9223
   772.7500      0.0000    608.4893      6.7970     76.2442
   773.0000      0.0000    600.3975      6.7502     70.9856
   773.2500      0.0000    582.4444      6.7435     67.6823
   773.5000      0.0000    567.4181      6.7645     67.2875
   773.7500      0.0000    570.2362      6.7940     70.5030
   774.0000      0.0000    593.1429      6.8141     77.1434
   774.2500      0.0000    624.5232      6.8186     86.0340
   774.5000      0.0000    650.7599      6.8178     95.2418
   774.7500      0.0000    666.1891      6.8299    102.3759
   775.0000      0.0000    672.8661      6.8663    105.5168
   775.2500      0.0000    675.0823      6.9233    104.8154
   775.5000      0.0000    675.7518      6.9865    103.0374
   775.7500      0.0000    676.0153      7.0422    103.6534
   776.0000      0.0000    676.1290      7.0832    107.8951
   776.2500      0.0000    676.1717      7.1060    113.6575
   776.5000      0.0000    676.2136      7.1065    117.3229
   776.7500      0.0000    676.1234      7.0856    116.6824
   777.0000      0.0000    675.2300      7.0574    112.3487
   777.2500      0.0000    671.8607      7.0474    106.9291
   777.5000      0.0000    663.1417      7.0780    103.2168
   777.7500      0.0000    646.0291      7.1532    102.6481
   778.0000      0.0000    619.8981      7.2609    104.7413
   778.2500      0.0000    588.6409      7.3883    107.9818
   778.5000      0.0000    559.3546      7.5345    111.5038
   778.7500      0.0000    538.1846      7.7053    115.5396
   779.0000      0.0000    527.5453      7.8913    119.9724
   779.2500      0.0000    527.1891      8.0539    123.3026
   779.5000      0.0000    536.6273      8.1368    124.0319
   779.7500      0.0000    555.2175      8.1018    122.6252
   780.0000      0.0000    580.0012      7.9625    121.0012
   780.2500      0.0000    604.9623      7.7858    120.1357
   780.5000      0.0000    623.9787      7.6573    119.1626
   780.7500      0.0000    634.9478      7.6362    116.9771
   781.0000      0.0000    640.6949      7.7327    113.7595
   781.2500      0.0000    645.3051      7.9183    110.5428
   781.5000      0.0000    648.7455      8.1501    108.0840
   781.7500      0.0000    644.8985      8.3825    106.7344
   782.0000      0.0000    626.8312      8.5620    106.7587
   782.2500      0.0000    596.5092      8.6255    107.8284
   782.5000      0.0000    568.4332      8.5204    108.3406
   782.7500      0.0000    559.9523      8.2360    106.1012
   783.0000      0.0000    576.4700      7.8206    100.0146
   783.2500      0.0000    608.0898      7.3610     90.8505
   783.5000      0.0000    640.9989      6.9255     80.4501
   783.7500      0.0000    670.0933      6.5103     70.6567
   784.0000      0.0000    699.9805      6.0550     62.8574
   784.2500      0.0000    735.5204      5.5298     57.7177
   784.5000      0.0000    773.3139      4.9876     54.8646
   784.7500      0.0000    804.4533      4.5152     53.0902
   785.0000      0.0000    825.9142      4.1567     51.2327
   785.2500      2.0000    844.5436      3.9032     49.1092
   785.5000     -2.0000    864.5773      3.7298     47.6771
   785.7500      0.0000    874.8931      3.6264     48.1475
   786.0000      0.0000    857.5858      3.5982     50.7992
   786.2500      0.0000    809.9697      3.6470     54.7904
   786.5000      0.0000    750.9550      3.7533     59.2112
   786.7500      0.0000    704.0261      3.8921     63.8733
   787.0000      0.0000    679.4813      4.0695     68.6778
   787.2500      0.0000    673.9914      4.3230     72.6238
   787.5000      0.0000    680.1291      4.6707     74.1163
   787.7500      0.0000    691.9559      5.0788     72.3564
   788.0000      0.0000    705.0721      5.4927     68.2609
   788.2500      0.0000    717.2091      5.8892     63.9857
   788.5000      0.0000    729.9193      6.3028     61.5262
   788.7500      0.0000    745.8887      6.8183     61.7669
   789.0000      0.0000    761.0548      7.5480     64.7090
   789.2500      0.0000    761.0861      8.5964     70.1011
   789.5000      0.0000    730.2559     10.0211     77.3406
   789.7500      0.0000    665.3222     11.8125     85.0279
   790.0000      0.0000    579.5718     13.9054     91.4109
   790.2500      0.0000    493.8583     16.2154     95.7013
   790.5000      0.0000    424.1868     18.6959     98.7371
   790.7500      0.0000    375.4458     21.3943    102.1515
   791.0000      0.0000    343.7176     24.4614    107.0198
   791.2500      0.0000    322.6268     28.0885    113.2504
   791.5000      0.0000    307.4457     32.4189    119.7193
   791.7500      0.0000    295.3925     37.4784    124.7011
   792.0000      0.0000    284.9133     43.1149    126.7920
   792.2500      0.0000    275.6792     48.9559    126.0845
