~Version Information
VERS.                      2.0: CWLS Log ASCII Standard - VERSION 2.0
WRAP.                       NO: One line per depth step
~Well Information Block
STRT.FT                 0.0000: 
STOP.FT              2086.0000: 
STEP.FT                 0.2500: 
NULL.                -999.2500: 
COMP.          Petrogulf Corporation: COMPANY
WELL.               YWAM 7-32R: WELL
FLD.           Purgatorie River: FIELD
LOC.           2355' FNL & 2376' FEL: LOCATION
STAT.                 Colorado: State
CNTY.               Las Animas: COUNTY
CTRY. USA : Country
SECT. 7 : Section
TOWN. 33S : Township
RANG. 67W : Range
SRVC.                Patterson: SERVICE COMPANY
DATE.          Wed Nov 09 16:33:59 2005: LOG DATE
API. 05-071-08518                         : UNIQUE WELL ID
~Curve Information Block
DEPT.FT            0 000 00 00: Depth
CCL.                          : Casing Collar Locator
TT3.usec                      : CBL 3' Travel Time
AMP3.mV                       : CBL 3' Amplitude
GR.GAPI                       : Gamma Ray
~Parameter Information Block
~A  Depth       CCL         TT3         AMP3         GR     
# ...
  1775.5000      0.0000    604.0862      7.1969    115.4423
  1775.7500      2.0000    586.3259      7.5182    114.7999
  1776.0000      0.0000    602.1696      7.5069    114.0762
  1776.2500     -2.0000    641.3752      7.2819    114.8037
  1776.5000      0.0000    680.9544      6.9300    118.1524
  1776.7500      0.0000    709.2308      6.4577    123.3676
  1777.0000      0.0000    721.5374      5.9272    128.2098
  1777.2500      0.0000    715.7444      5.4495    131.3172
  1777.5000      0.0000    697.1553      4.9947    133.7124
  1777.7500      0.0000    679.3706      4.4487    137.4151
  1778.0000      0.0000    671.3662      3.8620    142.8481
  1778.2500      0.0000    670.4548      3.3865    148.2053
  1778.5000      0.0000    670.9167      3.0841    151.2515
  1778.7500      0.0000    670.5419      2.9148    151.3736
  1779.0000      0.0000    669.4489      2.8014    149.9823
  1779.2500      0.0000    667.6984      2.6961    149.2306
  1779.5000      0.0000    664.6988      2.5928    150.4256
  1779.7500      0.0000    661.3766      2.4826    153.3398
  1780.0000      0.0000    661.4598      2.3530    156.4170
  1780.2500      0.0000    665.6199      2.2193    157.4667
  1780.5000      0.0000    666.4986      2.0989    154.8217
  1780.7500      0.0000    657.2516      1.9650    148.4223
  1781.0000      0.0000    641.4973      1.7965    139.7577
  1781.2500      0.0000    628.1475      1.6381    130.8542
  1781.5000      0.0000    621.3151      1.5326    123.4924
  1781.7500      0.0000    620.0198      1.4585    118.9131
  1782.0000      0.0000    622.7247      1.3968    117.5208
  1782.2500      0.0000    627.2992      1.3673    118.7084
  1782.5000      0.0000    629.4167      1.3586    121.2042
  1782.7500      0.0000    626.5134      1.3222    123.6651
  1783.0000      0.0000    621.4802      1.2551    125.0272
  1783.2500      0.0000    618.3485      1.2097    124.7581
  1783.5000      0.0000    617.8823      1.2177    123.1554
  1783.7500      0.0000    619.0518      1.2545    121.1072
  1784.0000      0.0000    621.5485      1.2895    119.0934
  1784.2500      0.0000    625.8015      1.3259    116.6503
  1784.5000      0.0000    630.3157      1.3642    113.3294
  1784.7500      0.0000    630.0643      1.3930    109.9961
  1785.0000      0.0000    621.8285      1.4215    108.4066
  1785.2500      0.0000    610.2600      1.4557    109.2427
  1785.5000      0.0000    603.3671      1.4651    111.1229
  1785.7500      0.0000    604.0546      1.4265    111.9653
  1786.0000      0.0000    609.2217      1.3720    111.0669
  1786.2500      0.0000    615.0134      1.3441    109.4724
  1786.5000      0.0000    620.7711      1.3362    108.5750
  1786.7500      0.0000    626.5367      1.3177    108.7588
  1787.0000      0.0000    629.1346      1.2893    109.2606
  1787.2500      0.0000    626.0081      1.2812    109.0994
  1787.5000      0.0000    620.5734      1.2927    108.1391
  1787.7500      0.0000    619.1318      1.2860    107.2241
  1788.0000      0.0000    626.0516      1.2613    107.3412
  1788.2500      0.0000    641.4543      1.2841    108.9295
  1788.5000      0.0000    659.0476      1.4041    111.7297
  1788.7500      0.0000    670.8879      1.5915    114.7109
  1789.0000      0.0000    676.5785      1.7902    116.3446
  1789.2500      0.0000    681.9718      1.9858    115.6829
  1789.5000      0.0000    689.4056      2.1990    113.3338
  1789.7500      0.0000    694.0769      2.4434    111.2646
  1790.0000      0.0000    692.1250      2.7112    111.4904
  1790.2500      0.0000    686.9152      3.0012    114.5170
  1790.5000      0.0000    680.0979      3.3433    118.7960
  1790.7500      0.0000    665.2055      3.7730    121.8750
  1791.0000      0.0000    640.9827      4.2632    122.2636
  1791.2500      0.0000    622.7328      4.7020    120.1912
  1791.5000      0.0000    626.2568      4.9821    116.9867
  1791.7500      0.0000    644.7741      5.1026    114.2549
  1792.0000      0.0000    658.6993      5.1329    113.2125
  1792.2500      0.0000    661.7186      5.1080    113.9975
  1792.5000      0.0000    660.8638      5.0049    115.7057
  1792.7500      0.0000    662.8034      4.7868    117.6684
  1793.0000      0.0000    671.1047      4.4451    120.3619
  1793.2500      0.0000    685.7495      4.0173    124.4446
  1793.5000      0.0000    698.3907      3.5686    129.3406
  1793.7500      0.0000    697.8260      3.1488    133.5818
  1794.0000      0.0000    686.0648      2.7883    136.2403
  1794.2500      0.0000    679.2155      2.5165    137.3996
  1794.5000      0.0000    688.4532      2.3423    137.3801
  1794.7500      0.0000    705.7874      2.2352    136.0395
  1795.0000      0.0000    712.3260      2.1416    132.9509
  1795.2500      0.0000    701.8755      2.0194    128.2499
  1795.5000      0.0000    687.1463      1.8649    123.2032
  1795.7500      0.0000    679.9658      1.7051    119.4532
  1796.0000      0.0000    678.8718      1.5674    117.3942
  1796.2500      0.0000    675.9832      1.4618    115.6874
  1796.5000      0.0000    668.8116      1.3847    112.7808
  1796.7500      0.0000    663.6453      1.3338    108.7009
  1797.0000      0.0000    665.1410      1.3099    104.9824
  1797.2500      0.0000    667.0024      1.3206    102.9642
  1797.5000      0.0000    659.3470      1.3860    102.5701
  1797.7500      0.0000    642.7674      1.4938    102.9154
  1798.0000      0.0000    627.2493      1.5741    103.7462
  1798.2500      0.0000    618.9183      1.5697    105.8111
  1798.5000      0.0000    616.0500      1.4820    109.7734
  1798.7500      0.0000    615.2173      1.3516    115.0869
  1799.0000      0.0000    614.8818      1.2468    120.1709
  1799.2500      0.0000    614.6715      1.2291    123.6189
  1799.5000      0.0000    614.5262      1.3129    125.0783
  1799.7500      0.0000    614.6614      1.4857    125.0348
  1800.0000      0.0000    615.7469      1.7224    124.1134
  1800.2500      0.0000    619.6550      1.9705    122.8763
  1800.5000      0.0000    629.9510      2.1819    122.0595
  1800.7500      0.0000    647.7465      2.3303    122.4643
  1801.0000      0.0000    664.4344      2.3958    124.3518
  1801.2500      0.0000    666.8022      2.3940    127.1290
  1801.5000      0.0000    654.9594      2.3833    129.7461
  1801.7500      0.0000    643.7726      2.4004    131.3608
  1802.0000      0.0000    644.0812      2.4214    131.6860
  1802.2500      0.0000    654.9083      2.3940    130.7738
  1802.5000      0.0000    670.5578      2.2858    128.3354
  1802.7500      0.0000    685.3327      2.1225    123.3398
  1803.0000      0.0000    696.1647      1.9689    114.7116
  1803.2500      0.0000    704.7237      1.8674    102.7338
  1803.5000      0.0000    712.4905      1.8232     89.5585
  1803.7500      0.0000    714.6866      1.8212     77.9403
  1804.0000      0.0000    706.8641      1.8385     69.3352
  1804.2500      0.0000    694.7946      1.8500     63.2338
  1804.5000      0.0000    686.9860      1.8337     58.1597
  1804.7500      0.0000    682.7210      1.7900     53.1946
  1805.0000      0.0000    676.7501      1.7501     48.7143
  1805.2500      0.0000    667.9772      1.7517     45.9001
  1805.5000      0.0000    658.6436      1.8077     45.5482
  1805.7500      0.0000    652.5407      1.8843     47.2666
  1806.0000      0.0000    654.4216      1.9120     49.7245
  1806.2500      0.0000    665.4689      1.8427     51.5927
  1806.5000      0.0000    681.5686      1.7055     52.4391
  1806.7500      0.0000    697.7312      1.5867     53.1505
  1807.0000      0.0000    709.9477      1.5300     55.6545
  1807.2500      0.0000    712.4575      1.4964     61.9481
  1807.5000      0.0000    701.8219      1.4408     72.8112
  1807.7500      0.0000    684.9536      1.3661     86.9046
  1808.0000      0.0000    674.0177      1.2885    101.0536
  1808.2500      0.0000    671.7840      1.2172    112.0172
  1808.5000      0.0000    669.5254      1.1658    118.5803
  1808.7500      0.0000    661.7200      1.1303    121.9354
