~Version Information
VERS.                      2.0: CWLS Log ASCII Standard - VERSION 2.0
WRAP.                       NO: One line per depth step
~Well Information Block
STRT.FT               430.0000: 
STOP.FT              2074.0000: 
STEP.FT                 0.1000: 
NULL.                -999.2500: 
COMP.          Pioneer Natural Resources: COMPANY
WELL.             Fleming 11-2: WELL
FLD.           Purgatoire River: FIELD
LOC.           534' FNL & 160' FWL: LOCATION
CNTY.               Las Animas: COUNTY
SRVC.                Patterson: SERVICE COMPANY
DATE.          Tue Jun 27 10:07:47 2006: LOG DATE
UWI.           05 071 08491 00: UNIQUE WELL ID
STAT.                 Colorado: STATE
~Curve Information Block
DEPT.FT            0 000 00 00: Depth
DCAL.in                       : CDL Caliper
RHOB.g/cc                     : CDL Bulk Density
RHOC.g/cc                     : CDL Density Correction
DPOR.pu                       : CDL Density Porosity
GR.GAPI                       : Gamma Ray
NPOR.pu                       : Neutron Porosity
~Parameter Information Block
~A  Depth       DCAL        RHOB        RHOC        DPOR         GR         NPOR    
# ...
  1735.6000      7.8465      2.5564      0.0716      5.6732    102.8637     22.3812
  1735.7000      7.8465      2.5535      0.0632      5.8469    100.2704     21.5946
  1735.8000      7.8522      2.5499      0.0284      6.0695     92.8839     20.0987
  1735.9000      7.8522      2.5471      0.0307      6.2370     88.6399     19.5458
  1736.0000      7.8505      2.5487      0.0012      6.1396     89.9209     20.6417
  1736.1000      7.8505      2.5543      0.0385      5.7999     91.8403     22.1342
  1736.2000      7.8505      2.5589      0.0517      5.5215     92.8113     22.9506
  1736.3000      7.8366      2.5615      0.0528      5.3614     92.7326     23.0897
  1736.4000      7.8366      2.5668      0.0209      5.0446     90.7719     22.3812
  1736.5000      7.8263      2.5671      0.0675      5.0233     90.5355     21.3827
  1736.6000      7.8263      2.5489      0.0145      6.1303     97.0956     21.0270
  1736.7000      7.8263      2.5228     -0.0117      7.7112    105.2312     21.2408
  1736.8000      7.8234      2.5075      0.0355      8.6364    103.4913     21.3983
  1736.9000      7.8234      2.5100      0.0003      8.4872     92.1796     21.2134
  1737.0000      7.8226      2.5293      0.0196      7.3137     82.8755     21.4420
  1737.1000      7.8226      2.5490      0.0538      6.1183     81.4703     22.8226
  1737.2000      7.8226      2.5559      0.0463      5.7049     87.7147     24.4668
  1737.3000      7.8274      2.5546      0.0136      5.7842     98.4296     25.2567
  1737.4000      7.8274      2.5493      0.0441      6.1055    106.5490     25.2128
  1737.5000      7.8338      2.5401      0.0387      6.6624    109.1673     24.5900
  1737.6000      7.8338      2.5326      0.0573      7.1166    108.1612     23.7021
  1737.7000      7.8338      2.5292      0.0378      7.3235    105.7372     23.1832
  1737.8000      7.8320      2.5259      0.0456      7.5186    104.5855     23.2732
  1737.9000      7.8320      2.5175      0.0499      8.0300    108.1045     23.4960
  1738.0000      7.8264      2.5036      0.0383      8.8721    118.1720     22.9355
  1738.1000      7.8264      2.4931     -0.0017      9.5096    126.8249     21.9584
  1738.2000      7.8264      2.4934      0.0294      9.4900    124.8407     21.7892
  1738.3000      7.8208      2.5060      0.0113      8.7286    116.9592     22.0756
  1738.4000      7.8208      2.5265      0.0485      7.4864    109.7801     22.1439
  1738.5000      7.8234      2.5400      0.0709      6.6637    103.4531     22.5234
  1738.6000      7.8234      2.5358      0.0288      6.9191     98.2155     23.2749
  1738.7000      7.8234      2.5169      0.0580      8.0647     93.4313     23.6307
  1738.8000      7.8369      2.4912      0.0134      9.6248     88.2779     23.0630
  1738.9000      7.8369      2.4759     -0.0076     10.5495     82.9507     21.8812
  1739.0000      7.8468      2.4844     -0.0188     10.0337     78.9908     20.7488
  1739.1000      7.8468      2.5028      0.0751      8.9193     76.1186     19.3744
  1739.2000      7.8468      2.5074      0.0250      8.6416     72.3970     17.3724
  1739.3000      7.8459      2.4987      0.0185      9.1672     71.3274     15.6642
  1739.4000      7.8459      2.4943      0.0291      9.4369     74.7435     14.8920
  1739.5000      7.8376      2.5058     -0.0124      8.7375     76.4008     14.5871
  1739.6000      7.8376      2.5268      0.0564      7.4640     72.5004     14.3931
  1739.7000      7.8376      2.5420      0.0534      6.5465     65.3067     14.6477
  1739.8000      7.8253      2.5520      0.0089      5.9392     57.5152     15.1580
  1739.9000      7.8253      2.5558      0.0692      5.7073     51.4277     15.2320
  1740.0000      7.8177      2.5395      0.0324      6.6984     47.6574     15.3235
  1740.1000      7.8177      2.5076      0.0080      8.6282     43.1655     15.8031
  1740.2000      7.8177      2.4863     -0.0274      9.9217     38.8207     15.9981
  1740.3000      7.8159      2.4853      0.0251      9.9809     38.3780     15.6966
  1740.4000      7.8159      2.4866      0.0087      9.9039     41.0493     15.1704
  1740.5000      7.8148      2.4785      0.0172     10.3925     43.5422     14.6251
  1740.6000      7.8148      2.4731     -0.0392     10.7232     44.3283     14.2314
  1740.7000      7.8148      2.4867      0.0229      9.8962     46.2715     14.2029
  1740.8000      7.8132      2.5167      0.0530      8.0763     49.4393     14.8963
  1740.9000      7.8132      2.5426      0.1032      6.5068     50.8748     16.4125
  1741.0000      7.8126      2.5522      0.0924      5.9262     52.2609     17.9792
  1741.1000      7.8126      2.5537      0.1089      5.8340     56.0473     18.5154
  1741.2000      7.8126      2.5576      0.0538      5.5983     59.9937     17.9838
  1741.3000      7.8145      2.5680      0.0671      4.9694     62.7826     17.0772
  1741.4000      7.8145      2.5799      0.0855      4.2468     65.3278     16.6992
  1741.5000      7.8181      2.5830      0.0833      4.0586     66.1233     16.8838
  1741.6000      7.8181      2.5705      0.0880      4.8174     64.3820     16.9541
  1741.7000      7.8181      2.5520      0.0070      5.9397     63.0110     17.1059
  1741.8000      7.8218      2.5497      0.0142      6.0809     64.5422     17.9269
  1741.9000      7.8218      2.5658      0.0401      5.1055     65.6399     18.5189
  1742.0000      7.8252      2.5793      0.0767      4.2840     63.2036     17.5179
  1742.1000      7.8252      2.5798      0.0375      4.2546     61.8786     16.0732
  1742.2000      7.8252      2.5806      0.0302      4.2088     63.7535     15.7941
  1742.3000      7.8268      2.5844      0.0685      3.9778     63.5480     16.3291
  1742.4000      7.8268      2.5787      0.0549      4.3235     59.2856     16.2632
  1742.5000      7.8292      2.5641      0.0653      5.2059     54.2877     15.3176
  1742.6000      7.8292      2.5521      0.0633      5.9334     50.9230     14.5309
  1742.7000      7.8292      2.5533      0.0475      5.8594     49.9634     14.5008
  1742.8000      7.8342      2.5696      0.0228      4.8725     51.6772     14.7460
  1742.9000      7.8342      2.5884      0.0803      3.7341     55.2092     14.8289
  1743.0000      7.8391      2.5886      0.0753      3.7222     58.5392     14.9554
  1743.1000      7.8391      2.5718     -0.0040      4.7403     59.7463     14.8141
  1743.2000      7.8391      2.5633      0.0257      5.2570     58.3265     14.0474
  1743.3000      7.8432      2.5668      0.0733      5.0450     54.3103     13.3721
  1743.4000      7.8432      2.5709      0.0456      4.7925     49.8298     13.4598
  1743.5000      7.8462      2.5791      0.0649      4.2942     47.8737     14.5025
  1743.6000      7.8462      2.5909      0.0713      3.5825     47.6358     16.1947
  1743.7000      7.8462      2.5975      0.0646      3.1830     48.2728     17.3203
  1743.8000      7.8476      2.6057      0.0415      2.6829     52.2341     17.1357
  1743.9000      7.8476      2.6184      0.1417      1.9150     57.9298     16.2784
  1744.0000      7.8481      2.6195      0.0805      1.8469     60.9784     15.8028
  1744.1000      7.8481      2.6079      0.0635      2.5529     61.3125     15.7719
  1744.2000      7.8481      2.5924      0.1080      3.4900     61.8853     15.8960
  1744.3000      7.8494      2.5777      0.0870      4.3812     63.7401     16.4580
  1744.4000      7.8494      2.5722      0.0279      4.7174     63.8098     17.7196
  1744.5000      7.8535      2.5700      0.0757      4.8474     62.8215     19.1706
  1744.6000      7.8535      2.5526      0.0594      5.9004     65.9664     19.6897
  1744.7000      7.8535      2.5293     -0.0112      7.3149     71.7061     19.3095
  1744.8000      7.8605      2.5204      0.0389      7.8536     74.1063     19.0240
  1744.9000      7.8605      2.5236      0.0237      7.6605     73.6145     19.0197
  1745.0000      7.8652      2.5305      0.0293      7.2428     72.7715     18.8764
  1745.1000      7.8652      2.5359      0.0358      6.9148     71.9779     18.3100
