~Version Information
VERS.                      2.0: CWLS Log ASCII Standard - VERSION 2.0
WRAP.                       NO: One line per depth step
~Well Information Block
STRT.FT                -9.5000: 
STOP.FT              2305.7500: 
STEP.FT                 0.2500: 
NULL.                -999.2500: 
COMP.          Pioneer Natural Resources: COMPANY
WELL.          Fittipaldi 21-12: WELL
FLD.           Purgatorie River: FIELD
LOC.           207' FNL & 2110' FWL--: LOCATION
CNTY.               Las Animas: COUNTY
SRVC.          Patterson Wireline: SERVICE COMPANY
DATE.          Wed Apr 12 10:38:25 2006: LOG DATE
UWI.           05 071 08492 00: UNIQUE WELL ID
STAT.                       CO: STATE
~Curve Information Block
DEPT.FT            0 000 00 00: Depth
CCL.                          : Casing Collar Locator
TT3.usec                      : CBL 3' Travel Time
AMP3.mV                       : CBL 3' Amplitude
GR.GAPI                       : Gamma Ray
~Parameter Information Block
~A  Depth       CCL         TT3         AMP3         GR     
# ...
   895.0000      0.0000    638.1791      3.6819     59.8834
   895.2500      0.0000    663.7169      3.5776     68.8032
   895.5000      0.0000    670.3480      3.4240     81.8650
   895.7500      0.0000    670.0568      3.2763     97.3375
   896.0000      0.0000    671.4352      3.1748    112.4283
   896.2500      0.0000    676.2368      3.1165    124.4660
   896.5000      0.0000    682.7627      3.0744    132.6349
   896.7500      0.0000    689.7467      3.0356    138.0372
   897.0000      0.0000    696.9500      3.0099    141.7170
   897.2500      0.0000    703.9697      3.0085    143.3059
   897.5000      0.0000    709.8535      3.0293    141.6562
   897.7500      0.0000    713.8591      3.0637    135.8916
   898.0000      0.0000    716.0137      3.1079    125.8018
   898.2500      0.0000    716.8846      3.1603    112.1927
   898.5000      0.0000    717.0625      3.2107     97.2405
   898.7500      0.0000    716.9326      3.2374     83.9938
   899.0000      0.0000    716.7171      3.2174     74.9861
   899.2500      0.0000    716.5369      3.1422     71.0616
   899.5000      0.0000    716.4360      3.0264     71.3021
   899.7500      0.0000    716.4288      2.9016     73.8214
   900.0000      0.0000    716.5334      2.8006     76.6441
   900.2500      0.0000    716.7446      2.7440     78.3718
   900.5000      0.0000    716.9932      2.7374     78.5158
   900.7500      0.0000    717.1736      2.7769     77.4398
   901.0000      0.0000    717.2128      2.8518     76.1433
   901.2500      0.0000    717.1015      2.9446     76.0939
   901.5000      0.0000    716.8763      3.0341     78.9202
   901.7500      0.0000    716.5892      3.1013     85.8487
   902.0000      0.0000    716.2883      3.1360     97.0983
   902.2500      0.0000    716.0233      3.1400    111.4636
   902.5000      0.0000    715.8565      3.1253    126.3064
   902.7500      0.0000    715.8372      3.1080    138.4264
   903.0000      0.0000    715.9364      3.1027    145.8449
   903.2500      0.0000    715.9771      3.1201    149.2168
   903.5000      0.0000    715.5717      3.1659    151.1585
   903.7500      0.0000    714.1473      3.2396    153.7031
   904.0000      0.0000    711.2753      3.3302    156.2768
   904.2500      0.0000    707.2222      3.4169    156.2767
   904.5000      0.0000    702.7701      3.4777    151.7824
   904.7500      0.0000    697.5405      3.5005    143.7259
   905.0000      0.0000    687.9814      3.4856    135.2256
   905.2500      0.0000    667.8228      3.4421    128.8011
   905.5000      0.0000    632.1357      3.3847    124.3932
   905.7500      0.0000    582.2939      3.3299    120.1657
   906.0000      0.0000    527.1038      3.2905    115.1897
   906.2500      0.0000    478.1860      3.2739    111.0329
   906.5000      0.0000    443.3641      3.2863    110.4352
   906.7500      0.0000    423.7634      3.3320    114.6302
   907.0000      0.0000    415.8205      3.4055    122.1018
   907.2500      0.0000    414.7522      3.4875    129.5128
   907.5000      0.0000    416.5912      3.5536    133.5886
   907.7500      0.0000    418.7414      3.5895    132.6854
   908.0000      0.0000    419.8882      3.5989    127.2742
   908.2500      0.0000    419.7226      3.5998    119.2656
   908.5000      0.0000    418.7680      3.6108    110.9418
   908.7500      0.0000    418.4253      3.6364    104.2332
   909.0000      0.0000    420.7447      3.6625    100.3263
   909.2500      0.0000    427.5085      3.6655     99.4647
   909.5000      0.0000    439.7353      3.6292    100.9306
   909.7500      0.0000    459.0974      3.5569    103.2610
   910.0000      0.0000    488.8861      3.4716    104.9820
   910.2500      0.0000    530.1830      3.4026    105.8296
   910.5000      0.0000    575.9414      3.3690    107.4515
   910.7500      0.0000    612.7507      3.3717    112.4375
   911.0000      0.0000    631.7853      3.4001    122.0528
   911.2500      0.0000    636.9452      3.4455    134.6403
   911.5000      0.0000    640.4142      3.5080    146.4423
   911.7500      0.0000    650.9035      3.5902    154.3282
   912.0000      0.0000    667.5033      3.6842    157.8141
   912.2500      0.0000    683.6588      3.7671    158.4778
   912.5000      0.0000    694.0529      3.8109    157.7794
   912.7500      0.0000    697.3238      3.7995    155.7688
   913.0000      0.0000    694.9748      3.7397    151.6580
   913.2500      0.0000    689.3012      3.6574    145.1752
   913.5000      0.0000    681.3651      3.5792    137.1035
   913.7500      0.0000    669.3943      3.5149    128.5929
   914.0000      0.0000    649.1650      3.4574    120.3504
   914.2500      0.0000    618.1782      3.4002    112.8294
   914.5000      0.0000    581.9443      3.3524    106.7814
   914.7500      0.0000    555.0892      3.3342    103.0172
   915.0000      0.0000    551.4922      3.3580    101.8028
   915.2500      0.0000    571.0619      3.4153    102.9861
   915.5000      0.0000    598.1028      3.4794    106.4755
   915.7500      0.0000    613.6349      3.5238    111.9909
   916.0000      0.0000    608.7589      3.5365    118.4221
   916.2500      0.0000    589.0140      3.5201    124.0739
   916.5000      0.0000    570.0188      3.4803    127.8240
   916.7500      0.0000    567.5565      3.4193    129.8649
   917.0000      0.0000    586.7336      3.3424    131.2635
   917.2500      0.0000    618.5928      3.2666    132.8360
   917.5000      0.0000    648.2840      3.2174    134.5217
   917.7500      0.0000    666.8622      3.2153    136.0343
   918.0000      0.0000    675.2973      3.2667    137.9087
   918.2500      0.0000    679.2927      3.3638    141.1257
   918.5000      0.0000    682.8939      3.4871    145.5525
   918.7500      0.0000    686.8417      3.6091    149.5939
   919.0000      0.0000    690.5989      3.6990    151.6217
   919.2500      0.0000    694.3028      3.7332    151.1953
   919.5000      0.0000    698.6725      3.7053    148.8247
   919.7500      0.0000    703.5259      3.6308    145.2437
   920.0000      0.0000    706.6466      3.5384    141.2746
   920.2500      0.0000    703.7122      3.4529    138.1814
   920.5000      0.0000    689.0598      3.3869    137.5965
   920.7500      0.0000    658.3020      3.3493    140.4086
   921.0000      0.0000    613.3203      3.3539    145.3006
   921.2500      0.0000    565.5983      3.4089    148.7453
   921.5000      0.0000    532.0948      3.4992    147.5195
   921.7500      0.0000    524.4193      3.5868    141.8484
   922.0000      0.0000    540.3400      3.6355    135.6238
   922.2500      0.0000    566.0522      3.6370    132.8667
   922.5000      0.0000    587.9716      3.6124    134.1643
   922.7500      0.0000    602.4017      3.5919    136.9736
   923.0000      0.0000    613.1287      3.5916    138.9270
   923.2500      0.0000    622.0844      3.6117    139.8744
   923.5000      0.0000    626.0574      3.6489    140.7579
   923.7500      0.0000    621.7380      3.6989    141.8666
   924.0000      0.0000    610.7972      3.7457    142.8974
   924.2500      0.0000    600.0784      3.7599    143.7921
   924.5000      0.0000    598.3093      3.7183    144.7015
   924.7500      0.0000    610.8729      3.6266    145.6201
   925.0000      0.0000    635.2312      3.5174    146.5303
   925.2500      0.0000    662.1281      3.4264    147.4286
   925.5000      0.0000    682.8331      3.3717    147.7871
   925.7500      0.0000    694.9456      3.3571    146.4023
   926.0000      0.0000    701.2785      3.3854    142.3893
   926.2500      0.0000    704.9569      3.4567    136.4050
   926.5000      0.0000    706.9313      3.5556    130.5754
   926.7500      0.0000    707.1951      3.6507    126.8806
   927.0000      0.0000    706.4807      3.7089    125.7053
   927.2500      0.0000    706.0859      3.7093    126.1214
   927.5000      0.0000    706.6152      3.6485    127.1165
   927.7500      0.0000    707.4136      3.5407    128.1289
   928.0000      0.0000    707.3041      3.4167    128.9403
   928.2500      0.0000    705.8768      3.3146    129.8940
