~Version Information
VERS.                      2.0: CWLS Log ASCII Standard - VERSION 2.0
WRAP.                       NO: One line per depth step
~Well Information Block
STRT.FT               240.0000: 
STOP.FT              1677.0000: 
STEP.FT                 0.1000: 
NULL.                -999.2500: 
COMP.          Pioneer Natural Resources: COMPANY
WELL.          Lorencito 8-1-34-67: WELL
FLD.           Purgatoire River: FIELD
LOC.           1567' FNL & 500' FEL: LOCATION
STAT.                 Colorado: State
CTRY. USA : Country 
CNTY.               Las Animas: COUNTY
SECT. 1 : Section 
TOWN. 34S : Township
RANG. 67W : Range
SRVC.                Patterson: SERVICE COMPANY
DATE.          Fri Aug 26 09:30:14 2005: LOG DATE
API.           05 071 08506 00: UNIQUE WELL ID
~Curve Information Block
DEPT.FT            0 000 00 00: Depth
DCAL.in                       : CDL Caliper
RHOB.g/cc                     : CDL Bulk Density
RHOC.g/cc                     : CDL Density Correction
DPOR.pu                       : CDL Density Porosity
GR.GAPI                       : Gamma Ray
NPOR.pu                       : Neutron Porosity
~Parameter Information Block
~A  Depth       DCAL        RHOB        RHOC        DPOR         GR         NPOR    
# ...
   528.0000      8.1499      2.4368      0.0018     12.9229     28.3860     16.2072
   528.1000      8.1499      2.4468      0.0538     12.3160     27.0023     16.5032
   528.2000      8.1499      2.4278      0.0583     13.4639     26.3845     16.4680
   528.3000      8.1599      2.3960     -0.0184     15.3943     28.3366     16.1730
   528.4000      8.1599      2.3857     -0.0107     16.0152     31.1308     15.9676
   528.5000      8.1455      2.3988      0.0309     15.2216     31.7302     15.9050
   528.6000      8.1455      2.4104      0.0608     14.5189     32.3476     15.8694
   528.7000      8.1455      2.4094      0.0243     14.5817     34.7844     15.8940
   528.8000      8.1112      2.4084      0.0193     14.6398     35.5235     16.0985
   528.9000      8.1112      2.4178      0.0013     14.0720     31.4753     16.4728
   529.0000      8.1022      2.4306      0.0276     13.2981     25.2182     16.8280
   529.1000      8.1022      2.4326      0.0782     13.1769     22.5733     16.8973
   529.2000      8.1022      2.4242      0.0381     13.6868     25.4393     16.5718
   529.3000      8.1071      2.4272      0.0166     13.5029     28.7385     16.2306
   529.4000      8.1071      2.4514      0.0983     12.0354     28.3372     16.2334
   529.5000      8.0684      2.4808      0.0986     10.2549     26.7845     16.5017
   529.6000      8.0684      2.5088      0.0928      8.5563     27.1616     16.7285
   529.7000      8.0684      2.5386      0.1540      6.7496     29.9571     16.6303
   529.8000      8.0437      2.5617      0.1484      5.3488     34.2237     16.4192
   529.9000      8.0437      2.5750      0.1377      4.5452     37.1405     16.4504
   530.0000      8.0111      2.5886      0.1425      3.7183     36.4653     16.7780
   530.1000      8.0111      2.6125      0.0846      2.2710     32.7078     17.4029
   530.2000      8.0111      2.6400      0.1193      0.6072     27.3290     18.2255
   530.3000      8.0107      2.6503      0.1303     -0.0203     22.6161     18.6938
   530.4000      8.0107      2.6425      0.0646      0.4562     22.3227     18.4261
   530.5000      8.0347      2.6375      0.0803      0.7588     26.2753     17.9788
   530.6000      8.0347      2.6414      0.0804      0.5201     30.8536     18.0253
   530.7000      8.0347      2.6378      0.0723      0.7409     34.4241     18.5200
   530.8000      8.0374      2.6160      0.0789      2.0590     36.8259     18.9994
   530.9000      8.0374      2.5970      0.0068      3.2098     38.2107     19.3875
   531.0000      8.0343      2.6098      0.0199      2.4387     39.0886     19.9391
   531.1000      8.0343      2.6437      0.1052      0.3817     40.4791     20.6803
   531.2000      8.0343      2.6601      0.0738     -0.6127     44.1243     21.4673
   531.3000      8.0651      2.6475      0.0600      0.1527     50.5682     22.0962
   531.4000      8.0651      2.6310      0.0455      1.1494     55.3527     22.2644
   531.5000      8.0412      2.6286      0.0674      1.2951     54.3974     22.1159
   531.6000      8.0412      2.6289      0.0490      1.2766     52.4271     22.1402
   531.7000      8.0412      2.6184      0.1022      1.9162     54.7620     22.4041
   531.8000      8.0306      2.6000      0.0356      3.0318     58.4907     22.6511
   531.9000      8.0306      2.5874      0.0238      3.7959     58.2848     22.7192
   532.0000      8.0077      2.5840      0.0285      3.9981     55.1145     22.7058
   532.1000      8.0077      2.5851      0.0379      3.9330     53.8968     22.6181
   532.2000      8.0077      2.5940      0.0050      3.3928     56.1275     22.2863
   532.3000      8.0091      2.6076      0.0593      2.5694     60.6351     21.9170
   532.4000      8.0091      2.6110      0.0975      2.3624     64.2023     21.9243
   532.5000      8.0276      2.6082      0.0234      2.5361     63.5614     22.3485
   532.6000      8.0276      2.6159      0.0699      2.0651     60.8637     22.6433
   532.7000      8.0276      2.6280      0.0873      1.3338     59.1732     22.2353
   532.8000      7.9741      2.6279      0.0789      1.3399     59.3453     21.6044
   532.9000      7.9741      2.6162      0.0627      2.0491     60.5394     21.7389
   533.0000      7.9845      2.6135     -0.0128      2.2114     59.1618     22.6810
   533.1000      7.9845      2.6301      0.0893      1.2034     53.9557     23.5593
   533.2000      7.9845      2.6340      0.1061      0.9725     48.5724     23.7099
   533.3000      8.0345      2.6048     -0.0076      2.7411     44.8438     23.2415
   533.4000      8.0345      2.5690      0.0560      4.9063     42.4686     22.6907
   533.5000      8.0360      2.5446      0.0108      6.3851     42.4062     22.3542
   533.6000      8.0360      2.5241      0.0014      7.6280     44.3137     22.0617
   533.7000      8.0360      2.5083      0.0083      8.5884     44.5573     21.6725
   533.8000      8.0268      2.5131      0.0104      8.2953     41.8028     21.3705
   533.9000      8.0268      2.5426      0.0521      6.5097     38.5159     21.2054
   534.0000      8.0815      2.5748      0.0754      4.5590     35.9343     21.0128
   534.1000      8.0815      2.5865      0.1183      3.8491     35.2069     20.8581
   534.2000      8.0815      2.5837      0.0898      4.0176     36.6811     20.6455
   534.3000      8.0390      2.5850      0.0899      3.9365     37.7862     20.2174
   534.4000      8.0390      2.5838      0.1564      4.0149     36.0910     19.9485
   534.5000      7.9992      2.5608      0.1691      5.4064     32.3438     20.0720
   534.6000      7.9992      2.5232      0.1077      7.6868     29.9688     20.3020
   534.7000      7.9992      2.4929      0.1492      9.5214     30.1993     20.2264
   534.8000      7.9908      2.4785      0.1084     10.3921     31.3886     19.9487
   534.9000      7.9908      2.4868      0.0983      9.8904     33.5007     19.8157
   535.0000      7.9220      2.5238      0.1236      7.6515     37.6565     19.7456
   535.1000      7.9220      2.5771      0.1650      4.4161     41.9488     19.7307
   535.2000      7.9220      2.6191      0.2248      1.8729     45.3794     19.7917
   535.3000      7.9421      2.6334      0.1528      1.0076     49.3757     19.5431
   535.4000      7.9421      2.6154      0.2122      2.0994     54.1285     18.8343
   535.5000      7.9738      2.5468      0.1935      6.2559     60.0573     17.8541
   535.6000      7.9738      2.4273      0.0948     13.4962     67.2057     16.5401
   535.7000      7.9738      2.2998      0.0005     21.2230     74.2254     15.0613
   535.8000      7.9815      2.2074     -0.0324     26.8242     82.5242     13.8422
   535.9000      7.9815      2.1554     -0.0109     29.9746     94.4862     12.9146
   536.0000      7.9924      2.1187      0.0376     32.1992    110.6060     12.1485
   536.1000      7.9924      2.0812      0.0357     34.4728    125.4372     11.7179
   536.2000      7.9924      2.0722      0.0009     35.0201    131.0502     11.8530
   536.3000      8.0683      2.1234      0.2475     31.9172    130.2324     12.3280
   536.4000      8.0683      2.2013      0.4516     27.1951    131.5997     12.7702
   536.5000      8.3951      2.2424      0.5385     24.7055    136.5022     13.1971
   536.6000      8.3951      2.2174      0.4918     26.2159    140.1017     13.8916
   536.7000      8.3951      2.1471      0.3725     30.4781    138.8623     15.0130
   536.8000      8.8040      2.0787      0.2703     34.6270    134.8130     16.3995
   536.9000      8.8040      2.0432      0.2457     36.7782    130.7228     17.8776
   537.0000      8.9503      2.0385      0.2551     37.0634    127.7139     19.5461
   537.1000      8.9503      2.0463      0.2654     36.5849    125.0714     21.3521
   537.2000      8.9503      2.0523      0.3175     36.2244    121.4407     22.8916
   537.3000      8.3678      2.0554      0.2502     36.0362    119.9229     23.8399
   537.4000      8.3678      2.0651      0.2341     35.4461    120.4045     24.2269
   537.5000      8.1676      2.0871      0.2454     34.1141    119.7600     24.1741
