~Version Information
VERS.                      2.0: CWLS Log ASCII Standard - VERSION 2.0
WRAP.                       NO: One line per depth step
~Well Information Block
STRT.FT               440.0000: 
STOP.FT              1300.5000: 
STEP.FT                 0.1000: 
NULL.                -999.2500: 
COMP.          Pioneer Natural Resources: COMPANY
WELL.              Yoshi 14-30: WELL
FLD.           Purgatoire River: FIELD
LOC.           993' FSL & 823' FWL: LOCATION
CNTY.               Las Animas: COUNTY
SRVC.                Patterson: SERVICE COMPANY
DATE.          Fri Feb 17 14:59:28 2006: LOG DATE
UWI.           05 071 08699 00: UNIQUE WELL ID
STAT.                 Colorado: STATE
~Curve Information Block
DEPT.FT            0 000 00 00: Depth
DCAL.in                       : CDL Caliper
RHOB.g/cc                     : CDL Bulk Density
RHOC.g/cc                     : CDL Density Correction
DPOR.pu                       : CDL Density Porosity
GR.GAPI                       : Gamma Ray
NPOR.pu                       : Neutron Porosity
~Parameter Information Block
~A  Depth       DCAL        RHOB        RHOC        DPOR         GR         NPOR    
# ...
   718.4000      8.0215      2.5717     -0.0050      4.7466    120.7452     27.8431
   718.5000      8.0204      2.6062      0.0392      2.6540    116.1971     27.9127
   718.6000      8.0204      2.6308      0.0362      1.1633    112.3731     28.0586
   718.7000      8.0204      2.6258      0.0303      1.4690    109.0700     27.8822
   718.8000      8.0198      2.6043     -0.0159      2.7678    103.5006     27.8435
   718.9000      8.0198      2.5947     -0.0306      3.3489     99.3969     28.6933
   719.0000      8.0198      2.6111     -0.0218      2.3554    101.2103     29.8130
   719.1000      8.0198      2.6415     -0.0206      0.5174    105.6840     29.9183
   719.2000      8.0198      2.6520      0.0460     -0.1215    107.5956     28.8910
   719.3000      8.0196      2.6241     -0.0325      1.5711    104.7707     27.7458
   719.4000      8.0196      2.5888     -0.0508      3.7087    100.3296     26.9760
   719.5000      8.0197      2.5847     -0.0372      3.9578     98.4780     26.4755
   719.6000      8.0197      2.6078     -0.0119      2.5566     99.6020     26.1633
   719.7000      8.0197      2.6286      0.0426      1.2954    102.2805     25.7349
   719.8000      8.0218      2.6306      0.0025      1.1729    103.8574     25.2059
   719.9000      8.0218      2.6196      0.0195      1.8420    101.5851     24.9022
   720.0000      8.0236      2.6078      0.0067      2.5590     95.3841     24.5887
   720.1000      8.0236      2.6019     -0.0319      2.9136     86.3688     23.8957
   720.2000      8.0236      2.6002     -0.0332      3.0208     78.2193     23.2115
   720.3000      8.0215      2.5987     -0.0249      3.1105     77.6818     23.1453
   720.4000      8.0215      2.5984      0.0022      3.1301     82.9525     23.5830
   720.5000      8.0199      2.5996     -0.0244      3.0575     85.5804     23.9619
   720.6000      8.0199      2.6022     -0.0337      2.8948     85.2016     24.0742
   720.7000      8.0199      2.6031     -0.0092      2.8429     84.6912     23.9691
   720.8000      8.0207      2.5897     -0.0169      3.6551     84.6058     23.7651
   720.9000      8.0207      2.5605     -0.0014      5.4268     87.6361     23.7439
   721.0000      8.0214      2.5341     -0.0264      7.0255     92.6822     23.9977
   721.1000      8.0214      2.5239     -0.0124      7.6397     94.8960     24.0612
   721.2000      8.0214      2.5272      0.0082      7.4426     94.3549     23.9079
   721.3000      8.0211      2.5370      0.0105      6.8455     94.1729     23.8600
   721.4000      8.0211      2.5503      0.0134      6.0413     99.6243     23.8065
   721.5000      8.0200      2.5607      0.0539      5.4103    109.8097     23.7803
   721.6000      8.0200      2.5626      0.0037      5.2962    115.2162     23.8594
   721.7000      8.0200      2.5604      0.0214      5.4283    113.2146     23.9084
   721.8000      8.0193      2.5595      0.0307      5.4841    107.1311     23.6910
   721.9000      8.0193      2.5663      0.0279      5.0757     99.2400     23.4469
   722.0000      8.0196      2.5751      0.0622      4.5371     92.9072     23.4302
   722.1000      8.0196      2.5699      0.0219      4.8519     90.7388     23.2638
   722.2000      8.0196      2.5614     -0.0155      5.3674     91.3025     23.0682
   722.3000      8.0204      2.5689      0.0431      4.9168     94.1390     23.1760
   722.4000      8.0204      2.5835      0.0047      4.0304     99.7566     23.2425
   722.5000      8.0209      2.5892      0.0345      3.6824    103.7349     22.9848
   722.6000      8.0209      2.5807      0.0381      4.1970    103.2729     22.8409
   722.7000      8.0209      2.5644      0.0175      5.1855    102.2072     23.1184
   722.8000      8.0212      2.5517      0.0527      5.9592    103.1630     23.5559
   722.9000      8.0212      2.5449      0.0178      6.3700    103.6437     23.9489
   723.0000      8.0209      2.5441     -0.0049      6.4204    104.5619     24.1313
   723.1000      8.0209      2.5466     -0.0076      6.2643    109.6219     23.9552
   723.2000      8.0209      2.5406      0.0105      6.6305    117.2984     23.2679
   723.3000      8.0192      2.5219      0.0048      7.7613    121.9200     22.3267
   723.4000      8.0192      2.4981      0.0173      9.2039    119.0095     22.0478
   723.5000      8.0161      2.4769     -0.0105     10.4895    111.5294     22.6395
   723.6000      8.0161      2.4645      0.0080     11.2398    107.9983     23.0053
   723.7000      8.0161      2.4605     -0.0233     11.4845    110.3506     22.5729
   723.8000      8.0146      2.4566      0.0034     11.7195    110.9065     21.9310
   723.9000      8.0146      2.4453     -0.0139     12.4066    104.7059     21.6780
   724.0000      8.0164      2.4260     -0.0175     13.5755     95.1757     21.8454
   724.1000      8.0164      2.4030     -0.0513     14.9694     89.3104     22.1946
   724.2000      8.0164      2.3820     -0.0061     16.2402     87.8780     22.4219
   724.3000      8.0186      2.3703     -0.0406     16.9509     85.9186     22.1645
   724.4000      8.0186      2.3790     -0.0296     16.4266     82.5395     21.4980
   724.5000      8.0196      2.4067      0.0137     14.7435     80.2521     20.7686
   724.6000      8.0196      2.4339      0.0405     13.0950     79.0523     20.1483
   724.7000      8.0196      2.4464      0.0361     12.3418     77.2088     19.7734
   724.8000      8.0197      2.4459      0.0456     12.3669     75.9631     19.6322
   724.9000      8.0197      2.4402      0.0327     12.7153     77.3084     19.3680
   725.0000      8.0194      2.4344      0.0398     13.0667     78.2346     19.0253
   725.1000      8.0194      2.4306      0.0437     13.2972     76.1296     19.0233
   725.2000      8.0194      2.4277      0.0593     13.4747     72.4448     19.3792
   725.3000      8.0193      2.4252      0.0071     13.6247     70.6158     19.9803
   725.4000      8.0193      2.4272      0.0310     13.5026     73.1271     20.9091
   725.5000      8.0194      2.4361      0.0294     12.9651     76.6826     21.8669
   725.6000      8.0194      2.4511      0.0357     12.0525     78.8477     22.1476
   725.7000      8.0194      2.4691      0.0279     10.9621     81.3630     21.9777
   725.8000      8.0201      2.4800      0.0608     10.3029     82.4086     22.2716
   725.9000      8.0201      2.4718      0.0248     10.8011     80.9641     23.0093
   726.0000      8.0199      2.4476      0.0021     12.2676     80.4047     23.2215
   726.1000      8.0199      2.4190     -0.0253     13.9991     82.8146     22.3338
   726.2000      8.0199      2.3969     -0.0456     15.3407     87.1709     20.9672
   726.3000      8.0196      2.3866     -0.0153     15.9650     89.4053     19.9957
   726.4000      8.0196      2.3839     -0.0564     16.1292     86.2804     19.6556
   726.5000      8.0201      2.3870     -0.0308     15.9410     81.0459     19.6550
   726.6000      8.0201      2.3953     -0.0213     15.4336     76.9983     19.8228
   726.7000      8.0201      2.4042      0.0102     14.8946     71.5233     20.1032
   726.8000      8.0205      2.4104      0.0319     14.5222     64.2518     20.2120
   726.9000      8.0205      2.4151      0.0094     14.2336     61.5676     20.1203
   727.0000      8.0207      2.4233      0.0491     13.7395     66.2263     20.2451
   727.1000      8.0207      2.4385      0.0404     12.8153     72.7395     20.6935
   727.2000      8.0207      2.4578      0.0846     11.6481     74.3538     20.9699
   727.3000      8.0216      2.4748      0.0844     10.6192     71.4181     20.7050
   727.4000      8.0216      2.4880      0.0993      9.8174     69.9138     20.0381
   727.5000      8.0221      2.4976      0.0803      9.2375     70.1342     19.3381
   727.6000      8.0221      2.5031      0.0941      8.9043     70.5747     19.0803
   727.7000      8.0221      2.5055      0.0622      8.7561     74.5315     19.4029
   727.8000      8.0213      2.5058      0.0609      8.7389     82.2255     19.8059
   727.9000      8.0213      2.5000      0.0579      9.0916     90.7268     19.9820
