~Version Information
VERS.                      2.0: CWLS Log ASCII Standard - VERSION 2.0
WRAP.                       NO: One line per depth step
~Well Information Block
STRT.FT               545.0000: 
STOP.FT              2200.7000: 
STEP.FT                 0.1000: 
NULL.                -999.2500: 
COMP.          Pioneer Natural Resources: COMPANY
WELL.               Erin 21-15: WELL
FLD.           Purgatoire River: FIELD
LOC.           1217' FNL & 2284' FWL--: LOCATION
CNTY.               Las Animas: COUNTY
SRVC.                Patterson: SERVICE COMPANY
DATE.          Thu Mar 02 09:55:43 2006: LOG DATE
UWI.           05 071 08713 00: UNIQUE WELL ID
STAT.                 Colorado: STATE
~Curve Information Block
DEPT.FT            0 000 00 00: Depth
DCAL.in                       : CDL Caliper
RHOB.g/cc                     : CDL Bulk Density
RHOC.g/cc                     : CDL Density Correction
DPOR.pu                       : CDL Density Porosity
NPOR.pu                       : Neutron Porosity
GR.GAPI                       : Gamma Ray
~Parameter Information Block
~A  Depth       DCAL        RHOB        RHOC        DPOR        NPOR         GR     
# ...
   977.0000      8.0486      2.6953      0.1006     -2.7468     25.9737    121.6315
   977.1000      8.0486      2.7098      0.0982     -3.6223     25.8053    124.2286
   977.2000      8.0486      2.7073      0.0753     -3.4728     25.4073    118.7498
   977.3000      8.0483      2.6973      0.0912     -2.8689     24.8043    109.1154
   977.4000      8.0483      2.6790      0.0525     -1.7584     24.4227    104.2290
   977.5000      8.0523      2.6604      0.0313     -0.6331     24.5019    110.5751
   977.6000      8.0523      2.6550      0.0364     -0.3044     24.7076    125.9897
   977.7000      8.0523      2.6555      0.0448     -0.3315     24.6964    139.5282
   977.8000      8.0608      2.6522     -0.0087     -0.1333     24.5595    144.5958
   977.9000      8.0608      2.6521      0.0122     -0.1288     24.6050    144.0572
   978.0000      8.0657      2.6602      0.0176     -0.6182     24.8980    140.7771
   978.1000      8.0657      2.6642      0.1024     -0.8596     25.1674    135.4289
   978.2000      8.0657      2.6470      0.0705      0.1844     25.3406    131.1946
   978.3000      8.0666      2.6094      0.0199      2.4623     25.3646    129.6310
   978.4000      8.0666      2.5659     -0.0010      5.0961     25.0018    130.4786
   978.5000      8.0682      2.5311     -0.0078      7.2052     24.4101    132.6368
   978.6000      8.0682      2.5210     -0.0028      7.8170     24.1162    132.6347
   978.7000      8.0682      2.5409      0.0338      6.6143     24.3318    129.8495
   978.8000      8.0695      2.5704      0.0767      4.8252     24.6298    127.4845
   978.9000      8.0695      2.5913      0.0383      3.5562     24.4260    124.8067
   979.0000      8.0695      2.6048      0.0617      2.7412     23.9041    117.7065
   979.1000      8.0695      2.6106      0.0234      2.3874     23.5730    107.8402
   979.2000      8.0695      2.6009      0.0698      2.9748     23.2183    103.6915
   979.3000      8.0686      2.5742      0.0166      4.5909     22.5754    109.1132
   979.4000      8.0686      2.5483     -0.0150      6.1658     21.8894    116.3144
   979.5000      8.0673      2.5409      0.0162      6.6147     21.5049    115.3056
   979.6000      8.0673      2.5498      0.0261      6.0719     21.6093    107.5776
   979.7000      8.0673      2.5605      0.0555      5.4259     22.0080     99.3418
   979.8000      8.0669      2.5649     -0.0087      5.1604     22.3623     91.8911
   979.9000      8.0669      2.5595      0.0885      5.4819     22.3749     86.8476
   980.0000      8.0676      2.5417      0.0063      6.5611     21.9533     86.6970
   980.1000      8.0676      2.5229      0.0102      7.7012     21.3240     86.8978
   980.2000      8.0676      2.5079     -0.0130      8.6142     20.7111     79.8451
   980.3000      8.0674      2.4917     -0.0230      9.5964     20.1411     68.5954
   980.4000      8.0674      2.4841     -0.0286     10.0555     19.5498     60.8532
   980.5000      8.0655      2.4957      0.0447      9.3492     19.1120     55.2075
   980.6000      8.0655      2.5132      0.0397      8.2931     19.1832     48.8773
   980.7000      8.0655      2.5165      0.0828      8.0931     19.8045     46.4838
   980.8000      8.0637      2.5048      0.0265      8.7992     20.3753     49.5000
   980.9000      8.0637      2.4946     -0.0040      9.4163     20.1664     51.2104
   981.0000      8.0635      2.4977      0.0072      9.2284     19.4665     49.0066
   981.1000      8.0635      2.5145      0.0107      8.2102     19.2061     47.1268
   981.2000      8.0635      2.5374      0.0433      6.8252     19.4990     46.4147
   981.3000      8.0642      2.5550      0.0782      5.7578     19.6493     47.0346
   981.4000      8.0642      2.5640      0.0467      5.2130     19.5071     49.2465
   981.5000      8.0637      2.5635      0.0742      5.2427     19.3127     49.5818
   981.6000      8.0637      2.5567      0.0383      5.6536     19.0426     47.3303
   981.7000      8.0637      2.5592      0.0371      5.5040     18.7303     45.5027
   981.8000      8.0627      2.5735      0.0585      4.6355     18.6696     46.5647
   981.9000      8.0627      2.5841      0.0711      3.9961     19.0850     48.9219
   982.0000      8.0632      2.5800      0.0747      4.2447     19.5945     50.1445
   982.1000      8.0632      2.5649      0.0423      5.1559     19.8292     49.8092
   982.2000      8.0632      2.5539      0.0543      5.8229     19.9538     48.3096
   982.3000      8.0647      2.5509      0.0757      6.0081     20.0001     48.1282
   982.4000      8.0647      2.5382      0.0684      6.7732     19.8200     50.7835
   982.5000      8.0663      2.5080      0.0549      8.6077     19.7625     53.9461
   982.6000      8.0663      2.4752     -0.0232     10.5966     20.0952     55.6654
   982.7000      8.0663      2.4521      0.0034     11.9918     20.5862     55.8807
   982.8000      8.0666      2.4380     -0.0172     12.8492     21.1019     54.2397
   982.9000      8.0666      2.4327      0.0067     13.1667     21.8272     50.9771
   983.0000      8.0656      2.4363      0.0076     12.9486     22.7644     46.7157
   983.1000      8.0656      2.4469      0.0026     12.3084     23.5224     43.6465
   983.2000      8.0656      2.4570      0.0334     11.6997     23.7103     44.8155
   983.3000      8.0652      2.4612     -0.0088     11.4450     23.5459     50.7745
   983.4000      8.0652      2.4616      0.0743     11.4172     23.7043     61.1658
   983.5000      8.0658      2.4534      0.0430     11.9144     24.2285     72.5277
   983.6000      8.0658      2.4433     -0.0074     12.5283     24.5253     79.3920
   983.7000      8.0658      2.4464      0.0594     12.3365     24.5519     81.7454
   983.8000      8.0660      2.4608      0.0748     11.4693     24.6131     82.6069
   983.9000      8.0660      2.4854      0.0246      9.9749     24.4810     84.7941
   984.0000      8.0660      2.5279      0.0616      7.3971     23.7787     89.5873
   984.1000      8.0660      2.5728      0.1278      4.6815     22.7372     92.7474
   984.2000      8.0660      2.5957      0.0946      3.2914     21.7701     91.3050
   984.3000      8.0645      2.6100      0.0759      2.4272     20.8989     89.0799
   984.4000      8.0645      2.6401      0.1180      0.5981     19.8448     89.0365
   984.5000      8.0638      2.6762      0.0863     -1.5859     18.6568     86.6482
   984.6000      8.0638      2.6974      0.1194     -2.8728     17.9684     78.0790
   984.7000      8.0638      2.7167      0.0149     -4.0411     17.9937     69.3045
   984.8000      8.0656      2.7581      0.0591     -6.5522     18.2999     64.3416
   984.9000      8.0656      2.8014      0.1030     -9.1778     18.7440     59.5291
   985.0000      8.0678      2.8124      0.1020     -9.8402     19.1722     55.7652
   985.1000      8.0678      2.7952      0.0767     -8.7992     19.1652     56.8625
   985.2000      8.0678      2.7693      0.0713     -7.2273     18.8728     61.2998
   985.3000      8.0678      2.7456     -0.0135     -5.7915     18.9611     64.8707
   985.4000      8.0678      2.7267      0.0192     -4.6470     19.5652     66.5005
   985.5000      8.0668      2.7011     -0.0006     -3.0942     20.2447     69.9284
   985.6000      8.0668      2.6617     -0.0264     -0.7089     20.9095     76.3261
   985.7000      8.0668      2.6172     -0.0752      1.9862     21.7327     84.2046
   985.8000      8.0665      2.5777     -0.0131      4.3804     22.6886     95.1551
   985.9000      8.0665      2.5499     -0.0586      6.0668     23.4596    105.2121
   986.0000      8.0667      2.5441     -0.0241      6.4190     23.9037    107.8941
   986.1000      8.0667      2.5657     -0.0331      5.1117     24.2898    105.4110
   986.2000      8.0667      2.5999      0.0474      3.0346     24.6898    106.4119
   986.3000      8.0668      2.6129      0.0844      2.2460     24.7465    115.4713
   986.4000      8.0668      2.5979      0.0386      3.1552     24.4760    126.2854
   986.5000      8.0681      2.5839      0.0223      4.0050     24.3920    131.6572
