~Version Information
VERS.                      2.0: CWLS Log ASCII Standard - VERSION 2.0
WRAP.                       NO: One line per depth step
~Well Information Block
STRT.FT              2013.2500: 
STOP.FT              2153.2500: 
STEP.FT                 0.2500: 
NULL.                -999.2500: 
COMP.          XTO Energy Inc.: COMPANY
WELL.          Hill Ranch 15-09: WELL
FLD.           Purgatorie River: FIELD
LOC.           1816' FSL & 521' FEL--: LOCATION
CNTY.               Las Animas: COUNTY
CTRY.    :
API.     :
SRVC.          Patterson Wireline: SERVICE COMPANY
DATE.          Fri Oct 13 07:59:41 2006: LOG DATE
UWI.              05 071 08474: UNIQUE WELL ID
STAT.                       CO: STATE
~Curve Information Block
DEPT.FT            0 000 00 00: Depth
XCAL.in                       : X Caliper
YCAL.in                       : Y Caliper
CCL.                          : Casing Collar Locator
~Parameter Information Block
~A  Depth       XCAL        YCAL        CCL     
# ...
  2055.0000      4.7343      4.7343      0.0000
  2055.2500      4.7374      4.7374      0.0000
  2055.5000      4.7409      4.7409      0.0000
  2055.7500      4.7471      4.7471      0.0000
  2056.0000      4.7544      4.7544      0.0000
  2056.2500      4.7597      4.7597      0.0000
  2056.5000      4.7609      4.7609      0.0000
  2056.7500      4.7562      4.7562      0.0000
  2057.0000      4.7462      4.7462      0.0000
  2057.2500      4.7364      4.7364      0.0000
  2057.5000      4.7315      4.7315      0.0000
  2057.7500      4.7289      4.7289      0.0000
  2058.0000      4.7280      4.7280      0.0000
  2058.2500      4.7287      4.7287      0.0000
  2058.5000      4.7297      4.7297      0.0000
  2058.7500      4.7316      4.7316      0.0000
  2059.0000      4.7330      4.7330      0.0000
  2059.2500      4.7306      4.7306      0.0000
  2059.5000      4.7262      4.7262      0.0000
  2059.7500      4.7223      4.7223      0.0000
  2060.0000      4.7200      4.7200      0.0000
  2060.2500      4.7196      4.7196      0.0000
  2060.5000      4.7194      4.7194      0.0000
  2060.7500      4.7196      4.7196      0.0000
  2061.0000      4.7212      4.7212      0.0000
  2061.2500      4.7251      4.7251      0.0000
  2061.5000      4.7306      4.7306      0.0000
  2061.7500      4.7342      4.7342      0.0000
  2062.0000      4.7320      4.7320      0.0000
  2062.2500      4.7252      4.7252      0.0000
  2062.5000      4.7188      4.7188      0.0000
  2062.7500      4.7149      4.7149      0.0000
  2063.0000      4.7116      4.7116      0.0000
  2063.2500      4.7058      4.7058      0.0000
  2063.5000      4.6988      4.6988      0.0000
  2063.7500      4.6932      4.6932      0.0000
  2064.0000      4.6913      4.6913      0.0000
  2064.2500      4.6940      4.6940      0.0000
  2064.5000      4.7036      4.7036      0.0000
  2064.7500      4.7215      4.7215      0.0000
  2065.0000      4.7399      4.7399      0.0000
  2065.2500      4.7505      4.7505      0.0000
  2065.5000      4.7583      4.7583      0.0000
  2065.7500      4.7655      4.7655      0.0000
  2066.0000      4.7683      4.7683      0.0000
  2066.2500      4.7648      4.7648      0.0000
  2066.5000      4.7591      4.7591      0.0000
  2066.7500      4.7594      4.7594      0.0000
  2067.0000      4.7702      4.7702      0.0000
  2067.2500      4.7875      4.7875      0.0000
  2067.5000      4.8004      4.8004      0.0000
  2067.7500      4.8053      4.8053      0.0000
  2068.0000      4.8045      4.8045      0.0000
  2068.2500      4.7997      4.7997      0.0000
  2068.5000      4.7925      4.7925      0.0000
  2068.7500      4.7871      4.7871      0.0000
  2069.0000      4.7899      4.7899      0.0000
  2069.2500      4.7969      4.7969      0.0000
  2069.5000      4.8007      4.8007      0.0000
  2069.7500      4.8026      4.8026      0.0000
  2070.0000      4.8056      4.8056      0.0000
  2070.2500      4.8090      4.8090      0.0000
  2070.5000      4.8107      4.8107      0.0000
  2070.7500      4.8110      4.8110      0.0000
  2071.0000      4.8103      4.8103      0.0000
  2071.2500      4.8092      4.8092      0.0000
  2071.5000      4.8087      4.8087      0.0000
  2071.7500      4.8085      4.8085      0.0000
  2072.0000      4.8093      4.8093      0.0000
  2072.2500      4.8105      4.8105      0.0000
  2072.5000      4.8114      4.8114      0.0000
  2072.7500      4.8117      4.8117      0.0000
  2073.0000      4.8117      4.8117      0.0000
  2073.2500      4.8117      4.8117      0.0000
  2073.5000      4.8119      4.8119      0.0000
  2073.7500      4.8121      4.8121      0.0000
  2074.0000      4.8121      4.8121      0.0000
  2074.2500      4.8121      4.8121      0.0000
  2074.5000      4.8122      4.8122      0.0000
  2074.7500      4.8123      4.8123      0.0000
  2075.0000      4.8123      4.8123      0.0000
  2075.2500      4.8123      4.8123      0.0000
  2075.5000      4.8123      4.8123      0.0000
  2075.7500      4.8122      4.8122      0.0000
  2076.0000      4.8123      4.8123      0.0000
  2076.2500      4.8124      4.8124      0.0000
  2076.5000      4.8124      4.8124      0.0000
  2076.7500      4.8124      4.8124      0.0000
  2077.0000      4.8124      4.8124      0.0000
  2077.2500      4.8124      4.8124      0.0000
  2077.5000      4.8123      4.8123      0.0000
  2077.7500      4.8124      4.8124      0.0000
  2078.0000      4.8123      4.8123      0.0000
  2078.2500      4.8120      4.8120      0.0000
  2078.5000      4.8113      4.8113      0.0000
  2078.7500      4.8108      4.8108      0.0000
  2079.0000      4.8110      4.8110      0.0000
  2079.2500      4.8103      4.8103      0.0000
  2079.5000      4.8079      4.8079      0.0000
  2079.7500      4.8042      4.8042      0.0000
  2080.0000      4.7978      4.7978      0.0000
  2080.2500      4.7880      4.7880      0.0000
  2080.5000      4.7797      4.7797      0.0000
  2080.7500      4.7775      4.7775      0.0000
  2081.0000      4.7772      4.7772      0.0000
  2081.2500      4.7741      4.7741      0.0000
  2081.5000      4.7673      4.7673      0.0000
  2081.7500      4.7590      4.7590      0.0000
  2082.0000      4.7522      4.7522      0.0000
  2082.2500      4.7477      4.7477      0.0000
  2082.5000      4.7389      4.7389      0.0000
  2082.7500      4.7239      4.7239      0.0000
  2083.0000      4.7112      4.7112      0.0000
  2083.2500      4.7064      4.7064      0.0000
  2083.5000      4.7065      4.7065      0.0000
  2083.7500      4.7091      4.7091      0.0000
  2084.0000      4.7082      4.7082      0.0000
  2084.2500      4.7003      4.7003      0.0000
  2084.5000      4.6929      4.6929      0.0000
  2084.7500      4.6902      4.6902      0.0000
  2085.0000      4.6891      4.6891      0.0000
  2085.2500      4.6892      4.6892      0.0000
  2085.5000      4.6905      4.6905      0.0000
  2085.7500      4.6950      4.6950      0.0000
  2086.0000      4.7131      4.7131     -0.6638
  2086.2500      4.7462      4.7462     -0.6958
  2086.5000      4.7780      4.7780      0.0000
  2086.7500      4.8001      4.8001      0.0000
  2087.0000      4.8100      4.8100      0.0000
  2087.2500      4.8120      4.8120      0.0000
  2087.5000      4.8122      4.8122      0.0000
  2087.7500      4.8122      4.8122      0.0000
  2088.0000      4.8122      4.8122      0.0000
  2088.2500      4.8122      4.8122      0.0000
  2088.5000      4.8122      4.8122      0.0000
  2088.7500      4.8122      4.8122      0.0000
  2089.0000      4.8122      4.8122      0.0000
  2089.2500      4.8122      4.8122      0.0000
  2089.5000      4.8122      4.8122      0.0000
  2089.7500      4.8122      4.8122      0.0000
  2090.0000      4.8122      4.8122      0.0000
  2090.2500      4.8122      4.8122      0.0000
  2090.5000      4.8121      4.8121      0.0000
  2090.7500      4.8122      4.8122      0.0000
  2091.0000      4.8122      4.8122      0.0000
  2091.2500      4.8122      4.8122      0.0000
  2091.5000      4.8122      4.8122      0.0000
  2091.7500      4.8122      4.8122      0.0000
  2092.0000      4.8122      4.8122      0.0000
  2092.2500      4.8122      4.8122      0.0000
  2092.5000      4.8122      4.8122      0.0000
  2092.7500      4.8122      4.8122      0.0000
  2093.0000      4.8122      4.8122      0.0000
  2093.2500      4.8122      4.8122      0.0000
  2093.5000      4.8122      4.8122      0.5035
  2093.7500      4.8123      4.8123      0.0000
  2094.0000      4.8123      4.8123      0.0000
  2094.2500      4.8123      4.8123      0.0000
  2094.5000      4.8122      4.8122      0.0000
  2094.7500      4.8122      4.8122      0.0000
  2095.0000      4.8123      4.8123      0.5997
  2095.2500      4.8123      4.8123      0.0000
  2095.5000      4.8123      4.8123      0.0000
  2095.7500      4.8122      4.8122      0.0000
  2096.0000      4.8123      4.8123      0.5356
  2096.2500      4.8123      4.8123      0.0000
  2096.5000      4.8123      4.8123      0.0000
