~Version Information
VERS.                      2.0: CWLS Log ASCII Standard - VERSION 2.0
WRAP.                       NO: One line per depth step
~Well Information Block
STRT.FT               309.8000: 
STOP.FT              2184.7000: 
STEP.FT                 0.1000: 
NULL.                -999.2500: 
COMP.          Pioneer Natural Resources: COMPANY
WELL.             AMX 13-13 Tr: WELL
FLD.           Purgatoire River: FIELD
LOC.           2401' FSL & 895' FWL--: LOCATION
PROV.                 Colorado: PROVINCE
CNTY.               Las Animas: COUNTRY
SRVC.                Patterson: SERVICE COMPANY
DATE.          Thu Dec 22 15:57:57 2005: LOG DATE
UWI.           05 071 08631 00: UNIQUE WELL ID
~Curve Information Block
DEPT.FT            0 000 00 00: Depth
DCAL.in                       : CDL Caliper
RHOB.g/cc                     : CDL Bulk Density
RHOC.g/cc                     : CDL Density Correction
DPOR.pu                       : CDL Density Porosity
GR.GAPI                       : Gamma Ray
~Parameter Information Block
~A  Depth       DCAL        RHOB        RHOC        DPOR         GR     
# ...
  2034.6000      7.9526      2.5431      0.0854      6.4786     82.3333
  2034.7000      7.9526      2.5594      0.0599      5.4919     76.0232
  2034.8000      7.9536      2.5690      0.0651      4.9061     77.1324
  2034.9000      7.9536      2.5659      0.0716      5.0974     82.1911
  2035.0000      7.9558      2.5516      0.0750      5.9632     85.2903
  2035.1000      7.9558      2.5276      0.0862      7.4186     84.8397
  2035.2000      7.9558      2.4993      0.0461      9.1346     83.0999
  2035.3000      7.9561      2.4843      0.0434     10.0433     81.0758
  2035.4000      7.9561      2.4915      0.0157      9.6034     79.4921
  2035.5000      7.9550      2.5071      0.0820      8.6615     77.7119
  2035.6000      7.9550      2.5114      0.0709      8.4000     73.8253
  2035.7000      7.9550      2.5036      0.0363      8.8711     69.7223
  2035.8000      7.9548      2.4955      0.0769      9.3633     69.0937
  2035.9000      7.9548      2.5001      0.0184      9.0864     71.7514
  2036.0000      7.9543      2.5277      0.0553      7.4103     75.0623
  2036.1000      7.9543      2.5620      0.1122      5.3345     76.6527
  2036.2000      7.9543      2.5770      0.1121      4.4251     75.9515
  2036.3000      7.9546      2.5812      0.0766      4.1688     72.3334
  2036.4000      7.9546      2.6020      0.0730      2.9109     65.4840
  2036.5000      7.9563      2.6365      0.1281      0.8192     59.0293
  2036.6000      7.9563      2.6525      0.1244     -0.1544     56.1962
  2036.7000      7.9563      2.6396      0.0832      0.6276     56.9239
  2036.8000      7.9579      2.6196      0.0581      1.8424     58.9686
  2036.9000      7.9579      2.6039      0.0576      2.7963     59.5264
  2037.0000      7.9581      2.5897      0.0521      3.6566     57.0133
  2037.1000      7.9581      2.5830      0.0387      4.0597     52.7790
  2037.2000      7.9581      2.5835      0.0674      4.0286     51.1530
  2037.3000      7.9570      2.5801      0.0649      4.2375     51.9835
  2037.4000      7.9570      2.5752      0.0279      4.5341     51.6591
  2037.5000      7.9550      2.5722      0.0667      4.7140     50.3389
  2037.6000      7.9550      2.5593      0.0429      5.4986     49.9170
  2037.7000      7.9550      2.5412      0.0091      6.5968     53.0792
  2037.8000      7.9548      2.5376      0.0478      6.8108     59.7936
  2037.9000      7.9548      2.5412      0.0814      6.5922     63.5552
  2038.0000      7.9561      2.5330      0.0482      7.0925     61.4850
  2038.1000      7.9561      2.5233      0.0085      7.6776     59.7206
  2038.2000      7.9561      2.5332      0.0213      7.0794     62.6850
  2038.3000      7.9574      2.5525      0.0736      5.9098     66.4967
  2038.4000      7.9574      2.5579      0.0704      5.5810     66.5425
  2038.5000      7.9590      2.5515      0.0676      5.9682     63.7899
  2038.6000      7.9590      2.5495      0.0520      6.0920     61.7557
  2038.7000      7.9590      2.5581      0.0329      5.5725     63.2138
  2038.8000      7.9577      2.5645      0.0850      5.1829     67.1490
  2038.9000      7.9577      2.5562      0.0490      5.6854     68.7902
  2039.0000      7.9548      2.5462      0.0163      6.2881     66.1993
  2039.1000      7.9548      2.5457      0.0618      6.3215     63.8455
  2039.2000      7.9548      2.5465      0.0426      6.2709     64.5692
  2039.3000      7.9554      2.5461      0.0439      6.2968     66.6136
  2039.4000      7.9554      2.5509      0.0225      6.0066     69.9201
  2039.5000      7.9562      2.5621      0.0446      5.3253     72.8208
  2039.6000      7.9562      2.5770      0.0415      4.4216     69.3448
  2039.7000      7.9562      2.5922      0.0674      3.5000     60.9057
  2039.8000      7.9553      2.5937      0.1123      3.4119     55.8208
  2039.9000      7.9553      2.5745      0.0543      4.5775     55.5858
  2040.0000      7.9549      2.5549      0.0212      5.7641     54.3612
  2040.1000      7.9549      2.5575      0.0053      5.6081     51.8762
  2040.2000      7.9549      2.5824      0.0562      4.0982     54.7671
  2040.3000      7.9563      2.6192      0.0474      1.8664     63.2072
  2040.4000      7.9563      2.6590      0.0958     -0.5425     69.7991
  2040.5000      7.9570      2.6890      0.0991     -2.3619     73.0705
  2040.6000      7.9570      2.7028      0.1135     -3.1994     76.6763
  2040.7000      7.9570      2.7059      0.0515     -3.3862     80.2271
  2040.8000      7.9557      2.7062      0.0701     -3.4051     82.5234
  2040.9000      7.9557      2.7026      0.0470     -3.1884     85.8708
  2041.0000      7.9533      2.6927      0.0541     -2.5851     90.2699
  2041.1000      7.9533      2.6812      0.0298     -1.8924     92.2170
  2041.2000      7.9533      2.6686      0.0331     -1.1248     89.9359
  2041.3000      7.9529      2.6467      0.0483      0.2020     86.9131
  2041.4000      7.9529      2.6210      0.0013      1.7579     87.1632
  2041.5000      7.9559      2.6151      0.0248      2.1123     90.0588
  2041.6000      7.9559      2.6343      0.0776      0.9497     94.7388
  2041.7000      7.9559      2.6549      0.0836     -0.2947     99.8406
  2041.8000      7.9586      2.6548      0.0753     -0.2899    102.8102
  2041.9000      7.9586      2.6362      0.0461      0.8394    103.6125
  2042.0000      7.9592      2.6219      0.0161      1.7009    103.0631
  2042.1000      7.9592      2.6268      0.0659      1.4063    102.1049
  2042.2000      7.9592      2.6419      0.0804      0.4899    101.9444
  2042.3000      7.9570      2.6504      0.0793     -0.0249    105.3607
  2042.4000      7.9570      2.6430      0.0441      0.4218    114.1523
  2042.5000      7.9531      2.6275      0.0477      1.3648    120.9389
  2042.6000      7.9531      2.6203      0.0540      1.7989    116.5482
  2042.7000      7.9531      2.6262      0.0757      1.4438    106.1872
  2042.8000      7.9526      2.6390      0.0637      0.6682    103.0650
  2042.9000      7.9526      2.6501      0.0704     -0.0064    107.7028
  2043.0000      7.9553      2.6504      0.0786     -0.0236    110.7687
  2043.1000      7.9553      2.6396      0.0647      0.6298    110.5648
  2043.2000      7.9553      2.6304      0.0770      1.1857    109.7144
  2043.3000      7.9570      2.6281      0.0930      1.3277    106.9191
  2043.4000      7.9570      2.6219      0.0753      1.7028     99.9768
  2043.5000      7.9560      2.6029      0.0395      2.8525     92.6440
  2043.6000      7.9560      2.5791      0.0528      4.2941     91.1574
  2043.7000      7.9560      2.5645      0.0389      5.1797     97.8596
  2043.8000      7.9570      2.5532      0.0873      5.8680    109.4904
  2043.9000      7.9570      2.5393      0.0005      6.7118    116.6802
  2044.0000      7.9605      2.5434      0.0016      6.4626    114.3582
  2044.1000      7.9605      2.5698      0.0573      4.8627    108.4570
  2044.2000      7.9605      2.5957      0.0571      3.2918    103.6090
  2044.3000      7.9642      2.6130      0.0592      2.2412     99.7091
  2044.4000      7.9642      2.6271      0.0792      1.3868     99.6045
  2044.5000      7.9684      2.6325      0.1083      1.0613    105.2787
  2044.6000      7.9684      2.6234      0.1150      1.6142    111.4155
  2044.7000      7.9684      2.6098      0.0436      2.4354    114.6171
  2044.8000      7.9728      2.6065      0.0437      2.6340    115.2044
  2044.9000      7.9728      2.6146      0.0548      2.1485    111.1596
  2045.0000      7.9777      2.6217      0.0562      1.7144    104.8013
  2045.1000      7.9777      2.6217      0.0490      1.7148    104.1597
  2045.2000      7.9777      2.6207      0.0530      1.7745    108.5329
  2045.3000      7.9810      2.6209      0.0691      1.7612    110.5800
  2045.4000      7.9810      2.6160      0.0735      2.0616    110.1919
  2045.5000      7.9828      2.6070      0.0643      2.6073    110.0000
  2045.6000      7.9828      2.6024      0.0543      2.8824    109.0905
  2045.7000      7.9828      2.6038      0.0708      2.7984    106.7918
