~Version Information
VERS.                      2.0: CWLS Log ASCII Standard - VERSION 2.0
WRAP.                       NO: One line per depth step
~Well Information Block
STRT.FT               335.0000: 
STOP.FT              1154.7000: 
STEP.FT                 0.1000: 
NULL.                -999.2500: 
COMP.          Pioneer Natural Resources: COMPANY
WELL.             Croc 42-9 Tr: WELL
FLD.           Purgatoire River: FIELD
LOC.           2429' FNL & 315' FEL--: LOCATION
STAT.                 Colorado: State
CNTY.               Las Animas: COUNTY
CTRY. USA : Country
SECT. 9 : Section
TOWN. 32S : Township
RANG. 66W : Range
SRVC.                Patterson: SERVICE COMPANY
DATE.          Fri Oct 14 07:56:23 2005: LOG DATE
API.           05 071 08550 00: UNIQUE WELL ID
~Curve Information Block
DEPT.FT            0 000 00 00: Depth
DCAL.in                       : CDL Caliper
RHOB.g/cc                     : CDL Bulk Density
RHOC.g/cc                     : CDL Density Correction
DPOR.pu                       : CDL Density Porosity
NPOR.pu                       : Neutron Porosity
GR.GAPI                       : Gamma Ray
~Parameter Information Block
~A  Depth       DCAL        RHOB        RHOC        DPOR        NPOR         GR     
# ...
   757.4000      8.0632      2.5763     -0.0078      4.4689     31.4946    126.9332
   757.5000      8.0524      2.5710     -0.0124      4.7860     31.5328    134.5930
   757.6000      8.0524      2.5723      0.0214      4.7066     31.5062    134.5389
   757.7000      8.0524      2.5670     -0.0163      5.0294     31.9740    128.9951
   757.8000      8.0487      2.5635     -0.0257      5.2452     32.4950    123.5081
   757.9000      8.0487      2.5641      0.0360      5.2069     32.2186    120.5353
   758.0000      8.0476      2.5568      0.0087      5.6476     31.4456    116.8305
   758.1000      8.0476      2.5439      0.0059      6.4312     31.1218    112.1949
   758.2000      8.0476      2.5322      0.0273      7.1375     31.4494    110.0594
   758.3000      8.0400      2.5169      0.0759      8.0669     31.7642    113.6118
   758.4000      8.0400      2.4949      0.0480      9.4010     31.4706    120.9298
   758.5000      8.0279      2.4743      0.0317     10.6464     30.9189    126.3059
   758.6000      8.0279      2.4619      0.0192     11.3992     31.0661    129.4660
   758.7000      8.0279      2.4510      0.0517     12.0613     32.1613    133.4645
   758.8000      8.0231      2.4320      0.0283     13.2148     33.4542    136.4055
   758.9000      8.0231      2.4066      0.0421     14.7492     33.9835    134.9200
   759.0000      8.0237      2.3790      0.0188     16.4244     33.7895    130.9931
   759.1000      8.0237      2.3493      0.0108     18.2269     33.5119    132.0118
   759.2000      8.0237      2.3142      0.0003     20.3525     33.2708    138.2762
   759.3000      8.0228      2.2706     -0.0210     22.9959     32.8625    142.6815
   759.4000      8.0228      2.2247     -0.0140     25.7740     32.4151    140.6344
   759.5000      8.0211      2.1838     -0.0182     28.2537     32.4755    133.8197
   759.6000      8.0211      2.1467     -0.0130     30.5022     32.9758    127.5518
   759.7000      8.0211      2.1191     -0.0274     32.1787     33.2270    123.7552
   759.8000      8.0196      2.1156     -0.0061     32.3878     33.2912    120.8104
   759.9000      8.0196      2.1385      0.0227     31.0023     33.6197    117.1390
   760.0000      8.0182      2.1743      0.0320     28.8274     34.0490    114.3062
   760.1000      8.0182      2.2157      0.0405     26.3185     34.2562    114.0144
   760.2000      8.0182      2.2687      0.0600     23.1097     33.9558    118.5816
   760.3000      8.0189      2.3367      0.1377     18.9893     33.0490    126.8431
   760.4000      8.0189      2.4117      0.1664     14.4443     31.7903    129.2723
   760.5000      8.0194      2.4792      0.1846     10.3542     30.4747    123.1847
   760.6000      8.0194      2.5241      0.1751      7.6279     29.3957    116.6611
   760.7000      8.0194      2.5443      0.1551      6.4032     28.6872    115.1003
   760.8000      8.0189      2.5525      0.0930      5.9112     28.2209    120.1920
   760.9000      8.0189      2.5605      0.0543      5.4250     28.0161    127.3541
   761.0000      8.0182      2.5680      0.0966      4.9673     28.0439    126.7996
   761.1000      8.0182      2.5718      0.0681      4.7368     28.1019    118.2364
   761.2000      8.0182      2.5791      0.0602      4.2946     28.3253    108.8828
   761.3000      8.0184      2.5933      0.0605      3.4359     28.8010    104.5359
   761.4000      8.0184      2.6020      0.0746      2.9076     29.1004    107.1876
   761.5000      8.0203      2.5979      0.0569      3.1584     28.8941    113.8437
   761.6000      8.0203      2.5898      0.0551      3.6457     28.5187    121.0144
   761.7000      8.0203      2.5793      0.0668      4.2879     28.1910    125.2402
   761.8000      8.0227      2.5558      0.0477      5.7099     27.6558    122.3938
   761.9000      8.0227      2.5244      0.0147      7.6101     27.3046    115.4118
   762.0000      8.0244      2.5061      0.0054      8.7228     27.7862    112.1142
   762.1000      8.0244      2.5066      0.0203      8.6932     28.9373    114.5044
   762.2000      8.0244      2.5100      0.0294      8.4854     29.9712    121.0553
   762.3000      8.0274      2.5046      0.0333      8.8096     30.4098    127.6793
   762.4000      8.0274      2.4930      0.0268      9.5163     30.5169    131.4546
   762.5000      8.0375      2.4817      0.0301     10.1985     30.5891    134.9679
   762.6000      8.0375      2.4762      0.0001     10.5363     30.6533    136.1379
   762.7000      8.0375      2.4791      0.0109     10.3598     30.9816    130.4527
   762.8000      8.0555      2.4854      0.0263      9.9786     31.7391    124.5378
   762.9000      8.0555      2.4871      0.0433      9.8740     32.4004    126.7426
   763.0000      8.0722      2.4892      0.0149      9.7449     32.3709    132.5916
   763.1000      8.0722      2.4976      0.0577      9.2334     31.7486    135.7787
   763.2000      8.0722      2.5049      0.0421      8.7925     31.1942    136.5233
   763.3000      8.0786      2.5077      0.0303      8.6251     31.1338    136.5633
   763.4000      8.0786      2.5089      0.0534      8.5520     31.3191    138.9346
   763.5000      8.0774      2.5081      0.0777      8.5998     31.5430    143.0142
   763.6000      8.0774      2.5060      0.0625      8.7302     31.8668    144.6577
   763.7000      8.0774      2.5058      0.1037      8.7386     32.1462    144.3030
   763.8000      8.0763      2.5088      0.0622      8.5556     32.3948    141.5797
   763.9000      8.0763      2.5143      0.0545      8.2245     32.7381    135.3370
   764.0000      8.0762      2.5091      0.0800      8.5397     32.8745    133.5600
   764.1000      8.0762      2.4757      0.0859     10.5629     32.5459    140.3398
   764.2000      8.0762      2.4218      0.0249     13.8281     31.9040    145.6775
   764.3000      8.0742      2.3786     -0.0040     16.4472     31.2845    140.9992
   764.4000      8.0742      2.3647      0.0043     17.2907     31.0479    128.9663
   764.5000      8.0742      2.3744      0.0064     16.7002     31.1115    117.3780
   764.6000      8.0742      2.3943      0.0144     15.4960     30.7749    112.7669
   764.7000      8.0742      2.4135      0.0445     14.3338     29.7179    117.2114
   764.8000      8.0720      2.4286      0.0914     13.4204     28.5434    122.5279
   764.9000      8.0720      2.4466      0.0752     12.3299     27.8820    118.7929
   765.0000      8.0509      2.4816      0.0580     10.2089     27.5435    108.6769
   765.1000      8.0509      2.5301      0.1473      7.2679     27.1646    102.6358
   765.2000      8.0509      2.5642      0.1442      5.2022     26.9776    102.2723
   765.3000      8.0131      2.5753      0.1010      4.5256     27.0640    101.9129
   765.4000      8.0131      2.5873      0.0577      3.8003     27.2259    101.5432
   765.5000      7.9865      2.6100      0.0912      2.4228     27.4698    100.3116
   765.6000      7.9865      2.6238      0.0693      1.5882     27.5797     96.4910
   765.7000      7.9865      2.6188      0.0468      1.8888     27.3145     94.8093
   765.8000      7.9753      2.6075      0.0370      2.5754     26.9735     97.0207
   765.9000      7.9753      2.6013      0.0189      2.9516     26.7739     99.0132
   766.0000      7.9693      2.6035      0.0222      2.8184     26.5509    100.4724
   766.1000      7.9693      2.6098      0.0436      2.4346     26.5474    104.1125
   766.2000      7.9693      2.6083      0.0584      2.5296     27.1024    108.8838
   766.3000      7.9677      2.5914      0.0456      3.5516     27.8613    111.4928
   766.4000      7.9677      2.5694     -0.0019      4.8874     28.3828    110.1146
   766.5000      7.9664      2.5561      0.0350      5.6885     28.6816    107.1613
   766.6000      7.9664      2.5555      0.0076      5.7271     28.6731    109.3353
   766.7000      7.9664      2.5666      0.0615      5.0543     28.4230    118.8669
   766.8000      7.9645      2.5804      0.0586      4.2155     28.1934    129.7751
   766.9000      7.9645      2.5888      0.0536      3.7106     27.9361    137.9534
