~Version Information
VERS.                      2.0: CWLS Log ASCII Standard - VERSION 2.0
WRAP.                       NO: One line per depth step
~Well Information Block
STRT.FT                 0.0000: 
STOP.FT              2072.7500: 
STEP.FT                 0.2500: 
NULL.                -999.2500: 
COMP.          Pioneer Natural Resources: COMPANY
WELL.          Greenwood 43-29 Tr: WELL
FLD.           Purgatorie River: FIELD
LOC.           1478' FSL & 744' FEL: LOCATION
STAT.                 Colorado: State
CNTY.               Las Animas: COUNTY
CTRY. USA : Country
SECT. 29 : Section
TOWN. 32S : Township
RANG. 67W : Range
SRVC.                Patterson: SERVICE COMPANY
DATE.          Tue Sep 06 12:54:40 2005: LOG DATE
API. 05-071-08478                          : UNIQUE WELL ID
~Curve Information Block
DEPT.FT            0 000 00 00: Depth
GR.GAPI                       : Gamma Ray
CCL.                          : Casing Collar Locator
TT3.usec                      : CBL 3' Travel Time
AMP3.mV                       : CBL 3' Amplitude
~Parameter Information Block
~A  Depth        GR         CCL         TT3         AMP3    
# ...
  1507.5000     90.5735      0.0000    362.4454      7.0852
  1507.7500     91.3725      0.0000    362.6225      7.0610
  1508.0000     90.7215      0.0000    362.8307      7.0357
  1508.2500     87.8883      0.0000    363.5330      7.0193
  1508.5000     83.8567      0.0000    366.7091      7.0180
  1508.7500     80.7388      0.0000    376.1779      7.0292
  1509.0000     80.2250      0.0000    393.6780      7.0484
  1509.2500     82.2859      0.0000    412.6740      7.0734
  1509.5000     85.3992      0.0000    422.2513      7.1030
  1509.7500     88.0358      0.0000    419.7702      7.1376
  1510.0000     89.7087      0.0000    411.7242      7.1783
  1510.2500     90.7453      0.0000    402.7308      7.2179
  1510.5000     91.5977      0.0000    392.5459      7.2386
  1510.7500     92.4857      0.0000    382.7268      7.2384
  1511.0000     93.3778      0.0000    378.8564      7.2456
  1511.2500     94.2162      0.0000    385.0793      7.2768
  1511.5000     95.1405      0.0000    400.1159      7.3092
  1511.7500     96.2585      0.0000    419.3800      7.3147
  1512.0000     97.1934      0.0000    439.6588      7.2916
  1512.2500     97.2451      0.0000    463.5984      7.2553
  1512.5000     96.1261      0.0000    498.7744      7.2216
  1512.7500     94.2511      0.0000    542.8842      7.2007
  1513.0000     92.1286      0.0000    577.2542      7.1930
  1513.2500     89.8147      0.0000    597.5803      7.1885
  1513.5000     87.3454      0.0000    627.5389      7.1814
  1513.7500     85.4360      0.0000    671.4965      7.1805
  1514.0000     85.2590      0.0000    696.1786      7.1944
  1514.2500     87.4794      0.0000    686.3371      7.2179
  1514.5000     91.7673      0.0000    674.1630      7.2422
  1514.7500     97.2296      0.0000    684.1046      7.2621
  1515.0000    102.9316      0.0000    685.7877      7.2752
  1515.2500    107.8407      0.0000    638.8260      7.2803
  1515.5000    110.7575      0.0000    553.7449      7.2659
  1515.7500    111.0529      0.0000    478.9339      7.2208
  1516.0000    109.6009      0.0000    450.8455      7.1560
  1516.2500    108.4345      0.0000    479.5941      7.0831
  1516.5000    109.0232      0.0000    557.0112      6.9860
  1516.7500    110.9073      0.0000    652.9525      6.8331
  1517.0000    112.2653      0.0000    728.5396      6.6117
  1517.2500    111.8186      0.0000    769.2817      6.3553
  1517.5000    109.8463      0.0000    787.1202      6.1330
  1517.7500    107.2786      0.0000    795.8154      5.9929
  1518.0000    104.4295      0.0000    801.2136      5.9250
  1518.2500    101.1666      0.0000    804.8640      5.8897
  1518.5000     97.9848      0.0000    806.3939      5.8599
  1518.7500     96.1363      0.0000    806.8909      5.8300
  1519.0000     96.5445      0.0000    808.2965      5.8129
  1519.2500     98.9461      0.0000    808.1105      5.8251
  1519.5000    102.1153      0.0000    800.5060      5.8743
  1519.7500    104.6375      0.0000    779.3959      5.9747
  1520.0000    105.5688      0.0000    735.2061      6.1510
  1520.2500    104.8887      0.0000    661.2377      6.3940
  1520.5000    103.6094      0.0000    575.2588      6.6359
  1520.7500    103.2010      0.0000    517.5554      6.8036
  1521.0000    104.5084      0.0000    517.9456      6.8851
  1521.2500    107.0545      0.0000    574.0419      6.9195
  1521.5000    109.4562      0.0000    648.5651      6.9364
  1521.7500    110.5838      0.0000    688.7936      6.9345
  1522.0000    110.3265      0.0000    673.1617      6.9104
  1522.2500    109.2952      0.0000    636.1886      6.8746
  1522.5000    107.9836      0.0000    630.0966      6.8447
  1522.7500    106.4329      0.0000    665.2677      6.8337
  1523.0000    104.6763      0.0000    708.1635      6.8413
  1523.2500    103.1914      0.0000    725.2570      6.8605
  1523.5000    102.6208      0.0000    702.4716      6.8851
  1523.7500    103.0885      0.0000    640.7384      6.9065
  1524.0000    103.9945      0.0000    559.9850      6.9233
  1524.2500    104.5957      0.0000    493.6762      6.9476
  1524.5000    104.8639      0.0000    460.6321      6.9842
  1524.7500    105.5760      0.0000    453.3993      7.0230
  1525.0000    107.2382      0.0000    457.7924      7.0509
  1525.2500    109.0727      0.0000    467.2098      7.0559
  1525.5000    109.5031      0.0000    477.4561      7.0367
  1525.7500    107.6340      0.0000    482.0191      7.0127
  1526.0000    103.9116      0.0000    477.2224      7.0035
  1526.2500     99.4260      0.0000    466.5182      7.0075
  1526.5000     95.1202      0.0000    455.5553      7.0123
  1526.7500     91.9444      0.0000    444.6053      7.0208
  1527.0000     91.3422      0.0000    429.7934      7.0441
  1527.2500     94.8379      0.0000    411.2633      7.0733
  1527.5000    102.7291      0.0000    394.5524      7.0920
  1527.7500    113.2593      0.0000    382.7720      7.1051
  1528.0000    123.1458      0.0000    374.3087      7.1239
  1528.2500    129.0395      0.0000    368.4961      7.1439
  1528.5000    129.1980      0.0000    366.7068      7.1598
  1528.7500    124.5614      0.0000    369.3311      7.1725
  1529.0000    118.2087      0.0000    374.1904      7.1799
  1529.2500    113.2689      0.0000    376.6825      7.1866
  1529.5000    111.0216      0.0000    374.0092      7.2123
  1529.7500    110.7131      0.0000    368.7397      7.2575
  1530.0000    110.7459      0.0000    364.8832      7.2874
  1530.2500    109.8381      0.0000    363.8486      7.2812
  1530.5000    107.4712      0.0000    366.6113      7.2659
  1530.7500    103.9141      0.0000    376.8188      7.2744
  1531.0000    100.0715      0.0000    399.4013      7.3059
  1531.2500     97.1094      0.0000    437.8947      7.3436
  1531.5000     95.8931      0.0000    496.8563      7.3779
  1531.7500     96.4377      0.0000    578.1387      7.4102
  1532.0000     97.6367      0.0000    665.5706      7.4477
  1532.2500     97.7038      0.0000    731.0930      7.4872
  1532.5000     95.4373      0.0000    763.7897      7.4954
  1532.7500     91.3412      0.0000    774.7435      7.3903
  1533.0000     87.2387      0.0000    777.5811      7.0262
  1533.2500     84.5412      0.0000    778.7080      6.3335
  1533.5000     83.0144      0.0000    780.3439      5.5878
  1533.7500     81.3484      0.0000    783.7374      5.2158
  1534.0000     78.6941      0.0000    788.6979      5.1688
  1534.2500     75.3325      0.0000    793.1074      5.0487
  1534.5000     71.9272      0.0000    795.4285      4.7872
  1534.7500     68.6130      0.0000    795.9186      4.5690
  1535.0000     65.1773      0.0000    794.7676      4.4432
  1535.2500     61.9409      0.0000    792.3049      4.3643
  1535.5000     59.9129     -1.0000    791.8737      4.3031
  1535.7500     59.8486      0.0000    799.0158      4.2374
  1536.0000     61.5422      0.0000    814.2370      4.2035
  1536.2500     64.3666      0.0000    831.1241      4.3650
  1536.5000     68.0900      0.0000    841.3582      4.8013
  1536.7500     72.6732      0.0000    835.8165      5.2300
  1537.0000     77.5298      0.0000    813.4457      5.3469
  1537.2500     81.5053      0.0000    790.8865      5.2704
  1537.5000     83.6510      0.0000    783.2996      5.2511
  1537.7500     84.0291      0.0000    785.9495      5.3270
  1538.0000     84.0088      0.0000    788.4280      5.4199
  1538.2500     85.6906      0.0000    788.9899      5.4790
  1538.5000     90.4961      0.0000    788.3327      5.5131
  1538.7500     97.9605      0.0000    785.3581      5.5669
  1539.0000    105.9444      0.0000    781.2551      5.6810
  1539.2500    112.0982      0.0000    778.2424      5.8769
  1539.5000    115.2598      0.0000    775.7327      6.1530
  1539.7500    115.7489      0.0000    771.0139      6.4735
  1540.0000    114.5521      0.0000    761.4077      6.7626
  1540.2500    112.2417      0.0000    743.1464      6.9469
  1540.5000    108.7920      0.0000    705.9064      7.0210
  1540.7500    104.4220      0.0000    637.8578      7.0351
