~Version Information
VERS.                      2.0: CWLS Log ASCII Standard - VERSION 2.0
WRAP.                       NO: One line per depth step
~Well Information Block
STRT.FT               547.0000: 
STOP.FT              1685.5000: 
STEP.FT                 0.2500: 
NULL.                -999.2500: 
COMP.          Pioneer Natural Resources: COMPANY
WELL.           Pedri 42-33 Tr: WELL
FLD.           Purgatorie River: FIELD
LOC.           1933' FNL & 662' FEL: LOCATION
PROV.                 Colorado: PROVINCE
CNTY.               Las Animas: COUNTRY
SRVC.                Patterson: SERVICE COMPANY
DATE.          Mon Dec 19 10:09:44 2005: LOG DATE
UWI.                          : UNIQUE WELL ID
~Curve Information Block
DEPT.FT            0 000 00 00: Depth
DIR.Ohm-m                     : IEL Induction Resistivity
GR.GAPI                       : Gamma Ray
~Parameter Information Block
~A  Depth       DIR          GR     
# ...
  1104.5000     15.6166    108.4934
  1104.7500     15.7679    111.1922
  1105.0000     15.9566    117.5224
  1105.2500     16.1712    122.4592
  1105.5000     16.4031    128.8082
  1105.7500     16.6495    131.3453
  1106.0000     16.9142    132.4779
  1106.2500     17.2065    132.1906
  1106.5000     17.5411    131.5667
  1106.7500     17.9387    131.2223
  1107.0000     18.4257    130.0704
  1107.2500     19.0326    128.4249
  1107.5000     19.7910    124.8895
  1107.7500     20.7288    122.4321
  1108.0000     21.8652    119.2736
  1108.2500     23.2050    117.3653
  1108.5000     24.7340    114.2227
  1108.7500     26.4192    112.0454
  1109.0000     28.2133    109.8224
  1109.2500     30.0620    109.6054
  1109.5000     31.9091    110.5259
  1109.7500     33.7000    110.9024
  1110.0000     35.3857    110.2533
  1110.2500     36.9350    109.6729
  1110.5000     38.3503    110.3761
  1110.7500     39.6757    112.1838
  1111.0000     40.9837    115.5406
  1111.2500     42.3423    117.0071
  1111.5000     43.7870    116.8334
  1111.7500     45.3172    115.1014
  1112.0000     46.9104    110.5472
  1112.2500     48.5363    106.6095
  1112.5000     50.1598    100.3779
  1112.7500     51.7429     96.5905
  1113.0000     53.2587     91.7654
  1113.2500     54.7202     88.9701
  1113.5000     56.2047     85.2129
  1113.7500     57.8440     82.9622
  1114.0000     59.7703     79.7701
  1114.2500     62.0415     77.5711
  1114.5000     64.6011     73.7217
  1114.7500     67.3056     70.4804
  1115.0000     69.9965     64.4376
  1115.2500     72.5544     59.9544
  1115.5000     74.9045     53.5647
  1115.7500     77.0003     50.1106
  1116.0000     78.8163     46.9755
  1116.2500     80.3529     46.4850
  1116.5000     81.6398     47.5424
  1116.7500     82.7395     48.5640
  1117.0000     83.7463     49.2351
  1117.2500     84.7600     48.8990
  1117.5000     85.8304     47.5872
  1117.7500     86.8955     46.3893
  1118.0000     87.7492     44.2199
  1118.2500     88.0780     42.6258
  1118.5000     87.5855     40.5639
  1118.7500     86.1697     39.8874
  1119.0000     84.0300     40.4917
  1119.2500     81.5973     41.8230
  1119.5000     79.3315     43.9983
  1119.7500     77.5325     44.7338
  1120.0000     76.2616     44.2709
  1120.2500     75.3758     43.3503
  1120.5000     74.6400     42.2391
  1120.7500     73.8682     42.1077
  1121.0000     73.0057     42.8697
  1121.2500     72.0996     43.8756
  1121.5000     71.2024     46.0089
  1121.7500     70.3193     47.8232
  1122.0000     69.4409     50.8691
  1122.2500     68.6090     52.7217
  1122.5000     67.9227     54.1902
  1122.7500     67.4587     53.7313
  1123.0000     67.1586     50.9207
  1123.2500     66.7606     48.5115
  1123.5000     65.8345     46.2528
  1123.7500     63.9465     46.5038
  1124.0000     60.8895     49.6244
  1124.2500     56.8214     52.9761
  1124.5000     52.1850     58.4435
  1124.7500     47.4821     61.5763
  1125.0000     43.0868     64.8946
  1125.2500     39.1916     66.2803
  1125.5000     35.8501     67.3965
  1125.7500     33.0389     67.6648
  1126.0000     30.7034     68.4125
  1126.2500     28.7841     70.4019
  1126.5000     27.2247     77.7357
  1126.7500     25.9718     85.6780
  1127.0000     24.9714     99.6413
  1127.2500     24.1705    107.9179
  1127.5000     23.5227    115.9433
  1127.7500     22.9945    118.4341
  1128.0000     22.5657    120.0565
  1128.2500     22.2258    120.9732
  1128.5000     21.9707    122.7231
  1128.7500     21.8006    123.5490
  1129.0000     21.7147    122.6055
  1129.2500     21.7045    119.9758
  1129.5000     21.7469    113.7329
  1129.7500     21.8022    109.0794
  1130.0000     21.8211    102.6516
  1130.2500     21.7561     98.6728
  1130.5000     21.5746     92.4008
  1130.7500     21.2643     88.0671
  1131.0000     20.8328     82.8287
  1131.2500     20.3020     81.2420
  1131.5000     19.7008     82.4943
  1131.7500     19.0586     85.4733
  1132.0000     18.4023     92.3581
  1132.2500     17.7570     98.2655
  1132.5000     17.1470    108.6028
  1132.7500     16.5967    115.8870
  1133.0000     16.1290    125.9983
  1133.2500     15.7627    131.5205
  1133.5000     15.5090    137.5102
  1133.7500     15.3690    139.9875
  1134.0000     15.3351    141.4455
  1134.2500     15.3950    140.8495
  1134.5000     15.5379    137.6242
  1134.7500     15.7592    134.0244
  1135.0000     16.0606    126.7304
  1135.2500     16.4481    121.1057
  1135.5000     16.9279    113.4096
  1135.7500     17.4991    110.0618
  1136.0000     18.1441    108.6729
  1136.2500     18.8193    109.5477
  1136.5000     19.4521    111.2182
  1136.7500     19.9523    111.4132
  1137.0000     20.2393    110.0148
  1137.2500     20.2722    108.5713
  1137.5000     20.0623    106.5196
  1137.7500     19.6606    105.1279
  1138.0000     19.1330    102.3338
  1138.2500     18.5411     99.9349
  1138.5000     17.9321     96.4474
  1138.7500     17.3381     95.1645
  1139.0000     16.7794     96.3851
  1139.2500     16.2689     99.5704
  1139.5000     15.8159    106.8528
  1139.7500     15.4270    112.4260
  1140.0000     15.1067    120.8799
  1140.2500     14.8595    126.2702
  1140.5000     14.6936    132.9758
  1140.7500     14.6217    135.6665
  1141.0000     14.6585    136.1834
  1141.2500     14.8168    134.4433
  1141.5000     15.1050    130.1600
  1141.7500     15.5283    127.1529
  1142.0000     16.0921    123.4698
  1142.2500     16.8067    121.5670
  1142.5000     17.6913    118.6897
  1142.7500     18.7720    116.2440
  1143.0000     20.0755    111.7618
  1143.2500     21.6157    108.7683
  1143.5000     23.3851    105.4695
  1143.7500     25.3561    104.4286
  1144.0000     27.4945    104.0337
  1144.2500     29.7784    103.6144
  1144.5000     32.2113    101.0224
  1144.7500     34.8231     97.4719
  1145.0000     37.6546     89.9704
  1145.2500     40.7235     84.6139
  1145.5000     43.9802     78.2951
  1145.7500     47.2813     76.0463
  1146.0000     50.4155     75.4275
  1146.2500     53.1885     75.9969
  1146.5000     55.5120     76.5276
  1146.7500     57.4173     75.8215
  1147.0000     58.9803     72.4850
  1147.2500     60.2392     68.9719
  1147.5000     61.1788     63.2773
  1147.7500     61.7813     60.3005
  1148.0000     62.0731     58.0869
  1148.2500     62.1245     57.9221
  1148.5000     62.0148     58.7787
  1148.7500     61.8063     59.8653
  1149.0000     61.5381     62.4196
  1149.2500     61.2369     64.6920
  1149.5000     60.9340     68.2282
  1149.7500     60.6750     70.0386
  1150.0000     60.5132     70.9038
  1150.2500     60.4939     69.9245
  1150.5000     60.6464     66.6320
  1150.7500     60.9861     64.0605
  1151.0000     61.4982     60.8634
  1151.2500     62.1016     59.4190
  1151.5000     62.6202     58.4752
  1151.7500     62.8143     58.8503
  1152.0000     62.4851     60.7367
  1152.2500     61.5997     62.2421
  1152.5000     60.3400     63.6805
  1152.7500     59.0329     63.9075
  1153.0000     58.0203     63.6651
  1153.2500     57.5582     63.4343
  1153.5000     57.7650     63.2171
  1153.7500     58.5845     63.3194
  1154.0000     59.7482     64.2645
  1154.2500     60.8100     65.4476
  1154.5000     61.3586     67.3695
  1154.7500     61.3267     68.2217
  1155.0000     61.0888     68.4853
  1155.2500     61.2092     68.0775
  1155.5000     62.0945     66.8316
  1155.7500     63.7864     65.7046
  1156.0000     65.8981     63.8631
  1156.2500     67.6967     62.6714
  1156.5000     68.4170     60.9793
  1156.7500     67.7385     59.9241
  1157.0000     65.9966     58.5615
  1157.2500     63.8913     57.8478
  1157.5000     62.0375     57.0498
  1157.7500     60.7535     56.6968
  1158.0000     60.0810     56.5478
  1158.2500     59.8561     56.8066
  1158.5000     59.7591     57.8030
  1158.7500     59.3756     58.7512
  1159.0000     58.3085     60.1390
  1159.2500     56.3146     60.8035
  1159.5000     53.3837     61.2496
  1159.7500     49.7147     61.1289
  1160.0000     45.6259     60.2369
