~Version Information
VERS.                      2.0: CWLS Log ASCII Standard - VERSION 2.0
WRAP.                       NO: One line per depth step
~Well Information Block
STRT.FT               260.8000: 
STOP.FT              1942.0000: 
STEP.FT                 0.1000: 
NULL.                -999.2500: 
COMP.          XTO Energy Inc.: COMPANY
WELL.          Golden Eagle 19-11: WELL
FLD.           Purgatoire River: FIELD
LOC.           2351' FSL & 1926' FWL--: LOCATION
CNTY.               Las Animas: COUNTY
SRVC.                Patterson: SERVICE COMPANY
DATE.          Thu Mar 09 08:41:38 2006: LOG DATE
UWI.           05 071 08696 00: UNIQUE WELL ID
STAT.                 Colorado: STATE
~Curve Information Block
DEPT.FT            0 000 00 00: Depth
DCAL.in                       : CDL Caliper
RHOB.g/cc                     : CDL Bulk Density
RHOC.g/cc                     : CDL Density Correction
DPOR.pu                       : CDL Density Porosity
NPOR.pu                       : Neutron Porosity
GR.GAPI                       : Gamma Ray
~Parameter Information Block
~A  Depth       DCAL        RHOB        RHOC        DPOR        NPOR         GR     
# ...
  1144.0000      7.9510      2.6150      0.0089      2.1217     67.8103    112.4274
  1144.1000      7.9510      2.6187      0.0866      1.8949     67.8103    107.5123
  1144.2000      7.9510      2.6122      0.0531      2.2908     67.8103    104.6049
  1144.3000      7.9505      2.5961      0.0524      3.2677     67.8103    101.4912
  1144.4000      7.9505      2.5807      0.0316      4.1999     67.8103     96.0300
  1144.5000      7.9502      2.5693      0.0161      4.8913     67.8103     91.4058
  1144.6000      7.9502      2.5632      0.0098      5.2578     67.8103     91.0956
  1144.7000      7.9502      2.5578      0.0633      5.5891     67.8103     93.6198
  1144.8000      7.9540      2.5451      0.0185      6.3603     67.8103     95.5891
  1144.9000      7.9540      2.5350      0.0140      6.9674     67.8103     96.4548
  1145.0000      7.9608      2.5428      0.0299      6.4977     67.8103     97.9195
  1145.1000      7.9608      2.5692      0.0279      4.8942     67.8103    100.0336
  1145.2000      7.9608      2.5985      0.0950      3.1222     67.8103    101.1086
  1145.3000      7.9629      2.6082      0.1218      2.5315     67.8103    101.8963
  1145.4000      7.9629      2.5998      0.0703      3.0419     67.8103    103.7239
  1145.5000      7.9616      2.5924      0.0716      3.4932     67.8103    104.6584
  1145.6000      7.9616      2.5905      0.0738      3.6067     67.8103    103.5736
  1145.7000      7.9616      2.5912      0.0511      3.5636     67.8103    103.5970
  1145.8000      7.9656      2.5994      0.0670      3.0687     67.8103    106.6342
  1145.9000      7.9656      2.6117      0.0901      2.3182     67.8103    108.3964
  1146.0000      7.9759      2.6097      0.0947      2.4439     67.8103    104.7140
  1146.1000      7.9759      2.5878      0.0189      3.7700     67.8103     99.7211
  1146.2000      7.9759      2.5665      0.0056      5.0589     67.8103    101.4908
  1146.3000      7.9854      2.5600      0.0471      5.4537     67.8103    109.8191
  1146.4000      7.9854      2.5619      0.0622      5.3370     67.8103    114.7941
  1146.5000      7.9923      2.5638      0.0448      5.2249     67.8103    112.0390
  1146.6000      7.9923      2.5642      0.0423      5.1979     67.8103    107.4714
  1146.7000      7.9923      2.5707      0.0109      4.8065     67.8103    105.3828
  1146.8000      7.9931      2.5883      0.0537      3.7415     67.8103    104.1558
  1146.9000      7.9931      2.6042      0.0830      2.7784     67.8103    101.3694
  1147.0000      7.9796      2.6053      0.0983      2.7121     67.8103     97.0171
  1147.1000      7.9796      2.5968      0.0788      3.2223     67.8103     94.0224
  1147.2000      7.9796      2.5925      0.0639      3.4850     67.8103     95.2893
  1147.3000      7.9581      2.5954      0.0365      3.3064     67.8103     97.9128
  1147.4000      7.9581      2.5965      0.0601      3.2451     67.8103     96.5384
  1147.5000      7.9418      2.5914      0.0683      3.5506     67.8103     90.9025
  1147.6000      7.9418      2.5859      0.0600      3.8825     67.8103     85.1519
  1147.7000      7.9418      2.5830      0.0571      4.0601     67.8103     81.6493
  1147.8000      7.9238      2.5843      0.0600      3.9799     67.8103     78.8425
  1147.9000      7.9238      2.5892      0.0569      3.6877     67.8103     76.5223
  1148.0000      7.8998      2.5903      0.0620      3.6191     67.8103     76.8316
  1148.1000      7.8998      2.5884      0.0519      3.7324     67.8103     79.0173
  1148.2000      7.8998      2.5925      0.0297      3.4839     67.8103     80.1710
  1148.3000      7.8823      2.6035      0.0526      2.8159     67.8103     79.6321
  1148.4000      7.8823      2.6186      0.0527      1.9045     67.8103     78.2975
  1148.5000      7.8764      2.6308      0.0950      1.1616     67.8103     75.3960
  1148.6000      7.8764      2.6280      0.0574      1.3312     67.8103     70.9818
  1148.7000      7.8764      2.6175      0.0471      1.9688     67.8103     68.2853
  1148.8000      7.8826      2.6167      0.0588      2.0173     67.8103     67.8414
  1148.9000      7.8826      2.6253      0.0826      1.4958     67.8103     65.8786
  1149.0000      7.9065      2.6353      0.0809      0.8883     67.8103     61.1316
  1149.1000      7.9065      2.6419      0.0589      0.4891     67.8103     58.2615
  1149.2000      7.9065      2.6416      0.0313      0.5102     67.8103     60.9192
  1149.3000      7.9270      2.6388      0.0211      0.6780     67.8103     64.9249
  1149.4000      7.9270      2.6371      0.0751      0.7816     67.8103     63.9428
  1149.5000      7.9325      2.6309      0.0536      1.1602     67.8103     58.5924
  1149.6000      7.9325      2.6206      0.0371      1.7806     67.8103     55.1130
  1149.7000      7.9325      2.6120      0.0420      2.3058     67.8103     55.3068
  1149.8000      7.9275      2.6050      0.0598      2.7290     67.8103     56.0801
  1149.9000      7.9275      2.5956      0.0617      3.2986     67.8103     57.1013
  1150.0000      7.9156      2.5833      0.0544      4.0418     67.8103     59.9195
  1150.1000      7.9156      2.5775      0.0237      4.3934     67.8103     63.7047
  1150.2000      7.9156      2.5830      0.0682      4.0591     67.8103     65.8222
  1150.3000      7.9092      2.5900      0.0472      3.6349     67.8103     65.3139
  1150.4000      7.9092      2.5947     -0.0014      3.3504     67.8103     64.5430
  1150.5000      7.9080      2.5972      0.0654      3.2015     67.8103     65.3897
  1150.6000      7.9080      2.5929      0.0572      3.4576     67.8103     66.6246
  1150.7000      7.9080      2.5906      0.0760      3.5973     67.8103     67.6693
  1150.8000      7.9091      2.6002      0.0257      3.0154     67.8103     69.0798
  1150.9000      7.9091      2.6158      0.0630      2.0749     67.8103     71.0843
  1151.0000      7.9196      2.6235      0.0704      1.6035     67.8103     75.6151
  1151.1000      7.9196      2.6184      0.0804      1.9131     67.8103     81.2357
  1151.2000      7.9196      2.6089      0.0312      2.4918     67.8103     81.1955
  1151.3000      7.9309      2.6077      0.0360      2.5619     67.8103     76.4347
  1151.4000      7.9309      2.6162      0.0627      2.0496     67.8103     75.5681
  1151.5000      7.9374      2.6243      0.0820      1.5569     67.8103     79.5487
  1151.6000      7.9374      2.6202      0.0590      1.8042     67.8103     81.0665
  1151.7000      7.9374      2.5948      0.0650      3.3460     67.8103     76.0794
  1151.8000      7.9435      2.5591      0.0180      5.5111     67.8103     68.3777
  1151.9000      7.9435      2.5449      0.0143      6.3724     67.8103     62.5071
  1152.0000      7.9459      2.5665      0.0294      5.0629     67.8103     60.5081
  1152.1000      7.9459      2.6058      0.0546      2.6772     67.8103     63.7432
  1152.2000      7.9459      2.6394      0.0664      0.6426     67.8103     69.3156
  1152.3000      7.9364      2.6540      0.0862     -0.2413     67.8103     71.7990
  1152.4000      7.9364      2.6453      0.0737      0.2878     67.8103     69.9550
  1152.5000      7.9270      2.6213      0.0731      1.7377     67.8103     66.9206
  1152.6000      7.9270      2.6004      0.0467      3.0031     67.8103     66.9925
  1152.7000      7.9270      2.5911      0.0526      3.5671     67.8103     70.2072
  1152.8000      7.9269      2.5863      0.0291      3.8614     67.8103     72.5934
  1152.9000      7.9269      2.5763      0.0271      4.4655     67.8103     72.6133
  1153.0000      7.9246      2.5597      0.0213      5.4748     67.8103     69.5949
  1153.1000      7.9246      2.5470      0.0421      6.2454     67.8103     62.1663
  1153.2000      7.9246      2.5490      0.0281      6.1220     67.8103     53.7520
  1153.3000      7.9140      2.5677      0.0485      4.9869     67.8103     49.8899
  1153.4000      7.9140      2.5951      0.0752      3.3261     67.8103     50.4658
  1153.5000      7.8924      2.6177      0.0803      1.9580     67.8103     52.7867
