~Version Information
 VERS.                                  2.0 : CWLS LAS VERSION
 WRAP.                                   NO : WRAPING MODE
 SWARE .                 MController 2.5.0J : SOFTWARE VERSION
~Well Information
 WELL.                     Manville 42-14Tr : WELL
 COMP.    Pioneer Natural Resources USA Inc : COMPANY
 FLD.                      Purgatoire River : FIELD
 LOC.                 SE/NE SEC14 T32S R66W : LOCATION
 DATE.                             09/18/05 : DATE(S) LOGGED
 SRVC.       Blanco Geological Services LLC : SERVICE COMPANY
 STAT.                             Colorado : STATE
 CNTY.                           Las Animas : COUNTY
 CTRY.                                  USA : COUNTRY
 API.                       05-071-08522-00 : API NUMBER
 STRT.FT                             889.00 : START DEPTH
 STOP.FT                            1780.00 : STOP DEPTH
 STEP.FT                               1.00 : DEPTH INCREMENT
 NULL.                                -9999 : NULL VALUE
~Curve information
 DEPTH.FT                                   :
 ROP.MIN/FT                                 :
 GAS.UNITS                                  :
~ASCII Log data
# ...
      1489.0         0.20         96.4 
      1490.0         0.17         92.2 
      1491.0         0.27         88.4 
      1492.0         0.27         87.4 
      1493.0         0.23         85.3 
      1494.0         0.27         84.4 
      1495.0         0.30         82.7 
      1496.0         0.28         81.1 
      1497.0         0.70         79.4 
      1498.0         4.62        165.7 
      1499.0         0.17         85.4 
      1500.0         0.30         86.7 
      1501.0         0.30        105.7 
      1502.0         0.27        120.3 
      1503.0         0.28        127.7 
      1504.0         0.23        125.9 
      1505.0         0.30        127.7 
      1506.0         0.30        184.4 
      1507.0         0.27        238.5 
      1508.0         0.23        259.8 
      1509.0         0.13        289.7 
      1510.0         0.13        298.7 
      1511.0         0.23        314.0 
      1512.0         0.30        307.9 
      1513.0         0.37        306.9 
      1514.0         0.37        275.9 
      1515.0         0.23        247.2 
      1516.0         0.28        230.2 
      1517.0         0.30        216.5 
      1518.0         0.30        193.0 
      1519.0         0.37        177.3 
      1520.0         0.37        166.3 
      1521.0         0.37        164.9 
      1522.0         0.33        149.3 
      1523.0         0.37        147.2 
      1524.0         0.50        140.4 
      1525.0         0.37        139.2 
      1526.0         1.68        136.2 
      1527.0         0.23        111.1 
      1528.0         0.30        138.2 
      1529.0         0.67        239.8 
      1530.0         0.33        248.6 
      1531.0         0.28        233.6 
      1532.0         0.27        228.3 
      1533.0         0.20        202.3 
      1534.0         0.30        179.3 
      1535.0         0.30        158.0 
      1536.0         0.27        147.4 
      1537.0         0.33        138.0 
      1538.0         0.27        135.3 
      1539.0         0.23        124.2 
      1540.0         0.27        123.7 
      1541.0         0.23        116.5 
      1542.0         0.27        111.8 
      1543.0         0.23        111.1 
      1544.0         0.25        108.5 
      1545.0         0.20        105.2 
      1546.0         0.30        103.5 
      1547.0         0.33        100.3 
      1548.0         0.33         98.1 
      1549.0         0.20         98.1 
      1550.0         0.37         97.4 
      1551.0         0.20         96.6 
      1552.0         0.17         95.4 
      1553.0         0.17         95.4 
      1554.0         0.17         91.6 
      1555.0         0.30         90.0 
      1556.0         2.82        193.6 
      1557.0         0.20        175.1 
      1558.0         0.23        147.6 
      1559.0         0.17        144.2 
      1560.0         0.38        149.2 
      1561.0         0.33        166.4 
      1562.0         0.37        166.1 
      1563.0         0.37        149.8 
      1564.0         0.43        149.3 
      1565.0         0.30        136.7 
      1566.0         0.30        133.1 
      1567.0         0.27        131.8 
      1568.0         0.30        124.4 
      1569.0         0.30        118.4 
      1570.0         0.27        111.3 
      1571.0         0.25        106.1 
      1572.0         0.17        103.9 
      1573.0         0.20        100.6 
      1574.0         0.13        100.6 
      1575.0         0.10         98.8 
      1576.0         0.13         97.6 
      1577.0         0.17         97.6 
      1578.0         0.33        117.2 
      1579.0         0.40        137.2 
      1580.0         0.30        152.1 
      1581.0         0.23        153.7 
      1582.0         0.30        146.7 
      1583.0         0.23        137.4 
      1584.0         0.23        136.1 
      1585.0         0.28        108.5 
      1586.0         1.53        153.9 
      1587.0         0.33        175.7 
      1588.0         0.47        183.7 
      1589.0         0.43        195.4 
      1590.0         0.37        190.7 
      1591.0         0.42        167.5 
      1592.0         0.33        149.2 
      1593.0         0.33        131.5 
      1594.0         0.40        123.7 
      1595.0         0.37        123.5 
      1596.0         0.27        117.9 
      1597.0         0.30        115.6 
      1598.0         0.20        111.7 
      1599.0         0.20        109.8 
      1600.0         0.13        106.3 
      1601.0         0.17        100.7 
      1602.0         0.17        100.7 
      1603.0         0.20        100.1 
      1604.0         0.22         94.9 
      1605.0         0.13         94.9 
      1606.0         0.23         97.9 
      1607.0         0.23        101.2 
      1608.0         0.23        102.6 
      1609.0         0.27        102.9 
      1610.0         0.27        103.5 
      1611.0         0.33        104.9 
      1612.0         0.33        104.2 
      1613.0         0.27        102.9 
      1614.0         0.27        102.3 
      1615.0         0.07         97.3 
      1616.0         1.45         90.4 
      1617.0         0.90        215.2 
      1618.0         0.60        201.6 
      1619.0         0.53        157.3 
      1620.0         0.52        164.1 
      1621.0         0.80        161.6 
      1622.0         0.60        144.2 
      1623.0         0.70        129.3 
      1624.0         0.43        116.0 
      1625.0         0.50        103.9 
      1626.0         0.58         98.8 
      1627.0         0.33         96.4 
      1628.0         0.43         93.3 
      1629.0         0.43         99.8 
      1630.0         0.57        116.6 
      1631.0         0.60        127.8 
      1632.0         0.68        127.1 
      1633.0         0.77        113.1 
      1634.0         0.03         74.9 
      1635.0         0.03         74.9 
      1636.0         0.03         74.9 
      1637.0         0.03         74.9 
      1638.0         0.03         72.1 
      1639.0         0.03         72.1 
      1640.0         0.03         72.1 
      1641.0         0.27         71.0 
      1642.0         0.13         83.0 
      1643.0         0.30        101.2 
      1644.0         0.80        187.8 
      1645.0         0.33        204.6 
      1646.0         0.33        200.4 
      1647.0         0.52        187.4 
      1648.0         0.50        168.0 
      1649.0         0.77        150.5 
      1650.0         0.73        132.5 
      1651.0         0.63        120.4 
      1652.0         0.58        112.6 
      1653.0         0.47        111.6 
      1654.0         0.63        108.3 
      1655.0         0.27        104.4 
      1656.0         0.47        104.3 
      1657.0         0.67        103.4 
      1658.0         0.40        101.9 
      1659.0         0.03        101.9 
      1660.0         0.07         96.1 
      1661.0         0.03         96.1 
      1662.0         0.03         96.1 
      1663.0         0.05         96.1 
      1664.0         0.03         96.1 
      1665.0         0.03         93.0 
      1666.0         0.07         88.0 
      1667.0         0.13         82.5 
      1668.0         0.27         70.7 
      1669.0         0.27         64.7 
      1670.0         0.27         64.4 
      1671.0         0.27         67.5 
      1672.0         0.27         71.1 
      1673.0         0.10         74.6 
      1674.0         0.37         89.6 
      1675.0         0.53        135.1 
      1676.0         0.27        150.3 
      1677.0         0.27        151.1 
      1678.0         0.42        139.0 
      1679.0         0.53        135.1 
      1680.0         0.53        167.6 
      1681.0         0.20        194.5 
      1682.0         0.33        210.4 
      1683.0         0.23        206.8 
      1684.0         0.37        192.2 
      1685.0         0.37        174.3 
      1686.0         0.33        143.0 
      1687.0         0.28        137.4 
      1688.0         0.27        136.8 
