~Version Information
VERS.                      2.0: CWLS Log ASCII Standard - VERSION 2.0
WRAP.                       NO: One line per depth step
~Well Information Block
STRT.FT                 0.5000: 
STOP.FT              2166.0000: 
STEP.FT                 0.2500: 
NULL.                -999.2500: 
COMP.          Pioneer Natural Resources: COMPANY
WELL.          Bear Cub Federal 11-23: WELL
FLD.           Purgatoire River: FIELD
LOC.           1225' FNL & 1268 ' FWL--: LOCATION
CNTY.               Las Animas: COUNTY
SRVC.                Patterson: SERVICE COMPANY
DATE.          Mon Jul 17 10:21:31 2006: LOG DATE
UWI.           05 071 08509 00: UNIQUE WELL ID
STAT.                 Colorado: STATE
~Curve Information Block
DEPT.FT            0 000 00 00: Depth
CCL.                          : Casing Collar Locator
TT3.usec                      : CBL 3' Travel Time
AMP3.mV                       : CBL 3' Amplitude
GR.GAPI                       : Gamma Ray
~Parameter Information Block
~A  Depth       CCL         TT3         AMP3         GR     
# ...
   436.0000      0.0000    338.0084      7.2370     98.9894
   436.2500      0.0000    338.1304      7.1751     98.3541
   436.5000      0.0000    338.3295      7.1501     97.8071
   436.7500      0.0000    338.4369      7.1668     98.8429
   437.0000      0.0000    338.5604      7.2108    102.9130
   437.2500      0.0000    338.6416      7.2470    106.3048
   437.5000      0.0000    338.7837      7.3306    110.2797
   437.7500      0.0000    338.8828      7.4201    111.5170
   438.0000      0.0000    339.0895      7.6069    110.7896
   438.2500      0.0000    339.4129      7.7535    108.4380
   438.5000      0.0000    341.2222      7.9756    102.8977
   438.7500      0.0000    344.9342      8.1053     99.1790
   439.0000      0.0000    359.4952      8.2199     95.6450
   439.2500      0.0000    378.4801      8.1973     94.7130
   439.5000      0.0000    420.2931      7.9427     94.1906
   439.7500      0.0000    449.8878      7.6225     93.9576
   440.0000      0.0000    477.3331      7.0120     93.6345
   440.2500      0.0000    476.8406      6.6111     92.9940
   440.5000      0.0000    452.4847      6.1414     90.0027
   440.7500      0.0000    430.5319      5.9270     86.4341
   441.0000      0.0000    405.1665      5.6942     80.3992
   441.2500      2.0000    398.1624      5.5640     77.5924
   441.5000      2.0000    406.4956      5.3977     77.2758
   441.7500      0.0000    427.4569      5.3248     79.6093
   442.0000      0.0000    485.7584      5.3251     84.6346
   442.2500      0.0000    538.4413      5.4392     87.1726
   442.5000      0.0000    611.8954      5.8418     87.9180
   442.7500      0.0000    634.9456      6.2580     86.8398
   443.0000      0.0000    607.2617      6.9896     85.7330
   443.2500      0.0000    554.4727      7.4531     86.8536
   443.5000      0.0000    465.3044      7.9908     91.2827
   443.7500      0.0000    424.7651      8.2186     94.5915
   444.0000      0.0000    417.5215      8.3797     97.3153
   444.2500      0.0000    451.4148      8.3945     96.8776
   444.5000      0.0000    549.8220      8.3411     93.0858
   444.7500      0.0000    633.3514      8.2946     89.1051
   445.0000      0.0000    756.6981      8.2661     82.4767
   445.2500      0.0000    824.6111      8.2945     78.6458
   445.5000      0.0000    895.2088      8.4187     75.2108
   445.7500      0.0000    920.8452      8.5560     74.7121
   446.0000      0.0000    929.4565      8.8428     76.0904
   446.2500      0.0000    918.1990      9.0788     77.8982
   446.5000      0.0000    884.8956      9.4536     81.3295
   446.7500      0.0000    858.5748      9.6801     83.9728
   447.0000      0.0000    822.5546      9.9408     88.2224
   447.2500      0.0000    803.2346     10.0591     90.6396
   447.5000      0.0000    780.1952     10.1755     91.9845
   447.7500      0.0000    766.1442     10.2271     90.8241
   448.0000      0.0000    740.3306     10.2763     86.6596
   448.2500      0.0000    716.8060     10.2862     82.9731
   448.5000      0.0000    673.4684     10.2503     76.6428
   448.7500      0.0000    643.4672     10.1867     72.0969
   449.0000      0.0000    600.2723     10.0453     65.9135
   449.2500      0.0000    570.1994      9.9436     63.1956
   449.5000      0.0000    519.8688      9.8303     62.5456
   449.7500      0.0000    485.8186      9.8070     64.7106
   450.0000      0.0000    443.4223      9.8816     71.3567
   450.2500      0.0000    425.3899     10.0038     76.9820
   450.5000      0.0000    421.4860     10.2368     84.4798
   450.7500      0.0000    440.2474     10.3649     87.5481
   451.0000      0.0000    505.9314     10.4422     88.4021
   451.2500      0.0000    571.0174     10.4255     86.5669
   451.5000      0.0000    686.3418     10.3780     81.0201
   451.7500      0.0000    768.7407     10.3719     76.4476
   452.0000      0.0000    895.4197     10.4112     70.3754
   452.2500      0.0000    975.6629     10.4506     67.5565
   452.5000      0.0000   1064.9458     10.5017     64.7734
   452.7500      0.0000   1087.6365     10.5325     63.2289
   453.0000      0.0000   1059.0598     10.5993     60.8652
   453.2500      0.0000   1010.4498     10.6741     59.3631
   453.5000      0.0000    926.7884     10.8517     57.2982
   453.7500      0.0000    877.8389     11.0194     55.9089
   454.0000      0.0000    818.1932     11.3355     53.7772
   454.2500      0.0000    782.1475     11.5687     52.5132
   454.5000      0.0000    725.9103     11.9048     51.1151
   454.7500      0.0000    687.0856     12.1029     50.5135
   455.0000      0.0000    632.2422     12.3771     50.0549
   455.2500      0.0000    601.6411     12.5749     50.0414
   455.5000      0.0000    570.0390     12.9302     50.2698
   455.7500      0.0000    560.0535     13.1947     50.3266
   456.0000      0.0000    558.1284     13.5786     50.0143
   456.2500      0.0000    559.3891     13.8049     49.7677
   456.5000      0.0000    554.1297     14.0966     50.0971
   456.7500      0.0000    543.8544     14.2591     51.0634
   457.0000      0.0000    522.9109     14.4492     53.4943
   457.2500      0.0000    508.6722     14.5495     55.2952
   457.5000      0.0000    488.9033     14.7072     56.8444
   457.7500      0.0000    476.7205     14.8403     56.3538
   458.0000      0.0000    461.1752     15.0814     53.4119
   458.2500      0.0000    454.2094     15.2561     50.9460
   458.5000      0.0000    451.0357     15.5363     48.4003
   458.7500      0.0000    453.7188     15.7532     47.9219
   459.0000      0.0000    461.0446     16.1627     48.2522
   459.2500      0.0000    463.8794     16.5031     48.2913
   459.5000      0.0000    457.9247     17.1089     47.2369
   459.7500      0.0000    445.5579     17.5641     46.0509
   460.0000      0.0000    418.3264     18.2901     44.7196
   460.2500      0.0000    399.7165     18.7728     44.6952
   460.5000      0.0000    380.2095     19.4338     46.0588
   460.7500      0.0000    374.9328     19.8064     47.2803
   461.0000      0.0000    376.2204     20.2382     47.6809
   461.2500      0.0000    381.2321     20.4246     46.1703
   461.5000      0.0000    394.4685     20.5054     41.8319
   461.7500      0.0000    407.0325     20.4043     38.9999
   462.0000      0.0000    427.6037     20.0267     37.4014
   462.2500      0.0000    438.7488     19.6617     38.6916
   462.5000      0.0000    447.9944     19.0463     43.2576
   462.7500      0.0000    450.1397     18.6454     46.9528
   463.0000      0.0000    452.4016     18.0956     51.9364
   463.2500      0.0000    455.9476     17.7535     54.4844
   463.5000      0.0000    465.1947     17.2567     56.8446
   463.7500      0.0000    472.2898     16.9378     57.2661
   464.0000      0.0000    480.9207     16.4707     56.1628
   464.2500      0.0000    484.7979     16.1369     54.6325
   464.5000      0.0000    489.8445     15.5272     52.0909
   464.7500      0.0000    494.8134     15.0153     50.6300
   465.0000      0.0000    508.6282     14.0741     48.8741
   465.2500      0.0000    523.9329     13.3466     47.8465
   465.5000      0.0000    555.7498     12.1815     46.6151
   465.7500      0.0000    579.4443     11.4280     46.4725
   466.0000      0.0000    609.7356     10.4549     48.1169
   466.2500      0.0000    622.9305      9.9518     50.3272
   466.5000      0.0000    633.0670      9.4394     53.9153
   466.7500      0.0000    636.7208      9.2656     55.6575
   467.0000      0.0000    643.3320      9.2429     57.1551
   467.2500      0.0000    649.9059      9.3401     58.1338
   467.5000      0.0000    661.3112      9.5221     60.8413
   467.7500      0.0000    668.1407      9.6046     63.3925
   468.0000      0.0000    676.4108      9.6540     66.7647
   468.2500      0.0000    681.5206      9.6735     67.7337
   468.5000      0.0000    689.5851      9.7550     66.7101
   468.7500      0.0000    694.6716      9.8624     64.7708
   469.0000      0.0000    700.5023     10.0771     61.4147
   469.2500      0.0000    703.2398     10.2150     59.7779
