~Version Information
VERS.                      2.0: CWLS Log ASCII Standard - VERSION 2.0
WRAP.                       NO: One line per depth step
~Well Information Block
STRT.FT               400.0000: 
STOP.FT              1804.7000: 
STEP.FT                 0.1000: 
NULL.                -999.2500: 
COMP.          Pioneer Natural Resources: COMPANY
WELL.           Lynch 43-30 Tr: WELL
FLD.           Purgatoire River: FIELD
LOC.           1431' FSL & 296' FEL--: LOCATION
PROV.                 Colorado: PROVINCE
CNTY.               Las Animas: COUNTRY
SRVC.                Patterson: SERVICE COMPANY
DATE.          Thu Jul 28 10:43:37 2005: LOG DATE
UWI.           05 071 08447 00: UNIQUE WELL ID
~Curve Information Block
DEPT.FT            0 000 00 00: Depth
DCAL.in                       : CDL Caliper
RHOB.g/cc                     : CDL Bulk Density
RHOC.g/cc                     : CDL Density Correction
DPOR.pu                       : CDL Density Porosity
NPOR.pu                       : Neutron Porosity
GR.GAPI                       : Gamma Ray
~Parameter Information Block
~A  Depth       DCAL        RHOB        RHOC        DPOR        NPOR         GR     
# ...
   764.8000      8.0812      2.6158      0.0624      2.0712     25.8269     97.1085
   764.9000      8.0812      2.6140      0.0755      2.1808     25.7808    100.8564
   765.0000      8.0822      2.6070      0.0559      2.6066     26.2459     97.8525
   765.1000      8.0822      2.6061      0.0494      2.6607     27.0245     92.5184
   765.2000      8.0822      2.6216      0.0581      1.7232     27.4819     88.9563
   765.3000      8.0910      2.6456      0.0649      0.2656     27.3651     83.9770
   765.4000      8.0910      2.6621      0.0729     -0.7358     26.9049     81.1674
   765.5000      8.1082      2.6616      0.0623     -0.7060     26.4379     86.1941
   765.6000      8.1082      2.6486      0.0532      0.0836     26.0381     93.0774
   765.7000      8.1082      2.6353      0.0316      0.8923     25.5798     95.4110
   765.8000      8.1239      2.6237      0.0446      1.5940     25.0065     95.8477
   765.9000      8.1239      2.6063      0.0292      2.6459     24.3700     99.5574
   766.0000      8.1315      2.5925     -0.0007      3.4862     23.8477    103.0053
   766.1000      8.1315      2.5938      0.0226      3.4061     23.6143     99.7006
   766.2000      8.1315      2.5960      0.0273      3.2702     23.5984     93.2729
   766.3000      8.1329      2.5873      0.0112      3.8004     23.5173     90.9187
   766.4000      8.1329      2.5749      0.0090      4.5539     23.1291     90.7518
   766.5000      8.1316      2.5606      0.0223      5.4207     22.4500     87.6544
   766.6000      8.1316      2.5443     -0.0024      6.4082     21.7564     84.0222
   766.7000      8.1316      2.5389      0.0033      6.7330     21.3766     86.8996
   766.8000      8.1309      2.5482      0.0136      6.1699     21.1148     95.5601
   766.9000      8.1309      2.5549      0.0332      5.7635     20.7171     99.3950
   767.0000      8.1320      2.5480      0.0217      6.1844     20.4843     94.8217
   767.1000      8.1320      2.5422      0.0044      6.5333     20.5743     90.9694
   767.2000      8.1320      2.5481      0.0376      6.1744     20.5846     92.9218
   767.3000      8.1348      2.5528      0.0325      5.8888     20.0547     94.0741
   767.4000      8.1348      2.5505      0.0274      6.0310     19.1994     88.8451
   767.5000      8.1372      2.5485      0.0365      6.1545     18.6993     82.2496
   767.6000      8.1372      2.5520      0.0257      5.9417     18.7952     79.5742
   767.7000      8.1372      2.5567      0.0475      5.6567     18.9749     77.9063
   767.8000      8.1370      2.5480      0.0461      6.1835     18.7468     76.7079
   767.9000      8.1370      2.5246      0.0248      7.6023     18.2739     78.2916
   768.0000      8.1349      2.5049      0.0177      8.7912     17.9713     79.0274
   768.1000      8.1349      2.5007      0.0201      9.0488     18.1803     76.2293
   768.2000      8.1349      2.5049      0.0306      8.7919     18.8804     74.2294
   768.3000      8.1335      2.5084      0.0267      8.5830     19.1876     75.1606
   768.4000      8.1335      2.5105      0.0244      8.4546     18.5044     75.7617
   768.5000      8.1338      2.5082      0.0417      8.5960     17.5268     74.4832
   768.6000      8.1338      2.4986      0.0225      9.1764     17.0385     73.4770
   768.7000      8.1338      2.4947      0.0191      9.4119     16.9974     73.9991
   768.8000      8.1345      2.5075      0.0303      8.6360     17.0033     75.5013
   768.9000      8.1345      2.5287      0.0466      7.3545     16.8958     78.1688
   769.0000      8.1338      2.5455      0.0471      6.3309     16.9426     81.0033
   769.1000      8.1338      2.5561      0.0540      5.6939     17.3541     81.9253
   769.2000      8.1338      2.5627      0.0493      5.2919     18.0096     80.5138
   769.3000      8.1331      2.5619      0.0649      5.3383     18.5267     77.6525
   769.4000      8.1331      2.5499      0.0470      6.0666     18.5507     76.3717
   769.5000      8.1325      2.5359      0.0368      6.9126     18.2701     78.8736
   769.6000      8.1325      2.5276      0.0416      7.4207     18.1005     82.0142
   769.7000      8.1325      2.5166      0.0433      8.0852     17.9848     81.8288
   769.8000      8.1312      2.4978      0.0245      9.2254     17.7491     78.3707
   769.9000      8.1312      2.4790      0.0209     10.3659     17.3542     75.4339
   770.0000      8.1305      2.4687      0.0163     10.9882     16.7847     75.0659
   770.1000      8.1305      2.4733      0.0119     10.7075     16.1087     74.8281
   770.2000      8.1305      2.4939      0.0232      9.4625     15.5118     74.4393
   770.3000      8.1318      2.5139      0.0471      8.2477     14.9739     73.5329
   770.4000      8.1318      2.5120      0.0411      8.3632     14.3741     70.7106
   770.5000      8.1318      2.4904      0.0272      9.6733     13.8023     68.9320
   770.6000      8.1318      2.4734      0.0090     10.7018     13.4325     68.4327
   770.7000      8.1318      2.4768      0.0252     10.4979     13.2476     66.7525
   770.8000      8.1312      2.4914      0.0337      9.6131     13.1588     65.1684
   770.9000      8.1312      2.5024      0.0406      8.9444     13.1558     64.0026
   771.0000      8.1320      2.5071      0.0359      8.6587     13.0416     61.6073
   771.1000      8.1320      2.5081      0.0455      8.5998     12.7496     57.3693
   771.2000      8.1320      2.5036      0.0433      8.8698     12.5159     50.9838
   771.3000      8.1319      2.4928      0.0409      9.5261     12.4314     45.3027
   771.4000      8.1319      2.4802      0.0371     10.2917     12.5286     43.5430
   771.5000      8.1321      2.4746      0.0299     10.6307     12.7369     44.8942
   771.6000      8.1321      2.4812      0.0374     10.2286     12.8591     47.3848
   771.7000      8.1321      2.4938      0.0529      9.4661     12.9472     48.1679
   771.8000      8.1330      2.5074      0.0421      8.6445     13.1659     47.2393
   771.9000      8.1330      2.5237      0.0554      7.6566     13.3297     48.4331
   772.0000      8.1324      2.5321      0.0742      7.1445     13.2553     51.5268
   772.1000      8.1324      2.5204      0.0577      7.8553     13.2200     54.5410
   772.2000      8.1324      2.4988      0.0423      9.1651     13.4600     58.4466
   772.3000      8.1312      2.4827      0.0464     10.1370     13.5348     63.1277
   772.4000      8.1312      2.4739      0.0418     10.6749     13.1154     65.7092
   772.5000      8.1303      2.4704      0.0398     10.8875     12.5458     64.3842
   772.6000      8.1303      2.4726      0.0432     10.7510     12.1220     61.4756
   772.7000      8.1303      2.4803      0.0467     10.2853     12.0400     58.7687
   772.8000      8.1290      2.4941      0.0447      9.4466     12.3574     55.3043
   772.9000      8.1290      2.5111      0.0647      8.4165     12.6469     53.3292
   773.0000      8.1286      2.5226      0.0602      7.7186     12.7237     56.5654
   773.1000      8.1286      2.5243      0.0668      7.6154     12.7114     61.6077
   773.2000      8.1286      2.5189      0.0586      7.9464     12.5410     63.0615
   773.3000      8.1308      2.5132      0.0544      8.2913     12.1731     62.5711
   773.4000      8.1308      2.5090      0.0584      8.5472     11.7591     61.3715
   773.5000      8.1308      2.4988      0.0627      9.1634     11.5826     57.6470
   773.6000      8.1308      2.4844      0.0398     10.0363     11.8558     54.0380
   773.7000      8.1308      2.4799      0.0396     10.3094     12.4596     54.3586
   773.8000      8.1288      2.4842      0.0593     10.0464     12.8892     57.8097
   773.9000      8.1288      2.4832      0.0493     10.1067     12.8289     60.9500
   774.0000      8.1262      2.4783      0.0451     10.4082     12.4742     60.3390
   774.1000      8.1262      2.4804      0.0396     10.2760     12.2326     56.4178
   774.2000      8.1262      2.4850      0.0655     10.0014     12.2295     54.2231
   774.3000      8.1254      2.4780      0.0503     10.4226     12.3656     55.8737
