~Version Information
VERS.                      2.0: CWLS Log ASCII Standard - VERSION 2.0
WRAP.                       NO: One line per depth step
~Well Information Block
STRT.FT                -8.5000: 
STOP.FT              1263.2500: 
STEP.FT                 0.2500: 
NULL.                -999.2500: 
COMP.          Pioneer Natural Resources: COMPANY
WELL.          Rockfish 11-30 Tr: WELL
FLD.           Purgatoire River: FIELD
LOC.           1063' FNL & 1068' FWL--: LOCATION
STAT.                       CO: State
CNTY.               Las Animas: COUNTY
CTRY. USA : country
SECT. 30 : Section
TOWN. 32S : Township
RANG. 65W : Range
SRVC.          Patterson Wireline: SERVICE COMPANY
DATE.          Tue Nov 22 16:08:49 2005: LOG DATE
API.           05 071 08585 00: UNIQUE WELL ID
~Curve Information Block
DEPT.FT            0 000 00 00: Depth
HVOLTA.V                      : Head Voltage Apparent
CCL.                          : Casing Collar Locator
TT3.usec                      : CBL 3' Travel Time
AMP3.mV                       : CBL 3' Amplitude
GR.GAPI                       : Gamma Ray
~Parameter Information Block
PPT.usec                0.0000: Predicted Pipe Time
~A  Depth      HVOLTA       CCL         TT3         AMP3         GR     
# ...
   719.5000     95.0153      0.0000    387.8966     23.8864    132.2066
   719.7500     96.4805      0.0000    353.5160     25.1159    137.4255
   720.0000     96.3670      0.0000    336.0542     26.0641    139.2042
   720.2500     96.3460      0.0000    328.2986     26.8052    137.9687
   720.5000     96.2295      0.0000    325.2087     27.4297    135.1682
   720.7500     96.3418      0.0000    324.1343     27.8573    132.3708
   721.0000     96.3404      0.0000    323.8666     27.9626    130.1078
   721.2500     96.3474      0.0000    323.8859     27.7617    127.8872
   721.5000     96.3404      0.0000    323.9713     27.4047    125.2852
   721.7500     96.3628      0.0000    324.0471     27.0469    122.7744
   722.0000     96.3193      0.0000    324.0945     26.7693    121.5798
   722.2500     96.3684      0.0000    324.1161     26.5833    122.7963
   722.5000     96.3993      0.0000    324.1131     26.4649    126.5237
   722.7500     96.2604      0.0000    324.0826     26.3801    131.8881
   723.0000     96.2870      0.0000    324.0293     26.2987    137.6520
   723.2500     96.3137      0.0000    323.9713     26.2129    142.2979
   723.5000     96.2801      0.0000    323.9272     26.1456    143.8535
   723.7500     96.3376      0.0000    323.9009     26.1299    140.7778
   724.0000     96.2842      0.0000    323.8811     26.1777    133.4124
   724.2500     96.3039      0.0000    323.8522     26.2738    124.1348
   724.5000     96.3670      0.0000    323.8054     26.3973    115.9536
   724.7500     96.2801      0.0000    323.7412     26.5419    110.9339
   725.0000     96.3348      0.0000    323.6647     26.7144    109.3720
   725.2500     96.2884      0.0000    323.5780     26.9196    109.7776
   725.5000     96.3474      0.0000    323.4779     27.1552    109.6119
   725.7500     96.3039      0.0000    323.3632     27.4234    106.4425
   726.0000     96.2815      0.0000    323.2409     27.7519     98.9669
   726.2500     96.2506      0.0000    323.1225     28.2005     87.5976
   726.5000     96.3095      0.0000    323.0167     28.8313     74.3884
   726.7500     96.3053      0.0000    322.9257     29.6546     62.1418
   727.0000     96.3067      0.0000    322.8462     30.5996     53.0744
   727.2500     96.2689      0.0000    322.7732     31.5550     48.0341
   727.5000     96.2281      0.0000    322.7024     32.4469     46.9619
   727.7500     96.2829      0.0000    322.6320     33.2771     49.9678
   728.0000     96.2323      0.0000    322.5620     34.0874     57.4732
   728.2500     96.3123      0.0000    322.4909     34.9025     69.1133
   728.5000     96.2281      0.0000    322.4126     35.7062     82.8895
   728.7500     96.3432      0.0000    322.3174     36.4535     95.9374
   729.0000     96.1973      0.0000    322.1989     37.0894    106.1898
   729.2500     96.1987      0.0000    322.0657     37.5625    113.1708
   729.5000     96.3460      0.0000    321.9436     37.8446    117.3692
   729.7500     96.2688      0.0000    321.8652     37.9491    119.2591
   730.0000     96.3249      0.0000    321.8491     37.9245    119.0325
   730.2500     96.1692      0.0000    321.8893     37.8145    116.7782
   730.5000     96.3852      0.0000    321.9627     37.6272    112.5143
   730.7500     96.3221      0.0000    322.0462     37.3471    106.3460
   731.0000     96.2773      0.0000    322.1283     36.9697     98.7594
   731.2500     96.2898      0.0000    322.2073     36.5122     90.4033
   731.5000     96.4063      0.0000    322.2799     35.9935     81.7112
   731.7500     96.3137      0.0000    322.3357     35.4170     73.2266
   732.0000     96.1467      0.0000    322.3647     34.7789     66.0653
   732.2500     96.1987      0.0000    322.3716     34.1001     61.4605
   732.5000     96.2940      0.0000    322.3749     33.4514     59.9648
   732.7500     96.2618      0.0000    322.3890     32.9309     61.4710
   733.0000     96.2801      0.0000    322.4111     32.5942     65.8700
   733.2500     96.3151      0.0000    322.4299     32.3983     73.3424
   733.5000     96.3460      0.0000    322.4435     32.2220     83.9182
   733.7500     96.2323      0.0000    322.4668     31.9559     96.6424
   734.0000     96.3193      0.0000    322.5190     31.5786    109.2411
   734.2500     96.2997      0.0000    322.6050     31.1581    119.1250
   734.5000     96.2787      0.0000    322.7076     30.7868    125.1262
   734.7500     96.2842      0.0000    322.7963     30.5136    128.0803
   735.0000     96.3460      0.0000    322.8449     30.3299    129.5319
   735.2500     96.2520      0.0000    322.8454     30.2176    130.0958
   735.5000     96.2562      0.0000    322.8063     30.2054    129.2661
   735.7500     96.2548      0.0000    322.7401     30.3684    126.4386
   736.0000     96.1959      0.0000    322.6574     30.7692    121.6283
   736.2500     96.3151      0.0000    322.5707     31.4036    115.3217
   736.5000     96.1931      0.0000    322.4973     32.2086    108.1751
   736.7500     96.1384      0.0000    322.4514     33.1188    101.0447
   737.0000     96.1987      0.0000    322.4332     34.1033     95.0535
   737.2500     96.3221      0.0000    322.4291     35.1417     91.2129
   737.5000     96.3432      0.0000    322.4216     36.1752     89.8334
   737.7500     96.2534      0.0000    322.4015     37.1033     90.4209
   738.0000     96.2801      0.0000    322.3727     37.8381     92.2041
   738.2500     96.3460      0.0000    322.3442     38.3577     94.5779
   738.5000     96.3726      0.0000    322.3199     38.7057     97.1622
   738.7500     96.4540      0.0000    322.2960     38.9361     99.7888
   739.0000     96.4596      0.0000    322.2716     39.0542    102.4156
   739.2500     96.3979      0.0000    322.2578     39.0002    105.0132
   739.5000     96.2842      0.0000    322.2725     38.6942    107.7072
   739.7500     96.4049      0.0000    322.3279     38.1024    110.7733
   740.0000     96.3390      0.0000    322.4263     37.2645    114.0638
   740.2500     96.4246      0.0000    322.5638     36.2729    116.7162
   740.5000     96.4091      0.0000    322.7264     35.2466    117.6523
   740.7500     96.3670      0.0000    322.8820     34.3233    115.9417
   741.0000     96.2787      0.0000    322.9877     33.6388    110.9100
   741.2500     96.2898      0.0000    323.0152     33.2750    102.9670
   741.5000     96.3123      0.0000    322.9691     33.2191     94.5498
   741.7500     96.3712      0.0000    322.8804     33.3833     89.3365
   742.0000     96.3095      0.0000    322.7849     33.6645     90.0423
   742.2500     96.3684      0.0000    322.7092     33.9795     96.9067
   742.5000     96.3109      0.0000    322.6717     34.2580    107.7495
   742.7500     96.3390      0.0000    322.6888     34.4264    118.9108
   743.0000     96.3404      0.0000    322.7726     34.4086    126.6327
   743.2500     96.2520      0.0000    322.9172     34.1484    128.7838
   743.5000     96.1903      0.0000    323.0909     33.6407    125.9241
   743.7500     96.4582      0.0000    323.2478     32.9554    120.6119
   744.0000     96.2506      0.0000    323.3565     32.2282    115.4341
   744.2500     96.2169      0.0000    323.4190     31.6073    111.3188
   744.5000     96.4274      0.0000    323.4601     31.1812    107.4111
   744.7500     96.3600      0.0000    323.5017     30.9402    102.5409
   745.0000     96.3306      0.0000    323.5483     30.8022     96.6080
   745.2500     96.3165      0.0000    323.5912     30.6872     90.3259
   745.5000     96.3376      0.0000    323.6187     30.5819     84.2660
   745.7500     96.3754      0.0000    323.6218     30.5405     79.0729
   746.0000     96.2183      0.0000    323.5985     30.6243     76.2603
   746.2500     96.2759      0.0000    323.5566     30.8385     77.6107
   746.5000     96.4049      0.0000    323.5164     31.1204     83.4632
   746.7500     96.3151      0.0000    323.5079     31.3775     91.9055
   747.0000     96.3965      0.0000    323.5623     31.5330     99.6917
   747.2500     96.2856      0.0000    323.6985     31.5429    104.1300
