~Version Information
VERS.                      2.0: CWLS Log ASCII Standard - VERSION 2.0
WRAP.                       NO: One line per depth step
~Well Information Block
STRT.FT                -7.2500: 
STOP.FT              1221.7500: 
STEP.FT                 0.2500: 
NULL.                -999.2500: 
COMP.          Pioneer Natural Resources: COMPANY
WELL.           Tennis 7-12 Tr: WELL
FLD.           Purgatorie River: FIELD
LOC.           1794' FNL & 1563' FEL--: LOCATION
PROV.                       CO: PROVINCE
CNTY.               Las Animas: COUNTRY
SRVC.          Patterson Wireline: SERVICE COMPANY
DATE.          Tue Dec 27 14:16:59 2005: LOG DATE
UWI.           05 071 008635 00: UNIQUE WELL ID
~Curve Information Block
DEPT.FT            0 000 00 00: Depth
CCL.                          : Casing Collar Locator
TT3.usec                      : CBL 3' Travel Time
AMP3.mV                       : CBL 3' Amplitude
GR.GAPI                       : Gamma Ray
~Parameter Information Block
~A  Depth       CCL         TT3         AMP3         GR     
# ...
   394.7500      0.0000    635.2012     13.0994    138.8170
   395.0000      0.0000    707.9103     12.2775    141.6387
   395.2500      0.0000    758.3187     11.4320    141.7911
   395.5000      0.0000    786.3493     10.5909    139.7358
   395.7500      0.0000    799.2713      9.7936    137.5497
   396.0000      0.0000    804.3204      9.0801    137.1118
   396.2500      0.0000    805.6969      8.4724    138.6492
   396.5000      0.0000    805.1332      7.9743    140.8223
   396.7500      0.0000    803.1867      7.5844    141.9602
   397.0000      0.0000    800.2886      7.3039    141.2190
   397.2500      0.0000    797.4518      7.1315    138.8800
   397.5000      0.0000    796.0121      7.0575    135.7784
   397.7500      0.0000    796.4717      7.0641    132.5222
   398.0000      0.0000    797.7065      7.1296    129.3565
   398.2500      0.0000    797.8508      7.2304    126.6290
   398.5000      0.0000    796.3663      7.3388    124.9541
   398.7500      0.0000    795.7863      7.4245    124.6659
   399.0000      0.0000    801.1426      7.4692    125.3687
   399.2500      0.0000    815.8896      7.4825    126.3118
   399.5000      0.0000    837.3427      7.4988    127.0440
   399.7500      0.0000    858.1663      7.5495    127.6866
   400.0000      0.0000    873.5094      7.6345    128.9500
   400.2500      0.0000    883.4635      7.7194    131.6539
   400.5000      0.0000    887.4132      7.7658    135.6979
   400.7500      0.0000    881.7325      7.7621    139.8026
   401.0000      0.0000    866.2745      7.7201    142.7165
   401.2500      0.0000    847.5623      7.6441    144.2793
   401.5000      0.0000    831.7060      7.5167    144.9816
   401.7500      0.0000    818.1147      7.3222    145.1683
   402.0000      0.0000    802.9687      7.0755    145.0793
   402.2500      0.0000    785.8661      6.8202    145.0271
   402.5000      0.0000    770.8881      6.5978    145.0096
   402.7500      0.0000    762.5294      6.4251    144.5578
   403.0000      0.0000    760.8424      6.2950    143.3371
   403.2500      0.0000    759.8729      6.1921    141.6817
   403.5000      0.0000    752.2565      6.1052    140.4336
   403.7500      0.0000    736.6410      6.0289    140.2751
   404.0000      0.0000    719.2826      5.9586    140.9275
   404.2500      0.0000    708.1823      5.8902    141.0618
   404.5000      0.0000    707.2964      5.8248    139.4803
   404.7500      0.0000    716.0089      5.7707    136.2045
   405.0000      0.0000    731.4564      5.7367    131.9768
   405.2500      0.0000    750.0638      5.7232    127.1595
   405.5000      0.0000    768.1718      5.7227    121.8270
   405.7500      0.0000    783.2048      5.7275    116.6899
   406.0000      0.0000    795.3323      5.7368    113.1858
   406.2500      0.0000    807.2567      5.7540    112.4890
   406.5000      0.0000    820.7139      5.7776    114.6397
   406.7500      0.0000    833.2972      5.7968    118.6816
   407.0000      0.0000    840.3536      5.7965    123.5443
   407.2500      0.0000    839.6641      5.7676    128.7991
   407.5000      0.0000    832.8683      5.7124    134.4828
   407.7500      0.0000    823.4440      5.6448    140.1659
   408.0000      0.0000    815.2524      5.5839    144.6128
   408.2500      0.0000    811.8533      5.5453    146.7014
   408.5000      0.0000    814.4980      5.5336    146.4477
   408.7500      0.0000    820.7535      5.5427    144.7702
   409.0000      0.0000    826.3506      5.5613    142.3558
   409.2500      0.0000    828.2249      5.5791    139.0546
   409.5000      0.0000    825.7381      5.5886    134.4440
   409.7500      0.0000    820.2841      5.5844    128.7413
   410.0000      0.0000    814.2314      5.5621    122.9928
   410.2500      0.0000    809.5518      5.5210    118.4887
   410.5000      0.0000    806.9401      5.4681    115.8756
   410.7500      0.0000    806.1403      5.4168    114.4254
   411.0000      0.0000    807.0334      5.3787    112.4229
   411.2500      0.0000    810.5765      5.3575    109.0370
   411.5000      0.0000    818.9294      5.3506    105.7425
   411.7500      0.0000    834.0657      5.3556    105.3708
   412.0000      0.0000    855.2729      5.3725    109.8339
   412.2500      0.0000    878.1911      5.3990    118.7344
   412.5000      0.0000    897.6030      5.4294    129.5317
   412.7500      0.0000    911.4816      5.4597    138.7794
   413.0000      0.0000    921.2472      5.4929    144.0119
   413.2500      0.0000    928.1066      5.5371    145.1967
   413.5000      0.0000    930.5914      5.5973    144.2094
   413.7500      0.0000    926.3449      5.6687    142.6091
   414.0000      0.0000    915.7367      5.7373    140.2691
   414.2500      0.0000    902.7146      5.7889    136.6527
   414.5000      0.0000    891.1677      5.8195    132.9116
   414.7500      0.0000    880.5350      5.8335    131.5051
   415.0000      0.0000    866.5026      5.8369    133.4038
   415.2500      0.0000    846.3847      5.8334    136.6627
   415.5000      0.0000    822.2487      5.8291    138.4004
   415.7500      0.0000    798.7058      5.8355    137.5788
   416.0000      0.0000    778.9208      5.8648    135.3414
   416.2500      0.0000    762.6635      5.9151    133.1904
   416.5000      0.0000    747.5428      5.9539    131.3912
   416.7500      0.0000    731.9991      5.9290    128.9465
   417.0000      0.0000    717.2993      5.8205    124.9690
   417.2500      0.0000    707.1204      5.6794    120.0920
   417.5000      0.0000    705.0806      5.5835    116.2407
   417.7500      0.0000    711.7450      5.5579    114.7258
   418.0000      0.0000    723.5475      5.5711    114.7653
   418.2500      0.0000    735.0530      5.5948    114.2519
   418.5000      0.0000    743.0931      5.6288    111.7961
   418.7500      0.0000    749.4594      5.6770    107.7489
   419.0000      0.0000    759.2065      5.7366    103.6541
   419.2500      2.0000    774.9398      5.8103    101.2964
   419.5000      0.0000    792.4272      5.9156    101.8894
   419.7500      0.0000    803.5433      6.0821    105.2237
   420.0000      0.0000    804.4768      6.3220    109.4326
   420.2500      0.0000    799.3715      6.5745    112.3249
   420.5000      0.0000    794.9128      6.6996    113.4653
   420.7500      0.0000    793.3743      6.5837    114.7924
   421.0000      0.0000    792.5187      6.2562    119.0820
   421.2500      0.0000    790.8560      5.8670    127.6401
   421.5000      0.0000    791.2596      5.5583    138.8246
   421.7500      0.0000    799.1512      5.3824    148.3827
   422.0000      0.0000    817.2684      5.3162    151.8740
   422.2500      0.0000    841.8073      5.3098    147.6807
   422.5000      0.0000    863.5326      5.3193    137.9515
   422.7500      0.0000    873.6318      5.3236    126.8120
   423.0000      0.0000    869.5985      5.3252    117.9806
   423.2500      0.0000    855.9048      5.3332    113.6820
   423.5000      0.0000    839.0666      5.3452    114.5745
   423.7500      0.0000    822.2741      5.3453    119.7113
   424.0000      0.0000    804.4412      5.3219    126.7832
   424.2500      0.0000    783.7606      5.2842    133.2520
   424.5000      0.0000    762.0194      5.2583    137.7191
   424.7500      0.0000    745.3694      5.2658    140.1588
   425.0000      0.0000    740.3900      5.3048    141.0450
   425.2500      0.0000    748.7067      5.3503    140.9128
   425.5000      0.0000    764.9793      5.3733    141.0303
   425.7500      0.0000    779.9117      5.3659    143.6011
   426.0000      0.0000    785.4481      5.3470    150.1850
   426.2500      0.0000    778.2166      5.3434    159.8660
   426.5000      0.0000    760.1696      5.3648    169.6145
   426.7500      0.0000    737.2040      5.4003    176.6788
   427.0000      0.0000    716.1111      5.4332    180.3918
   427.2500      0.0000    701.1171      5.4554    181.7246
   427.5000      0.0000    692.5600      5.4680    181.7311
   427.7500      0.0000    688.4195      5.4718    180.9135
   428.0000      0.0000    686.6727      5.4626    179.9889
