~Version Information
VERS.                      2.0: CWLS Log ASCII Standard - VERSION 2.0
WRAP.                       NO: One line per depth step
~Well Information Block
STRT.FT               240.0000: 
STOP.FT              1159.2500: 
STEP.FT                 0.2500: 
NULL.                -999.2500: 
COMP.          Pioneer Natural Resources: COMPANY
WELL.               Ryan 41-17: WELL
FLD.           Purgatoire River: FIELD
LOC.           822' FNL & 532' FEL--: LOCATION
CNTY.               Las Animas: COUNTY
SRVC.                Patterson: SERVICE COMPANY
DATE.          Thu Mar 16 16:50:09 2006: LOG DATE
UWI.           05 071 08719 00: UNIQUE WELL ID
STAT.                 Colorado: STATE
~Curve Information Block
DEPT.FT            0 000 00 00: Depth
SN.Ohm-m                      : IEL Short Normal
SP.mV                         : IEL Spontaneous Potential
DIR.Ohm-m                     : IEL Induction Resistivity
GR.GAPI                       : Gamma Ray
~Parameter Information Block
~A  Depth        SN          SP         DIR          GR     
# ...
   340.5000   2000.0000   2000.0000      8.2092    116.7392
   340.7500   2000.0000   2000.0000      8.0445    117.5419
   341.0000   2000.0000   2000.0000      7.9097    118.3771
   341.2500   2000.0000   2000.0000      7.8070    118.6851
   341.5000   2000.0000   2000.0000      7.7339    119.0855
   341.7500   2000.0000   2000.0000      7.6827    119.3871
   342.0000   2000.0000   2000.0000      7.6430    119.5956
   342.2500   2000.0000   2000.0000      7.6057    119.3201
   342.5000   2000.0000   2000.0000      7.5678    118.2494
   342.7500   2000.0000   2000.0000      7.5341    117.4324
   343.0000   2000.0000   2000.0000      7.5158    116.7248
   343.2500   2000.0000   2000.0000      7.5259    116.5980
   343.5000   2000.0000   2000.0000      7.5751    116.3040
   343.7500   2000.0000   2000.0000      7.6677    115.9379
   344.0000   2000.0000   2000.0000      7.7994    115.9066
   344.2500   2000.0000   2000.0000      7.9566    116.6435
   344.5000   2000.0000   2000.0000      8.1172    118.2916
   344.7500   2000.0000   2000.0000      8.2541    118.8823
   345.0000   2000.0000   2000.0000      8.3431    118.2636
   345.2500   2000.0000   2000.0000      8.3703    117.3292
   345.5000   2000.0000   2000.0000      8.3365    116.6406
   345.7500   2000.0000   2000.0000      8.2533    117.0780
   346.0000   2000.0000   2000.0000      8.1349    118.4588
   346.2500   2000.0000   2000.0000      7.9910    119.1941
   346.5000   2000.0000   2000.0000      7.8257    119.7378
   346.7500   2000.0000   2000.0000      7.6402    120.2893
   347.0000   2000.0000   2000.0000      7.4377    122.4279
   347.2500   2000.0000   2000.0000      7.2261    124.5834
   347.5000   2000.0000   2000.0000      7.0173    127.5334
   347.7500   2000.0000   2000.0000      6.8239    128.6555
   348.0000   2000.0000   2000.0000      6.6560    129.1061
   348.2500   2000.0000   2000.0000      6.5204    129.0423
   348.5000   2000.0000   2000.0000      6.4212    129.1119
   348.7500   2000.0000   2000.0000      6.3610    129.4779
   349.0000   2000.0000   2000.0000      6.3418    130.5034
   349.2500   2000.0000   2000.0000      6.3648    131.2629
   349.5000   2000.0000   2000.0000      6.4285    131.8169
   349.7500   2000.0000   2000.0000      6.5292    131.4715
   350.0000   2000.0000   2000.0000      6.6608    129.8566
   350.2500   2000.0000   2000.0000      6.8164    128.2701
   350.5000   2000.0000   2000.0000      6.9892    125.4711
   350.7500   2000.0000   2000.0000      7.1728    123.4013
   351.0000   2000.0000   2000.0000      7.3611    120.1344
   351.2500   2000.0000   2000.0000      7.5495    118.0700
   351.5000   2000.0000   2000.0000      7.7363    115.6833
   351.7500   2000.0000   2000.0000      7.9263    114.8677
   352.0000   2000.0000   2000.0000      8.1325    115.2950
   352.2500   2000.0000   2000.0000      8.3763    116.9937
   352.5000   2000.0000   2000.0000      8.6824    122.2854
   352.7500   2000.0000   2000.0000      9.0728    127.9082
   353.0000   2000.0000   2000.0000      9.5601    138.8119
   353.2500   2000.0000   2000.0000     10.1441    146.0913
   353.5000   2000.0000   2000.0000     10.8118    152.6666
   353.7500   2000.0000   2000.0000     11.5408    152.1178
   354.0000   2000.0000   2000.0000     12.3011    143.5798
   354.2500   2000.0000   2000.0000     13.0549    134.3072
   354.5000   2000.0000   2000.0000     13.7531    118.8331
   354.7500   2000.0000   2000.0000     14.3369    109.5640
   355.0000   2000.0000   2000.0000     14.7470    100.0229
   355.2500   2000.0000   2000.0000     14.9389     97.5326
   355.5000   2000.0000   2000.0000     14.8989     99.7081
   355.7500   2000.0000   2000.0000     14.6510    104.2771
   356.0000   2000.0000   2000.0000     14.2518    113.5601
   356.2500   2000.0000   2000.0000     13.7761    120.0623
   356.5000   2000.0000   2000.0000     13.3008    128.5601
   356.7500   2000.0000   2000.0000     12.8934    132.6429
   357.0000   2000.0000   2000.0000     12.6062    135.4564
   357.2500   2000.0000   2000.0000     12.4767    134.8708
   357.5000   2000.0000   2000.0000     12.5313    130.3973
   357.7500   2000.0000   2000.0000     12.7889    125.1856
   358.0000   2000.0000   2000.0000     13.2645    114.3172
   358.2500   2000.0000   2000.0000     13.9701    105.5292
   358.5000   2000.0000   2000.0000     14.9124     91.9976
   358.7500   2000.0000   2000.0000     16.0879     84.2354
   359.0000   2000.0000   2000.0000     17.4741     76.2396
   359.2500   2000.0000   2000.0000     19.0147     73.4312
   359.5000   2000.0000   2000.0000     20.6000     71.8206
   359.7500   2000.0000   2000.0000     22.0522     71.5431
   360.0000   2000.0000   2000.0000     23.1447     71.3151
   360.2500   2000.0000   2000.0000     23.6801     71.3717
   360.5000   2000.0000   2000.0000     23.5941     72.8074
   360.7500   2000.0000   2000.0000     22.9970     75.3225
   361.0000   2000.0000   2000.0000     22.1104     81.8518
   361.2500   2000.0000   2000.0000     21.1593     87.7601
   361.5000   2000.0000   2000.0000     20.2996     97.7362
   361.7500   2000.0000   2000.0000     19.6002    104.1028
   362.0000   2000.0000   2000.0000     19.0596    111.2432
   362.2500   2000.0000   2000.0000     18.6339    113.5009
   362.5000   2000.0000   2000.0000     18.2660    112.8509
   362.7500   2000.0000   2000.0000     17.9058    110.4247
   363.0000   2000.0000   2000.0000     17.5225    105.9333
   363.2500   2000.0000   2000.0000     17.1094    103.6492
   363.5000   2000.0000   2000.0000     16.6810    102.6427
   363.7500   2000.0000   2000.0000     16.2612    103.6261
   364.0000   2000.0000   2000.0000     15.8668    106.4923
   364.2500   2000.0000   2000.0000     15.4969    108.3666
   364.5000   2000.0000   2000.0000     15.1357    109.8334
   364.7500   2000.0000   2000.0000     14.7675    109.7980
   365.0000   2000.0000   2000.0000     14.3922    109.2656
   365.2500   2000.0000   2000.0000     14.0283    109.4821
   365.5000   2000.0000   2000.0000     13.7031    111.3049
   365.7500   2000.0000   2000.0000     13.4401    112.9991
   366.0000   2000.0000   2000.0000     13.2514    114.7211
   366.2500   2000.0000   2000.0000     13.1360    114.8690
   366.5000   2000.0000   2000.0000     13.0812    114.0510
   366.7500   2000.0000   2000.0000     13.0637    113.4044
   367.0000   2000.0000   2000.0000     13.0513    113.0763
   367.2500   2000.0000   2000.0000     13.0099    113.5468
   367.5000   2000.0000   2000.0000     12.9126    115.4269
   367.7500   2000.0000   2000.0000     12.7473    117.2639
   368.0000   2000.0000   2000.0000     12.5145    120.0228
   368.2500   2000.0000   2000.0000     12.2210    121.3587
   368.5000   2000.0000   2000.0000     11.8762    122.4003
   368.7500   2000.0000   2000.0000     11.4945    122.7090
   369.0000   2000.0000   2000.0000     11.0978    123.2652
   369.2500   2000.0000   2000.0000     10.7137    124.0825
   369.5000   2000.0000   2000.0000     10.3705    126.3253
   369.7500   2000.0000   2000.0000     10.0929    128.3373
   370.0000   2000.0000   2000.0000      9.8998    131.5511
   370.2500   2000.0000   2000.0000      9.8042    133.6436
   370.5000   2000.0000   2000.0000      9.8154    136.3872
   370.7500   2000.0000   2000.0000      9.9410    137.4087
   371.0000   2000.0000   2000.0000     10.1893    136.7197
   371.2500   2000.0000   2000.0000     10.5699    134.7129
   371.5000   2000.0000   2000.0000     11.0922    129.8594
   371.7500   2000.0000   2000.0000     11.7625    125.4262
   372.0000   2000.0000   2000.0000     12.5807    116.7038
   372.2500   2000.0000   2000.0000     13.5377    109.7085
   372.5000   2000.0000   2000.0000     14.6135     98.7256
   372.7500   2000.0000   2000.0000     15.7759     92.0697
   373.0000   2000.0000   2000.0000     16.9788     84.7296
   373.2500   2000.0000   2000.0000     18.1614     82.3363
   373.5000   2000.0000   2000.0000     19.2467     82.9174
   373.7500   2000.0000   2000.0000     20.1483     85.6902
