~Version Information
VERS.                      2.0: CWLS Log ASCII Standard - VERSION 2.0
WRAP.                       NO: One line per depth step
~Well Information Block
STRT.FT               686.2000: 
STOP.FT              1252.7000: 
STEP.FT                 0.1000: 
NULL.                -999.2500: 
COMP.          Pioneer Natural Resources: COMPANY
WELL.          Rock Island 44-24 Tr: WELL
FLD.           Purgatoire River: FIELD
LOC.           814' FSL & 761' FEL--: LOCATION
CNTY.               Las Animas: COUNTY
SRVC.                Patterson: SERVICE COMPANY
DATE.          Thu Apr 20 08:34:45 2006: LOG DATE
UWI.           05 071 08680 00: UNIQUE WELL ID
STAT.                 Colorado: STATE
~Curve Information Block
DEPT.FT            0 000 00 00: Depth
DCAL.in                       : CDL Caliper
RHOB.g/cc                     : CDL Bulk Density
RHOC.g/cc                     : CDL Density Correction
DPOR.pu                       : CDL Density Porosity
GR.GAPI                       : Gamma Ray
~Parameter Information Block
~A  Depth       DCAL        RHOB        RHOC        DPOR         GR     
# ...
  1223.8000      7.8778      2.3150     -0.0015     20.3002     83.3388
  1223.9000      7.8778      2.3354      0.0264     19.0672     95.3208
  1224.0000      7.8838      2.3603      0.0862     17.5588    101.6672
  1224.1000      7.8838      2.3838      0.0821     16.1328    101.7305
  1224.2000      7.8838      2.4112      0.0985     14.4755     98.5466
  1224.3000      7.8827      2.4496      0.1431     12.1456     92.3954
  1224.4000      7.8827      2.4845      0.2054     10.0317     83.9403
  1224.5000      7.8776      2.4929      0.1333      9.5223     74.4398
  1224.6000      7.8776      2.4773      0.0923     10.4690     65.5782
  1224.7000      7.8776      2.4588      0.0472     11.5892     59.3753
  1224.8000      7.8724      2.4472      0.0750     12.2902     56.1456
  1224.9000      7.8724      2.4389      0.0575     12.7923     55.8236
  1225.0000      7.8696      2.4383      0.0567     12.8311     56.4304
  1225.1000      7.8696      2.4493      0.0687     12.1658     52.5076
  1225.2000      7.8696      2.4617      0.0596     11.4113     39.2651
  1225.3000      7.8679      2.4666      0.0802     11.1146     20.4009
  1225.4000      7.8679      2.4640      0.0666     11.2703      6.5470
  1225.5000      7.8645      2.4567      0.0753     11.7136      1.2053
  1225.6000      7.8645      2.4529      0.0194     11.9447      0.1221
  1225.7000      7.8645      2.4584      0.0553     11.6122      0.0065
  1225.8000      7.8615      2.4637      0.0525     11.2935      0.0000
  1225.9000      7.8615      2.4617      0.0875     11.4121   -999.2500
  1226.0000      7.8586      2.4608      0.0473     11.4673   -999.2500
  1226.1000      7.8586      2.4737      0.0495     10.6846   -999.2500
  1226.2000      7.8586      2.5022      0.0709      8.9553   -999.2500
  1226.3000      7.8577      2.5256      0.1404      7.5419   -999.2500
  1226.4000      7.8577      2.5277      0.0870      7.4119   -999.2500
  1226.5000      7.8586      2.5309      0.0399      7.2178   -999.2500
  1226.6000      7.8586      2.5453      0.1457      6.3447   -999.2500
  1226.7000      7.8586      2.5456      0.0919      6.3276   -999.2500
  1226.8000      7.8590      2.5312      0.0634      7.1976   -999.2500
  1226.9000      7.8590      2.5254      0.0500      7.5522   -999.2500
  1227.0000      7.8575      2.5260      0.1047      7.5166   -999.2500
  1227.1000      7.8575      2.5189      0.0431      7.9474   -999.2500
  1227.2000      7.8575      2.5093      0.0605      8.5292   -999.2500
  1227.3000      7.8541      2.5025      0.0616      8.9386   -999.2500
  1227.4000      7.8541      2.4990      0.0350      9.1521   -999.2500
  1227.5000      7.8466      2.5076     -0.0074      8.6314   -999.2500
  1227.6000      7.8466      2.5252      0.0902      7.5637   -999.2500
  1227.7000      7.8466      2.5313      0.0545      7.1951   -999.2500
  1227.8000      7.8352      2.5242      0.0514      7.6269   -999.2500
  1227.9000      7.8352      2.5203      0.0356      7.8629   -999.2500
  1228.0000      7.8260      2.5229      0.0318      7.7047   -999.2500
  1228.1000      7.8260      2.5220      0.0611      7.7561   -999.2500
  1228.2000      7.8260      2.5186     -0.0059      7.9612   -999.2500
  1228.3000      7.8228      2.5211      0.0561      7.8096   -999.2500
  1228.4000      7.8228      2.5258      0.0595      7.5295   -999.2500
  1228.5000      7.8227      2.5313      0.0426      7.1924   -999.2500
  1228.6000      7.8227      2.5415      0.0538      6.5768   -999.2500
  1228.7000      7.8227      2.5501      0.0612      6.0536   -999.2500
  1228.8000      7.8242      2.5501      0.0546      6.0547   -999.2500
  1228.9000      7.8242      2.5445      0.0214      6.3943   -999.2500
  1229.0000      7.8252      2.5412      0.0684      6.5951   -999.2500
  1229.1000      7.8252      2.5411      0.0547      6.5971   -999.2500
  1229.2000      7.8252      2.5417      0.0352      6.5645   -999.2500
  1229.3000      7.8255      2.5434      0.0095      6.4600   -999.2500
  1229.4000      7.8255      2.5452      0.0437      6.3540   -999.2500
  1229.5000      7.8245      2.5397      0.0599      6.6857   -999.2500
  1229.6000      7.8245      2.5257      0.0222      7.5350   -999.2500
  1229.7000      7.8245      2.5167      0.0060      8.0782   -999.2500
  1229.8000      7.8232      2.5224      0.0355      7.7334   -999.2500
  1229.9000      7.8232      2.5329      0.0572      7.0962   -999.2500
  1230.0000      7.8272      2.5382      0.0437      6.7779   -999.2500
  1230.1000      7.8272      2.5363      0.0909      6.8888   -999.2500
  1230.2000      7.8272      2.5245      0.0560      7.6063   -999.2500
  1230.3000      7.8360      2.5085      0.0397      8.5740   -999.2500
  1230.4000      7.8360      2.4981      0.0570      9.2048   -999.2500
  1230.5000      7.8429      2.4920      0.0716      9.5777   -999.2500
  1230.6000      7.8429      2.4872      0.0483      9.8658   -999.2500
  1230.7000      7.8429      2.4807      0.0711     10.2603   -999.2500
  1230.8000      7.8457      2.4675      0.0493     11.0610   -999.2500
  1230.9000      7.8457      2.4547      0.0306     11.8359   -999.2500
  1231.0000      7.8368      2.4548      0.0354     11.8323   -999.2500
  1231.1000      7.8368      2.4660      0.0665     11.1521   -999.2500
  1231.2000      7.8368      2.4767      0.0938     10.5032   -999.2500
  1231.3000      7.8171      2.4794      0.0870     10.3393   -999.2500
  1231.4000      7.8171      2.4768      0.0477     10.4960   -999.2500
  1231.5000      7.8013      2.4833      0.0319     10.1028   -999.2500
  1231.6000      7.8013      2.5091      0.0577      8.5374   -999.2500
  1231.7000      7.8013      2.5398      0.1244      6.6765   -999.2500
  1231.8000      7.7947      2.5575      0.1088      5.6085   -999.2500
  1231.9000      7.7947      2.5710      0.0787      4.7867   -999.2500
  1232.0000      7.7958      2.5915      0.1098      3.5477   -999.2500
  1232.1000      7.7958      2.6061      0.1275      2.6629   -999.2500
  1232.2000      7.7958      2.6019      0.1418      2.9177   -999.2500
  1232.3000      7.8055      2.5854      0.0926      3.9133   -999.2500
  1232.4000      7.8055      2.5695      0.0791      4.8763   -999.2500
  1232.5000      7.8165      2.5624      0.0386      5.3072   -999.2500
  1232.6000      7.8165      2.5697      0.0524      4.8680   -999.2500
  1232.7000      7.8165      2.5851      0.0670      3.9306   -999.2500
  1232.8000      7.8160      2.5883      0.0719      3.7374   -999.2500
  1232.9000      7.8160      2.5729      0.0328      4.6749   -999.2500
  1233.0000      7.8062      2.5619      0.0105      5.3395   -999.2500
  1233.1000      7.8062      2.5723      0.0008      4.7067   -999.2500
  1233.2000      7.8062      2.5884      0.0663      3.7312   -999.2500
  1233.3000      7.8016      2.5958      0.0123      3.2853   -999.2500
  1233.4000      7.8016      2.6234      0.0296      1.6147   -999.2500
  1233.5000      7.7750      2.7110      0.0442     -3.6949   -999.2500
  1233.6000      7.7750      2.7266      0.1050     -4.6427   -999.2500
  1233.7000      7.7750      2.2587      0.5637     23.7126   -999.2500
  1233.8000      7.3727      1.2717      0.1000     83.5317   -999.2500
  1233.9000      7.3727      0.4289      0.1000    134.6148   -999.2500
  1234.0000      5.5311      0.0812   -999.2500    155.6863   -999.2500
  1234.1000      5.5311      0.0084   -999.2500    160.0999   -999.2500
  1234.2000      5.5311      0.0005   -999.2500    160.5786   -999.2500
  1234.3000      2.4889      0.0000   -999.2500    160.6061   -999.2500
  1234.4000      2.4889      0.0000   -999.2500    160.6061   -999.2500
  1234.5000      0.6436   -999.2500   -999.2500   -999.2500   -999.2500
  1234.6000      0.6436   -999.2500   -999.2500   -999.2500   -999.2500
  1234.7000      0.6436   -999.2500   -999.2500   -999.2500   -999.2500
  1234.8000      0.2319   -999.2500   -999.2500   -999.2500   -999.2500
  1234.9000      0.2319   -999.2500   -999.2500   -999.2500   -999.2500
