~Version Information
VERS.                      2.0: CWLS Log ASCII Standard - VERSION 2.0
WRAP.                       NO: One line per depth step
~Well Information Block
STRT.FT                -8.7500: 
STOP.FT              1727.2500: 
STEP.FT                 0.2500: 
NULL.                -999.2500: 
COMP.          XTO Energy Inc.: COMPANY
WELL.          Apache Canyon 34-08: WELL
FLD.              Vermejo Coal: FIELD
LOC.           1668' FNL & 275' FEL: LOCATION
STAT.                       CO: State
CNTY.               Las Animas: COUNTY
CTRY. USA : Country
SECT. 34 : Section
TOWN. 33S : Township
RANG. 67W : Range
SRVC.          Patterson Wireline: SERVICE COMPANY
DATE.          Mon Jan 09 09:34:21 2006: LOG DATE
API.           05 071 08541 00: UNIQUE WELL ID
~Curve Information Block
DEPT.FT            0 000 00 00: Depth
CCL.                          : Casing Collar Locator
TT3.usec                      : CBL 3' Travel Time
AMP3.mV                       : CBL 3' Amplitude
GR.GAPI                       : Gamma Ray
~Parameter Information Block
~A  Depth       CCL         TT3         AMP3         GR     
# ...
   795.2500      0.0000    737.9662      4.3940    153.8949
   795.5000      0.0000    711.4860      4.4151    159.4501
   795.7500      0.0000    695.9690      4.4231    162.9222
   796.0000      0.0000    691.7640      4.4185    165.7331
   796.2500      0.0000    695.0649      4.4069    169.4554
   796.5000      0.0000    701.4426      4.3939    174.2836
   796.7500      0.0000    707.4600      4.3816    178.7723
   797.0000      0.0000    711.4512      4.3729    181.1333
   797.2500      0.0000    713.5079      4.3743    180.6766
   797.5000      0.0000    714.4944      4.3922    177.7413
   797.7500      0.0000    715.0745      4.4257    172.6289
   798.0000      0.0000    715.5062      4.4663    165.5043
   798.2500      0.0000    715.9530      4.5029    157.4264
   798.5000      0.0000    716.7216      4.5298    150.3892
   798.7500      0.0000    718.2145      4.5495    145.6829
   799.0000      0.0000    720.4412      4.5668    142.7738
   799.2500      0.0000    722.5715      4.5813    140.3409
   799.5000      0.0000    723.2856      4.5858    138.0640
   799.7500      0.0000    721.9296      4.5749    137.0634
   800.0000      0.0000    719.1962      4.5525    138.9733
   800.2500      0.0000    716.4543      4.5272    144.8792
   800.5000      0.0000    714.6048      4.5043    154.4877
   800.7500      0.0000    713.7164      4.4846    165.5542
   801.0000      0.0000    713.4266      4.4676    174.5609
   801.2500      0.0000    713.3772      4.4511    179.0450
   801.5000      0.0000    713.3647      4.4296    179.2256
   801.7500      0.0000    713.3297      4.3971    176.7591
   802.0000      0.0000    713.3123      4.3519    172.5504
   802.2500      0.0000    713.3817      4.2991    166.6911
   802.5000      0.0000    713.5668      4.2501    159.7077
   802.7500      0.0000    713.8287      4.2183    152.6278
   803.0000      0.0000    714.0974      4.2107    146.3000
   803.2500      0.0000    714.3210      4.2224    141.6472
   803.5000      0.0000    714.4783      4.2415    140.0901
   803.7500      0.0000    714.5666      4.2591    142.5705
   804.0000      0.0000    714.5965      4.2729    148.3149
   804.2500      0.0000    714.5906      4.2818    155.3289
   804.5000      0.0000    714.5734      4.2826    161.8784
   804.7500      0.0000    714.5533      4.2733    166.9676
   805.0000      0.0000    714.5084      4.2566    169.9940
   805.2500      0.0000    714.3923      4.2372    170.8608
   805.5000      0.0000    714.1644      4.2188    170.1978
   805.7500      0.0000    713.8281      4.2039    168.9582
   806.0000      0.0000    713.4397      4.1940    167.9030
   806.2500      0.0000    713.0780      4.1874    167.5121
   806.5000      0.0000    712.8044      4.1788    168.0974
   806.7500      0.0000    712.6385      4.1638    169.7833
   807.0000      0.0000    712.5539      4.1431    172.3485
   807.2500      0.0000    712.4916      4.1213    174.9845
   807.5000      0.0000    712.3989      4.1048    176.3608
   807.7500      0.0000    712.2273      4.1011    175.2699
   808.0000      0.0000    711.8130      4.1181    171.1410
   808.2500      0.0000    710.6445      4.1622    163.7464
   808.5000      0.0000    707.9274      4.2374    153.0541
   808.7500      0.0000    703.4594      4.3447    140.0331
   809.0000      0.0000    698.9760      4.4763    127.1395
   809.2500      0.0000    698.1175      4.6136    117.1078
   809.5000      0.0000    703.8748      4.7378    110.9608
   809.7500      0.0000    715.7300      4.8425    107.5944
   810.0000      0.0000    729.7253      4.9302    105.5819
   810.2500      0.0000    741.1264      5.0005    105.1094
   810.5000      2.0000    746.8672      5.0484    107.7483
   810.7500      0.0000    746.8997      5.0703    114.5034
   811.0000      0.0000    744.2106      5.0628    124.7065
   811.2500      0.0000    742.1639      5.0222    136.7473
   811.5000      0.0000    740.7224      4.9515    149.0415
   811.7500      0.0000    736.5145      4.8657    159.9340
   812.0000      0.0000    727.4584      4.7840    167.5963
   812.2500      0.0000    716.1385      4.7144    170.9884
   812.5000      0.0000    707.7018      4.6497    170.6208
   812.7500      0.0000    705.0636      4.5776    167.6976
   813.0000      0.0000    706.9583      4.4932    162.8656
   813.2500      0.0000    710.1234      4.4048    156.5122
   813.5000      0.0000    712.3094      4.3288    150.0124
   813.7500      0.0000    713.1467      4.2769    145.8241
   814.0000      0.0000    713.2159      4.2482    145.8631
   814.2500      0.0000    713.0898      4.2314    149.6884
   814.5000      0.0000    713.0464      4.2149    154.4298
   814.7500      0.0000    713.1664      4.1950    156.9236
   815.0000      0.0000    713.4341      4.1777    156.0210
   815.2500      0.0000    713.7816      4.1732    152.5778
   815.5000      0.0000    714.1018      4.1857    147.5800
   815.7500      0.0000    714.2908      4.2086    141.2539
   816.0000      0.0000    714.2971      4.2299    134.2776
   816.2500      0.0000    714.1385      4.2432    128.8746
   816.5000      0.0000    713.8716      4.2517    127.5911
   816.7500      0.0000    713.5457      4.2629    131.0272
   817.0000      0.0000    713.1898      4.2821    137.3214
   817.2500      0.0000    712.8340      4.3093    143.7182
   817.5000      0.0000    712.5222      4.3382    148.2701
   817.7500      0.0000    712.2966      4.3607    150.4759
   818.0000      0.0000    712.1753      4.3720    151.1086
   818.2500      0.0000    712.1473      4.3712    151.6484
   818.5000      0.0000    712.1773      4.3584    153.3873
   818.7500      0.0000    712.2041      4.3328    156.5719
   819.0000      0.0000    712.1332      4.2965    160.2967
   819.2500      0.0000    711.8526      4.2594    163.2615
   819.5000      0.0000    711.3020      4.2364    164.5191
   819.7500      0.0000    710.5519      4.2380    163.6099
   820.0000      0.0000    709.8297      4.2608    160.4566
   820.2500      0.0000    709.5010      4.2896    155.3345
   820.5000      0.0000    710.0626      4.3104    148.9966
   820.7500      0.0000    712.1094      4.3243    142.7669
   821.0000      0.0000    716.1026      4.3478    137.7073
   821.2500      0.0000    722.1592      4.3980    133.1470
   821.5000      0.0000    730.0922      4.4777    126.8685
   821.7500      0.0000    739.1252      4.5763    117.2840
   822.0000      0.0000    747.0371      4.6825    104.9716
   822.2500      0.0000    750.5232      4.7940     92.0771
   822.5000      0.0000    747.8204      4.9129     80.8176
   822.7500      0.0000    740.5314      5.0350     72.5406
   823.0000      0.0000    731.9442      5.1456     67.5535
   823.2500      0.0000    724.3582      5.2255     65.5736
   823.5000      0.0000    718.5581      5.2622     66.4679
   823.7500      0.0000    714.6071      5.2571     70.3906
   824.0000      0.0000    712.1067      5.2208     76.9512
   824.2500      0.0000    710.0336      5.1639     84.4656
   824.5000      0.0000    706.7774      5.0932     90.6448
   824.7500      0.0000    700.7332      5.0159     94.4350
   825.0000      0.0000    691.6482      4.9432     97.1071
   825.2500      0.0000    681.9555      4.8860    101.1678
   825.5000      0.0000    675.9918      4.8468    108.1403
   825.7500      0.0000    676.7787      4.8168    117.5485
   826.0000      0.0000    683.5533      4.7839    127.7185
   826.2500      0.0000    692.7345      4.7419    136.9641
   826.5000      0.0000    700.8274      4.6935    144.2379
   826.7500      0.0000    706.2216      4.6465    149.5729
   827.0000      0.0000    709.0646      4.6109    153.9533
   827.2500      0.0000    710.2678      4.5953    158.0220
   827.5000      0.0000    710.6948      4.6019    160.8831
   827.7500      0.0000    710.8656      4.6224    160.7935
   828.0000      0.0000    710.9921      4.6411    156.9846
   828.2500      0.0000    711.1171      4.6431    150.4094
   828.5000      0.0000    711.2070      4.6237    142.9957
