~Version Information
VERS.                      2.0: CWLS Log ASCII Standard - VERSION 2.0
WRAP.                       NO: One line per depth step
~Well Information Block
STRT.FT               520.0000: 
STOP.FT              2555.2000: 
STEP.FT                 0.1000: 
NULL.                -999.2500: 
COMP.          Pioneer Natural Resources: COMPANY
WELL.          Horsefeathers 24-34: WELL
FLD.           Purgatoire River: FIELD
LOC.           183' FSL & 1570' FWL--: LOCATION
CNTY.               Las Animas: COUNTY
SRVC.                Patterson: SERVICE COMPANY
DATE.          Mon Feb 06 08:03:40 2006: LOG DATE
UWI.           05 071 08675 00: UNIQUE WELL ID
STAT.                 Colorado: STATE
~Curve Information Block
DEPT.FT            0 000 00 00: Depth
DCAL.in                       : CDL Caliper
RHOB.g/cc                     : CDL Bulk Density
RHOC.g/cc                     : CDL Density Correction
DPOR.pu                       : CDL Density Porosity
NPOR.pu                       : Neutron Porosity
GR.GAPI                       : Gamma Ray
~Parameter Information Block
~A  Depth       DCAL        RHOB        RHOC        DPOR        NPOR         GR     
# ...
  2392.0000      7.9073      2.5345      0.0741      7.0026     24.1904    117.7145
  2392.1000      7.9073      2.5521      0.0866      5.9359     23.8375    120.5045
  2392.2000      7.9073      2.5653      0.1150      5.1363     23.3558    119.2343
  2392.3000      7.9083      2.5687      0.0965      4.9297     22.8238    112.4820
  2392.4000      7.9083      2.5660      0.0672      5.0892     22.6488    104.5729
  2392.5000      7.9092      2.5690      0.0595      4.9085     22.9431     99.1899
  2392.6000      7.9092      2.5771      0.0824      4.4174     23.2540     96.4762
  2392.7000      7.9092      2.5818      0.0622      4.1305     23.4245     98.4678
  2392.8000      7.9081      2.5863      0.0766      3.8619     23.4745    104.5703
  2392.9000      7.9081      2.5939      0.0599      3.4009     23.0148    106.7829
  2393.0000      7.9071      2.5969      0.0553      3.2188     22.0678    101.5809
  2393.1000      7.9071      2.5923      0.0337      3.4966     21.2900     95.1095
  2393.2000      7.9071      2.5927      0.0368      3.4724     21.0686     93.0676
  2393.3000      7.9067      2.6049      0.0785      2.7311     21.2727     94.7479
  2393.4000      7.9067      2.6197      0.0832      1.8354     21.5512     96.6672
  2393.5000      7.9064      2.6301      0.0733      1.2078     21.6920     99.9288
  2393.6000      7.9064      2.6468      0.0367      0.1961     21.7546    104.2314
  2393.7000      7.9064      2.6803      0.0937     -1.8387     21.8072    103.7649
  2393.8000      7.9059      2.7092      0.1530     -3.5903     21.7501     97.3940
  2393.9000      7.9059      2.7105      0.1034     -3.6685     21.4365     88.0820
  2394.0000      7.9069      2.6990      0.0710     -2.9691     20.8883     78.6536
  2394.1000      7.9069      2.6937      0.0848     -2.6511     20.6828     71.1873
  2394.2000      7.9069      2.6936      0.0488     -2.6436     21.1672     68.2635
  2394.3000      7.9099      2.6944      0.0305     -2.6895     21.4451     72.2636
  2394.4000      7.9099      2.6942     -0.0241     -2.6795     20.6113     77.9933
  2394.5000      7.9127      2.6865      0.0194     -2.2099     19.3479     76.5204
  2394.6000      7.9127      2.6670     -0.0282     -1.0301     18.6356     68.9503
  2394.7000      7.9127      2.6430      0.0137      0.4249     18.5578     66.7656
  2394.8000      7.9121      2.6194      0.0210      1.8558     18.9542     72.3489
  2394.9000      7.9121      2.6017      0.0236      2.9271     19.6399     76.1623
  2395.0000      7.9091      2.6003      0.0361      3.0119     20.2173     76.0753
  2395.1000      7.9091      2.6100      0.0798      2.4216     20.3527     76.7722
  2395.2000      7.9091      2.6111      0.0810      2.3570     20.2323     78.8343
  2395.3000      7.9091      2.5960      0.0767      3.2757     20.1193     80.4293
  2395.4000      7.9091      2.5766      0.0299      4.4486     19.9449     81.7689
  2395.5000      7.9121      2.5665      0.0489      5.0579     19.7958     85.8623
  2395.6000      7.9121      2.5684      0.0373      4.9451     19.8283     94.2459
  2395.7000      7.9121      2.5751      0.0704      4.5379     19.7936    103.3510
  2395.8000      7.9132      2.5751      0.0454      4.5419     19.6335    107.5889
  2395.9000      7.9132      2.5680      0.0343      4.9699     19.7545    107.7504
  2396.0000      7.9125      2.5619      0.0194      5.3366     20.0950    108.6355
  2396.1000      7.9125      2.5583      0.0352      5.5579     20.0752    109.7536
  2396.2000      7.9125      2.5551      0.0287      5.7502     19.8779    109.8233
  2396.3000      7.9130      2.5545      0.0066      5.7876     20.1340    106.6058
  2396.4000      7.9130      2.5582      0.0157      5.5641     20.7688     96.6188
  2396.5000      7.9134      2.5661      0.0307      5.0866     21.4965     83.9954
  2396.6000      7.9134      2.5766      0.0528      4.4481     22.0313     78.0082
  2396.7000      7.9134      2.5734      0.0757      4.6447     21.7381     81.9210
  2396.8000      7.9118      2.5451      0.0077      6.3599     20.4753     90.0719
  2396.9000      7.9118      2.5181     -0.0281      7.9911     19.2659     94.2537
  2397.0000      7.9102      2.5245     -0.0150      7.6058     19.0350     92.0651
  2397.1000      7.9102      2.5590      0.0417      5.5140     19.7143     87.7168
  2397.2000      7.9102      2.5902      0.0613      3.6224     20.7541     86.1375
  2397.3000      7.9105      2.5944      0.0809      3.3694     21.7609     86.4281
  2397.4000      7.9105      2.5791      0.0233      4.2943     22.3985     87.4270
  2397.5000      7.9100      2.5768      0.0238      4.4387     22.2252     89.1115
  2397.6000      7.9100      2.5966      0.0412      3.2376     21.3831     89.3776
  2397.7000      7.9100      2.6078      0.1032      2.5579     20.7653     90.4237
  2397.8000      7.9093      2.5952      0.0367      3.3217     20.7022     95.1202
  2397.9000      7.9093      2.5811      0.0332      4.1784     20.6357     99.2577
  2398.0000      7.9105      2.5768      0.0433      4.4357     20.5340     99.4270
  2398.1000      7.9105      2.5774      0.0286      4.4020     20.7204     97.9525
  2398.2000      7.9105      2.5784      0.0669      4.3408     20.7500     96.3842
  2398.3000      7.9126      2.5796      0.0177      4.2667     20.2456     92.7514
  2398.4000      7.9126      2.5856      0.0605      3.9032     19.9502     86.5509
  2398.5000      7.9117      2.5921      0.0464      3.5102     20.3365     82.5651
  2398.6000      7.9117      2.5930      0.0344      3.4564     20.7099     84.2876
  2398.7000      7.9117      2.5875      0.0355      3.7895     20.5054     87.9444
  2398.8000      7.9082      2.5812      0.0175      4.1667     19.7211     90.1514
  2398.9000      7.9082      2.5845      0.0280      3.9699     18.9668     89.5205
  2399.0000      7.9078      2.5894      0.0866      3.6710     18.9594     88.1763
  2399.1000      7.9078      2.5824      0.0053      4.0973     19.5268     90.7316
  2399.2000      7.9078      2.5741      0.0484      4.5980     19.9628     94.5535
  2399.3000      7.9103      2.5700      0.0827      4.8511     20.3351     97.9372
  2399.4000      7.9103      2.5590      0.0331      5.5164     20.9269    101.7639
  2399.5000      7.9094      2.5449      0.0010      6.3725     21.2721    101.4146
  2399.6000      7.9094      2.5305      0.0655      7.2433     20.9989     99.0473
  2399.7000      7.9094      2.5076     -0.0080      8.6274     20.6260    100.2678
  2399.8000      7.8966      2.4865     -0.0223      9.9067     20.8477    102.6340
  2399.9000      7.8966      2.4815      0.0307     10.2125     21.5105    102.1234
  2400.0000      7.8743      2.4912      0.0238      9.6237     21.8456     99.0253
  2400.1000      7.8743      2.5135      0.0192      8.2699     21.4578     95.1835
  2400.2000      7.8743      2.5384      0.0826      6.7664     20.8917     93.8062
  2400.3000      7.8655      2.5499      0.0643      6.0660     21.0038     96.5344
  2400.4000      7.8655      2.5489      0.0862      6.1291     21.5951    100.2123
  2400.5000      7.8726      2.5469      0.0681      6.2456     21.7294    101.0991
  2400.6000      7.8726      2.5560      0.0661      5.6977     21.3743     98.0268
  2400.7000      7.8726      2.5796      0.1161      4.2649     21.2191     93.0226
  2400.8000      7.8816      2.6069      0.1004      2.6151     21.5154     91.5049
  2400.9000      7.8816      2.6275      0.1273      1.3637     21.9301     95.0811
  2401.0000      7.8879      2.6418      0.1086      0.4990     22.3003     97.1166
  2401.1000      7.8879      2.6506      0.1313     -0.0356     22.5610     94.9816
  2401.2000      7.8879      2.6517      0.1351     -0.1045     22.3373     93.7167
  2401.3000      7.8925      2.6464      0.1537      0.2183     21.6919     97.4279
  2401.4000      7.8925      2.6342      0.1260      0.9578     21.3127    105.4201
  2401.5000      7.8942      2.6172      0.0387      1.9885     21.4128    111.5179
