~Version Information
VERS.                      2.0: CWLS Log ASCII Standard - VERSION 2.0
WRAP.                       NO: One line per depth step
~Well Information Block
STRT.FT               245.0000: 
STOP.FT              1006.0000: 
STEP.FT                 0.1000: 
NULL.                -999.2500: 
COMP.          Pioneer Natural Resources: COMPANY
WELL.              Atlas 32-18: WELL
FLD.           Purgatoire River: FIELD
LOC.           1892' FNL & 1456' FEL: LOCATION
PROV.                 Colorado: PROVINCE
CNTY.               Las Animas: COUNTRY
SRVC.                Patterson: SERVICE COMPANY
DATE.          Mon Nov 21 08:58:56 2005: LOG DATE
UWI.           05 071 08556 00: UNIQUE WELL ID
~Curve Information Block
DEPT.FT            0 000 00 00: Depth
DCAL.in                       : CDL Caliper
RHOB.g/cc                     : CDL Bulk Density
RHOC.g/cc                     : CDL Density Correction
DPOR.pu                       : CDL Density Porosity
GR.GAPI                       : Gamma Ray
NPOR.pu                       : Neutron Porosity
~Parameter Information Block
~A  Depth       DCAL        RHOB        RHOC        DPOR         GR         NPOR    
# ...
   341.0000      7.9675      2.6553      0.1927     -0.3225    119.6435     24.0062
   341.1000      7.9675      2.6439      0.1323      0.3685    124.6373     24.3716
   341.2000      7.9675      2.6323      0.1322      1.0727    128.1626     24.9761
   341.3000      7.9866      2.6212      0.0730      1.7468    127.4554     25.4173
   341.4000      7.9866      2.6063      0.0840      2.6511    124.1022     25.3375
   341.5000      8.0050      2.5947      0.0139      3.3520    121.7718     24.9590
   341.6000      8.0050      2.5957      0.0636      3.2887    120.4841     24.7082
   341.7000      8.0050      2.5998      0.0725      3.0402    119.6147     24.8696
   341.8000      7.9987      2.5957      0.0467      3.2908    118.4569     25.2786
   341.9000      7.9987      2.5898      0.0199      3.6471    115.3400     25.2674
   342.0000      7.9810      2.5933      0.0599      3.4381    111.6664     24.7981
   342.1000      7.9810      2.6071      0.0434      2.5993    112.6861     24.5104
   342.2000      7.9810      2.6170      0.1094      2.0018    117.6243     24.4739
   342.3000      7.9841      2.6057      0.0971      2.6824    118.8038     24.2763
   342.4000      7.9841      2.5782      0.0535      4.3502    117.5748     23.9156
   342.5000      7.9878      2.5542      0.0258      5.8086    121.0070     23.9009
   342.6000      7.9878      2.5417     -0.0393      6.5663    125.6931     24.4701
   342.7000      7.9878      2.5344      0.0199      7.0046    126.5984     25.1266
   342.8000      7.9957      2.5331      0.0237      7.0827    126.0891     25.6231
   342.9000      7.9957      2.5492      0.0012      6.1121    126.3772     26.1815
   343.0000      7.9955      2.5669      0.0861      5.0379    126.5862     26.5334
   343.1000      7.9955      2.5495      0.0292      6.0884    124.6201     26.2057
   343.2000      7.9955      2.5043     -0.0084      8.8314    121.3869     25.3811
   343.3000      8.0097      2.4737     -0.0362     10.6874    118.7478     24.4913
   343.4000      8.0097      2.4783     -0.0008     10.4063    116.3074     23.9667
   343.5000      8.0105      2.5048      0.0625      8.8009    115.5661     24.0180
   343.6000      8.0105      2.5358      0.0712      6.9225    119.0039     24.3448
   343.7000      8.0105      2.5690      0.0915      4.9110    122.6244     24.5985
   343.8000      8.0017      2.6048      0.1233      2.7367    123.8788     24.4902
   343.9000      8.0017      2.6363      0.1670      0.8333    125.3165     23.9517
   344.0000      7.9755      2.6520      0.1540     -0.1191    124.3541     23.5350
   344.1000      7.9755      2.6499      0.1364      0.0052    118.7934     23.6955
   344.2000      7.9755      2.6347      0.1282      0.9282    114.0806     24.0660
   344.3000      7.9728      2.6102      0.0572      2.4124    112.9184     24.1100
   344.4000      7.9728      2.5839      0.0429      4.0076    112.1191     23.8008
   344.5000      7.9678      2.5578      0.0765      5.5869    111.8753     23.3626
   344.6000      7.9678      2.5262      0.0306      7.5047    115.2524     23.0724
   344.7000      7.9678      2.4906      0.0028      9.6608    122.2066     23.0785
   344.8000      7.9659      2.4644     -0.0241     11.2515    128.7031     23.3253
   344.9000      7.9659      2.4549      0.0016     11.8251    131.3374     23.7077
   345.0000      7.9832      2.4530     -0.0445     11.9375    134.7743     24.1524
   345.1000      7.9832      2.4468      0.0353     12.3142    144.6954     24.5010
   345.2000      7.9832      2.4402     -0.0001     12.7161    156.6925     24.3729
   345.3000      8.0292      2.4458      0.0396     12.3732    163.2701     23.6736
   345.4000      8.0292      2.4600      0.1024     11.5128    164.3694     23.1208
   345.5000      8.0493      2.4718      0.0676     10.8023    163.5714     23.2943
   345.6000      8.0493      2.4775      0.0620     10.4529    161.2384     23.8230
   345.7000      8.0493      2.4806      0.0252     10.2687    156.5876     24.1866
   345.8000      8.0517      2.4881      0.0710      9.8141    152.1654     24.3659
   345.9000      8.0517      2.5079      0.0726      8.6150    148.3771     24.5342
   346.0000      8.0467      2.5443      0.1262      6.4065    142.1130     24.6469
   346.1000      8.0467      2.5855      0.1693      3.9077    134.3575     24.4959
   346.2000      8.0467      2.6083      0.2086      2.5299    130.5337     24.0232
   346.3000      8.0365      2.6065      0.1491      2.6377    133.8904     23.3811
   346.4000      8.0365      2.5982      0.1767      3.1365    141.5401     22.6926
   346.5000      8.0057      2.5908      0.1238      3.5904    142.0350     21.9918
   346.6000      8.0057      2.5685      0.0902      4.9401    127.7025     21.3957
   346.7000      8.0057      2.5234      0.0556      7.6730    107.4211     21.0432
   346.8000      7.9905      2.4769      0.0112     10.4933     93.9786     21.0168
   346.9000      7.9905      2.4604     -0.0194     11.4882     86.4018     21.2714
   347.0000      7.9878      2.4742      0.0596     10.6521     79.4255     21.4526
   347.1000      7.9878      2.4920      0.0191      9.5767     75.8843     21.2277
   347.2000      7.9878      2.5108     -0.0352      8.4380     78.0212     20.6280
   347.3000      8.0020      2.5377      0.0687      6.8040     81.0950     20.1284
   347.4000      8.0020      2.5591      0.0552      5.5077     80.7453     20.1736
   347.5000      8.0188      2.5697      0.0389      4.8646     77.7475     20.4620
   347.6000      8.0188      2.5718      0.0875      4.7415     74.5872     20.6249
   347.7000      8.0188      2.5599      0.0637      5.4619     73.4818     20.7126
   347.8000      8.0122      2.5444      0.0322      6.3997     74.4206     20.5991
   347.9000      8.0122      2.5418      0.0259      6.5573     75.9199     20.3268
   348.0000      8.0035      2.5474      0.0634      6.2198     78.5396     20.3284
   348.1000      8.0035      2.5463      0.0389      6.2876     79.0745     20.4987
   348.2000      8.0035      2.5358      0.0167      6.9185     74.0824     20.4798
   348.3000      8.0117      2.5235     -0.0130      7.6657     68.7066     20.4326
   348.4000      8.0117      2.5161     -0.0047      8.1139     66.9676     20.4807
   348.5000      8.0081      2.5175     -0.0084      8.0318     66.2981     20.4165
   348.6000      8.0081      2.5259      0.0277      7.5200     65.5125     20.2263
   348.7000      8.0081      2.5342      0.0019      7.0202     68.6846     20.1289
   348.8000      8.0248      2.5388      0.0197      6.7407     76.0752     20.2986
   348.9000      8.0248      2.5376      0.0098      6.8108     82.8567     20.8602
   349.0000      7.9899      2.5232      0.0587      7.6841     87.9014     21.6634
   349.1000      7.9899      2.4984      0.0173      9.1885     91.1904     22.2257
   349.2000      7.9899      2.4836      0.0001     10.0851     92.4090     22.2164
   349.3000      7.9807      2.4952     -0.0086      9.3844     92.2496     21.8661
   349.4000      7.9807      2.5341      0.0114      7.0260     91.2001     21.6812
   349.5000      7.9938      2.5830      0.0521      4.0628     91.0228     21.7836
   349.6000      7.9938      2.6124      0.0890      2.2817     91.9064     21.9825
   349.7000      7.9938      2.6116      0.0982      2.3247     90.5846     22.2547
   349.8000      7.9928      2.5975      0.0566      3.1821     86.6768     22.5533
   349.9000      7.9928      2.5833      0.0662      4.0401     84.4786     22.5824
   350.0000      7.9876      2.5718      0.0553      4.7404     86.2549     22.2141
   350.1000      7.9876      2.5642      0.0729      5.2024     89.3928     21.7151
   350.2000      7.9876      2.5624      0.0207      5.3064     90.5156     21.4106
   350.3000      7.9795      2.5737      0.0432      4.6233     88.9067     21.2670
   350.4000      7.9795      2.6033      0.0926      2.8304     87.5153     21.2476
   350.5000      7.9818      2.6375      0.1291      0.7582     88.4217     21.4925
