~Version Information
VERS.                      2.0: CWLS Log ASCII Standard - VERSION 2.0
WRAP.                       NO: One line per depth step
~Well Information Block
STRT.FT               330.0000: 
STOP.FT              1923.5000: 
STEP.FT                 0.1000: 
NULL.                -999.2500: 
COMP.          Pioneer Natural Resources: COMPANY
WELL.          State Wildlife 32-16 Tr: WELL
FLD.           Purgatoire River: FIELD
LOC.           1838' FNL & 1850' FEL: LOCATION
STAT.                 Colorado: State
CNTY.               Las Animas: COUNTY
CTRY. USA : Country
SECT. 16 : Section
TOWN. 32S : Township
RANG. 66W : Range
SRVC.                Patterson: SERVICE COMPANY
DATE.          Mon Nov 14 07:20:48 2005: LOG DATE
API.           05 071 08568 00: UNIQUE WELL ID
~Curve Information Block
DEPT.FT            0 000 00 00: Depth
DCAL.in                       : CDL Caliper
RHOB.g/cc                     : CDL Bulk Density
RHOC.g/cc                     : CDL Density Correction
DPOR.pu                       : CDL Density Porosity
GR.GAPI                       : Gamma Ray
NPOR.pu                       : Neutron Porosity
~Parameter Information Block
~A  Depth       DCAL        RHOB        RHOC        DPOR         GR         NPOR    
# ...
   541.2000      8.1681      2.3545      0.0692     17.9117     75.3429     13.7798
   541.3000      8.1783      2.3470      0.0441     18.3623     72.6226     13.1781
   541.4000      8.1783      2.3331      0.0092     19.2039     67.6716     13.0575
   541.5000      8.1824      2.3089      0.0370     20.6741     62.9688     13.1550
   541.6000      8.1824      2.2683      0.0017     23.1345     60.4192     12.9830
   541.7000      8.1824      2.2292     -0.0602     25.5035     58.7042     12.5066
   541.8000      8.1721      2.2181      0.0120     26.1740     58.8502     12.0951
   541.9000      8.1721      2.2299      0.0204     25.4606     63.2811     11.8363
   542.0000      8.1731      2.2441      0.0386     24.6017     68.8486     11.4938
   542.1000      8.1731      2.2519      0.0479     24.1272     68.6050     11.4015
   542.2000      8.1731      2.2534      0.0486     24.0342     63.0208     12.0023
   542.3000      8.1840      2.2518      0.0411     24.1339     57.1343     12.8445
   542.4000      8.1840      2.2516      0.0286     24.1438     50.9153     13.2639
   542.5000      8.1844      2.2539      0.0383     24.0052     45.7194     13.2042
   542.6000      8.1844      2.2561      0.0440     23.8704     47.3911     12.8664
   542.7000      8.1844      2.2540      0.0714     23.9978     55.9335     12.5255
   542.8000      8.1869      2.2439      0.0181     24.6116     64.4811     12.4215
   542.9000      8.1869      2.2362      0.0013     25.0769     67.7461     12.4131
   543.0000      8.1896      2.2422      0.0426     24.7159     66.5823     12.2293
   543.1000      8.1896      2.2533      0.0707     24.0447     63.4392     11.9967
   543.2000      8.1896      2.2608      0.0334     23.5867     58.0018     11.9956
   543.3000      8.1898      2.2693      0.0576     23.0737     52.7632     12.1619
   543.4000      8.1898      2.2809      0.0712     22.3706     51.6272     12.4268
   543.5000      8.1848      2.2966      0.0677     21.4208     54.1489     12.8501
   543.6000      8.1848      2.3181      0.0972     20.1130     57.1051     13.1653
   543.7000      8.1848      2.3389      0.1144     18.8521     57.4504     13.1665
   543.8000      8.1823      2.3488      0.1288     18.2528     56.7045     13.2105
   543.9000      8.1823      2.3468      0.1172     18.3776     57.3337     13.5502
   544.0000      8.1857      2.3455      0.0924     18.4575     57.6162     13.8500
   544.1000      8.1857      2.3522      0.0998     18.0494     56.9727     14.0753
   544.2000      8.1857      2.3607      0.0538     17.5315     56.8551     14.7974
   544.3000      8.1858      2.3723      0.0412     16.8326     58.9018     16.1078
   544.4000      8.1858      2.3891      0.0729     15.8146     63.9910     17.3661
   544.5000      8.1860      2.4095      0.0404     14.5787     69.7430     18.1804
   544.6000      8.1860      2.4375      0.0868     12.8784     74.0249     18.7902
   544.7000      8.1860      2.4749      0.0562     10.6127     76.6060     19.5754
   544.8000      8.1818      2.5216      0.0600      7.7794     79.0278     20.6408
   544.9000      8.1818      2.5613      0.1176      5.3736     83.8167     21.7776
   545.0000      8.1878      2.5688      0.0808      4.9192     90.0670     22.9695
   545.1000      8.1878      2.5587     -0.0147      5.5309     95.4459     24.3970
   545.2000      8.1878      2.5635     -0.0214      5.2423    100.9187     25.8158
   545.3000      8.1891      2.5814      0.0604      4.1557    107.7273     26.6478
   545.4000      8.1891      2.5989      0.0320      3.0970    116.0309     26.6960
   545.5000      8.1931      2.6162      0.0347      2.0500    123.6039     26.3162
   545.6000      8.1931      2.6270      0.0738      1.3911    124.0992     26.1260
   545.7000      8.1931      2.6209      0.0456      1.7633    117.0573     26.3725
   545.8000      8.2012      2.6027      0.0276      2.8650    113.3361     26.6712
   545.9000      8.2012      2.5866     -0.0009      3.8395    120.0242     26.7029
   546.0000      8.1968      2.5801     -0.0038      4.2372    130.8768     26.6399
   546.1000      8.1968      2.5786      0.0113      4.3278    136.2514     26.5640
   546.2000      8.1968      2.5779      0.0129      4.3686    133.4176     26.3651
   546.3000      8.1995      2.5786      0.0201      4.3271    126.7531     25.9964
   546.4000      8.1995      2.5838      0.0069      4.0123    119.5299     25.6036
   546.5000      8.1908      2.5934      0.0290      3.4313    114.1764     25.2758
   546.6000      8.1908      2.6035      0.0203      2.8193    114.1952     24.9182
   546.7000      8.1908      2.6116      0.0510      2.3274    116.6627     24.5592
   546.8000      8.1887      2.6125      0.0548      2.2722    115.9697     24.1412
   546.9000      8.1887      2.6079      0.0427      2.5542    112.1972     23.5095
   547.0000      8.1683      2.6078      0.0150      2.5563    108.4147     22.9160
   547.1000      8.1683      2.6062      0.0863      2.6545    105.7211     22.9027
   547.2000      8.1683      2.5860      0.0471      3.8760    103.3722     23.5309
   547.3000      8.1649      2.5621     -0.0539      5.3253    100.1472     24.2198
   547.4000      8.1649      2.5623      0.0095      5.3173     95.5950     24.2026
   547.5000      8.1695      2.5844      0.0028      3.9740     90.8556     23.3028
   547.6000      8.1695      2.6071      0.0741      2.5980     89.6265     22.4671
   547.7000      8.1695      2.6100      0.0587      2.4232     93.7375     22.5567
   547.8000      8.1587      2.5935      0.0167      3.4271     98.3584     23.0921
   547.9000      8.1587      2.5726      0.0224      4.6906     98.8827     23.1958
   548.0000      8.1450      2.5504      0.0840      6.0362     97.7885     22.7880
   548.1000      8.1450      2.5289     -0.0581      7.3382     97.6361     22.5543
   548.2000      8.1450      2.5169     -0.0001      8.0659     96.9978     23.0371
   548.3000      8.1433      2.5048     -0.0048      8.7974     96.7066     23.7694
   548.4000      8.1433      2.4881     -0.0303      9.8137     99.3149     24.0706
   548.5000      8.1395      2.4843     -0.0686     10.0414    101.1683     24.0939
   548.6000      8.1395      2.4978     -0.0069      9.2239     98.9290     23.9320
   548.7000      8.1395      2.5151     -0.0348      8.1730     95.1407     23.2606
   548.8000      8.1354      2.5317      0.0121      7.1669     92.6709     22.3623
   548.9000      8.1354      2.5383      0.0185      6.7691     92.9024     21.8855
   549.0000      8.1424      2.5230     -0.0070      7.6966     93.5170     22.1469
   549.1000      8.1424      2.5013     -0.0331      9.0110     89.9986     22.7726
   549.2000      8.1424      2.4983     -0.0278      9.1948     83.2999     23.1488
   549.3000      8.1612      2.5101      0.0277      8.4779     79.8277     23.3521
   549.4000      8.1612      2.5199     -0.0320      7.8846     84.2982     23.5187
   549.5000      8.1412      2.5220      0.0265      7.7570     95.4140     23.4812
   549.6000      8.1412      2.5204      0.0100      7.8526    105.8234     23.4761
   549.7000      8.1412      2.5267      0.0392      7.4750    109.8956     23.8681
   549.8000      8.1255      2.5410      0.0277      6.6064    107.7782     24.3913
   549.9000      8.1255      2.5572      0.0626      5.6235    104.4130     24.5487
   550.0000      8.1269      2.5756      0.0770      4.5082    105.6524     24.5609
   550.1000      8.1269      2.5933      0.1036      3.4340    111.1959     24.7095
   550.2000      8.1269      2.6087      0.0746      2.5012    114.1752     24.6882
   550.3000      8.1307      2.6240      0.1148      1.5780    110.7491     24.4702
   550.4000      8.1307      2.6276      0.1135      1.3593    107.1940     24.5753
   550.5000      8.1355      2.6070      0.1065      2.6042    108.1531     25.1106
   550.6000      8.1355      2.5722      0.0544      4.7154    108.8526     25.5463
   550.7000      8.1355      2.5431      0.0295      6.4772    106.5483     25.5781
