~Version Information
VERS.                      2.0: CWLS Log ASCII Standard - VERSION 2.0
WRAP.                       NO: One line per depth step
~Well Information Block
STRT.FT               830.0000: 
STOP.FT              2368.5000: 
STEP.FT                 0.1000: 
NULL.                -999.2500: 
COMP.          Pioneer Natural Resources: COMPANY
WELL.              Rolls 14-14: WELL
FLD.           Purgatoire River: FIELD
LOC.           572' FSL & 856' FWL: LOCATION
PROV.                 Colorado: PROVINCE
CNTY.               Las Animas: COUNTRY
SRVC.                Patterson: SERVICE COMPANY
DATE.          Mon Aug 01 05:48:31 2005: LOG DATE
UWI.           05 071 08455 00: UNIQUE WELL ID
~Curve Information Block
DEPT.FT            0 000 00 00: Depth
DCAL.in                       : CDL Caliper
RHOB.g/cc                     : CDL Bulk Density
RHOC.g/cc                     : CDL Density Correction
DPOR.pu                       : CDL Density Porosity
GR.GAPI                       : Gamma Ray
NPOR.pu                       : Neutron Porosity
~Parameter Information Block
~A  Depth       DCAL        RHOB        RHOC        DPOR         GR         NPOR    
# ...
  1338.8000      8.1046      2.5600      0.1210      5.4542    146.9503     27.9713
  1338.9000      8.1046      2.5418      0.0640      6.5573    142.9365     27.9342
  1339.0000      8.1079      2.5379      0.0485      6.7915    147.1003     27.5892
  1339.1000      8.1079      2.5412      0.0757      6.5957    156.9677     26.8582
  1339.2000      8.1079      2.5419      0.0065      6.5503    163.6715     26.0189
  1339.3000      8.0716      2.5441      0.0152      6.4170    164.2825     25.2917
  1339.4000      8.0716      2.5446      0.0551      6.3895    161.3988     24.8856
  1339.5000      8.0911      2.5399      0.0266      6.6706    155.6683     24.9113
  1339.6000      8.0911      2.5381      0.0547      6.7842    149.3567     24.7715
  1339.7000      8.0911      2.5370      0.1143      6.8489    147.2693     24.1477
  1339.8000      8.0511      2.5284      0.0710      7.3676    148.9168     23.6258
  1339.9000      8.0511      2.5210      0.0418      7.8201    150.7186     23.5247
  1340.0000      8.0689      2.5211      0.1231      7.8092    152.2431     23.9304
  1340.1000      8.0689      2.5141      0.0884      8.2360    152.3703     24.7917
  1340.2000      8.0689      2.4880      0.0826      9.8158    150.2482     25.4535
  1340.3000      8.1057      2.4480      0.0489     12.2433    146.5514     25.3792
  1340.4000      8.1057      2.4103      0.0334     14.5298    144.3862     25.0636
  1340.5000      8.1229      2.3929     -0.0078     15.5824    145.9470     25.0072
  1340.6000      8.1229      2.3957      0.0146     15.4118    147.6055     25.1142
  1340.7000      8.1229      2.4011      0.0583     15.0819    144.6398     25.3209
  1340.8000      8.1153      2.4026      0.0174     14.9947    137.8350     25.3811
  1340.9000      8.1153      2.4107      0.0482     14.5036    129.6265     25.2981
  1341.0000      8.0625      2.4289      0.0384     13.4021    120.1099     25.4924
  1341.1000      8.0625      2.4502      0.0555     12.1099    112.1826     25.8833
  1341.2000      8.0625      2.4750      0.0613     10.6033    107.5430     26.3919
  1341.3000      8.0508      2.5018      0.0961      8.9820    102.9430     27.1093
  1341.4000      8.0508      2.5199      0.1000      7.8833     96.9421     27.7359
  1341.5000      8.0407      2.5359      0.0529      6.9160     92.1823     28.0392
  1341.6000      8.0407      2.5753      0.0556      4.5246     91.6124     28.1127
  1341.7000      8.0407      2.6458      0.0611      0.2524     91.1792     28.2448
  1341.8000      8.0658      2.7212      0.0509     -4.3141     86.2517     28.5381
  1341.9000      8.0658      2.7636      0.1100     -6.8873     80.5531     28.7826
  1342.0000      8.0537      2.7529      0.0627     -6.2347     77.6908     28.8329
  1342.1000      8.0537      2.7129     -0.0032     -3.8120     79.1675     28.6123
  1342.2000      8.0537      2.6912     -0.0234     -2.4987     85.6419     28.3967
  1342.3000      8.0196      2.6955      0.0405     -2.7554     93.0873     28.4566
  1342.4000      8.0196      2.6986      0.0243     -2.9472     95.7760     28.6083
  1342.5000      8.0053      2.6951      0.0069     -2.7318     94.0608     28.7157
  1342.6000      8.0053      2.6925      0.0434     -2.5775     95.2734     28.6263
  1342.7000      8.0053      2.6891      0.0240     -2.3692    101.1099     28.2491
  1342.8000      7.9924      2.6954      0.0269     -2.7491    103.8781     27.9060
  1342.9000      7.9924      2.7252      0.0560     -4.5572    100.1374     27.7358
  1343.0000      7.9913      2.7632      0.0612     -6.8616     94.7313     27.4561
  1343.1000      7.9913      2.7806      0.0941     -7.9133     90.4497     26.8511
  1343.2000      7.9913      2.7779      0.0400     -7.7535     87.4379     26.2425
  1343.3000      7.9946      2.7799      0.0401     -7.8713     86.8723     25.9746
  1343.4000      7.9946      2.7884      0.0532     -8.3886     89.4988     26.0374
  1343.5000      7.9926      2.7796      0.0904     -7.8528     93.9790     26.3371
  1343.6000      7.9926      2.7481     -0.0312     -5.9474     98.6529     26.5381
  1343.7000      7.9926      2.7184     -0.0279     -4.1440    102.5384     26.2390
  1343.8000      7.9977      2.6987     -0.0051     -2.9521    102.8371     25.6073
  1343.9000      7.9977      2.6802      0.0174     -1.8323     99.1122     25.1286
  1344.0000      7.9983      2.6748     -0.0603     -1.5010     95.1557     24.8951
  1344.1000      7.9983      2.6971      0.0361     -2.8517     93.1717     24.4112
  1344.2000      7.9983      2.7195      0.0369     -4.2095     92.4230     23.7554
  1344.3000      7.9997      2.7093      0.0268     -3.5937     93.8168     23.5201
  1344.4000      7.9997      2.6743     -0.0178     -1.4719     97.7213     23.4933
  1344.5000      7.9966      2.6403     -0.0385      0.5904     99.7596     23.2936
  1344.6000      7.9966      2.6237     -0.0261      1.5918     97.1327     23.1533
  1344.7000      7.9966      2.6388     -0.0820      0.6765     91.4896     23.2154
  1344.8000      7.9911      2.6825      0.0216     -1.9722     86.1780     23.4317
  1344.9000      7.9911      2.7143      0.0745     -3.8942     85.4048     23.7181
  1345.0000      7.9868      2.7065     -0.0223     -3.4248     89.7198     24.0766
  1345.1000      7.9868      2.6776      0.0453     -1.6738     93.9812     24.6785
  1345.2000      7.9868      2.6558     -0.0048     -0.3528     93.7321     25.2929
  1345.3000      8.0038      2.6569     -0.0150     -0.4175     90.3629     25.3198
  1345.4000      8.0038      2.6769      0.0132     -1.6279     88.3024     24.7988
  1345.5000      8.0123      2.7021      0.0254     -3.1581     89.1928     24.4610
  1345.6000      8.0123      2.7214      0.0470     -4.3280     90.1617     24.8276
  1345.7000      8.0123      2.7259      0.0321     -4.6026     88.6118     25.6756
  1345.8000      8.0098      2.7210     -0.0226     -4.3049     86.8897     26.5323
  1345.9000      8.0098      2.7097      0.0873     -3.6160     86.0273     26.9766
  1346.0000      8.0250      2.6797      0.0474     -1.7972     84.5690     26.7751
  1346.1000      8.0250      2.6421     -0.0323      0.4763     84.9234     26.1815
  1346.2000      8.0250      2.6263     -0.0441      1.4367     87.7375     25.5260
  1346.3000      8.0283      2.6457     -0.0693      0.2627     89.0265     25.0651
  1346.4000      8.0283      2.6873      0.0359     -2.2601     88.9041     24.9512
  1346.5000      8.0390      2.7218      0.0254     -4.3491     89.3905     24.9905
  1346.6000      8.0390      2.7308      0.0526     -4.8981     88.2930     24.9692
  1346.7000      8.0390      2.7130      0.0085     -3.8206     85.0196     25.0351
  1346.8000      8.0286      2.6872     -0.0033     -2.2541     82.7531     25.5355
  1346.9000      8.0286      2.6848     -0.0067     -2.1094     82.5610     26.1851
  1347.0000      8.0129      2.7153      0.0247     -3.9569     85.1036     26.2448
  1347.1000      8.0129      2.7443      0.1042     -5.7179     89.4838     25.8533
  1347.2000      8.0129      2.7401      0.0278     -5.4611     89.3793     25.7256
  1347.3000      8.0049      2.7196     -0.0139     -4.2172     83.1973     26.0010
  1347.4000      8.0049      2.7046      0.0365     -3.3110     76.9194     26.2291
  1347.5000      8.0178      2.6977     -0.0022     -2.8900     74.9412     26.3109
  1347.6000      8.0178      2.6955      0.0695     -2.7595     78.0443     26.4631
  1347.7000      8.0178      2.6927      0.0371     -2.5890     83.9973     26.5462
  1347.8000      8.0009      2.7012      0.0220     -3.1032     87.6064     26.5398
  1347.9000      8.0009      2.7335      0.0532     -5.0593     85.2617     26.8170
  1348.0000      7.9884      2.7753      0.1286     -7.5940     79.5372     27.3987
  1348.1000      7.9884      2.8169      0.0886    -10.1146     75.5594     27.7582
  1348.2000      7.9884      2.8633      0.1090    -12.9296     75.5597     27.4944
  1348.3000      7.9800      2.8980      0.1514    -15.0315     76.9056     26.8530
