~Version Information
VERS.                      2.0: CWLS Log ASCII Standard - VERSION 2.0
WRAP.                       NO: One line per depth step
~Well Information Block
STRT.FT               555.0000: 
STOP.FT              2322.2500: 
STEP.FT                 0.2500: 
NULL.                -999.2500: 
COMP.          Pioneer Natural Resources: COMPANY
WELL.          Fittipaldi 21-12: WELL
FLD.           Purgatoire River: FIELD
LOC.           207' FNL & 2110' FWL--: LOCATION
CNTY.               Las Animas: COUNTY
SRVC.                Patterson: SERVICE COMPANY
DATE.          Tue Mar 21 10:27:48 2006: LOG DATE
UWI.           05 071 08492 00: UNIQUE WELL ID
STAT.                 Colorado: STATE
~Curve Information Block
DEPT.FT            0 000 00 00: Depth
SN.Ohm-m                      : IEL Short Normal
SP.mV                         : IEL Spontaneous Potential
DIR.Ohm-m                     : IEL Induction Resistivity
GR.GAPI                       : Gamma Ray
~Parameter Information Block
~A  Depth        SN          SP         DIR          GR     
# ...
  1962.0000     20.2237     34.8082     18.9332     89.1285
  1962.2500     19.2419     34.7925     18.0894     92.4804
  1962.5000     18.1149     34.7712     17.1456     96.7885
  1962.7500     16.9559     34.7447     16.1916     99.2605
  1963.0000     15.8522     34.7133     15.2892    102.5735
  1963.2500     14.8644     34.6772     14.4706    104.6166
  1963.5000     14.0281     34.6359     13.7463    107.7186
  1963.7500     13.3561     34.5895     13.1136    109.9890
  1964.0000     12.8417     34.5384     12.5640    113.5274
  1964.2500     12.4625     34.4846     12.0874    115.5335
  1964.5000     12.1837     34.4312     11.6744    117.3443
  1964.7500     11.9664     34.3820     11.3168    117.7385
  1965.0000     11.7793     34.3409     11.0078    117.5521
  1965.2500     11.6071     34.3103     10.7417    117.2131
  1965.5000     11.4503     34.2906     10.5139    116.8004
  1965.7500     11.3180     34.2799     10.3203    116.6655
  1966.0000     11.2198     34.2742     10.1570    116.4886
  1966.2500     11.1601     34.2688     10.0209    116.3691
  1966.5000     11.1372     34.2590      9.9116    116.6369
  1966.7500     11.1472     34.2411      9.8320    117.3339
  1967.0000     11.1890     34.2137      9.7879    118.8270
  1967.2500     11.2677     34.1768      9.7874    119.7619
  1967.5000     11.3932     34.1320      9.8396    121.1460
  1967.7500     11.5776     34.0814      9.9558    122.4709
  1968.0000     11.8308     34.0261     10.1480    125.1366
  1968.2500     12.1545     33.9665     10.4277    126.5297
  1968.5000     12.5388     33.9015     10.8027    125.8349
  1968.7500     12.9646     33.8302     11.2742    122.7318
  1969.0000     13.4089     33.7525     11.8353    114.4943
  1969.2500     13.8566     33.6706     12.4726    107.4382
  1969.5000     14.3193     33.5891     13.1720     95.9354
  1969.7500     14.8532     33.5150     13.9263     88.4594
  1970.0000     15.5530     33.4562     14.7395     79.2623
  1970.2500     16.5126     33.4194     15.6224     75.6127
  1970.5000     17.7730     33.4084     16.5825     75.2010
  1970.7500     19.2894     33.4235     17.6121     78.1573
  1971.0000     20.9391     33.4615     18.6821     85.0890
  1971.2500     22.5640     33.5165     19.7443     89.2107
  1971.5000     24.0229     33.5816     20.7433     91.3945
  1971.7500     25.2365     33.6503     21.6351     89.3848
  1972.0000     26.2153     33.7176     22.4064     81.9668
  1972.2500     27.0632     33.7802     23.0863     75.3482
  1972.5000     27.9423     33.8363     23.7456     65.0863
  1972.7500     29.0036     33.8845     24.4827     58.8068
  1973.0000     30.3166     33.9234     25.4004     50.8784
  1973.2500     31.8349     33.9506     26.5773     46.8538
  1973.5000     33.4160     33.9622     28.0374     42.9951
  1973.7500     34.8811     33.9538     29.7182     41.7830
  1974.0000     36.0769     33.9211     31.4536     41.6084
  1974.2500     36.9095     33.8611     32.9994     42.4593
  1974.5000     37.3499     33.7737     34.1171     45.0928
  1974.7500     37.4279     33.6617     34.6782     47.6065
  1975.0000     37.2214     33.5303     34.7101     52.3756
  1975.2500     36.8326     33.3860     34.3524     56.4998
  1975.5000     36.3586     33.2342     33.7789     64.8008
  1975.7500     35.8698     33.0784     33.1452     71.6011
  1976.0000     35.4061     32.9185     32.5699     81.8646
  1976.2500     34.9887     32.7513     32.1221     87.1642
  1976.5000     34.6319     32.5715     31.8092     90.6037
  1976.7500     34.3483     32.3730     31.5808     89.4780
  1977.0000     34.1456     32.1511     31.3646     83.7149
  1977.2500     34.0217     31.9039     31.1195     78.4197
  1977.5000     33.9612     31.6336     30.8676     70.1782
  1977.7500     33.9306     31.3465     30.6777     64.9437
  1978.0000     33.8807     31.0536     30.6164     57.6402
  1978.2500     33.7652     30.7684     30.7067     53.3984
  1978.5000     33.5642     30.5059     30.9151     48.9690
  1978.7500     33.2918     30.2804     31.1628     47.9449
  1979.0000     32.9794     30.1030     31.3505     50.0184
  1979.2500     32.6528     29.9804     31.3859     53.8499
  1979.5000     32.3197     29.9141     31.2066     62.4833
  1979.7500     31.9715     29.9009     30.7955     69.1679
  1980.0000     31.5919     29.9337     30.1798     78.4090
  1980.2500     31.1641     30.0029     29.4165     83.0584
  1980.5000     30.6746     30.0980     28.5738     87.4436
  1980.7500     30.1183     30.2078     27.7182     89.1590
  1981.0000     29.5086     30.3214     26.9104     90.9860
  1981.2500     28.8827     30.4284     26.2025     92.0012
  1981.5000     28.2892     30.5191     25.6306     93.1736
  1981.7500     27.7579     30.5853     25.2066     93.5483
  1982.0000     27.2753     30.6220     24.9146     93.0001
  1982.2500     26.7827     30.6285     24.7121     91.4066
  1982.5000     26.2010     30.6089     24.5360     86.3024
  1982.7500     25.4715     30.5729     24.3135     81.1421
  1983.0000     24.5894     30.5336     23.9776     72.7660
  1983.2500     23.6052     30.5062     23.4839     68.7196
  1983.5000     22.5942     30.5044     22.8183     67.6485
  1983.7500     21.6205     30.5384     21.9943     70.6245
  1984.0000     20.7199     30.6124     21.0432     79.5344
  1984.2500     19.9038     30.7246     20.0036     87.4779
  1984.5000     19.1720     30.8678     18.9168    100.6712
  1984.7500     18.5212     31.0308     17.8276    109.1583
  1985.0000     17.9459     31.2010     16.7858    119.5336
  1985.2500     17.4373     31.3661     15.8432    124.4065
  1985.5000     16.9833     31.5154     15.0446    129.3496
  1985.7500     16.5682     31.6405     14.4189    131.8135
  1986.0000     16.1724     31.7362     13.9733    134.7704
  1986.2500     15.7723     31.8005     13.6935    135.9303
  1986.5000     15.3446     31.8344     13.5487    135.4911
  1986.7500     14.8740     31.8416     13.4991    133.2918
  1987.0000     14.3673     31.8280     13.5051    127.0369
  1987.2500     13.8633     31.8001     13.5363    121.5571
  1987.5000     13.4313     31.7637     13.5768    113.9198
  1987.7500     13.1535     31.7231     13.6256    111.0410
  1988.0000     13.1020     31.6803     13.6923    112.1105
  1988.2500     13.3156     31.6353     13.7898    116.3564
  1988.5000     13.7832     31.5868     13.9269    125.8318
  1988.7500     14.4407     31.5327     14.1031    132.2853
  1989.0000     15.1875     31.4710     14.3073    138.8955
  1989.2500     15.9163     31.3997     14.5241    139.8147
  1989.5000     16.5501     31.3172     14.7451    134.7821
  1989.7500     17.0702     31.2221     14.9792    127.3313
  1990.0000     17.5219     31.1133     15.2531    111.6814
  1990.2500     17.9909     30.9901     15.6027     99.7461
  1990.5000     18.5637     30.8528     16.0615     82.1196
  1990.7500     19.2870     30.7025     16.6511     71.5934
  1991.0000     20.1404     30.5417     17.3729     58.4838
  1991.2500     21.0260     30.3744     18.1989     51.6930
  1991.5000     21.7836     30.2063     19.0602     44.6405
  1991.7500     22.2389     30.0440     19.8401     42.2011
  1992.0000     22.2722     29.8952     20.3896     42.1579
  1992.2500     21.8741     29.7674     20.5768     44.5697
  1992.5000     21.1456     29.6673     20.3508     51.9449
  1992.7500     20.2388     29.5997     19.7674     59.5458
  1993.0000     19.2827     29.5672     18.9483     74.8535
  1993.2500     18.3452     29.5692     18.0138     86.7290
  1993.5000     17.4470     29.6024     17.0443    103.9774
  1993.7500     16.5957     29.6609     16.0846    113.3851
  1994.0000     15.8077     29.7369     15.1659    123.2762
  1994.2500     15.1089     29.8213     14.3224    127.5026
  1994.5000     14.5275     29.9048     13.5914    131.6640
  1994.7500     14.0892     29.9785     13.0050    133.6033
  1995.0000     13.8116     30.0347     12.5834    135.6175
  1995.2500     13.6940     30.0675     12.3339    136.0977
