~Version Information
VERS.                      2.0: CWLS Log ASCII Standard - VERSION 2.0
WRAP.                       NO: One line per depth step
~Well Information Block
STRT.FT               -10.0000: 
STOP.FT              2073.0000: 
STEP.FT                 0.2500: 
NULL.                -999.2500: 
COMP.          Pioneer Natural Resources: COMPANY
WELL.              Joplin 44-5: WELL
FLD.           Purgatorie River: FIELD
LOC.           262' FSL & 418' FEL--: LOCATION
PROV.                       CO: PROVINCE
CNTY.               Las Animas: COUNTRY
SRVC.          Patterson Wireline: SERVICE COMPANY
DATE.          Mon Dec 19 09:21:33 2005: LOG DATE
UWI.           05 071 08623 00: UNIQUE WELL ID
~Curve Information Block
DEPT.FT            0 000 00 00: Depth
CCL.                          : Casing Collar Locator
TT3.usec                      : CBL 3' Travel Time
AMP3.mV                       : CBL 3' Amplitude
GR.GAPI                       : Gamma Ray
~Parameter Information Block
~A  Depth       CCL         TT3         AMP3         GR     
# ...
  1095.5000      0.0000    744.4933      9.5181    139.0247
  1095.7500      0.0000    736.9788      9.7441    142.3702
  1096.0000      0.0000    734.8618      9.8004    142.7432
  1096.2500      0.0000    736.1807      9.7650    141.5349
  1096.5000      0.0000    738.8922      9.6898    141.2565
  1096.7500      0.0000    741.6497      9.5933    142.5900
  1097.0000      0.0000    744.1744      9.4828    143.6018
  1097.2500      0.0000    746.9517      9.3711    142.1111
  1097.5000      0.0000    750.1600      9.2796    138.2328
  1097.7500      0.0000    752.7308      9.2276    133.9038
  1098.0000      0.0000    752.9059      9.2111    130.0336
  1098.2500      0.0000    749.9797      9.1933    125.2337
  1098.5000      0.0000    745.2042      9.1281    118.1235
  1098.7500      0.0000    740.8249      9.0024    110.0882
  1099.0000      0.0000    738.6694      8.8556    104.6758
  1099.2500      0.0000    739.6318      8.7473    104.4692
  1099.5000      0.0000    743.4710      8.7048    108.9569
  1099.7500      0.0000    748.7107      8.7050    114.9815
  1100.0000      0.0000    753.4467      8.7089    119.0271
  1100.2500      0.0000    756.5778      8.6994    119.7776
  1100.5000      0.0000    758.1140      8.6842    118.8360
  1100.7500      0.0000    758.5879      8.6742    118.7407
  1101.0000      0.0000    758.4835      8.6680    120.3991
  1101.2500      0.0000    758.0212      8.6601    122.7021
  1101.5000      0.0000    757.0856      8.6586    124.3695
  1101.7500      0.0000    755.3701      8.6876    125.6357
  1102.0000      0.0000    752.8882      8.7653    127.9261
  1102.2500      0.0000    750.4584      8.8835    132.2533
  1102.5000      0.0000    749.3992      9.0145    138.3853
  1102.7500      0.0000    750.4083      9.1335    145.2805
  1103.0000      0.0000    752.9194      9.2315    151.6181
  1103.2500      0.0000    755.8149      9.3134    156.0451
  1103.5000      0.0000    758.5832      9.3934    157.8308
  1103.7500      0.0000    761.5166      9.4889    157.6945
  1104.0000      0.0000    764.8583      9.6107    157.3308
  1104.2500      0.0000    767.9758      9.7524    157.1402
  1104.5000      0.0000    769.5961      9.8904    154.7034
  1104.7500      0.0000    768.9744      9.9939    146.9764
  1105.0000      0.0000    766.5905     10.0441    134.3808
  1105.2500      0.0000    763.4925     10.0474    121.5051
  1105.5000      0.0000    760.1337     10.0313    113.2146
  1105.7500      0.0000    756.1599     10.0188    110.8937
  1106.0000      0.0000    751.4170     10.0054    112.7098
  1106.2500      0.0000    746.9625      9.9661    116.3555
  1106.5000      0.0000    744.3365      9.8857    120.5012
  1106.7500      0.0000    743.0163      9.7720    124.0926
  1107.0000      0.0000    738.5344      9.6393    125.6379
  1107.2500      0.0000    724.3148      9.4917    123.9764
  1107.5000      0.0000    696.7808      9.3306    119.4525
  1107.7500      0.0000    659.1700      9.1717    113.9673
  1108.0000      0.0000    620.3870      9.0454    110.0289
  1108.2500      0.0000    591.0621      8.9785    109.6300
  1108.5000      0.0000    580.6488      8.9747    113.3855
  1108.7500      0.0000    594.1642      9.0155    120.1988
  1109.0000      0.0000    627.7661      9.0780    127.7406
  1109.2500      0.0000    668.9061      9.1476    133.8687
  1109.5000      0.0000    703.5815      9.2138    138.3748
  1109.7500      0.0000    723.9120      9.2646    143.2491
  1110.0000      0.0000    729.7610      9.2920    150.2925
  1110.2500      0.0000    725.5288      9.2975    158.2740
  1110.5000      0.0000    716.2999      9.2895    163.3652
  1110.7500      0.0000    705.8176      9.2780    162.8122
  1111.0000      0.0000    696.3366      9.2716    157.5659
  1111.2500      0.0000    689.1523      9.2760    151.1287
  1111.5000      0.0000    684.8257      9.2936    146.5396
  1111.7500      0.0000    683.4659      9.3278    144.7133
  1112.0000      0.0000    685.4264      9.3825    145.1060
  1112.2500      0.0000    691.6603      9.4552    147.1699
  1112.5000      0.0000    702.7531      9.5330    150.6752
  1112.7500      0.0000    717.2178      9.6000    154.8612
  1113.0000      0.0000    731.4379      9.6483    158.3046
  1113.2500      0.0000    742.3461      9.6772    160.1555
  1113.5000      0.0000    749.8865      9.6882    161.0474
  1113.7500      0.0000    755.9138      9.6836    162.3814
  1114.0000      0.0000    761.1638      9.6668    164.9898
  1114.2500      0.0000    764.5234      9.6389    168.5544
  1114.5000      0.0000    765.0355      9.5934    171.8238
  1114.7500      0.0000    763.4081      9.5180    173.3512
  1115.0000      0.0000    761.2938      9.4027    172.5635
  1115.2500      0.0000    759.8215      9.2479    170.2904
  1115.5000      0.0000    759.1462      9.0687    168.0162
  1115.7500      0.0000    758.9354      8.8925    166.6820
  1116.0000      0.0000    758.8900      8.7485    166.3796
  1116.2500      0.0000    758.9016      8.6546    166.8623
  1116.5000      0.0000    758.9818      8.6121    167.8958
  1116.7500      0.0000    759.1889      8.6107    169.1877
  1117.0000      0.0000    759.6685      8.6355    170.4724
  1117.2500      0.0000    760.8381      8.6675    171.5594
  1117.5000      0.0000    763.4858      8.6858    171.8423
  1117.7500      0.0000    768.3903      8.6783    170.0009
  1118.0000      0.0000    775.4554      8.6534    164.9479
  1118.2500      0.0000    783.1417      8.6382    157.0722
  1118.5000      0.0000    789.1443      8.6614    148.2398
  1118.7500      0.0000    791.9788      8.7376    140.8556
  1119.0000      0.0000    791.8239      8.8656    136.9834
  1119.2500      0.0000    789.4893      9.0376    137.5038
  1119.5000      0.0000    784.6918      9.2446    141.2321
  1119.7500      0.0000    776.2545      9.4742    145.1461
  1120.0000      0.0000    764.6628      9.7072    146.3566
  1120.2500      0.0000    753.5237      9.9183    144.0441
  1120.5000      0.0000    747.0486     10.0820    139.2200
  1120.7500      0.0000    746.1365     10.1822    132.9331
  1121.0000      0.0000    747.9171     10.2188    125.2548
  1121.2500      0.0000    749.0628     10.2068    115.8948
  1121.5000      0.0000    748.7459     10.1661    105.3887
  1121.7500      0.0000    748.4554     10.1076     95.4892
  1122.0000      0.0000    749.8059     10.0310     88.3357
  1122.2500      0.0000    753.0760      9.9358     85.2170
  1122.5000      0.0000    757.5325      9.8313     86.1534
  1122.7500      0.0000    762.2323      9.7282     90.2557
  1123.0000      0.0000    766.1176      9.6228     95.8817
  1123.2500      0.0000    768.0197      9.4961    100.8734
  1123.5000      0.0000    767.3895      9.3320    103.6879
  1123.7500      0.0000    764.9347      9.1363    104.3716
  1124.0000      0.0000    762.1046      8.9398    103.9330
  1124.2500      0.0000    759.9954      8.7845    103.1526
  1124.5000      0.0000    758.8771      8.7003    102.4989
  1124.7500      0.0000    758.4639      8.6900    102.4463
  1125.0000      0.0000    758.3506      8.7299    103.0119
  1125.2500      0.0000    758.2719      8.7831    103.4735
  1125.5000      0.0000    758.1749      8.8181    103.3249
  1125.7500      0.0000    758.1456      8.8261    103.1917
  1126.0000      0.0000    758.2624      8.8281    104.3493
  1126.2500      0.0000    758.4752      8.8606    107.5514
  1126.5000      0.0000    758.5294      8.9479    112.3322
  1126.7500      0.0000    757.9412      9.0848    117.0187
  1127.0000      0.0000    756.1234      9.2439    119.4753
  1127.2500      0.0000    752.8560      9.3952    118.3333
  1127.5000      0.0000    748.9319      9.5178    113.6944
  1127.7500      0.0000    746.1566      9.6017    106.7422
  1128.0000      0.0000    746.0918      9.6469     99.0901
  1128.2500      0.0000    748.5187      9.6623     92.4658
  1128.5000      0.0000    751.3347      9.6606     88.1911
  1128.7500      0.0000    752.1542      9.6526     86.4417
