~Version Information
VERS.                      2.0: CWLS Log ASCII Standard - VERSION 2.0
WRAP.                       NO: One line per depth step
~Well Information Block
STRT.FT                -6.5000: 
STOP.FT              1636.7500: 
STEP.FT                 0.2500: 
NULL.                -999.2500: 
COMP.          Pioneer Natural Resources: COMPANY
WELL.          Stock Canyon 34-33: WELL
FLD.           Purgatorie River: FIELD
LOC.           980' FSL & 2191' FEL--: LOCATION
PROV.                       CO: PROVINCE
CNTY.               Las Animas: COUNTRY
SRVC.          Patterson Wireline: SERVICE COMPANY
DATE.          Mon Dec 12 09:29:49 2005: LOG DATE
UWI.           05 071 08601 00: UNIQUE WELL ID
~Curve Information Block
DEPT.FT            0 000 00 00: Depth
CCL.                          : Casing Collar Locator
TT3.usec                      : CBL 3' Travel Time
AMP3.mV                       : CBL 3' Amplitude
GR.GAPI                       : Gamma Ray
~Parameter Information Block
~A  Depth       CCL         TT3         AMP3         GR     
# ...
   328.5000      0.0000    280.6700     82.5023    129.7805
   328.7500      0.0000    280.6564     82.4958    128.0640
   329.0000      0.0000    280.6513     82.4783    122.4319
   329.2500      0.0000    280.6545     82.4575    112.5868
   329.5000      0.0000    280.6624     82.4443    100.1074
   329.7500      0.0000    280.6701     82.4452     87.4480
   330.0000      0.0000    280.6748     82.4543     76.8762
   330.2500      0.0000    280.6765     82.4614     69.8123
   330.5000      0.0000    280.6776     82.4695     66.5282
   330.7500      0.0000    280.6790     82.4945     66.4114
   331.0000      0.0000    280.6792     82.5409     68.5536
   331.2500      0.0000    280.6752     82.5886     71.8307
   331.5000      0.0000    280.6667     82.6107     74.7262
   331.7500      0.0000    280.6569     82.6000     75.8894
   332.0000      0.0000    280.6505     82.5733     75.2234
   332.2500      0.0000    280.6491     82.5517     74.1389
   332.5000      0.0000    280.6508     82.5413     74.2682
   332.7500      0.0000    280.6530     82.5298     75.7665
   333.0000      0.0000    280.6555     82.5014     77.0358
   333.2500      0.0000    280.6603     82.4537     76.3418
   333.5000      0.0000    280.6685     82.4022     73.5425
   333.7500      0.0000    280.6790     82.3700     69.9814
   334.0000      0.0000    280.6893     82.3712     66.9887
   334.2500      0.0000    280.6966     82.4009     65.0032
   334.5000      0.0000    280.6992     82.4392     63.9696
   334.7500      0.0000    280.6963     82.4560     63.9352
   335.0000      0.0000    280.6880     82.3793     65.1862
   335.2500      0.0000    280.6793     82.0257     68.2265
   335.5000      0.0000    280.6995     81.0620     73.4778
   335.7500      0.0000    280.8371     79.1615     80.4130
   336.0000      0.0000    281.2582     76.3656     87.0785
   336.2500      0.0000    282.1367     73.2679     91.0620
   336.5000      0.0000    283.4912     70.6431     91.1226
   336.7500      0.0000    285.0763     68.8702     87.9184
   337.0000      0.0000    286.4919     67.8418     83.3854
   337.2500      0.0000    287.4477     67.3065     79.4703
   337.5000      0.0000    287.9217     67.0773     77.1210
   337.7500      0.0000    288.0851     66.9944     76.3919
   338.0000      2.0000    288.1329     66.8919     77.5425
   338.2500      0.0000    288.1858     66.6022     81.5420
   338.5000      0.0000    288.2652     66.0120     88.9050
   338.7500      0.0000    288.2632     65.2546     98.3108
   339.0000      0.0000    287.9299     64.8732    107.2310
   339.2500      0.0000    287.0033     65.5874    114.1573
   339.5000      0.0000    285.4711     67.7418    119.4903
   339.7500      0.0000    283.6968     71.0332    123.8280
   340.0000      0.0000    282.1916     74.7285    126.1983
   340.2500      0.0000    281.2453     78.0437    124.9957
   340.5000      0.0000    280.8061     80.4460    120.3984
   340.7500      0.0000    280.6567     81.8331    114.8164
   341.0000      0.0000    280.6197     82.4670    110.6905
   341.2500      0.0000    280.6152     82.7031    108.4083
   341.5000      0.0000    280.6212     82.7774    106.4747
   341.7500      0.0000    280.6324     82.7854    103.2110
   342.0000      0.0000    280.6447     82.7635     98.2708
   342.2500      0.0000    280.6548     82.7373     92.9392
   342.5000      0.0000    280.6618     82.7270     89.0764
   342.7500      0.0000    280.6662     82.7355     87.6059
   343.0000      0.0000    280.6675     82.7540     87.9223
   343.2500      0.0000    280.6644     82.7751     88.6619
   343.5000      0.0000    280.6566     82.7978     88.9408
   343.7500      0.0000    280.6468     82.8242     88.7840
   344.0000      0.0000    280.6394     82.8550     88.4750
   344.2500      0.0000    280.6372     82.8883     87.9129
   344.5000      0.0000    280.6402     82.9187     86.8145
   344.7500      0.0000    280.6464     82.9357     85.2311
   345.0000      0.0000    280.6534     82.9263     83.6781
   345.2500      0.0000    280.6594     82.8868     82.9162
   345.5000      0.0000    280.6621     82.8334     83.5217
   345.7500      0.0000    280.6592     82.7953     85.3573
   346.0000      0.0000    280.6498     82.7952     87.4926
   346.2500      0.0000    280.6356     82.8310     88.8006
   346.5000      0.0000    280.6202     82.8750     88.6591
   346.7500      0.0000    280.6075     82.8927     87.1439
   347.0000      0.0000    280.5997     82.8652     84.7329
   347.2500      0.0000    280.5982     82.7998     81.8396
   347.5000      0.0000    280.6027     82.7232     78.6003
   347.7500      0.0000    280.6112     82.6644     75.1795
   348.0000      0.0000    280.6208     82.6395     72.1770
   348.2500      0.0000    280.6299     82.6480     70.3303
   348.5000      0.0000    280.6376     82.6775     69.6957
   348.7500      0.0000    280.6442     82.7081     69.4584
   349.0000      0.0000    280.6495     82.7171     68.6897
   349.2500      0.0000    280.6533     82.6921     67.1176
   349.5000      0.0000    280.6548     82.6453     65.2366
   349.7500      0.0000    280.6532     82.6089     63.8641
   350.0000      0.0000    280.6474     82.6131     63.4305
   350.2500      0.0000    280.6368     82.6650     63.4822
   350.5000      0.0000    280.6226     82.7470     62.9423
   350.7500      0.0000    280.6078     82.8321     61.0619
   351.0000      0.0000    280.5969     82.8987     58.2006
   351.2500      0.0000    280.5943     82.9344     55.7678
   351.5000      0.0000    280.6017     82.9349     55.5791
   351.7500      0.0000    280.6162     82.9061     59.1853
   352.0000      0.0000    280.6304     82.8653     67.1426
   352.2500      0.0000    280.6369     82.8317     78.1911
   352.5000      0.0000    280.6334     82.8104     89.2019
   352.7500      0.0000    280.6231     82.7880     96.7345
   353.0000      0.0000    280.6102     82.7519     99.2515
   353.2500      0.0000    280.5965     82.7118     97.8596
   353.5000      0.0000    280.5833     82.6927     94.8906
   353.7500      0.0000    280.5741     82.7050     91.9538
   354.0000      0.0000    280.5727     82.7276     89.3897
   354.2500      0.0000    280.5789     82.7267     87.2270
   354.5000      0.0000    280.5870     82.6879     86.1063
   354.7500      0.0000    280.5911     82.6287     86.9679
   355.0000      0.0000    280.5896     82.5815     89.9271
   355.2500      0.0000    280.5849     82.5697     93.8805
   355.5000      0.0000    280.5793     82.5950     97.4523
   355.7500      0.0000    280.5737     82.6411    100.0982
   356.0000      0.0000    280.5673     82.6858    102.1752
   356.2500      0.0000    280.5596     82.7152    104.3359
   356.5000      0.0000    280.5508     82.7301    106.9908
   356.7500      0.0000    280.5431     82.7394    109.7875
   357.0000      0.0000    280.5385     82.7464    111.4348
   357.2500      0.0000    280.5379     82.7446    110.7496
   357.5000      0.0000    280.5402     82.7295    108.2193
   357.7500      0.0000    280.5437     82.7095    105.9145
   358.0000      0.0000    280.5475     82.7005    105.5537
   358.2500      0.0000    280.5507     82.7085    107.1162
   358.5000      0.0000    280.5519     82.7250    109.4465
   358.7500      0.0000    280.5495     82.7388    111.5299
   359.0000      0.0000    280.5422     82.7492    112.9134
   359.2500      0.0000    280.5302     82.7640    113.5949
   359.5000      0.0000    280.5159     82.7859    114.0267
   359.7500      0.0000    280.5035     82.8048    114.7365
   360.0000      0.0000    280.4974     82.8040    115.4683
   360.2500      0.0000    280.4997     82.7720    115.1739
   360.5000      0.0000    280.5097     82.7087    113.3504
   360.7500      0.0000    280.5238     82.6242    110.9240
   361.0000      0.0000    280.5356     82.5405    109.4077
   361.2500      0.0000    280.5386     82.4874    109.5306
   361.5000      0.0000    280.5298     82.4833    111.0389
   361.7500      0.0000    280.5117     82.5152    113.5122
