~Version Information
VERS.                      2.0: CWLS Log ASCII Standard - VERSION 2.0
WRAP.                       NO: One line per depth step
~Well Information Block
STRT.FT                 0.5000: 
STOP.FT              2166.0000: 
STEP.FT                 0.2500: 
NULL.                -999.2500: 
COMP.          Pioneer Natural Resources: COMPANY
WELL.          Bear Cub Federal 11-23: WELL
FLD.           Purgatoire River: FIELD
LOC.           1225' FNL & 1268 ' FWL--: LOCATION
CNTY.               Las Animas: COUNTY
SRVC.                Patterson: SERVICE COMPANY
DATE.          Mon Jul 17 10:21:31 2006: LOG DATE
UWI.           05 071 08509 00: UNIQUE WELL ID
STAT.                 Colorado: STATE
~Curve Information Block
DEPT.FT            0 000 00 00: Depth
CCL.                          : Casing Collar Locator
TT3.usec                      : CBL 3' Travel Time
AMP3.mV                       : CBL 3' Amplitude
GR.GAPI                       : Gamma Ray
~Parameter Information Block
~A  Depth       CCL         TT3         AMP3         GR     
# ...
   302.0000      0.0000    665.2410      5.3020     98.4751
   302.2500      0.0000    680.7960      5.1577     98.6605
   302.5000      0.0000    724.4160      5.0123     97.9325
   302.7500      0.0000    758.5493      4.9563     97.3093
   303.0000      0.0000    805.0921      4.9041     97.2276
   303.2500      0.0000    830.5386      4.8806     97.8043
   303.5000      0.0000    861.2966      4.8884     98.9628
   303.7500      0.0000    876.7070      4.9554     99.6015
   304.0000      0.0000    887.2219      5.1843    100.1275
   304.2500      0.0000    881.5753      5.4074    100.0954
   304.5000      0.0000    849.7097      5.7718     99.3757
   304.7500      0.0000    814.4775      5.9908     98.5378
   305.0000      0.0000    751.9227      6.2548     96.8353
   305.2500      0.0000    712.7536      6.3977     95.1792
   305.5000      0.0000    667.6736      6.5873     91.4687
   305.7500      0.0000    645.2372      6.6998     88.5851
   306.0000      0.0000    611.4019      6.8368     85.8636
   306.2500      0.0000    583.2979      6.9052     86.4927
   306.5000      0.0000    533.3876      6.9852     91.3226
   306.7500      0.0000    498.6044      7.0271     95.5918
   307.0000      0.0000    448.5858      7.0560     99.8190
   307.2500      0.0000    418.0946      7.0413     99.9394
   307.5000      0.0000    380.3423      6.9901     96.9536
   307.7500      0.0000    362.7818      6.9779     94.2622
   308.0000      0.0000    348.5049      7.0623     90.4545
   308.2500      0.0000    345.8294      7.1925     87.7578
   308.5000      0.0000    351.9147      7.4401     82.8897
   308.7500      0.0000    365.6865      7.5927     79.6148
   309.0000      0.0000    409.6178      7.7524     76.1956
   309.2500      0.0000    457.0608      7.8089     75.0276
   309.5000      0.0000    546.8090      7.8410     73.3852
   309.7500      0.0000    607.3002      7.8482     71.4268
   310.0000      0.0000    681.4641      7.8789     67.3220
   310.2500      0.0000    717.1777      7.9336     64.8247
   310.5000      0.0000    755.1649      8.0810     63.1619
   310.7500      0.0000    773.2865      8.2122     63.5208
   311.0000      0.0000    792.1996      8.4187     64.5711
   311.2500      0.0000    800.3924      8.5455     64.3973
   311.5000      0.0000    808.4480      8.7219     62.2025
   311.7500      0.0000    812.0523      8.8392     60.1873
   312.0000      0.0000    815.5833      8.9992     58.2828
   312.2500      0.0000    817.0499      9.0624     58.4111
   312.5000      0.0000    819.5346      9.0428     60.3290
   312.7500      0.0000    822.8821      8.9617     61.9657
   313.0000      0.0000    831.9034      8.8207     63.8119
   313.2500      0.0000    839.3133      8.7744     64.7090
   313.5000      0.0000    846.7424      8.8367     67.0126
   313.7500      0.0000    845.7019      8.9607     69.8765
   314.0000      0.0000    832.0054      9.2164     74.9748
   314.2500      0.0000    813.9392      9.4015     76.9485
   314.5000      0.0000    771.8189      9.6670     74.9810
   314.7500      0.0000    734.5886      9.8141     70.3564
   315.0000      0.0000    676.1429      9.9135     61.0355
   315.2500      0.0000    647.0197      9.8399     55.3462
   315.5000      0.0000    634.8989      9.4716     50.6007
   315.7500      0.0000    649.4863      9.0867     50.7324
   316.0000      0.0000    693.7276      8.4136     55.0004
   316.2500      0.0000    729.1111      7.9529     58.9473
   316.5000      0.0000    784.6143      7.2883     63.1378
   316.7500      0.0000    826.3633      6.8832     63.4380
   317.0000      0.0000    902.0764      6.3691     60.2453
   317.2500      0.0000    957.3785      6.0967     56.9832
   317.5000     -2.0000   1026.8408      5.7704     52.9325
   317.7500     -2.0000   1050.9562      5.5838     51.5158
   318.0000      0.0000   1043.9729      5.3370     50.9794
   318.2500      0.0000   1015.4293      5.2218     51.0965
   318.5000      0.0000    958.3497      5.2001     51.2105
   318.7500      0.0000    924.3143      5.2975     51.0070
   319.0000      0.0000    891.4939      5.5216     50.2867
   319.2500      0.0000    880.6832      5.6462     49.8423
   319.5000      0.0000    872.3122      5.7377     49.8340
   319.7500      0.0000    867.5706      5.7534     50.1657
   320.0000      0.0000    858.7424      5.7529     50.1693
   320.2500      0.0000    851.9887      5.7411     49.3880
   320.5000      0.0000    842.4822      5.6969     47.2784
   320.7500      0.0000    837.4045      5.6563     45.7204
   321.0000      0.0000    831.4147      5.6062     43.6638
   321.2500      0.0000    827.6526      5.5888     42.4856
   321.5000      0.0000    821.2963      5.5801     41.0163
   321.7500      0.0000    816.7189      5.5807     40.4715
   322.0000      0.0000    810.4656      5.5948     41.0584
   322.2500      0.0000    807.3800      5.6172     42.8186
   322.5000      0.0000    804.9605      5.6776     47.8751
   322.7500      0.0000    804.8514      5.7503     52.7838
   323.0000      0.0000    806.8301      5.9568     61.8156
   323.2500      0.0000    809.4070      6.1832     68.2239
   323.5000      0.0000    814.0721      6.6480     76.7427
   323.7500      0.0000    816.5339      7.0159     80.8936
   324.0000      0.0000    817.5333      7.6302     84.6145
   324.2500      0.0000    816.4185      8.0943     85.8613
   324.5000      0.0000    813.2431      8.9024     86.3395
   324.7500      0.0000    810.2143      9.4984     85.4265
   325.0000      0.0000    802.4144     10.3664     81.4188
   325.2500      0.0000    793.2020     10.8512     77.0391
   325.5000      0.0000    768.3481     11.3838     69.2337
   325.7500      0.0000    739.7537     11.6351     64.3809
   326.0000      0.0000    672.0475     11.9265     59.5070
   326.2500      0.0000    611.9677     12.0775     58.5273
   326.5000      0.0000    514.7187     12.2112     60.7598
   326.7500      0.0000    456.8702     12.2209     64.5785
   327.0000      0.0000    393.8192     12.1200     72.9721
   327.2500      0.0000    368.6147     11.9915     79.3614
   327.5000      0.0000    349.7116     11.7291     88.1515
   327.7500      0.0000    344.8364     11.5109     92.8025
   328.0000      0.0000    343.7196     11.1093     97.9536
   328.2500      0.0000    346.6860     10.7831    100.3188
   328.5000      0.0000    360.4359     10.2016    102.2161
   328.7500      0.0000    378.9357      9.7674    102.5983
   329.0000      0.0000    421.5450      9.1051    103.4347
   329.2500      0.0000    455.1388      8.6943    105.2219
   329.5000      0.0000    500.9689      8.1612    109.7336
   329.7500      0.0000    524.8807      7.8634    112.8083
   330.0000      0.0000    555.0429      7.4978    115.7079
   330.2500      0.0000    575.8160      7.3092    116.5308
   330.5000      0.0000    612.0999      7.1049    117.6552
   330.7500      0.0000    641.0980      7.0048    119.1540
   331.0000      0.0000    694.2161      6.8698    122.1727
   331.2500      0.0000    734.1200      6.7790    123.3221
   331.5000      0.0000    788.0761      6.6557    121.0514
   331.7500      0.0000    812.2415      6.5942    116.5267
   332.0000      0.0000    827.9517      6.5367    108.0255
   332.2500      0.0000    829.3947      6.5186    103.9474
   332.5000      0.0000    828.3235      6.5269    103.0175
   332.7500      0.0000    829.6013      6.5618    105.0759
   333.0000      0.0000    837.8689      6.6568    108.5246
   333.2500      0.0000    847.9732      6.7426    109.9040
   333.5000      0.0000    868.0596      6.8986    111.7745
   333.7500      0.0000    881.8390      7.0220    113.8003
   334.0000      0.0000    895.8398      7.2428    117.0983
   334.2500      0.0000    897.1038      7.4189    118.1971
   334.5000      0.0000    886.0546      7.7294    117.8183
   334.7500      0.0000    873.1441      7.9562    117.1614
   335.0000      0.0000    852.9261      8.2800    116.5827
   335.2500      0.0000    842.0360      8.4579    115.8204
