~Version Information
VERS.                      2.0: CWLS Log ASCII Standard - VERSION 2.0
WRAP.                       NO: One line per depth step
~Well Information Block
STRT.FT               233.8000: 
STOP.FT              1692.5000: 
STEP.FT                 0.1000: 
NULL.                -999.2500: 
COMP.          Pioneer Natural Resources: COMPANY
WELL.            Relay 12-7 Tr: WELL
FLD.           Purgatoire River: FIELD
LOC.           2025' FNL & 790' FWL: LOCATION
PROV.                 Colorado: PROVINCE
CNTY.               Las Animas: COUNTRY
SRVC.                Patterson: SERVICE COMPANY
DATE.          Mon Jan 16 13:23:17 2006: LOG DATE
UWI.           05 071 08603 00: UNIQUE WELL ID
~Curve Information Block
DEPT.FT            0 000 00 00: Depth
DCAL.in                       : CDL Caliper
RHOB.g/cc                     : CDL Bulk Density
RHOC.g/cc                     : CDL Density Correction
DPOR.pu                       : CDL Density Porosity
GR.GAPI                       : Gamma Ray
~Parameter Information Block
~A  Depth       DCAL        RHOB        RHOC        DPOR         GR     
# ...
  1398.6000      7.8394      2.6636      0.0742     -0.8251     84.4220
  1398.7000      7.8394      2.6763      0.0650     -1.5925     78.6309
  1398.8000      7.8000      2.6754      0.0731     -1.5408     73.4908
  1398.9000      7.8000      2.6724      0.0673     -1.3590     73.8114
  1399.0000      7.7726      2.6719      0.0638     -1.3292     79.2802
  1399.1000      7.7726      2.6735      0.0143     -1.4262     85.1752
  1399.2000      7.7726      2.6713      0.0304     -1.2923     86.5610
  1399.3000      7.8021      2.6567      0.0324     -0.4057     84.9561
  1399.4000      7.8021      2.6337      0.0037      0.9881     85.7151
  1399.5000      7.8451      2.6131     -0.0029      2.2380     89.1334
  1399.6000      7.8451      2.5938      0.0303      3.4066     90.7520
  1399.7000      7.8451      2.5686      0.0592      4.9359     89.3953
  1399.8000      7.8667      2.5413      0.0095      6.5878     88.6328
  1399.9000      7.8667      2.5226     -0.0037      7.7237     89.0010
  1400.0000      7.8584      2.5123     -0.0047      8.3430     89.2217
  1400.1000      7.8584      2.5119     -0.0363      8.3673     93.3631
  1400.2000      7.8584      2.5342     -0.0633      7.0208    101.6020
  1400.3000      7.8584      2.5740      0.0173      4.6087    107.6614
  1400.4000      7.8584      2.6010      0.0437      2.9678    108.4317
  1400.5000      7.8538      2.6064     -0.0138      2.6398    105.4865
  1400.6000      7.8538      2.6099      0.0606      2.4320    100.0124
  1400.7000      7.8538      2.6123      0.1140      2.2870     93.8981
  1400.8000      7.8392      2.6051      0.0875      2.7221     92.0750
  1400.9000      7.8392      2.5980      0.0509      3.1486     98.4454
  1401.0000      7.8168      2.5963      0.0859      3.2535    108.6626
  1401.1000      7.8168      2.5882      0.0573      3.7478    114.3622
  1401.2000      7.8168      2.5744      0.0181      4.5806    112.9924
  1401.3000      7.8115      2.5688      0.0518      4.9229    107.5488
  1401.4000      7.8115      2.5732      0.0366      4.6574    100.8827
  1401.5000      7.8361      2.5762      0.0573      4.4717     94.8663
  1401.6000      7.8361      2.5596      0.0452      5.4802     91.1349
  1401.7000      7.8361      2.5174      0.0341      8.0352     89.5197
  1401.8000      7.8580      2.4646      0.0252     11.2389     88.6878
  1401.9000      7.8580      2.4197     -0.0144     13.9580     86.2268
  1402.0000      7.8502      2.4017     -0.0243     15.0512     80.9082
  1402.1000      7.8502      2.4231     -0.0040     13.7524     75.7066
  1402.2000      7.8502      2.4820      0.0330     10.1799     72.8810
  1402.3000      7.7562      2.5588      0.1225      5.5293     71.9668
  1402.4000      7.7562      2.6217      0.1903      1.7132     74.0623
  1402.5000      7.7151      2.6532      0.2215     -0.1960     78.5147
  1402.6000      7.7151      2.6562      0.2308     -0.3749     82.7451
  1402.7000      7.7151      2.6483      0.1621      0.1009     86.5189
  1402.8000      7.6939      2.6505      0.1694     -0.0284     89.6875
  1402.9000      7.6939      2.6579      0.1848     -0.4763     90.3086
  1403.0000      7.6638      2.6505      0.1166     -0.0306     86.1628
  1403.1000      7.6638      2.6270      0.0674      1.3954     79.4484
  1403.2000      7.6638      2.6026      0.0201      2.8719     75.1643
  1403.3000      7.7263      2.5892      0.0347      3.6831     76.4176
  1403.4000      7.7263      2.5896      0.0249      3.6636     82.7260
  1403.5000      7.9222      2.5999      0.0326      3.0335     88.4113
  1403.6000      7.9222      2.6055      0.0687      2.6985     89.2711
  1403.7000      7.9222      2.5981      0.0230      3.1438     87.2571
  1403.8000      7.8799      2.5909      0.0107      3.5814     85.1219
  1403.9000      7.8799      2.5920      0.0732      3.5140     82.5441
  1404.0000      7.8864      2.5961      0.0758      3.2656     78.3399
  1404.1000      7.8864      2.5967      0.0667      3.2283     73.3853
  1404.2000      7.8864      2.5845      0.0897      3.9723     70.1327
  1404.3000      7.8681      2.5593      0.0393      5.5000     70.1167
  1404.4000      7.8681      2.5475     -0.0029      6.2140     73.6009
  1404.5000      7.8662      2.5698      0.0907      4.8601     78.3519
  1404.6000      7.8662      2.6173      0.1104      1.9806     79.9731
  1404.7000      7.8662      2.6693      0.1788     -1.1674     77.5137
  1404.8000      7.8704      2.7010      0.2153     -3.0901     73.9745
  1404.9000      7.8704      2.7055      0.1763     -3.3660     70.4939
  1405.0000      7.8688      2.6984      0.0987     -2.9337     66.0897
  1405.1000      7.8688      2.6822      0.1377     -1.9526     65.1715
  1405.2000      7.8688      2.6456      0.1099      0.2672     71.0791
  1405.3000      7.8076      2.5929      0.0589      3.4580     76.9324
  1405.4000      7.8076      2.5462      0.0165      6.2901     80.8416
  1405.5000      7.7944      2.5225      0.0288      7.7295     89.3239
  1405.6000      7.7944      2.5246     -0.0116      7.5990     99.6136
  1405.7000      7.7944      2.5546     -0.0376      5.7790    103.6811
  1405.8000      7.8465      2.6011      0.0410      2.9622    101.6587
  1405.9000      7.8465      2.6256      0.0874      1.4807    100.8848
  1406.0000      7.8986      2.6117      0.0244      2.3235    105.1313
  1406.1000      7.8986      2.5840      0.0171      4.0028    109.4160
  1406.2000      7.8986      2.5581      0.0029      5.5706    109.8387
  1406.3000      7.8886      2.5396     -0.0324      6.6927    110.1066
  1406.4000      7.8886      2.5422      0.0063      6.5326    113.6489
  1406.5000      7.8693      2.5707      0.0158      4.8034    117.3597
  1406.6000      7.8693      2.6122      0.0584      2.2882    116.9786
  1406.7000      7.8693      2.6407      0.0952      0.5642    114.5698
  1406.8000      7.8571      2.6420      0.0742      0.4865    114.6989
  1406.9000      7.8571      2.6293      0.0750      1.2571    114.8818
  1407.0000      7.8657      2.6147      0.0856      2.1407    110.9063
  1407.1000      7.8657      2.6027      0.0160      2.8674    105.7267
  1407.2000      7.8657      2.6032      0.0574      2.8355    101.9499
  1407.3000      7.8171      2.6186      0.0343      1.9026     97.6325
  1407.4000      7.8171      2.6349      0.1055      0.9156     92.8188
  1407.5000      7.8084      2.6348      0.0834      0.9183     91.4412
  1407.6000      7.8084      2.6221      0.0561      1.6896     95.9557
  1407.7000      7.8084      2.6130      0.0366      2.2440    103.6657
  1407.8000      7.8141      2.6120      0.0110      2.3057    109.1956
  1407.9000      7.8141      2.6090      0.0818      2.4823    110.3218
  1408.0000      7.8113      2.5969      0.0443      3.2188    110.3775
  1408.1000      7.8113      2.5823      0.0500      4.1040    114.8752
  1408.2000      7.8113      2.5663      0.0889      5.0698    124.2108
  1408.3000      7.8409      2.5425      0.0173      6.5155    132.2844
  1408.4000      7.8409      2.5206     -0.0702      7.8448    134.7774
  1408.5000      7.8308      2.5188     -0.0352      7.9521    133.8775
  1408.6000      7.8308      2.5357      0.0117      6.9301    132.0305
  1408.7000      7.8308      2.5575      0.0660      5.6070    129.1290
  1408.8000      7.8195      2.5853      0.0087      3.9233    126.8141
  1408.9000      7.8195      2.6182      0.0849      1.9279    126.1856
  1409.0000      7.8362      2.6278      0.1083      1.3484    126.8969
  1409.1000      7.8362      2.6039      0.0141      2.7961    127.9572
  1409.2000      7.8362      2.5749      0.0462      4.5518    125.6824
  1409.3000      7.8482      2.5625      0.0098      5.3033    118.9057
  1409.4000      7.8482      2.5685      0.0156      4.9375    113.1869
  1409.5000      7.8531      2.5752      0.0668      4.5360    114.1433
  1409.6000      7.8531      2.5587      0.0512      5.5359    120.8428
  1409.7000      7.8531      2.5329     -0.0087      7.0942    127.5684
