~Version Information
VERS.                      2.0: CWLS Log ASCII Standard - VERSION 2.0
WRAP.                       NO: One line per depth step
~Well Information Block
STRT.FT                -6.7500: 
STOP.FT              1466.2500: 
STEP.FT                 0.2500: 
NULL.                -999.2500: 
COMP.          Pioneer Natural Resources: COMPANY
WELL.          Pallet Ranch 34-15 Tr: WELL
FLD.           Purgatorie River: FIELD
LOC.           465' FSL & 2138' FEL--: LOCATION
PROV.                       CO: PROVINCE
CNTY.               Las Animas: COUNTRY
SRVC.          Patterson Wireline: SERVICE COMPANY
DATE.          Wed Jan 25 09:38:09 2006: LOG DATE
UWI.           05 071 08657 00: UNIQUE WELL ID
~Curve Information Block
DEPT.FT            0 000 00 00: Depth
CCL.                          : Casing Collar Locator
TT3.usec                      : CBL 3' Travel Time
AMP3.mV                       : CBL 3' Amplitude
GR.GAPI                       : Gamma Ray
~Parameter Information Block
~A  Depth       CCL         TT3         AMP3         GR     
# ...
   361.7500      0.0000    734.7709      7.3380     82.0809
   362.0000      0.0000    734.5675      7.3426     83.2692
   362.2500      0.0000    734.2949      7.3811     83.6892
   362.5000      0.0000    733.9800      7.4460     83.4308
   362.7500      0.0000    733.6741      7.5223     82.6846
   363.0000      0.0000    733.4281      7.5958     81.5183
   363.2500      0.0000    733.2509      7.6606     80.0510
   363.5000      0.0000    733.1098      7.7197     78.7715
   363.7500      0.0000    732.9735      7.7765     78.6162
   364.0000      0.0000    732.8479      7.8257     80.3943
   364.2500      0.0000    732.7733      7.8584     83.7378
   364.5000      0.0000    732.7838      7.8756     86.8758
   364.7500      0.0000    732.8611      7.8905     88.0292
   365.0000      0.0000    732.9435      7.9105     86.9089
   365.2500      0.0000    732.9926      7.9229     84.6097
   365.5000      0.0000    733.0300      7.9054     82.3881
   365.7500      0.0000    733.0916      7.8492     80.9197
   366.0000      0.0000    733.1735      7.7663     80.5385
   366.2500      0.0000    733.2424      7.6740     81.5536
   366.5000      0.0000    733.2770      7.5810     83.7937
   366.7500      0.0000    733.2795      7.4905     86.0955
   367.0000      0.0000    733.2583      7.4101     87.0061
   367.2500      0.0000    733.2146      7.3543     86.1894
   367.5000      0.0000    733.1374      7.3357     84.7047
   367.7500      0.0000    733.0076      7.3543     83.9230
   368.0000      0.0000    732.8207      7.3925     84.6911
   368.2500      0.0000    732.6202      7.4220     87.2738
   368.5000      0.0000    732.4991      7.4196     91.2179
   368.7500      0.0000    732.5493      7.3825     95.0872
   369.0000      0.0000    732.7937      7.3263     96.9816
   369.2500      0.0000    733.1551      7.2703     95.8206
   369.5000      0.0000    733.4875      7.2248     92.0214
   369.7500      0.0000    733.6241      7.1934     86.7940
   370.0000      0.0000    733.3864      7.1823     81.1565
   370.2500      0.0000    732.5394      7.1991     75.9799
   370.5000      0.0000    730.8544      7.2453     72.4885
   370.7500      0.0000    728.4561      7.3107     71.8826
   371.0000      0.0000    726.1874      7.3771     74.2505
   371.2500      0.0000    725.2790      7.4307     78.2385
   371.5000      0.0000    726.2853      7.4754     82.1929
   371.7500      0.0000    728.4785      7.5337     85.6081
   372.0000      0.0000    730.5372      7.6276     89.1456
   372.2500      0.0000    731.6767      7.7559     93.2845
   372.5000      0.0000    731.9874      7.8916     97.4495
   372.7500      0.0000    731.9664      8.0034    100.6322
   373.0000      0.0000    731.9901      8.0775    102.4153
   373.2500      0.0000    732.1365      8.1199    102.9996
   373.5000      0.0000    732.2985      8.1418    102.5277
   373.7500      0.0000    732.3669      8.1473    100.9407
   374.0000      0.0000    732.3150      8.1332     98.5180
   374.2500      0.0000    732.1450      8.0930     96.0599
   374.5000      0.0000    731.7596      8.0172     94.3210
   374.7500      0.0000    730.8347      7.8910     93.4696
   375.0000      0.0000    728.7589      7.6967     93.1392
   375.2500      0.0000    725.1965      7.4356     92.8367
   375.5000      0.0000    721.6219      7.1601     92.2954
   375.7500      0.0000    722.7296      6.9565     91.5056
   376.0000      0.0000    734.4973      6.8599     90.3926
   376.2500      0.0000    758.2485      6.8058     88.5291
   376.5000      0.0000    786.8517      6.7084     85.3410
   376.7500      0.0000    810.2823      6.5656     80.9088
   377.0000      0.0000    825.8334      6.4427     76.6664
   377.2500      0.0000    839.0468      6.3833     74.7965
   377.5000     -2.0000    853.7765      6.3863     76.3508
   377.7500      0.0000    866.1365      6.4542     79.9131
   378.0000      0.0000    869.0810      6.6337     82.4118
   378.2500      0.0000    857.4293      6.9922     81.5065
   378.5000      0.0000    827.9703      7.5391     77.5036
   378.7500      0.0000    781.7347      8.1601     73.2718
   379.0000      0.0000    728.5581      8.6680     72.1922
   379.2500      0.0000    684.9974      8.9498     75.6472
   379.5000      0.0000    664.4038      9.0382     82.1020
   379.7500      0.0000    668.0193      9.0301     88.5567
   380.0000      0.0000    685.1816      8.9872     92.8009
   380.2500      0.0000    702.5742      8.9296     94.3456
   380.5000      0.0000    713.4186      8.8707     93.8780
   380.7500      0.0000    718.3297      8.8257     92.5567
   381.0000      0.0000    719.6020      8.8044     91.5943
   381.2500      0.0000    716.4445      8.8145     91.7437
   381.5000      0.0000    705.7139      8.8678     92.9407
   381.7500      0.0000    686.9353      8.9724     94.5835
   382.0000      0.0000    666.5502      9.1167     96.1570
   382.2500      0.0000    655.3496      9.2624     97.4806
   382.5000      0.0000    659.5309      9.3605     98.5104
   382.7500      0.0000    675.3090      9.3778     99.1410
   383.0000      0.0000    693.5643      9.3135     99.2368
   383.2500      0.0000    707.8561      9.1967     98.7722
   383.5000      0.0000    716.6517      9.0724     97.9446
   383.7500      0.0000    720.5295      8.9793     97.1648
   384.0000      0.0000    720.2756      8.9306     96.8193
   384.2500      0.0000    717.4754      8.9131     96.8873
   384.5000      0.0000    714.9412      8.9065     97.0076
   384.7500      0.0000    715.2070      8.9014     97.1993
   385.0000      0.0000    718.6326      8.8937     98.2287
   385.2500      0.0000    723.4034      8.8698    100.8626
   385.5000      0.0000    727.4271      8.8074    104.8394
   385.7500      0.0000    729.8389      8.6947    108.7650
   386.0000      0.0000    730.9384      8.5457    110.9262
   386.2500      0.0000    731.3414      8.3927    110.3343
   386.5000      0.0000    731.4431      8.2635    107.3983
   386.7500      0.0000    731.3498      8.1632    103.6941
   387.0000      0.0000    730.9236      8.0786    100.9096
   387.2500      0.0000    729.7139      8.0001     99.9567
   387.5000      0.0000    726.9502      7.9370    100.8721
   387.7500      0.0000    721.9871      7.9082    103.0946
   388.0000      0.0000    715.1979      7.9214    105.6830
   388.2500      0.0000    708.3821      7.9704    107.7192
   388.5000      0.0000    703.7285      8.0508    108.9406
   388.7500      0.0000    702.1497      8.1698    109.7639
   389.0000      0.0000    702.7508      8.3376    110.3602
   389.2500      0.0000    703.5657      8.5547    110.0823
   389.5000      0.0000    701.7645      8.8073    108.2445
   389.7500      0.0000    693.7938      9.0649    105.1482
   390.0000      0.0000    678.3879      9.2845    101.7793
   390.2500      0.0000    661.1258      9.4220     98.5533
   390.5000      0.0000    653.0327      9.4514     94.8232
   390.7500      0.0000    661.0563      9.3813     89.8748
   391.0000      0.0000    680.8658      9.2554     84.2678
   391.2500      0.0000    701.2291      9.1309     79.9745
   391.5000      0.0000    714.0914      9.0431     79.0878
   391.7500      0.0000    718.8792      8.9829     82.2316
   392.0000      0.0000    719.3035      8.9103     87.8780
   392.2500      0.0000    718.7881      8.7945     93.1312
   392.5000      0.0000    718.8253      8.6470     95.6186
   392.7500      0.0000    719.6168      8.5142     95.0705
   393.0000      0.0000    720.7546      8.4322     93.0792
   393.2500      0.0000    721.6276      8.3882     91.3647
   393.5000      0.0000    722.1228      8.3318     90.5182
   393.7500      0.0000    722.9845      8.2288     90.2646
   394.0000      0.0000    724.9282      8.0998     90.1961
   394.2500      0.0000    727.6563      8.0011     89.9151
   394.5000      0.0000    730.1809      7.9722     89.0527
   394.7500      0.0000    731.8369      8.0043     87.6106
   395.0000      0.0000    732.5969      8.0553     85.9928
