~Version Information
VERS.                      2.0: CWLS Log ASCII Standard - VERSION 2.0
WRAP.                       NO: One line per depth step
~Well Information Block
STRT.FT                -7.5000: 
STOP.FT              1350.7500: 
STEP.FT                 0.2500: 
NULL.                -999.2500: 
COMP.          Pioneer Natural Resources: COMPANY
WELL.            Gamma 13-3 Tr: WELL
FLD.           Purgatorie River: FIELD
LOC.           2127' FSL & 738' FWL: LOCATION
STAT.                       CO: State
CNTY.               Las Animas: COUNTY
CTRY.                      USA: Country
SECT.                        3: Section
TOWN.                      33S: Township
RANG.                      67W: Range
SRVC.          Patterson Wireline: SERVICE COMPANY
DATE.          Fri Sep 23 13:24:40 2005: LOG DATE
API.           05 071 08524 00: API
~Curve Information Block
DEPT.FT            0 000 00 00: Depth
CCL.                          : Casing Collar Locator
TT3.usec                      : CBL 3' Travel Time
AMP3.mV                       : CBL 3' Amplitude
GR.GAPI                       : Gamma Ray
~Parameter Information Block
~A  Depth       CCL         TT3         AMP3         GR     
# ...
   629.0000      0.0000    744.6689     12.0384    115.6672
   629.2500      0.0000    754.5438     12.0922    116.8281
   629.5000      0.0000    762.3131     12.1377    115.9022
   629.7500      0.0000    769.5457     12.1772    113.6957
   630.0000      0.0000    771.6987     12.2115    111.3565
   630.2500      0.0000    762.9081     12.2374    109.8015
   630.5000      0.0000    743.1954     12.2488    109.4547
   630.7500      0.0000    720.8973     12.2381    110.4314
   631.0000      0.0000    707.1381     12.1964    112.9549
   631.2500      0.0000    706.8549     12.1184    117.2790
   631.5000      0.0000    715.5384     12.0078    122.9189
   631.7500      0.0000    725.1904     11.8768    128.1072
   632.0000      0.0000    731.8411     11.7393    130.5372
   632.2500      0.0000    736.5614     11.6088    129.0460
   632.5000      0.0000    741.4824     11.5006    124.7441
   632.7500      0.0000    746.8476     11.4297    120.5779
   633.0000      0.0000    751.0708     11.4015    119.4710
   633.2500      0.0000    752.1118     11.4067    122.2916
   633.5000      0.0000    748.9037     11.4265    127.2576
   633.7500      0.0000    742.3609     11.4432    131.3626
   634.0000      0.0000    734.9670     11.4460    132.6122
   634.2500      0.0000    729.0035     11.4302    131.0959
   634.5000      0.0000    724.9794     11.3947    128.2072
   634.7500      0.0000    721.4099     11.3434    125.1925
   635.0000      0.0000    715.4111     11.2882    122.4772
   635.2500      0.0000    704.1024     11.2481    120.0376
   635.5000      0.0000    687.5363     11.2381    118.0182
   635.7500      0.0000    671.2912     11.2626    116.8103
   636.0000      0.0000    663.7142     11.3175    116.6730
   636.2500      0.0000    667.7162     11.3963    117.6032
   636.5000      0.0000    675.8450     11.4892    119.5158
   636.7500      0.0000    675.3447     11.5800    122.2349
   637.0000      0.0000    658.4023     11.6498    125.3129
   637.2500      0.0000    629.0078     11.6843    128.1558
   637.5000      0.0000    602.4697     11.6799    130.2671
   637.7500      0.0000    596.4951     11.6476    131.3681
   638.0000      0.0000    616.9831     11.6129    131.6666
   638.2500      0.0000    649.4058     11.6061    131.9342
   638.5000      0.0000    666.1309     11.6445    132.6151
   638.7500      0.0000    646.1733     11.7202    132.8686
   639.0000      0.0000    590.6423     11.8058    131.3111
   639.2500      0.0000    520.8552     11.8730    127.5763
   639.5000      0.0000    462.6368     11.9077    122.2659
   639.7500      0.0000    432.0791     11.9098    115.6279
   640.0000      0.0000    432.0023     11.8855    107.2266
   640.2500      0.0000    455.6209     11.8442     97.0293
   640.5000      0.0000    491.1344     11.8001     86.3241
   640.7500      0.0000    526.4860     11.7707     77.3061
   641.0000      0.0000    552.9737     11.7666     71.6430
   641.2500      0.0000    564.2688     11.7823     69.3039
   641.5000      0.0000    554.2289     11.7997     68.5621
   641.7500      0.0000    520.9379     11.8021     67.1924
   642.0000      0.0000    473.5959     11.7862     64.1038
   642.2500      0.0000    431.5667     11.7607     60.2935
   642.5000      0.0000    414.7370     11.7380     58.2751
   642.7500      0.0000    434.1226     11.7267     60.2218
   643.0000      0.0000    487.9903     11.7322     66.3874
   643.2500      0.0000    562.6534     11.7577     75.2114
   643.5000      0.0000    637.1750     11.8014     84.7321
   643.7500      0.0000    690.5410     11.8544     93.5674
   644.0000      0.0000    708.0364     11.9014    100.9185
   644.2500      0.0000    686.0330     11.9272    106.6093
   644.5000      0.0000    636.2029     11.9229    111.3381
   644.7500      0.0000    585.1291     11.8882    116.0719
   645.0000      0.0000    562.3661     11.8269    120.7409
   645.2500      0.0000    581.1765     11.7421    123.8807
   645.5000      0.0000    629.4883     11.6377    123.8928
   645.7500      0.0000    681.4014     11.5239    120.6730
   646.0000      0.0000    717.3527     11.4169    115.8943
   646.2500      0.0000    733.6982     11.3300    111.6726
   646.5000      0.0000    736.8136     11.2662    109.1572
   646.7500      0.0000    732.0516     11.2192    108.4451
   647.0000      0.0000    718.8894     11.1808    109.2500
   647.2500      0.0000    694.9409     11.1470    111.1579
   647.5000      0.0000    662.6422     11.1171    113.6881
   647.7500      0.0000    630.4687     11.0864    116.6301
   648.0000      0.0000    607.7676     11.0392    120.2774
   648.2500      0.0000    599.4141     10.9519    125.0127
   648.5000      0.0000    605.0337     10.8117    130.4513
   648.7500      0.0000    621.0409     10.6364    135.0218
   649.0000      0.0000    641.9058     10.4705    136.7185
   649.2500      0.0000    660.7922     10.3490    134.4883
   649.5000      0.0000    671.9539     10.2571    128.8006
   649.7500      0.0000    674.1807     10.1276    120.9699
   650.0000      0.0000    671.0491      9.8959    112.5006
   650.2500      0.0000    667.3905      9.5700    105.2419
   650.5000      0.0000    666.5581      9.2350    101.2413
   650.7500      0.0000    671.2794      8.9699    101.4655
   651.0000      0.0000    684.5803      8.7756    104.7135
   651.2500      0.0000    707.2392      8.6200    108.3789
   651.5000      0.0000    734.9297      8.5285    110.5341
   651.7500      0.0000    759.9345      8.5783    111.2211
   652.0000      0.0000    776.1624      8.8004    111.7921
   652.2500      2.0000    781.3727      9.1295    113.1623
   652.5000      0.0000    774.9711      9.4570    114.8415
   652.7500      0.0000    756.2567      9.7269    115.7096
   653.0000      0.0000    727.3939      9.9873    115.5527
   653.2500      0.0000    697.3729     10.3321    115.5136
   653.5000      0.0000    679.6551     10.7574    117.0899
   653.7500      0.0000    682.8434     11.1200    120.8086
   654.0000      0.0000    702.2544     11.3104    125.5663
   654.2500      0.0000    721.8640     11.4170    129.2161
   654.5000      0.0000    725.9767     11.6157    130.4818
   654.7500      0.0000    709.6807     11.9448    130.5913
   655.0000      0.0000    680.0654     12.2794    132.3968
   655.2500      0.0000    650.2609     12.4917    137.3832
   655.5000      0.0000    631.5275     12.5633    143.6230
   655.7500      0.0000    627.3329     12.5533    147.0926
   656.0000      0.0000    633.1046     12.5180    145.3656
   656.2500      0.0000    641.6481     12.4791    139.8320
   656.5000      0.0000    648.8354     12.4388    134.1011
   656.7500      0.0000    654.4465     12.3988    130.6920
   657.0000      0.0000    658.8693     12.3608    129.5302
   657.2500      0.0000    659.6574     12.3237    129.0995
   657.5000      0.0000    651.3547     12.2861    128.2896
   657.7500      0.0000    629.0095     12.2548    126.7935
   658.0000      0.0000    592.4134     12.2450    124.1811
   658.2500      0.0000    548.4047     12.2658    119.7107
   658.5000      0.0000    510.4612     12.3053    113.5909
   658.7500      0.0000    493.7356     12.3371    107.6649
   659.0000      0.0000    505.2895     12.3432    104.0855
   659.2500      0.0000    537.2612     12.3275    103.7299
   659.5000      0.0000    571.6384     12.3075    106.0917
   659.7500      0.0000    593.1643     12.2979    109.8490
   660.0000      0.0000    597.6913     12.3027    113.1397
   660.2500      0.0000    589.5137     12.3160    114.1304
   660.5000      0.0000    574.0872     12.3272    112.0827
   660.7500      0.0000    555.4103     12.3260    107.7470
   661.0000      0.0000    537.1046     12.3055    102.6028
   661.2500      0.0000    520.4444     12.2631     97.9689
   661.5000      0.0000    501.4525     12.2017     94.8250
   661.7500      0.0000    474.8500     12.1315     93.8562
   662.0000      0.0000    441.3553     12.0684     95.1502
   662.2500      0.0000    407.9107     12.0273     98.2137
