~Version Information
VERS.                      2.0: CWLS Log ASCII Standard - VERSION 2.0
WRAP.                       NO: One line per depth step
~Well Information Block
STRT.FT                -6.2500: 
STOP.FT              1327.5000: 
STEP.FT                 0.2500: 
NULL.                -999.2500: 
COMP.          Pioneer Natural Resources: COMPANY
WELL.            Avant 14-3 Tr: WELL
FLD.           Purgatorie River: FIELD
LOC.           170' FSL & 1174' FWL--: LOCATION
STAT.                       CO: State
CNTY.               Las Animas: COUNTY
CTRY. USA : Country
SECT. 3 : Section
TOWN. 33S : Township
RANG. 67W : Range
SRVC.          Patterson Wireline: SERVICE COMPANY
DATE.          Tue Aug 23 16:44:25 2005: LOG DATE
API.           05 071 08463 00: UNIQUE WELL ID
~Curve Information Block
DEPT.FT            0 000 00 00: Depth
CCL.                          : Casing Collar Locator
TT3.usec                      : CBL 3' Travel Time
AMP3.mV                       : CBL 3' Amplitude
GR.GAPI                       : Gamma Ray
~Parameter Information Block
~A  Depth       CCL         TT3         AMP3         GR     
# ...
   161.2500      0.0000    307.6772     24.5154     86.4251
   161.5000      0.0000    310.0046     24.3523     83.8354
   161.7500      0.0000    312.2036     24.2025     81.5412
   162.0000      0.0000    313.1794     24.0722     80.3283
   162.2500      0.0000    312.5901     23.9601     80.4905
   162.5000      0.0000    311.5837     23.8598     81.9389
   162.7500      0.0000    312.4740     23.7632     84.0902
   163.0000      0.0000    318.0620     23.6644     86.0201
   163.2500      0.0000    331.6700     23.5620     87.3329
   163.5000      0.0000    357.3454     23.4621     88.6525
   163.7500      0.0000    397.9756     23.3719     90.8743
   164.0000      0.0000    450.5459     23.2871     94.0285
   164.2500      0.0000    502.6136     23.1841     97.0311
   164.5000      0.0000    536.2475     23.0342     98.5347
   164.7500      0.0000    539.2859     22.8290     97.9879
   165.0000      0.0000    515.7473     22.5898     95.8603
   165.2500      0.0000    486.4103     22.3505     93.0317
   165.5000      0.0000    477.2861     22.1333     90.0924
   165.7500      0.0000    503.2946     21.9436     86.8233
   166.0000      0.0000    559.8466     21.7806     82.1556
   166.2500      0.0000    628.5156     21.6436     75.2887
   166.5000      0.0000    690.0995     21.5264     67.0965
   166.7500      0.0000    734.0027     21.4163     59.7634
   167.0000      0.0000    759.4759     21.3005     54.8951
   167.2500      0.0000    771.5481     21.1735     52.4816
   167.5000      0.0000    776.2033     21.0351     51.5778
   167.7500      0.0000    777.6414     20.8879     51.5207
   168.0000      0.0000    777.9742     20.7374     52.7032
   168.2500      0.0000    778.0333     20.5951     56.3731
   168.5000      0.0000    778.1202     20.4777     63.1729
   168.7500      0.0000    778.3161     20.3986     71.7294
   169.0000      0.0000    778.5886     20.3577     79.3091
   169.2500      0.0000    778.8401     20.3416     84.0698
   169.5000      0.0000    778.9793     20.3333     86.0843
   169.7500      0.0000    778.9715     20.3206     86.1520
   170.0000      0.0000    778.8461     20.2962     84.4682
   170.2500      0.0000    778.6609     20.2575     80.9109
   170.5000      0.0000    778.4633     20.2065     75.9916
   170.7500      0.0000    778.2889     20.1513     70.8790
   171.0000      0.0000    778.1779     20.1082     66.7523
   171.2500      0.0000    778.1616     20.0997     64.6054
   171.5000      0.0000    778.2297     20.1428     65.2843
   171.7500      0.0000    778.3286     20.2324     68.9148
   172.0000      0.0000    778.3981     20.3411     74.1715
   172.2500      0.0000    778.4030     20.4383     78.7310
   172.5000      0.0000    778.3398     20.5136     81.0347
   172.7500      0.0000    778.2344     20.5823     81.6085
   173.0000      0.0000    778.1310     20.6699     82.3273
   173.2500      0.0000    778.0741     20.7885     84.4738
   173.5000      0.0000    778.0925     20.9277     87.9892
   173.7500      0.0000    778.1818     21.0644     92.4864
   174.0000      0.0000    778.2847     21.1817     97.9418
   174.2500      0.0000    778.3041     21.2767    103.7343
   174.5000      0.0000    778.1752     21.3511    107.8850
   174.7500      0.0000    777.9252     21.4004    108.5101
   175.0000      0.0000    777.6445     21.4151    105.8941
   175.2500      0.0000    777.4086     21.3942    102.2701
   175.5000      0.0000    777.2148     21.3528     99.5139
   175.7500      0.0000    776.9292     21.3141     97.5889
   176.0000      0.0000    775.9266     21.2929     95.3405
   176.2500      0.0000    772.1182     21.2878     92.4534
   176.5000      0.0000    760.4188     21.2928     90.3670
   176.7500      0.0000    732.3529     21.3142     91.3049
   177.0000      0.0000    679.9138     21.3722     96.3664
   177.2500      0.0000    603.5987     21.4847    104.2324
   177.5000      0.0000    517.0908     21.6506    111.6835
   177.7500      0.0000    440.7134     21.8473    115.7657
   178.0000      0.0000    388.2047     22.0442    115.7053
   178.2500      0.0000    360.1182     22.2191    112.7404
   178.5000      0.0000    348.4611     22.3665    108.5443
   178.7500      0.0000    344.7431     22.4899    104.3781
   179.0000      0.0000    343.8575     22.5910    101.4618
   179.2500      0.0000    343.6792     22.6693    101.0140
   179.5000      0.0000    343.5328     22.7267    103.3271
   179.7500      0.0000    343.2593     22.7662    107.3343
   180.0000      0.0000    342.9083     22.7863    111.3950
   180.2500      0.0000    342.7260     22.7820    114.0764
   180.5000      0.0000    343.4437     22.7477    114.2874
   180.7500      0.0000    347.1977     22.6822    111.4466
   181.0000      0.0000    359.0271     22.5938    105.8086
   181.2500      0.0000    387.2258     22.4959     98.4736
   181.5000      0.0000    439.1274     22.3938     90.9730
   181.7500      0.0000    512.0903     22.2797     84.5837
   182.0000      0.0000    587.2781     22.1470     79.7544
   182.2500      0.0000    635.8351     22.0063     76.1229
   182.5000      0.0000    636.0140     21.8830     73.1464
   182.7500      0.0000    587.8467     21.7987     70.6897
   183.0000      0.0000    513.2068     21.7567     68.9290
   183.2500      0.0000    441.5423     21.7453     67.7187
   183.5000      0.0000    393.7448     21.7491     66.3050
   183.7500      0.0000    377.5508     21.7598     63.9535
   184.0000      0.0000    394.2352     21.7766     60.8872
   184.2500      0.0000    443.9258     21.8006     58.3490
   184.5000      0.0000    521.7220     21.8288     57.6453
   184.7500      0.0000    611.6005     21.8564     59.2450
   185.0000      0.0000    688.8136     21.8814     62.6704
   185.2500      0.0000    730.2479     21.9047     66.7803
   185.5000      0.0000    725.2222     21.9311     70.0936
   185.7500      0.0000    682.0879     21.9739     71.4584
   186.0000      0.0000    624.8218     22.0508     70.8353
   186.2500      0.0000    575.6069     22.1682     69.1513
   186.5000      0.0000    537.5944     22.3103     67.2442
   186.7500      0.0000    499.2301     22.4504     65.3522
   187.0000      0.0000    454.3983     22.5694     63.7313
   187.2500      0.0000    411.3872     22.6622     63.1738
   187.5000      0.0000    383.1574     22.7328     64.5903
   187.7500      0.0000    375.8478     22.7913     68.2222
   188.0000      0.0000    386.7862     22.8515     73.3366
   188.2500      0.0000    408.8814     22.9241     78.7133
   188.5000      0.0000    437.0582     23.0080     83.4471
   188.7500      0.0000    473.1397     23.0921     87.1967
   189.0000      0.0000    522.2422     23.1637     89.7777
   189.2500      0.0000    581.8904     23.2161     90.8979
   189.5000      0.0000    637.9366     23.2502     90.3840
   189.7500      0.0000    674.2700     23.2705     88.3514
   190.0000      0.0000    684.0768     23.2788     85.0830
   190.2500      0.0000    670.4667     23.2688     80.9040
   190.5000      0.0000    640.3599     23.2136     76.1896
   190.7500      0.0000    600.8815     23.0384     71.3736
   191.0000      0.0000    560.1316     22.5930     66.9369
   191.2500      0.0000    529.6115     21.7042     63.4617
   191.5000      0.0000    524.3047     20.3474     61.5855
   191.7500      0.0000    556.2301     18.7834     61.5930
   192.0000      0.0000    624.4196     17.4329     63.0819
   192.2500      0.0000    712.4055     16.5647     65.4142
   192.5000      0.0000    798.0953     16.1558     68.4424
   192.7500      0.0000    867.0993     16.0353     72.3204
   193.0000      0.0000    917.2623     16.0573     76.6463
   193.2500     -2.0000    951.1230     16.1412     80.4765
   193.5000      0.0000    965.9070     16.2632     83.2794
   193.7500      0.0000    953.1190     16.4678     85.1928
   194.0000      0.0000    906.2899     16.8828     86.2084
   194.2500      0.0000    826.6531     17.6840     85.9579
   194.5000      0.0000    725.7609     18.9646     84.7073
