~Version Information
VERS.                      2.0: CWLS Log ASCII Standard - VERSION 2.0
WRAP.                       NO: One line per depth step
~Well Information Block
STRT.FT               710.0000: 
STOP.FT              1983.0000: 
STEP.FT                 0.1000: 
NULL.                -999.2500: 
COMP.          Petrogulf Corporation: COMPANY
WELL.           State 16-23R-X: WELL
FLD.           Purgatorie River: FIELD
LOC.           2381' FSL & 2072' FWL: LOCATION
PROV.                 Colorado: PROVINCE
CNTY.               Las Animas: COUNTRY
SRVC.                Patterson: SERVICE COMPANY
DATE.          Mon Aug 08 07:36:34 2005: LOG DATE
UWI.                          : UNIQUE WELL ID
~Curve Information Block
DEPT.FT            0 000 00 00: Depth
DCAL.in                       : CDL Caliper
RHOB.g/cc                     : CDL Bulk Density
RHOC.g/cc                     : CDL Density Correction
DPOR.pu                       : CDL Density Porosity
GR.GAPI                       : Gamma Ray
NPOR.pu                       : Neutron Porosity
~Parameter Information Block
~A  Depth       DCAL        RHOB        RHOC        DPOR         GR         NPOR    
# ...
  1122.8000      7.9044      2.5953      0.0665      3.3144    120.8435     29.1792
  1122.9000      7.9044      2.5822      0.0755      4.1101    124.5596     29.1635
  1123.0000      7.9127      2.5777      0.0674      4.3802    133.9990     29.0656
  1123.1000      7.9127      2.5833      0.0911      4.0404    145.5227     28.9280
  1123.2000      7.9127      2.5915      0.0872      3.5473    154.4201     28.8163
  1123.3000      7.9096      2.5953      0.0924      3.3127    157.1588     28.7128
  1123.4000      7.9096      2.5966      0.0877      3.2385    155.2451     28.6691
  1123.5000      7.9135      2.5963      0.1068      3.2569    150.6224     28.7863
  1123.6000      7.9135      2.5873      0.1155      3.7985    145.3164     29.0844
  1123.7000      7.9135      2.5705      0.0548      4.8187    142.7457     29.3013
  1123.8000      7.9316      2.5558      0.0614      5.7105    143.9223     29.2415
  1123.9000      7.9316      2.5398      0.0872      6.6797    146.3156     29.1676
  1124.0000      7.9576      2.5139      0.0359      8.2466    146.9577     29.2219
  1124.1000      7.9576      2.4834      0.0025     10.0987    146.0918     29.0093
  1124.2000      7.9576      2.4594      0.0082     11.5533    145.3492     28.5640
  1124.3000      7.9573      2.4476      0.0189     12.2651    145.7840     28.3134
  1124.4000      7.9573      2.4436      0.0308     12.5090    148.0072     28.1595
  1124.5000      7.9842      2.4364      0.0316     12.9439    149.8694     27.9784
  1124.6000      7.9842      2.4193      0.0476     13.9845    148.3409     27.9478
  1124.7000      7.9842      2.3889      0.0120     15.8225    145.1442     27.8185
  1124.8000      8.0381      2.3285      0.0501     19.4827    142.2894     27.1550
  1124.9000      8.0381      2.2110      0.0422     26.6069    137.8851     26.0777
  1125.0000      8.0601      2.0439     -0.0954     36.7318    131.4599     24.7729
  1125.1000      8.0601      1.8662     -0.1041     47.5005    124.3088     22.9312
  1125.2000      8.0601      1.7008     -0.1906     57.5262    116.3480     20.3381
  1125.3000      8.1142      1.5533     -0.1524     66.4652    108.0627     17.4363
  1125.4000      8.1142      1.4289     -0.1476     74.0042     99.4837     14.8106
  1125.5000      8.2205      1.3379     -0.1254     79.5231     89.8006     12.5644
  1125.6000      8.2205      1.2892     -0.0538     82.4757     80.7288     10.6637
  1125.7000      8.2205      1.2839      0.0571     82.7958     75.4921      9.2381
  1125.8000      8.5950      1.3082      0.2665     81.3210     72.7107      8.2100
  1125.9000      8.5950      1.3369      0.2887     79.5789     69.2136      7.5273
  1126.0000      9.1759      1.3617      0.2743     78.0796     65.3102      7.4056
  1126.1000      9.1759      1.3914      0.2425     76.2770     63.4985      7.9406
  1126.2000      9.1759      1.4256      0.2339     74.2066     65.6494      9.0630
  1126.3000      9.2466      1.4554      0.1138     72.3971     71.2995     10.6160
  1126.4000      9.2466      1.4775      0.1241     71.0614     77.1303     12.4232
  1126.5000      8.9448      1.4863      0.1675     70.5301     79.3834     14.3831
  1126.6000      8.9448      1.4848      0.1546     70.6197     78.9262     16.0648
  1126.7000      8.9448      1.4890      0.1966     70.3663     79.9390     16.9009
  1126.8000      8.6893      1.5082      0.1547     69.2004     82.6736     17.1669
  1126.9000      8.6893      1.5471      0.1447     66.8428     85.6938     17.7780
  1127.0000      8.2118      1.6148      0.1084     62.7387     89.9872     19.1644
  1127.1000      8.2118      1.7165      0.1768     56.5785     94.3738     20.9208
  1127.2000      8.2118      1.8357      0.3207     49.3533     96.6471     22.5637
  1127.3000      8.1713      1.9398      0.4273     43.0417    100.0225     23.9153
  1127.4000      8.1713      2.0114      0.3742     38.7047    107.4466     25.2037
  1127.5000      8.1658      2.0653      0.2574     35.4361    114.9540     26.6381
  1127.6000      8.1658      2.1251      0.1605     31.8123    118.7999     27.9468
  1127.7000      8.1658      2.1966      0.1397     27.4804    120.4681     28.9557
  1127.8000      7.9244      2.2712      0.1287     22.9587    122.6574     29.8184
  1127.9000      7.9244      2.3418      0.0800     18.6801    126.0787     30.6086
  1128.0000      7.8684      2.4047      0.0324     14.8647    130.1709     31.1927
  1128.1000      7.8684      2.4517      0.0202     12.0182    133.8446     31.3144
  1128.2000      7.8684      2.4786      0.0208     10.3853    136.3888     30.9537
  1128.3000      7.8857      2.4881      0.0641      9.8135    138.9365     30.4899
  1128.4000      7.8857      2.4810      0.0542     10.2443    140.5024     30.1208
  1128.5000      7.8880      2.4650      0.0266     11.2112    139.2062     29.7557
  1128.6000      7.8880      2.4545      0.0100     11.8469    138.1159     29.5464
  1128.7000      7.8880      2.4565      0.0353     11.7299    140.3369     29.6001
  1128.8000      7.8837      2.4684      0.0354     11.0049    145.2120     29.6497
  1128.9000      7.8837      2.4822      0.0914     10.1669    148.7027     29.6126
  1129.0000      7.8834      2.4878      0.0977      9.8322    147.5679     29.9097
  1129.1000      7.8834      2.4852      0.0736      9.9899    143.6667     30.5082
  1129.2000      7.8834      2.4849      0.0679     10.0064    140.2262     30.8723
  1129.3000      7.9007      2.4975      0.0490      9.2431    139.3356     30.7903
  1129.4000      7.9007      2.5253      0.0530      7.5590    141.5807     30.4899
  1129.5000      7.8784      2.5610      0.0948      5.3939    143.7079     30.2620
  1129.6000      7.8784      2.5941      0.0880      3.3887    142.6337     30.0992
  1129.7000      7.8784      2.6160      0.1106      2.0611    141.1404     29.8553
  1129.8000      7.8703      2.6207      0.1145      1.7762    142.7685     29.5940
  1129.9000      7.8703      2.6083      0.0974      2.5273    145.8781     29.4423
  1130.0000      7.8447      2.5853      0.0920      3.9201    147.2720     29.3113
  1130.1000      7.8447      2.5581      0.0697      5.5723    148.6689     29.0871
  1130.2000      7.8447      2.5335      0.0403      7.0579    153.2351     28.8740
  1130.3000      7.8440      2.5148      0.0486      8.1950    157.7262     28.6304
  1130.4000      7.8440      2.4969      0.0462      9.2776    158.7110     28.1172
  1130.5000      7.8963      2.4761      0.0189     10.5392    159.0161     27.4631
  1130.6000      7.8963      2.4539      0.0133     11.8867    159.7321     27.0521
  1130.7000      7.8963      2.4358      0.0259     12.9817    158.4668     27.0075
  1130.8000      7.9402      2.4282      0.0317     13.4424    157.6705     27.1710
  1130.9000      7.9402      2.4322      0.0130     13.1980    159.5170     27.2467
  1131.0000      7.9904      2.4433      0.0465     12.5284    160.2340     27.0585
  1131.1000      7.9904      2.4541      0.0926     11.8714    158.9917     26.8401
  1131.2000      7.9904      2.4575      0.1275     11.6671    159.2718     26.8250
  1131.3000      8.0196      2.4524      0.0731     11.9779    160.9775     26.9104
  1131.4000      8.0196      2.4546      0.0453     11.8452    163.1664     26.8974
  1131.5000      8.0472      2.4760      0.1030     10.5460    165.8625     26.6401
  1131.6000      8.0472      2.4998      0.1829      9.1040    166.2071     26.2041
  1131.7000      8.0472      2.5052      0.1539      8.7753    162.8958     25.8490
  1131.8000      8.0332      2.4901      0.2284      9.6935    157.4909     25.6607
  1131.9000      8.0332      2.4614      0.2251     11.4306    153.9587     25.5181
  1132.0000      8.0437      2.4390      0.0943     12.7896    155.6646     25.5040
  1132.1000      8.0437      2.4430      0.0890     12.5467    159.8513     25.8716
  1132.2000      8.0437      2.4684      0.1049     11.0042    163.4704     26.3304
  1132.3000      8.0356      2.5061      0.0817      8.7204    164.4243     26.6813
