~Version Information
VERS.                      2.0: CWLS Log ASCII Standard - VERSION 2.0
WRAP.                       NO: One line per depth step
~Well Information Block
STRT.FT               840.0000: 
STOP.FT              1913.5000: 
STEP.FT                 0.2500: 
NULL.                -999.2500: 
COMP.          Petrogulf Corporation: COMPANY
WELL.             Kraft 17-23R: WELL
FLD.           Purgatorie River: FIELD
LOC.           1509' FSL & 1673' FWL: LOCATION
PROV.                 Colorado: PROVINCE
CNTY.               Las Animas: COUNTRY
SRVC.                Patterson: SERVICE COMPANY
DATE.          Tue Oct 11 13:03:25 2005: LOG DATE
UWI.                          : UNIQUE WELL ID
~Curve Information Block
DEPT.FT            0 000 00 00: Depth
SP.mV                         : DIL Spontaneous Potential
RILD.Ohm-m                    : DIL Deep Resistivity
RILM.Ohm-m                    : DIL Medium Resistivity
RLL3.Ohm-m                    : DIL Shallow Resistivity
GR.GAPI                       : Gamma Ray
~Parameter Information Block
~A  Depth        SP         RILD        RILM        RLL3         GR     
   840.0000    181.2604      8.5010   -999.2500      1.8656     79.3405
   840.2500    184.6957      8.4509   -999.2500      2.0774     80.2597
   840.5000    188.5378      8.3979   -999.2500      2.3044     82.1403
   840.7500    192.7305      8.3461   -999.2500      2.5633     82.9536
   841.0000    197.2140      8.2986   -999.2500      2.8347     82.4074
   841.2500    201.7180      8.2575   -999.2500      3.0458     81.0071
   841.5000    205.6206      8.2239   -999.2500      3.1168     78.5585
   841.7500    208.0539      8.1986   -999.2500      3.0129     77.2134
   842.0000    208.2970      8.1813   -999.2500      2.7445     75.5463
   842.2500    206.2513      8.1703   -999.2500      2.3520     74.4308
   842.5000    202.6421      8.1625   -999.2500      1.9091     72.9319
   842.7500    198.7452      8.1545   -999.2500      1.5156     72.4468
   843.0000    195.8189      8.1427   -999.2500      1.2545     72.7633
   843.2500    194.6403      8.1246   -999.2500      1.1572     73.3255
   843.5000    195.3699      8.0980   -999.2500      1.1875     73.8188
   843.7500    197.6758      8.0613 100000.0000      1.2400     73.6814
   844.0000    200.9467      8.0129 100000.0000      1.1842     72.8196
   844.2500    204.5074      7.9511 100000.0000      0.9593     71.8576
   844.5000    207.8197      7.8749 100000.0000      0.6171     70.1725
   844.7500    210.6520      7.7850 100000.0000      0.2602     69.4750
   845.0000    213.1668      7.6842 100000.0000     -0.0267     70.2855
   845.2500    215.8320      7.5773 100000.0000     -0.1508     72.2828
   845.5000    219.1074      7.4703 100000.0000      0.0246     76.4376
   845.7500    223.0300      7.3686 100000.0000      0.5918     78.9211
   846.0000    226.9838      7.2758 100000.0000      1.4386     80.9152
   846.2500    229.8738      7.1933 100000.0000      2.2603     80.9668
   846.5000    230.6338      7.1209 100000.0000      2.8168     79.4668
   846.7500    228.7507      7.0579 100000.0000      3.1254     77.6767
   847.0000    224.4901      7.0037 100000.0000      3.3116     74.7702
   847.2500    218.7478      6.9577 100000.0000      3.3293     73.6641
   847.5000    212.6888      6.9186 100000.0000      2.9568     74.5073
   847.7500    207.3953      6.8847 100000.0000      2.0934     76.4176
   848.0000    203.6327      6.8533 100000.0000      0.9777     79.2267
   848.2500    201.7399      6.8205 100000.0000      0.0456     80.1051
   848.5000    201.6288      6.7812 100000.0000     -0.4193     80.2311
   848.7500    202.8811      6.7284 100000.0000     -0.4576     80.3124
   849.0000    204.9113      6.6549 100000.0000     -0.2986     80.7911
   849.2500    207.1514      6.5547 100000.0000     -0.1351     80.7707
   849.5000    209.2094      6.4276 100000.0000     -0.0381     79.5216
   849.7500    210.9346      6.2850 100000.0000      0.0006     78.3062
   850.0000    212.3418      6.1510 100000.0000      0.0094     77.3084
   850.2500    213.4000      6.0559 100000.0000      0.0124     77.4914
   850.5000    213.8046      6.0234 100000.0000      0.0241     78.2091
   850.7500    212.9246      6.0583 100000.0000      0.0485     78.2775
   851.0000    210.0466      6.1404 100000.0000      0.0824     77.3785
   851.2500    204.8036      6.2304 100000.0000      0.1204     76.5051
   851.5000    197.4814      6.2871 100000.0000      0.1579     75.8383
   851.7500    188.9644      6.2890 100000.0000      0.1894     76.2082
   852.0000    180.3729      6.2447 100000.0000      0.2089     77.8483
   852.2500    172.6620      6.1870 100000.0000      0.2144     79.2308
   852.5000    166.4051      6.1592 100000.0000      0.2120     81.0627
   852.7500    161.7952      6.2026 100000.0000      0.2138     82.1204
   853.0000    158.7624      6.3439 100000.0000      0.2264     84.0069
   853.2500    157.0991      6.5771 100000.0000      0.2454     85.6030
   853.5000    156.5477      6.8416 100000.0000      0.2613     87.7669
   853.7500    156.8549      7.0187 100000.0000      0.2736     88.3428
   854.0000    157.8013      6.9873 100000.0000      0.2906     87.2989
   854.2500    159.1888      6.7215 100000.0000      0.3179     85.5983
   854.5000    160.7824      6.3168 100000.0000      0.3484     82.7121
   854.7500    162.2457      5.9069 100000.0000      0.3681     81.3188
   855.0000    163.1438      5.5831 100000.0000      0.3672     80.6802
   855.2500    163.0549      5.3854 100000.0000      0.3472     80.9095
   855.5000    161.7588      5.3322 100000.0000      0.3198     80.8833
   855.7500    159.3935      5.4519 100000.0000      0.3002     80.0684
   856.0000    156.4492      5.7984 100000.0000      0.2979     78.0889
   856.2500    153.5401      6.4338 100000.0000      0.3107     77.1915
   856.5000    151.0759      7.3371 100000.0000      0.3258     77.9265
   856.7500    149.0631      8.1799 100000.0000      0.3309     79.7690
   857.0000    147.1360      8.2675 100000.0000      0.3310     82.6395
   857.2500    144.6540      7.3427 100000.0000      0.3617     83.1607
   857.5000    140.6733      6.0748 100000.0000      0.4985     80.7162
   857.7500    133.9337      5.0995 100000.0000      0.8689     77.5279
   858.0000    123.2253      4.5781 100000.0000      1.6662     72.7858
   858.2500    108.1704      4.4678 100000.0000      3.1480     71.0159
   858.5000     89.8553      4.7072 100000.0000      5.5963     71.5209
   858.7500     70.6141      5.2223 100000.0000      9.2199     73.6050
   859.0000     52.9223      5.8145 100000.0000     13.9919     77.4862
   859.2500     38.2067      6.0333 100000.0000     19.4582     79.4260
   859.5000     26.4918      5.4839 100000.0000     24.6691     80.5074
   859.7500     16.9888      4.4462 100000.0000     28.4222     80.3060
   860.0000      8.9178      3.5073 100000.0000     29.8084     79.7854
   860.2500      1.9067      2.9244 100000.0000     28.7113     79.8888
   860.5000     -4.0685      2.7064 100000.0000     25.8432     81.3344
   860.7500     -8.8887      2.8415     21.7491     22.2830     83.3244
   861.0000    -12.4362      3.4088     11.4498     18.9211     87.6210
   861.2500    -14.6748      4.6829      8.8173     16.2016     90.8068
   861.5000    -15.7045      7.4606      8.0166     14.2030     95.0437
   861.7500    -15.7657     14.7412      8.0581     12.8437     97.3885
   862.0000    -15.1673     54.8605      8.6594     12.0258    100.5812
   862.2500    -14.1841 100000.0000      9.7200     11.6741    102.3759
   862.5000    -12.9971 100000.0000     11.1905     11.7160    103.5784
   862.7500    -11.6735 100000.0000     13.0259     12.0521    103.1444
   863.0000    -10.1557 100000.0000     15.1600     12.5441    101.7328
   863.2500     -8.2874 100000.0000     17.4583     13.0308    101.2281
   863.5000     -5.9150 100000.0000     19.6404     13.3706    101.7074
   863.7500     -2.9987     39.2406     21.2581     13.4952    102.5390
   864.0000      0.3776     21.2757     21.8857     13.4448    103.9788
   864.2500      4.1114     16.5746     21.4536     13.3611    105.0299
   864.5000      8.2107     15.1614     20.3273     13.4468    106.6328
   864.7500     12.8582     15.0931     19.0156     13.9244    107.2059
   865.0000     18.3824     15.7053     17.8840     14.9971    105.9907
   865.2500     25.1548     16.6872     17.1023     16.7889    103.3699
   865.5000     33.4604     17.8366     16.7075     19.2769     97.1829
   865.7500     43.3915     18.9619     16.6767     22.2640     92.2810
   866.0000     54.7816     19.8790     16.9685     25.4104     85.2524
   866.2500     67.1884     20.4826     17.5434     28.3106     81.7377
   866.5000     79.9501     20.8163     18.3697     30.6294     79.7627
   866.7500     92.3273     21.0304     19.4197     32.2860     81.0565
   867.0000    103.6833     21.2708     20.6589     33.5532     86.0315
   867.2500    113.6156     21.6031     22.0286     34.8844     90.0266
   867.5000    121.9861     22.0052     23.4288     36.4834     94.4511
   867.7500    128.8673     22.4020     24.7114     37.9565     95.3395
