~Version Information
VERS.                      2.0: CWLS Log ASCII Standard - VERSION 2.0
WRAP.                       NO: One line per depth step
~Well Information Block
STRT.FT               -14.0000: 
STOP.FT               951.0000: 
STEP.FT                 0.2500: 
NULL.                -999.2500: 
COMP.          Pioneer Natural Resources: COMPANY
WELL.             Giggle 21-22: WELL
FLD.           Purgatoire River: FIELD
LOC.           950' FNL & 2094' FWL: LOCATION
CNTY.               Las Animas: COUNTY
SRVC.                         : SERVICE COMPANY
DATE.          Mon Apr 17 17:51:33 2006: LOG DATE
UWI.           05 071 08726 00: UNIQUE WELL ID
STAT.                       CO: STATE
~Curve Information Block
DEPT.FT            0 000 00 00: Depth
CCL.                          : Casing Collar Locator
TT3.usec                      : CBL 3' Travel Time
AMP3.mV                       : CBL 3' Amplitude
GR.GAPI                       : Gamma Ray
~Parameter Information Block
~A  Depth       CCL         TT3         AMP3         GR     
# ...
   287.5000      0.0000    711.6194      6.9051     86.8942
   287.7500      0.0000    702.5587      6.5305     82.7101
   288.0000      0.0000    692.4015      6.2399     80.2521
   288.2500      0.0000    684.3563      6.1332     79.0750
   288.5000      0.0000    679.3889      6.2133     78.7765
   288.7500      0.0000    674.8679      6.4119     78.9905
   289.0000      0.0000    666.1887      6.6487     78.9369
   289.2500      0.0000    648.6769      6.8747     77.6633
   289.5000      0.0000    618.7113      7.0673     74.8639
   289.7500      0.0000    576.2130      7.2006     71.2285
   290.0000      0.0000    527.4526      7.2429     67.9481
   290.2500      0.0000    483.1466      7.1914     66.0815
   290.5000      0.0000    451.6154      7.0925     66.2940
   290.7500      0.0000    433.9242      7.0158     68.7255
   291.0000      0.0000    425.4172      7.0113     72.7471
   291.2500      0.0000    420.2953      7.0972     76.9487
   291.5000      0.0000    414.6726      7.2658     79.8234
   291.7500      0.0000    407.3185      7.4752     80.7250
   292.0000      0.0000    399.1363      7.6482     80.1539
   292.2500      0.0000    391.9145      7.7158     79.1666
   292.5000      0.0000    386.8764      7.6680     78.5352
   292.7500      0.0000    384.0659      7.5587     78.3899
   293.0000      0.0000    382.7558      7.4686     78.6256
   293.2500      0.0000    382.1686      7.4587     79.4646
   293.5000      0.0000    381.8311      7.5409     81.3100
   293.7500      0.0000    381.5645      7.6756     84.2867
   294.0000      0.0000    381.3748      7.8013     88.3398
   294.2500      0.0000    381.3820      7.8762     93.3922
   294.5000      0.0000    381.8318      7.8943     98.8053
   294.7500      0.0000    383.2178      7.8710    102.9778
   295.0000      0.0000    386.3599      7.8217    104.1714
   295.2500      0.0000    392.2064      7.7478    101.8876
   295.5000      0.0000    401.4254      7.6505     97.2259
   295.7500      0.0000    414.4801      7.5582     91.8389
   296.0000      0.0000    432.4083      7.5146     86.6813
   296.2500      0.0000    456.9207      7.5311     81.7996
   296.5000      0.0000    488.5456      7.5720     77.0874
   296.7500      0.0000    524.5053      7.5887     72.9824
   297.0000      0.0000    559.4565      7.5528     70.3506
   297.2500      0.0000    588.7200      7.4634     69.6982
   297.5000      0.0000    610.2252      7.3449     70.5126
   297.7500      0.0000    623.5415      7.2455     71.5196
   298.0000      0.0000    628.4393      7.2247     71.7316
   298.2500      0.0000    625.1898      7.3149     71.2269
   298.5000      0.0000    615.4267      7.4814     70.7101
   298.7500      0.0000    601.6694      7.6441     70.3663
   299.0000      0.0000    585.8194      7.7611     69.5878
   299.2500      0.0000    568.1519      7.8703     67.9088
   299.5000      0.0000    547.9337      8.0326     65.7634
   299.7500      0.0000    525.7311      8.2559     64.2165
   300.0000      0.0000    505.0970      8.5020     64.3755
   300.2500      0.0000    490.2548      8.7330     67.0828
   300.5000      0.0000    480.8373      8.9092     72.5289
   300.7500      0.0000    470.2817      8.9700     79.7094
   301.0000      0.0000    451.6641      8.8769     86.5815
   301.2500      0.0000    425.0402      8.6765     91.1774
   301.5000      0.0000    397.5387      8.4830     92.4939
   301.7500      0.0000    376.5539      8.3837     90.4393
   302.0000      0.0000    364.3697      8.3799     85.6612
   302.2500      0.0000    358.7863      8.4189     79.6885
   302.5000      0.0000    356.5933      8.4475     74.5212
   302.7500      0.0000    355.6805      8.4287     71.4917
   303.0000      0.0000    355.1469      8.3520     70.5143
   303.2500      0.0000    354.7235      8.2530     70.4693
   303.5000      0.0000    354.3613      8.2055     70.3024
   303.7500      0.0000    354.0616      8.2681     69.8771
   304.0000      0.0000    353.8392      8.4388     69.9686
   304.2500      0.0000    353.7008      8.6688     71.5007
   304.5000      0.0000    353.6313      8.8951     74.7264
   304.7500      0.0000    353.5874      9.0516     78.7990
   305.0000      0.0000    353.5162      9.0867     81.8837
   305.2500      0.0000    353.3895      9.0073     82.1126
   305.5000      0.0000    353.2155      8.8885     79.0101
   305.7500      0.0000    353.0148      8.8076     73.9878
   306.0000      0.0000    352.7943      8.7751     69.2458
   306.2500      0.0000    352.5496      8.7443     66.1997
   306.5000      0.0000    352.2726      8.6701     64.8754
   306.7500      0.0000    351.9379      8.5390     64.4381
   307.0000      0.0000    351.5013      8.3732     63.9723
   307.2500      0.0000    350.9448      8.2267     62.9041
   307.5000      0.0000    350.3512      8.1403     61.1703
   307.7500      0.0000    349.9780      8.0869     59.3324
   308.0000      0.0000    350.3387      7.9980     58.4277
   308.2500      0.0000    352.1980      7.8477     59.3186
   308.5000      0.0000    356.1984      7.6809     61.9174
   308.7500      0.0000    362.1170      7.5593     65.1174
   309.0000      0.0000    368.4127      7.4961     67.6656
   309.2500      0.0000    372.8633      7.4368     69.0747
   309.5000      0.0000    374.0048      7.3115     69.5423
   309.7500      0.0000    372.1668      7.1065     69.2936
   310.0000      0.0000    369.3642      6.8662     68.5915
   310.2500      0.0000    368.4854      6.6354     68.2571
   310.5000      0.0000    372.1478      6.4472     69.4567
   310.7500      0.0000    380.9382      6.3558     72.7758
   311.0000      0.0000    391.8577      6.4148     77.7186
   311.2500      0.0000    399.4681      6.6030     82.9752
   311.5000      0.0000    399.9124      6.8214     87.0786
   311.7500      0.0000    393.6208      6.9767     89.2032
   312.0000      0.0000    383.8471      7.0413     89.6504
   312.2500      0.0000    373.7381      7.0346     89.4750
   312.5000      5.0000    365.4035      6.9858     89.5174
   312.7500      3.2730    360.3684      6.9209     89.8991
   313.0000      0.0000    359.2780      6.8677     90.4952
   313.2500      0.0000    361.0031      6.8711     91.6091
   313.5000      0.0000    362.7909      6.9945     93.6820
   313.7500      0.0000    362.0737      7.2753     96.2715
   314.0000      0.0000    358.4507      7.6620     97.9648
   314.2500      0.0000    353.8749      8.0268     97.8527
   314.5000      0.0000    350.8903      8.2579     96.7440
   314.7500      0.0000    350.7718      8.3285     96.4283
   315.0000      0.0000    353.1669      8.2797     97.9817
   315.2500      0.0000    357.4783      8.1581    101.0302
   315.5000      0.0000    364.8979      7.9782    104.1706
   315.7500      0.0000    379.5725      7.7359    105.7826
   316.0000      0.0000    407.6765      7.4440    104.9542
   316.2500      0.0000    453.8158      7.1383    101.9947
   316.5000      0.0000    515.7391      6.8512     97.9787
   316.7500      0.0000    581.6963      6.5903     93.9774
   317.0000      0.0000    634.9603      6.3504     90.9144
   317.2500      0.0000    662.3783      6.1315     89.6186
   317.5000      0.0000    658.7963      5.9412     90.2148
   317.7500      0.0000    625.9787      5.7896     91.4739
   318.0000      0.0000    571.5994      5.6827     91.4920
   318.2500      0.0000    509.1836      5.6074     89.3611
   318.5000      0.0000    454.0556      5.5320     85.8369
   318.7500      0.0000    415.8106      5.4358     82.2845
   319.0000      0.0000    394.7455      5.3273     79.4656
   319.2500      0.0000    385.3328      5.2234     77.6451
   319.5000      0.0000    381.7455      5.1243     77.2800
   319.7500      0.0000    380.5588      5.0242     78.9279
   320.0000      0.0000    380.7586      4.9304     82.5189
   320.2500      0.0000    383.4045      4.8566     87.0691
   320.5000      0.0000    392.0620      4.8034     91.2348
   320.7500      0.0000    412.8698      4.7566     94.0434
