~Version Information
VERS.                      2.0: CWLS Log ASCII Standard - VERSION 2.0
WRAP.                       NO: One line per depth step
~Well Information Block
STRT.FT                -9.5000: 
STOP.FT              1304.7500: 
STEP.FT                 0.2500: 
NULL.                -999.2500: 
COMP.          Pioneer Natural Resources: COMPANY
WELL.            Hamburg 43-35: WELL
FLD.           Purgatorie River: FIELD
LOC.           2444' FSL & 950' FEL--: LOCATION
PROV.                       CO: PROVINCE
CNTY.               Las Animas: COUNTRY
SRVC.          Patterson Wireline: SERVICE COMPANY
DATE.          Thu Dec 08 14:29:45 2005: LOG DATE
UWI.           08 071 08607 00: UNIQUE WELL ID
~Curve Information Block
DEPT.FT            0 000 00 00: Depth
CCL.                          : Casing Collar Locator
TT3.usec                      : CBL 3' Travel Time
AMP3.mV                       : CBL 3' Amplitude
GR.GAPI                       : Gamma Ray
~Parameter Information Block
~A  Depth       CCL         TT3         AMP3         GR     
# ...
   426.0000      0.0000    724.0916     11.8089    144.0839
   426.2500      0.0000    730.9608     11.7723    144.9538
   426.5000      0.0000    737.7336     11.7401    142.7836
   426.7500      0.0000    742.6609     11.6944    139.9984
   427.0000      0.0000    745.3069     11.6152    139.2974
   427.2500      0.0000    746.1107     11.4998    141.0647
   427.5000      0.0000    745.4420     11.3623    143.3327
   427.7500      0.0000    743.1877     11.2211    143.8262
   428.0000      0.0000    739.2425     11.0936    141.6859
   428.2500      0.0000    734.4880     11.0001    137.4529
   428.5000      0.0000    731.0307     10.9617    132.0059
   428.7500      0.0000    730.8446     10.9880    126.0868
   429.0000      0.0000    733.9828     11.0673    120.8284
   429.2500      0.0000    738.4897     11.1748    117.9272
   429.5000      0.0000    742.0847     11.2925    118.5985
   429.7500      0.0000    743.5687     11.4176    122.3156
   430.0000      0.0000    742.8774     11.5516    126.8427
   430.2500      0.0000    740.6395     11.6838    129.7306
   430.5000      0.0000    737.9996     11.7899    130.1105
   430.7500      0.0000    736.2292     11.8468    129.0826
   431.0000      0.0000    735.9927     11.8577    128.1711
   431.2500      0.0000    737.4588     11.8660    127.4742
   431.5000      0.0000    741.5741     11.9371    125.5351
   431.7500      0.0000    750.4651     12.1119    120.8590
   432.0000      0.0000    765.1423     12.3735    113.2097
   432.2500      0.0000    782.5643     12.6618    103.5709
   432.5000      0.0000    795.5578     12.9215     93.3296
   432.7500      0.0000    797.0018     13.1325     83.6258
   433.0000      0.0000    786.4703     13.3002     75.1532
   433.2500      0.0000    773.9759     13.4237     68.3184
   433.5000      0.0000    774.0209     13.4827     63.6327
   433.7500      0.0000    792.2022     13.4561     61.7680
   434.0000      0.0000    819.2720     13.3551     62.8982
   434.2500      0.0000    840.7895     13.2317     65.9487
   434.5000      0.0000    850.0109     13.1474     69.0035
   434.7500      0.0000    849.8303     13.1326     70.9428
   435.0000      0.0000    846.4825     13.1741     72.6151
   435.2500      0.0000    844.6282     13.2376     75.9230
   435.5000      0.0000    846.2729     13.2981     81.6861
   435.7500      0.0000    850.9897     13.3508     88.6439
   436.0000      0.0000    856.4545     13.3999     94.5997
   436.2500      0.0000    859.8920     13.4435     98.6203
   436.5000      0.0000    859.7562     13.4718    102.1610
   436.7500      0.0000    856.3489     13.4763    107.7716
   437.0000      0.0000    851.0046     13.4589    116.4591
   437.2500      0.0000    845.0262     13.4324    126.4427
   437.5000      0.0000    839.1581     13.4138    134.5197
   437.7500      0.0000    833.4755     13.4154    138.3578
   438.0000      0.0000    827.7723     13.4408    137.7335
   438.2500      0.0000    822.5157     13.4870    134.4185
   438.5000      0.0000    819.2982     13.5455    131.0025
   438.7500      0.0000    819.7253     13.5972    128.9908
   439.0000      0.0000    823.8094     13.6130    127.8060
   439.2500      0.0000    829.8913     13.5713    125.9792
   439.5000      0.0000    836.0362     13.4802    122.9803
   439.7500      0.0000    841.0988     13.3768    119.1463
   440.0000      0.0000    844.8544     13.3042    114.1401
   440.2500      0.0000    847.7629     13.2892    106.5358
   440.5000      0.0000    850.4050     13.3326     95.2080
   440.7500      0.0000    852.6989     13.4149     80.7799
   441.0000      0.0000    854.0012     13.5109     65.7120
   441.2500      0.0000    853.9818     13.5906     53.2318
   441.5000      0.0000    852.7040     13.5865     45.9036
   441.7500      0.0000    849.0588     13.3764     44.4488
   442.0000      0.0000    840.0970     12.8565     47.4462
   442.2500      0.0000    824.7195     12.0708     52.3353
   442.5000      0.0000    809.2988     11.2277     57.0624
   442.7500      0.0000    805.7327     10.5524     60.9393
   443.0000      0.0000    820.0280     10.1477     64.2693
   443.2500      0.0000    845.5744      9.9934     67.4712
   443.5000      0.0000    870.6030     10.0121     70.3405
   443.7500      2.0000    888.5880     10.1153     71.8197
   444.0000     -2.0000    899.5933     10.2402     70.8003
   444.2500      0.0000    906.8574     10.3748     67.4313
   444.5000      0.0000    914.4529     10.5526     63.4003
   444.7500      0.0000    923.5981     10.8190     60.8472
   445.0000      0.0000    929.1207     11.1852     61.1603
   445.2500      0.0000    923.3341     11.5965     64.6124
   445.5000      0.0000    904.9614     11.9624     70.7562
   445.7500      0.0000    881.1993     12.2410     78.9730
   446.0000      0.0000    860.7289     12.4593     88.5444
   446.2500      0.0000    847.3416     12.6363     98.2380
   446.5000      0.0000    840.1422     12.7404    106.1752
   446.7500      0.0000    836.8179     12.7443    110.6240
   447.0000      0.0000    835.5836     12.6670    111.0351
   447.2500      0.0000    835.3740     12.5469    108.2360
   447.5000      0.0000    835.5237     12.4090    104.0257
   447.7500      0.0000    835.6097     12.2658    100.8259
   448.0000      0.0000    835.4649     12.1294    100.9233
   448.2500      0.0000    835.1791     12.0169    105.0514
   448.5000      0.0000    834.9462     11.9496    111.6423
   448.7500      0.0000    834.9197     11.9455    117.8299
   449.0000      0.0000    835.2027     12.0088    121.3462
   449.2500      0.0000    835.9649     12.1315    121.6947
   449.5000      0.0000    837.5735     12.2999    120.0047
   449.7500      0.0000    840.5740     12.4941    118.0679
   450.0000      0.0000    845.3215     12.6801    117.0908
   450.2500      0.0000    851.2618     12.8136    116.7481
   450.5000      0.0000    856.5524     12.8623    115.5340
   450.7500      0.0000    858.9285     12.8308    112.5237
   451.0000      0.0000    857.4910     12.7614    108.7172
   451.2500      0.0000    853.5914     12.7012    106.5096
   451.5000      0.0000    849.5648     12.6599    107.9648
   451.7500      0.0000    846.4926     12.6025    113.4549
   452.0000      0.0000    843.3746     12.4911    121.5661
   452.2500      0.0000    838.4003     12.3338    130.1605
   452.5000      0.0000    830.7480     12.1792    137.7578
   452.7500      0.0000    821.3298     12.0626    144.1826
   453.0000      0.0000    812.3784     11.9729    149.8336
   453.2500      0.0000    806.3452     11.8765    154.2316
   453.5000      0.0000    804.6033     11.7598    155.6822
   453.7500      0.0000    806.7548     11.6441    152.9410
   454.0000      0.0000    811.0875     11.5673    147.0218
   454.2500      0.0000    815.6850     11.5544    140.8128
   454.5000      0.0000    819.2796     11.5974    136.8423
   454.7500      0.0000    821.5056     11.6633    135.5694
   455.0000      0.0000    822.7058     11.7233    135.6537
   455.2500      0.0000    823.4456     11.7709    135.5907
   455.5000      0.0000    824.1183     11.8127    135.0964
   455.7500      0.0000    824.7924     11.8528    135.0480
   456.0000      0.0000    825.0159     11.8894    136.2097
   456.2500      0.0000    823.9632     11.9169    138.3706
   456.5000      0.0000    821.4429     11.9295    140.8364
   456.7500      0.0000    818.5370     11.9245    143.1586
   457.0000      0.0000    816.4227     11.9007    144.9884
   457.2500      0.0000    814.7122     11.8467    145.7833
   457.5000      0.0000    811.8746     11.7361    145.1259
   457.7500      0.0000    807.2870     11.5464    143.0825
   458.0000      0.0000    802.0470     11.2852    140.0772
   458.2500      0.0000    797.7238     10.9899    136.6438
   458.5000      0.0000    795.0021     10.7000    133.1054
   458.7500      0.0000    793.6138     10.4352    129.1746
   459.0000      0.0000    793.0014     10.2055    124.0154
   459.2500      0.0000    792.7582     10.0306    116.8366
