~Version Information
VERS.                      2.0: CWLS Log ASCII Standard - VERSION 2.0
WRAP.                       NO: One line per depth step
~Well Information Block
STRT.FT               570.0000: 
STOP.FT              1954.5000: 
STEP.FT                 0.1000: 
NULL.                -999.2500: 
COMP.          Petrogulf Corporation: COMPANY
WELL.            Montoya 7-14R: WELL
FLD.           Purgatorie River: FIELD
LOC.           628' FSL & 454' FWL: LOCATION
PROV.                 Colorado: PROVINCE
CNTY.               Las Animas: COUNTRY
SRVC.                Patterson: SERVICE COMPANY
DATE.          Mon Oct 10 07:31:15 2005: LOG DATE
UWI.                          : UNIQUE WELL ID
~Curve Information Block
DEPT.FT            0 000 00 00: Depth
DCAL.in                       : CDL Caliper
RHOB.g/cc                     : CDL Bulk Density
RHOC.g/cc                     : CDL Density Correction
DPOR.pu                       : CDL Density Porosity
GR.GAPI                       : Gamma Ray
NPOR.pu                       : Neutron Porosity
~Parameter Information Block
~A  Depth       DCAL        RHOB        RHOC        DPOR         GR         NPOR    
# ...
  1664.4000      7.9696      2.6630      0.1958     -0.7903    146.4735     27.3368
  1664.5000      7.8937      2.6522      0.1190     -0.1303    146.9210     27.3599
  1664.6000      7.8937      2.6138      0.0839      2.1962    146.0116     27.3601
  1664.7000      7.8937      2.5692      0.0704      4.8971    142.6101     27.2893
  1664.8000      7.9019      2.5368      0.0426      6.8634    138.9038     27.0780
  1664.9000      7.9019      2.5232      0.0533      7.6841    138.9519     26.8092
  1665.0000      7.8901      2.5178      0.0634      8.0147    140.2942     26.7188
  1665.1000      7.8901      2.5168      0.0118      8.0708    137.4151     26.6636
  1665.2000      7.8901      2.5308      0.0575      7.2242    135.1665     26.2394
  1665.3000      7.8645      2.5491      0.1444      6.1178    138.9313     25.6256
  1665.4000      7.8645      2.5478      0.0809      6.1931    145.1511     25.4021
  1665.5000      7.8587      2.5258      0.1016      7.5297    150.2632     25.7484
  1665.6000      7.8587      2.5028      0.0901      8.9184    155.6098     26.4051
  1665.7000      7.8587      2.4990      0.1443      9.1500    160.8441     27.0329
  1665.8000      7.8617      2.5151      0.1601      8.1780    161.4277     27.5042
  1665.9000      7.8617      2.5398      0.1645      6.6798    156.1697     27.8641
  1666.0000      7.9161      2.5623      0.2144      5.3180    150.2134     27.9541
  1666.1000      7.9161      2.5732      0.1765      4.6557    150.2457     27.8414
  1666.2000      7.9161      2.5798      0.1137      4.2547    157.3687     27.8907
  1666.3000      7.9281      2.5951      0.1911      3.3283    165.8627     27.9576
  1666.4000      7.9281      2.6103      0.2365      2.4042    169.2098     27.5888
  1666.5000      7.9660      2.6205      0.1905      1.7892    166.6573     27.2494
  1666.6000      7.9660      2.6328      0.2366      1.0442    163.6779     27.7051
  1666.7000      7.9660      2.6414      0.2178      0.5229    163.9037     28.4778
  1666.8000      8.0462      2.6438      0.1778      0.3741    164.8966     28.7819
  1666.9000      8.0462      2.6450      0.1982      0.3015    164.3901     28.7758
  1667.0000      7.9773      2.6435      0.1073      0.3929    164.9936     28.6213
  1667.1000      7.9773      2.6406      0.1267      0.5689    167.3454     28.2651
  1667.2000      7.9773      2.6393      0.1528      0.6487    168.9198     28.0301
  1667.3000      7.9767      2.6415      0.1303      0.5164    169.1687     28.2294
  1667.4000      7.9767      2.6424      0.1899      0.4633    168.5635     28.5198
  1667.5000      7.9480      2.6245      0.1576      1.5452    166.6387     28.4479
  1667.6000      7.9480      2.5854      0.0627      3.9135    163.0290     28.2889
  1667.7000      7.9480      2.5452      0.0306      6.3496    159.0067     28.3457
  1667.8000      7.9322      2.5193      0.0307      7.9209    156.3109     28.4859
  1667.9000      7.9322      2.5133      0.0132      8.2833    157.1361     28.6164
  1668.0000      7.9358      2.5257      0.0645      7.5337    161.3054     28.7582
  1668.1000      7.9358      2.5456      0.0491      6.3268    162.9650     28.9634
  1668.2000      7.9358      2.5606      0.0917      5.4159    159.9569     29.1271
  1668.3000      7.9457      2.5644      0.1004      5.1882    156.7685     29.1684
  1668.4000      7.9457      2.5624      0.0989      5.3075    154.1470     29.1350
  1668.5000      7.9524      2.5612      0.1087      5.3831    153.1131     29.0609
  1668.6000      7.9524      2.5574      0.0890      5.6112    157.0045     28.9182
  1668.7000      7.9524      2.5475      0.0690      6.2151    163.6205     28.6484
  1668.8000      7.9334      2.5374      0.0385      6.8260    166.5934     28.1234
  1668.9000      7.9334      2.5436      0.0065      6.4509    163.2372     27.4019
  1669.0000      7.9260      2.5678      0.1143      4.9795    157.4089     26.9567
  1669.1000      7.9260      2.5846      0.1095      3.9656    152.8489     27.0843
  1669.2000      7.9260      2.5800      0.0681      4.2442    150.7106     27.5260
  1669.3000      7.9223      2.5656      0.0774      5.1125    151.9746     28.0107
  1669.4000      7.9223      2.5561      0.0559      5.6883    154.9517     28.5034
  1669.5000      7.9283      2.5571      0.1013      5.6317    155.2487     28.8118
  1669.6000      7.9283      2.5594      0.1057      5.4926    153.3784     28.7638
  1669.7000      7.9283      2.5558      0.1252      5.7121    154.4256     28.5862
  1669.8000      7.9278      2.5521      0.0879      5.9357    156.1299     28.2782
  1669.9000      7.9278      2.5529      0.0938      5.8876    150.6320     27.5993
  1670.0000      7.9524      2.5463      0.0862      6.2870    140.3356     26.8045
  1670.1000      7.9524      2.5137      0.0736      8.2629    134.5924     26.5771
  1670.2000      7.9524      2.4525      0.0374     11.9687    133.9235     27.2501
  1670.3000      7.9394      2.3783      0.0384     16.4637    132.2887     28.3841
  1670.4000      7.9394      2.3131      0.0642     20.4167    129.6039     29.0602
  1670.5000      7.9786      2.2756      0.0359     22.6884    130.8345     28.8600
  1670.6000      7.9786      2.2741      0.0102     22.7847    135.6608     28.3589
  1670.7000      7.9786      2.3041      0.0856     20.9616    138.9809     28.1047
  1670.8000      8.1344      2.3618      0.1291     17.4695    140.0829     28.1984
  1670.9000      8.1344      2.4450      0.2763     12.4266    141.2456     28.8242
  1671.0000      8.1127      2.5332      0.4158      7.0761    140.3180     29.8862
  1671.1000      8.1127      2.6030      0.4261      2.8460    137.8704     30.7902
  1671.2000      8.1127      2.6474      0.4093      0.1597    138.1746     31.1749
  1671.3000      7.9687      2.6575      0.3660     -0.4516    141.6236     31.0910
  1671.4000      7.9687      2.6298      0.2639      1.2223    143.9185     30.7449
  1671.5000      7.9987      2.5852      0.1729      3.9301    141.6877     30.4480
  1671.6000      7.9987      2.5502      0.1365      6.0508    138.0744     30.2124
  1671.7000      7.9987      2.5358      0.1392      6.9222    138.1233     29.8059
  1671.8000      7.9510      2.5342      0.1352      7.0197    140.9936     29.3716
  1671.9000      7.9510      2.5305      0.1405      7.2404    141.5642     29.0407
  1672.0000      8.0033      2.5184      0.1080      7.9767    137.5795     28.7358
  1672.1000      8.0033      2.5072      0.1001      8.6532    132.0119     28.6503
  1672.2000      8.0033      2.5156      0.1124      8.1470    129.7556     28.8614
  1672.3000      7.9380      2.5446      0.1947      6.3891    130.9358     29.0106
  1672.4000      7.9380      2.5697      0.2479      4.8686    131.1407     28.6738
  1672.5000      7.9373      2.5773      0.2346      4.4084    129.0148     27.8634
  1672.6000      7.9373      2.5834      0.2188      4.0355    127.3861     27.2640
  1672.7000      7.9373      2.5987      0.2346      3.1110    128.5016     27.4273
  1672.8000      7.9197      2.6047      0.2910      2.7458    132.5386     28.0751
  1672.9000      7.9197      2.5881      0.2486      3.7493    137.7694     28.5557
  1673.0000      7.9268      2.5645      0.2138      5.1839    142.3825     28.5657
  1673.1000      7.9268      2.5473      0.2066      6.2229    144.6416     28.4550
  1673.2000      7.9268      2.5360      0.1494      6.9105    141.8086     28.4187
  1673.3000      7.9233      2.5327      0.1571      7.1066    135.5072     28.3461
  1673.4000      7.9233      2.5426      0.1358      6.5118    132.6056     28.3100
  1673.5000      7.9097      2.5626      0.1711      5.2947    135.4244     28.1693
  1673.6000      7.9097      2.5832      0.1786      4.0471    139.3443     27.7904
  1673.7000      7.9097      2.5976      0.1638      3.1783    140.6514     27.5843
  1673.8000      7.9101      2.5969      0.2138      3.2180    137.7325     27.7855
  1673.9000      7.9101      2.5777      0.1204      4.3807    130.3012     28.0587
