~Version Information
VERS.                      2.0: CWLS Log ASCII Standard - VERSION 2.0
WRAP.                       NO: One line per depth step
~Well Information Block
STRT.FT               430.0000: 
STOP.FT              2074.0000: 
STEP.FT                 0.1000: 
NULL.                -999.2500: 
COMP.          Pioneer Natural Resources: COMPANY
WELL.             Fleming 11-2: WELL
FLD.           Purgatoire River: FIELD
LOC.           534' FNL & 160' FWL: LOCATION
CNTY.               Las Animas: COUNTY
SRVC.                Patterson: SERVICE COMPANY
DATE.          Tue Jun 27 10:07:47 2006: LOG DATE
UWI.           05 071 08491 00: UNIQUE WELL ID
STAT.                 Colorado: STATE
~Curve Information Block
DEPT.FT            0 000 00 00: Depth
DCAL.in                       : CDL Caliper
RHOB.g/cc                     : CDL Bulk Density
RHOC.g/cc                     : CDL Density Correction
DPOR.pu                       : CDL Density Porosity
GR.GAPI                       : Gamma Ray
NPOR.pu                       : Neutron Porosity
~Parameter Information Block
~A  Depth       DCAL        RHOB        RHOC        DPOR         GR         NPOR    
# ...
  1409.2000      7.9325      2.6164      0.0399      2.0378    115.9854     26.5073
  1409.3000      7.9303      2.6114      0.0600      2.3374    111.9561     25.8681
  1409.4000      7.9303      2.5949      0.0189      3.3405    109.2115     25.4851
  1409.5000      7.9295      2.5726      0.0023      4.6911    106.7225     25.3817
  1409.6000      7.9295      2.5523     -0.0152      5.9204    101.0992     25.2557
  1409.7000      7.9295      2.5360      0.0177      6.9088     96.4482     24.9666
  1409.8000      7.9297      2.5271     -0.0360      7.4511     98.3472     24.4488
  1409.9000      7.9297      2.5296      0.0022      7.2976    101.3051     24.2016
  1410.0000      7.9303      2.5378     -0.0126      6.7990     99.6492     24.5820
  1410.1000      7.9303      2.5475      0.0128      6.2150     97.2526     25.0155
  1410.2000      7.9303      2.5596      0.0405      5.4787     98.7598     24.8783
  1410.3000      7.9311      2.5703      0.0272      4.8296    103.6315     24.3971
  1410.4000      7.9311      2.5735      0.0109      4.6377    107.0527     24.3942
  1410.5000      7.9300      2.5668      0.0384      5.0399    106.8549     24.8577
  1410.6000      7.9300      2.5490      0.0392      6.1219    107.6560     24.8742
  1410.7000      7.9300      2.5268     -0.0344      7.4640    113.3754     24.2186
  1410.8000      7.9287      2.5142     -0.0249      8.2332    120.2241     23.5231
  1410.9000      7.9287      2.5124     -0.0129      8.3390    122.2159     23.5081
  1411.0000      7.9288      2.5174     -0.0269      8.0369    117.7465     24.1501
  1411.1000      7.9288      2.5320     -0.0181      7.1535    109.5306     24.6018
  1411.2000      7.9288      2.5501      0.0477      6.0533    103.9821     24.3990
  1411.3000      7.9289      2.5561      0.0368      5.6892    103.5159     23.6398
  1411.4000      7.9289      2.5545      0.0158      5.7880    101.9283     23.0732
  1411.5000      7.9286      2.5639      0.0055      5.2185     96.1102     23.2013
  1411.6000      7.9286      2.5853      0.0116      3.9187     91.2179     23.4385
  1411.7000      7.9286      2.5976      0.0714      3.1749     89.9016     23.1823
  1411.8000      7.9288      2.5829      0.0642      4.0649     90.7817     22.5108
  1411.9000      7.9288      2.5492      0.0511      6.1072     93.6962     21.9621
  1412.0000      7.9288      2.5158      0.0045      8.1339     98.6845     22.0743
  1412.1000      7.9288      2.4947     -0.0339      9.4127    101.9244     22.9061
  1412.2000      7.9288      2.4900      0.0347      9.6951     98.9003     23.8154
  1412.3000      7.9280      2.4950      0.0300      9.3924     91.2539     23.9390
  1412.4000      7.9280      2.5022      0.0256      8.9591     82.4492     22.7821
  1412.5000      7.9284      2.5112      0.0469      8.4125     75.3217     21.1189
  1412.6000      7.9284      2.5243      0.0191      7.6155     72.6980     20.2329
  1412.7000      7.9284      2.5420      0.0386      6.5428     73.0236     20.1065
  1412.8000      7.9290      2.5556      0.0467      5.7218     72.1559     20.2023
  1412.9000      7.9290      2.5559      0.0524      5.7035     69.4855     20.6999
  1413.0000      7.9292      2.5504      0.0198      6.0359     66.7544     21.7413
  1413.1000      7.9292      2.5512      0.0449      5.9888     65.3959     22.5019
  1413.2000      7.9292      2.5530      0.0659      5.8762     66.3836     22.3083
  1413.3000      7.9296      2.5460      0.0505      6.3012     69.2704     21.3194
  1413.4000      7.9296      2.5292      0.0753      7.3188     73.4032     20.2131
  1413.5000      7.9296      2.5114      0.0027      8.3988     74.6043     19.6054
  1413.6000      7.9296      2.5050      0.0287      8.7899     70.8353     19.5351
  1413.7000      7.9296      2.5111     -0.0063      8.4196     66.9800     19.6376
  1413.8000      7.9286      2.5208      0.0254      7.8282     65.1832     19.4305
  1413.9000      7.9286      2.5201      0.0401      7.8750     63.0459     18.7129
  1414.0000      7.9278      2.5023      0.0128      8.9490     58.1081     17.8703
  1414.1000      7.9278      2.4771     -0.0073     10.4782     50.8613     17.5244
  1414.2000      7.9278      2.4545     -0.0274     11.8505     46.5690     17.8019
  1414.3000      7.9284      2.4462     -0.0511     12.3511     49.4368     18.1802
  1414.4000      7.9284      2.4623      0.0092     11.3755     55.1161     18.3664
  1414.5000      7.9290      2.4855      0.0135      9.9696     57.1304     18.5109
  1414.6000      7.9290      2.4931      0.0141      9.5069     56.3742     18.6503
  1414.7000      7.9290      2.4874      0.0145      9.8569     55.5367     18.9202
  1414.8000      7.9287      2.4806     -0.0371     10.2683     55.5173     19.0275
  1414.9000      7.9287      2.4818      0.0017     10.1929     57.8730     18.5369
  1415.0000      7.9281      2.4904      0.0183      9.6713     61.5124     18.2229
  1415.1000      7.9281      2.4999      0.0134      9.0991     63.8524     18.5476
  1415.2000      7.9281      2.5041      0.0294      8.8412     64.8296     18.5767
  1415.3000      7.9279      2.4994      0.0461      9.1251     64.1648     17.8563
  1415.4000      7.9279      2.4875      0.0291      9.8460     62.4047     17.4706
  1415.5000      7.9276      2.4768      0.0214     10.4989     59.6871     18.1971
  1415.6000      7.9276      2.4788     -0.0333     10.3742     55.0582     19.4393
  1415.7000      7.9276      2.4956      0.0147      9.3563     49.8801     20.2293
  1415.8000      7.9271      2.5105      0.0605      8.4546     46.6070     20.3086
  1415.9000      7.9271      2.5150      0.0318      8.1799     45.1135     19.9761
  1416.0000      7.9270      2.5205      0.0542      7.8481     45.7212     19.7976
  1416.1000      7.9270      2.5325      0.0267      7.1201     50.4957     19.8684
  1416.2000      7.9270      2.5449      0.0655      6.3693     57.7067     19.7002
  1416.3000      7.9266      2.5505      0.0663      6.0290     61.9581     19.3663
  1416.4000      7.9266      2.5533      0.0506      5.8616     60.9835     19.1859
  1416.5000      7.9253      2.5635      0.0423      5.2408     59.3985     19.0608
  1416.6000      7.9253      2.5765      0.0885      4.4565     60.5410     19.1055
  1416.7000      7.9253      2.5768      0.0528      4.4381     62.2039     19.5856
  1416.8000      7.9247      2.5637      0.0499      5.2289     63.3502     20.1943
  1416.9000      7.9247      2.5498      0.0237      6.0723     63.1801     20.5356
  1417.0000      7.9253      2.5442      0.0252      6.4129     61.7331     20.7132
  1417.1000      7.9253      2.5429      0.0375      6.4882     61.9009     20.6506
  1417.2000      7.9253      2.5351      0.0706      6.9632     64.9397     19.8244
  1417.3000      7.9258      2.5193      0.0094      7.9232     70.6008     18.7537
  1417.4000      7.9258      2.5034     -0.0130      8.8837     76.9881     18.5219
  1417.5000      7.9264      2.4926     -0.0192      9.5401     79.7045     19.3595
  1417.6000      7.9264      2.4917     -0.0269      9.5945     75.9587     20.6688
  1417.7000      7.9264      2.5014      0.0148      9.0046     68.7983     21.3293
  1417.8000      7.9266      2.5110      0.0273      8.4231     65.0611     20.9377
  1417.9000      7.9266      2.5110      0.0208      8.4213     68.3536     20.4242
  1418.0000      7.9256      2.5079      0.0046      8.6148     76.0655     20.5105
  1418.1000      7.9256      2.5141      0.0311      8.2393     82.7881     21.0781
  1418.2000      7.9256      2.5257      0.0268      7.5310     85.9512     21.8201
  1418.3000      7.9239      2.5303      0.0476      7.2542     85.1294     22.6260
  1418.4000      7.9239      2.5332     -0.0494      7.0818     83.7165     23.0276
  1418.5000      7.9232      2.5448      0.0292      6.3731     87.9631     22.4448
  1418.6000      7.9232      2.5496      0.0205      6.0843     96.2238     21.3446
  1418.7000      7.9232      2.5302      0.0494      7.2625    102.1314     20.7548
