~Version Information
VERS.                      2.0: CWLS Log ASCII Standard - VERSION 2.0
WRAP.                       NO: One line per depth step
~Well Information Block
STRT.FT               196.3000: 
STOP.FT              1631.0000: 
STEP.FT                 0.1000: 
NULL.                -999.2500: 
COMP.          Petrogulf Corporation: COMPANY
WELL.             State 16-44R: WELL
FLD.           Purgatoire River: FIELD
LOC.           632' FSL & 223' FEL--: LOCATION
PROV.                 Colorado: PROVINCE
CNTY.               Las Animas: COUNTRY
SRVC.                Patterson: SERVICE COMPANY
DATE.          Fri Oct 21 14:20:18 2005: LOG DATE
UWI.           05 071 08457 00: UNIQUE WELL ID
~Curve Information Block
DEPT.FT            0 000 00 00: Depth
DCAL.in                       : CDL Caliper
RHOB.g/cc                     : CDL Bulk Density
RHOC.g/cc                     : CDL Density Correction
DPOR.pu                       : CDL Density Porosity
NPOR.pu                       : Neutron Porosity
GR.GAPI                       : Gamma Ray
~Parameter Information Block
~A  Depth       DCAL        RHOB        RHOC        DPOR        NPOR         GR     
# ...
   570.7000      8.0104      2.5404      0.0297      6.6432     24.3520    162.8703
   570.8000      8.0101      2.5350      0.0482      6.9710     25.3456    161.5247
   570.9000      8.0101      2.5352      0.0242      6.9552     26.1479    155.0529
   571.0000      8.0101      2.5436      0.0211      6.4485     26.6010    143.9075
   571.1000      8.0101      2.5625      0.0324      5.3024     26.2863    130.3884
   571.2000      8.0101      2.5879      0.0733      3.7615     25.5102    122.6689
   571.3000      8.0110      2.6040      0.1022      2.7861     25.2579    125.3964
   571.4000      8.0110      2.5940      0.1140      3.3926     25.6951    133.1726
   571.5000      8.0119      2.5623      0.0387      5.3130     26.3185    138.0014
   571.6000      8.0119      2.5228      0.0599      7.7119     26.7828    138.5109
   571.7000      8.0119      2.4733      0.0480     10.7101     26.7948    133.5285
   571.8000      8.0124      2.4114      0.0219     14.4591     26.4267    123.5950
   571.9000      8.0124      2.3390      0.0307     18.8485     26.2492    113.4155
   572.0000      8.0141      2.2545     -0.0056     23.9700     26.3375    106.1256
   572.1000      8.0141      2.1667     -0.0590     29.2937     26.3892    102.7709
   572.2000      8.0141      2.0924     -0.0548     33.7928     26.4624     99.6474
   572.3000      8.0120      2.0372     -0.0660     37.1385     26.8701     91.2910
   572.4000      8.0120      1.9920     -0.0441     39.8794     27.2891     78.5471
   572.5000      7.9968      1.9494     -0.0444     42.4626     26.8571     66.3894
   572.6000      7.9968      1.9157      0.0039     44.5052     25.7280     57.7495
   572.7000      7.9968      1.9036      0.0457     45.2334     24.7082     52.3854
   572.8000      7.9711      1.9249      0.0740     43.9467     24.0585     48.9063
   572.9000      7.9711      1.9871      0.1097     40.1787     23.8581     46.5879
   573.0000      7.9545      2.0828      0.1616     34.3744     24.0516     45.6896
   573.1000      7.9545      2.1834      0.2083     28.2815     24.1601     46.1722
   573.2000      7.9545      2.2634      0.2040     23.4287     23.7529     48.2291
   573.3000      7.9514      2.3254      0.1630     19.6756     22.9502     52.4166
   573.4000      7.9514      2.3799      0.1724     16.3726     22.1123     57.8771
   573.5000      7.9536      2.4243      0.1588     13.6799     21.3368     62.2198
   573.6000      7.9536      2.4572      0.1262     11.6836     20.7039     66.2469
   573.7000      7.9536      2.4950      0.0430      9.3951     20.0537     74.0543
   573.8000      7.9550      2.5579      0.0353      5.5799     19.2295     83.9303
   573.9000      7.9550      2.6409      0.0830      0.5489     18.4399     88.0676
   574.0000      7.9546      2.7148      0.1107     -3.9287     17.9352     84.8415
   574.1000      7.9546      2.7606      0.1211     -6.7022     17.5823     81.5640
   574.2000      7.9546      2.7781      0.1242     -7.7624     16.9944     82.3099
   574.3000      7.9510      2.7694      0.1316     -7.2356     16.2464     83.3045
   574.4000      7.9510      2.7448      0.1150     -5.7450     15.8199     82.0890
   574.5000      7.9453      2.7290      0.1001     -4.7890     15.9051     83.1371
   574.6000      7.9453      2.7359      0.1079     -5.2061     15.9842     89.5899
   574.7000      7.9453      2.7431      0.1623     -5.6431     15.6090     94.4027
   574.8000      7.9410      2.7279      0.0936     -4.7194     15.1097     92.1859
   574.9000      7.9410      2.7089      0.0493     -3.5713     14.7029     87.5405
   575.0000      7.9408      2.7057      0.0751     -3.3781     14.2591     85.7157
   575.1000      7.9408      2.7062      0.0546     -3.4089     13.7945     86.0599
   575.2000      7.9408      2.6946      0.0790     -2.7040     13.0992     84.7667
   575.3000      7.9441      2.6743      0.0134     -1.4737     12.1440     83.3413
   575.4000      7.9441      2.6650      0.0307     -0.9085     11.8325     85.9243
   575.5000      7.9470      2.6756      0.0360     -1.5543     12.6642     91.4208
   575.6000      7.9470      2.6988      0.0448     -2.9568     13.8553     96.4064
   575.7000      7.9470      2.7287      0.0672     -4.7713     14.3550     99.2458
   575.8000      7.9465      2.7656      0.0677     -7.0040     14.0072     98.7300
   575.9000      7.9465      2.8031      0.0918     -9.2769     13.3191     96.0509
   576.0000      7.9432      2.8215      0.1159    -10.3915     12.6913     95.8252
   576.1000      7.9432      2.8069      0.1139     -9.5088     12.2146     97.3315
   576.2000      7.9432      2.7723      0.0405     -7.4119     11.9545     94.8089
   576.3000      7.9403      2.7446      0.0393     -5.7309     12.0008     86.4594
   576.4000      7.9403      2.7357      0.0501     -5.1969     12.4036     77.3384
   576.5000      7.9404      2.7421      0.0499     -5.5819     13.0034     73.1120
   576.6000      7.9404      2.7566      0.0741     -6.4591     13.3381     74.2619
   576.7000      7.9404      2.7731      0.0553     -7.4631     13.2479     77.8869
   576.8000      7.9424      2.7864      0.0860     -8.2663     12.9827     82.6064
   576.9000      7.9424      2.7871      0.0568     -8.3071     12.7894     89.0833
   577.0000      7.9436      2.7699      0.0636     -7.2678     12.9477     94.2873
   577.1000      7.9436      2.7451      0.0442     -5.7658     13.3918     91.7084
   577.2000      7.9436      2.7307      0.0576     -4.8902     13.4728     83.3430
   577.3000      7.9415      2.7336      0.0465     -5.0673     12.7994     78.9480
   577.4000      7.9415      2.7445      0.0761     -5.7253     12.0672     82.7424
   577.5000      7.9377      2.7531      0.0761     -6.2491     12.0204     86.8997
   577.6000      7.9377      2.7636      0.0697     -6.8861     12.2894     84.0416
   577.7000      7.9377      2.7759      0.0998     -7.6294     12.2386     80.3445
   577.8000      7.9347      2.7902      0.0442     -8.4971     11.9763     81.2341
   577.9000      7.9347      2.8174      0.0978    -10.1448     11.6696     84.1129
   578.0000      7.9341      2.8508      0.0971    -12.1690     11.3735     86.5163
   578.1000      7.9341      2.8673      0.0783    -13.1695     11.4457     86.4336
   578.2000      7.9341      2.8507      0.1362    -12.1610     11.8539     83.1216
   578.3000      7.9354      2.8135      0.0325     -9.9081     12.1675     80.0151
   578.4000      7.9354      2.7934      0.0108     -8.6900     12.1548     80.0455
   578.5000      7.9377      2.8010      0.0531     -9.1507     11.9218     82.0960
   578.6000      7.9377      2.8162      0.0683    -10.0747     11.8261     81.9374
   578.7000      7.9377      2.8238      0.0639    -10.5344     12.0886     77.4512
   578.8000      7.9371      2.8188      0.0473    -10.2308     12.4759     73.9578
   578.9000      7.9371      2.8044      0.0615     -9.3579     12.7358     76.1334
   579.0000      7.9330      2.7831      0.0830     -8.0685     12.9407     79.2130
   579.1000      7.9330      2.7598      0.0475     -6.6526     13.2497     79.1114
   579.2000      7.9330      2.7501      0.0646     -6.0670     13.7269     79.5879
   579.3000      7.9296      2.7550      0.0794     -6.3665     14.2919     81.5209
   579.4000      7.9296      2.7581      0.0892     -6.5529     15.0351     79.6033
   579.5000      7.9323      2.7528      0.0640     -6.2312     16.0964     72.2795
   579.6000      7.9323      2.7355      0.0568     -5.1814     17.4688     65.6757
   579.7000      7.9323      2.6966      0.0716     -2.8248     18.9983     63.3950
   579.8000      7.9460      2.6287      0.0415      1.2931     20.3138     60.5746
   579.9000      7.9460      2.5353     -0.0177      6.9509     21.1920     54.9483
   580.0000      7.9709      2.4385     -0.0614     12.8163     21.7769     50.6534
   580.1000      7.9709      2.3668     -0.1076     17.1663     22.3858     50.1908
   580.2000      7.9709      2.3313     -0.1183     19.3151     23.1985     50.3069
