~Version Information
VERS.                      2.0: CWLS Log ASCII Standard - VERSION 2.0
WRAP.                       NO: One line per depth step
~Well Information Block
STRT.FT               -12.0000: 
STOP.FT              1266.5000: 
STEP.FT                 0.2500: 
NULL.                -999.2500: 
COMP.          Pioneer Natural Resources: COMPANY
WELL.          Hot Tomatoes 22-20: WELL
FLD.           Purgatorie River: FIELD
LOC.           2120' FNL & 2585' FWL: LOCATION
CNTY.               Las Animas: COUNTY
SRVC.                Patterson: SERVICE COMPANY
DATE.          Thu Mar 02 13:59:39 2006: LOG DATE
UWI.           05 071 08701 00: UNIQUE WELL ID
STAT.                       CO: STATE
~Curve Information Block
DEPT.FT            0 000 00 00: Depth
GR.GAPI                       : Gamma Ray
CCL.                          : Casing Collar Locator
TT3.usec                      : CBL 3' Travel Time
AMP3.mV                       : CBL 3' Amplitude
~Parameter Information Block
~A  Depth        GR         CCL         TT3         AMP3    
# ...
   993.0000    115.1136      0.0000    680.8905      7.8707
   993.2500    108.3394      0.0000    703.0707      8.4123
   993.5000    106.6777      0.0000    729.0610      8.5388
   993.7500    110.7362      0.0000    747.4347      8.3709
   994.0000    119.0052      0.0000    750.0592      8.0103
   994.2500    128.4606      0.0000    734.4223      7.4866
   994.5000    135.7276      0.0000    700.9171      6.8456
   994.7500    138.5831      0.0000    651.2140      6.2467
   995.0000    136.9514      0.0000    589.4841      5.9113
   995.2500    132.4100      0.0000    523.7775      5.9445
   995.5000    126.6896      0.0000    464.4966      6.2305
   995.7500    120.7564      0.0000    420.1297      6.5280
   996.0000    115.0954      0.0000    393.5817      6.6611
   996.2500    110.2598      0.0000    382.0151      6.6158
   996.5000    106.7788      0.0000    379.5313      6.4903
   996.7500    104.6410      0.0000    380.4265      6.3905
   997.0000    103.1153      0.0000    381.2685      6.3659
   997.2500    101.1162      0.0000    381.1756      6.4091
   997.5000     97.8080      0.0000    380.8363      6.4938
   997.7500     93.1608      0.0000    381.4238      6.6048
   998.0000     88.0978      0.0000    384.0254      6.7338
   998.2500     83.9480      0.0000    389.2108      6.8561
   998.5000     81.6337      0.0000    396.3774      6.9320
   998.7500     81.3710      0.0000    403.4174      6.9432
   999.0000     82.7857      0.0000    407.6337      6.9217
   999.2500     84.9683      0.0000    407.5824      6.9271
   999.5000     86.6623      0.0000    404.1456      6.9931
   999.7500     86.9200      0.0000    399.7467      7.1068
  1000.0000     85.6582      0.0000    396.7994      7.2333
  1000.2500     83.4149      0.0000    397.2405      7.3395
  1000.5000     80.8006      0.0000    403.3604      7.3903
  1000.7500     78.3293      0.0000    417.9048      7.3397
  1001.0000     76.3391      0.0000    441.3558      7.1428
  1001.2500     74.7279      0.0000    467.9243      6.7934
  1001.5000     73.1348      0.0000    486.1866      6.3632
  1001.7500     71.7388      0.0000    487.4716      5.9980
  1002.0000     71.5743      0.0000    474.9070      5.8359
  1002.2500     73.5995      0.0000    462.0266      5.9010
  1002.5000     77.4496      0.0000    460.7977      6.0817
  1002.7500     81.3542      0.0000    471.7205      6.2255
  1003.0000     83.4155      0.0000    486.8380      6.2484
  1003.2500     82.8582      0.0000    501.3537      6.1568
  1003.5000     80.0100      0.0000    518.5946      5.9978
  1003.7500     75.5265      0.0000    541.2379      5.8181
  1004.0000     70.0288      0.0000    560.8146      5.6658
  1004.2500     64.2941      0.0000    561.1738      5.6039
  1004.5000     59.3515      0.0000    533.7134      5.6850
  1004.7500     56.1802      0.0000    486.9272      5.8850
  1005.0000     55.2666      0.0000    440.1265      6.0696
  1005.2500     56.3625      0.0000    409.7833      6.0766
  1005.5000     58.7029      0.0000    402.7666      5.8534
  1005.7500     61.5804      0.0000    418.8646      5.4996
  1006.0000     64.5913      0.0000    454.1332      5.1681
  1006.2500     67.1898      0.0000    499.5161      4.9480
  1006.5000     68.4990      0.0000    539.5343      4.8460
  1006.7500     68.2566      0.0000    558.5634      4.8438
  1007.0000     67.7666      0.0000    552.9935      4.9392
  1007.2500     69.1624      0.0000    537.0076      5.1248
  1007.5000     73.6955      0.0000    533.0099      5.3446
  1007.7500     81.1054      0.0000    553.7166      5.4994
  1008.0000     90.2792      0.0000    593.1622      5.5129
  1008.2500     99.6470      0.0000    634.4880      5.3943
  1008.5000    107.0754      0.0000    664.3484      5.2319
  1008.7500    110.5103      0.0000    679.3832      5.1204
  1009.0000    109.4360      0.0000    682.3697      5.0915
  1009.2500    105.5402      0.0000    675.5662      5.1067
  1009.5000    101.5501      0.0000    657.5652      5.1087
  1009.7500     99.1787      0.0000    625.5574      5.0742
  1010.0000     98.0834      0.0000    581.6953      5.0183
  1010.2500     96.6063      0.0000    537.5765      4.9632
  1010.5000     93.3662      0.0000    510.1698      4.9145
  1010.7500     88.3026      0.0000    510.3150      4.8631
  1011.0000     82.5199      0.0000    533.7503      4.8039
  1011.2500     77.2991      0.0000    563.2112      4.7493
  1011.5000     73.3157      0.0000    580.1725      4.7293
  1011.7500     70.7178      0.0000    575.9312      4.7797
  1012.0000     69.5877      0.0000    553.5416      4.9197
  1012.2500     70.0409      0.0000    522.3234      5.1312
  1012.5000     71.9816      0.0000    491.7820      5.3573
  1012.7500     74.8134      0.0000    468.2070      5.5325
  1013.0000     77.5110      0.0000    454.0161      5.6160
  1013.2500     79.2891      0.0000    449.2925      5.5988
  1013.5000     80.2414      0.0000    454.1530      5.4894
  1013.7500     81.0724      0.0000    469.6586      5.3095
  1014.0000     82.2685      0.0000    495.2489      5.0967
  1014.2500     83.7621      0.0000    524.2686      4.8994
  1014.5000     85.2057      0.0000    544.0598      4.7658
  1014.7500     86.1513      0.0000    544.5643      4.7256
  1015.0000     86.0467      0.0000    528.0223      4.7736
  1015.2500     84.5788      0.0000    508.3084      4.8733
  1015.5000     82.1712      0.0000    500.7024      4.9849
  1015.7500     79.9099      0.0000    513.0664      5.0824
  1016.0000     78.9847      0.0000    543.9225      5.1520
  1016.2500     80.2967      0.0000    584.8899      5.1875
  1016.5000     84.1198      0.0000    624.8513      5.1873
  1016.7500     89.4652      0.0000    654.2245      5.1425
  1017.0000     93.9867      0.0000    666.6933      5.0355
  1017.2500     95.4105      0.0000    658.3146      4.8651
  1017.5000     93.4327      0.0000    628.0453      4.6726
  1017.7500     90.0722      0.0000    581.8898      4.5301
  1018.0000     88.3389      0.0000    535.1191      4.5001
  1018.2500     90.6676      0.0000    505.1703      4.6004
  1018.5000     97.8091      0.0000    499.2887      4.8019
  1018.7500    108.1706      0.0000    510.5568      5.0589
  1019.0000    118.3196      0.0000    526.0497      5.3408
  1019.2500    125.1656      0.0000    535.6286      5.6242
  1019.5000    128.2166      0.0000    533.8898      5.8598
  1019.7500    129.6190      0.0000    520.3130      5.9841
  1020.0000    132.1034      0.0000    500.1121      5.9822
  1020.2500    136.9023      0.0000    481.3641      5.9127
  1020.5000    143.0535      0.0000    469.2790      5.8449
  1020.7500    148.1466      0.0000    464.0779      5.7821
  1021.0000    149.9935      0.0000    463.7807      5.6552
  1021.2500    148.2875      0.0000    467.8312      5.3890
  1021.5000    144.9387      0.0000    478.3754      4.9784
  1021.7500    142.5413      0.0000    498.7892      4.5107
  1022.0000    142.1818      0.0000    530.3859      4.1092
  1022.2500    142.8217      0.0000    569.7110      3.8442
  1022.5000    142.9594      0.0000    609.1482      3.6864
  1022.7500    142.5451      0.0000    640.7853      3.5459
  1023.0000    142.6703      0.0000    660.6327      3.3538
  1023.2500    143.7119      0.0000    670.1243      3.1043
  1023.5000    144.6324      0.0000    674.0137      2.8191
  1023.7500    143.8626      0.0000    676.5898      2.4956
  1024.0000    140.0498      0.0000    679.5384      2.1138
  1024.2500    132.3066      0.0000    683.1743      1.7001
  1024.5000    120.8105      0.0000    689.4574      1.3595
  1024.7500    107.3051      0.0000    702.8572      1.1998
  1025.0000     94.4877      0.0000    726.6649      1.2036
  1025.2500     84.4688      0.0000    757.7014      1.2190
  1025.5000     77.5186      0.0000    786.2701      1.1284
  1025.7500     72.2910      0.0000    803.5598      0.9923
  1026.0000     67.4928      0.0000    809.4047      0.9742
  1026.2500     63.4997      0.0000    812.0298      1.1512
