~Version Information
 VERS.                                  2.0 : CWLS LAS VERSION
 WRAP.                                   NO : WRAPING MODE
 SWARE .                 MController 2.5.0J : SOFTWARE VERSION
~Well Information
 WELL.                     McDonald 33-31 R : WELL
 COMP.  Pioneer Natural Resources USA, Inc. : COMPANY
 FLD.                      Purgatoire River : FIELD
 LOC.                NW/SE Sec 31 T32S R66W : LOCATION
 DATE.                             09/22/05 : DATE(S) LOGGED
 SRVC.       BLANCO Geological Services LLC : SERVICE COMPANY
 STAT.                                   CO : STATE
 CNTY.                           Las Animas : COUNTY
 CTRY.                                  USA : COUNTRY
 API.                       05-071-08533-00 : API NUMBER
 STRT.FT                             377.00 : START DEPTH
 STOP.FT                            2310.00 : STOP DEPTH
 STEP.FT                               1.00 : DEPTH INCREMENT
 NULL.                                -9999 : NULL VALUE
~Curve information
 DEPTH.FT                                   :
 ROP.MIN/FT                                 :
 GAS.UNITS                                  :
~ASCII Log data
       377.0     -9999.00          2.3 
       378.0         0.63          2.2 
       379.0         0.23          2.3 
       380.0         0.32          2.3 
       381.0         0.30          2.4 
       382.0         0.30          4.2 
       383.0         0.10          4.1 
       384.0         0.17          3.8 
       385.0         0.13          3.9 
       386.0         0.17          4.1 
       387.0         0.17          4.2 
       388.0         0.13          3.7 
       389.0         0.17          4.1 
       390.0         1.68          4.4 
       391.0         0.20          3.9 
       392.0         0.10          3.8 
       393.0         0.13          4.0 
       394.0         0.13          4.0 
       395.0         0.10          4.4 
       396.0         0.13          4.2 
       397.0         0.13          4.4 
       398.0         0.17          3.9 
       399.0         0.17          4.0 
       400.0         0.17          3.8 
       401.0         0.13          4.2 
       402.0         0.13          4.3 
       403.0         0.13          3.9 
       404.0         0.15          4.0 
       405.0         0.13          4.0 
       406.0         0.13          3.7 
       407.0         0.13          4.1 
       408.0         0.17          3.9 
       409.0         0.13          4.0 
       410.0         0.13          4.0 
       411.0         0.13          4.0 
       412.0         0.17          4.1 
       413.0         0.17          4.0 
       414.0         0.13          4.0 
       415.0         0.13          4.1 
       416.0         0.17          3.9 
       417.0         0.13          3.6 
       418.0         0.13          3.9 
       419.0         0.17          4.1 
       420.0         1.55          4.8 
       421.0         0.23          4.6 
       422.0         0.13          4.4 
       423.0         0.10          4.2 
       424.0         0.13          4.4 
       425.0         0.13          4.3 
       426.0         0.13          4.1 
       427.0         0.10         13.5 
       428.0         0.17         72.0 
       429.0         0.13        112.2 
       430.0         0.17        116.8 
       431.0         0.13        104.7 
       432.0         0.13         81.1 
       433.0         0.13         57.9 
       434.0         0.15         40.0 
       435.0         0.13         24.8 
       436.0         0.13         16.0 
       437.0         0.13         10.8 
       438.0         0.13          7.8 
       439.0         0.13          5.8 
       440.0         0.13          3.9 
       441.0         0.13          3.0 
       442.0         0.13          2.3 
       443.0         0.13          2.2 
       444.0         0.13          1.8 
       445.0         0.17          1.3 
       446.0         0.13          1.1 
       447.0         0.13          1.2 
       448.0         0.13          1.2 
       449.0         0.13          1.0 
       450.0         1.17          1.3 
       451.0         0.22          1.3 
       452.0         0.17          1.4 
       453.0         0.20          1.5 
       454.0         0.17          1.2 
       455.0         0.17          1.6 
       456.0         0.10          1.5 
       457.0         0.13          1.4 
       458.0         0.10          1.5 
       459.0         0.13          1.7 
       460.0         0.13          1.7 
       461.0         0.13          1.6 
       462.0         0.17          1.9 
       463.0         0.13          1.6 
       464.0         0.13          1.8 
       465.0         0.13          1.8 
       466.0         0.10          1.8 
       467.0         0.13          2.0 
       468.0         0.13          2.0 
       469.0         0.13          2.0 
       470.0         0.18          2.0 
       471.0         0.27          2.4 
       472.0         0.27          2.2 
       473.0         0.20          2.4 
       474.0         0.20          2.2 
       475.0         0.17          2.6 
       476.0         0.10          2.4 
       477.0         0.20          2.4 
       478.0         0.33          2.3 
       479.0         0.17          2.7 
       480.0         2.18          2.9 
       481.0         0.23          2.4 
       482.0         0.30          2.6 
       483.0         0.33          2.7 
       484.0         0.23          2.3 
       485.0         0.27          2.7 
       486.0         0.27          2.5 
       487.0         0.20          2.7 
       488.0         0.20          2.8 
       489.0         0.35          2.7 
       490.0         0.33          2.7 
       491.0         0.40          2.6 
       492.0         0.33          2.8 
       493.0         0.30          3.3 
       494.0         0.40         16.6 
       495.0         0.20         27.1 
       496.0         0.13         35.1 
       497.0         0.13         41.9 
       498.0         0.13         47.5 
       499.0         0.17         51.0 
       500.0         0.17         53.6 
       501.0         0.17         55.0 
       502.0         0.18         56.3 
       503.0         0.20         57.0 
       504.0         0.13         57.2 
       505.0         0.17         57.4 
       506.0         0.13         57.8 
       507.0         0.20         57.9 
       508.0         0.20         57.8 
       509.0         0.20         56.2 
       510.0         2.18        205.3 
       511.0         0.33        114.4 
       512.0         0.23         86.1 
       513.0         0.20         74.9 
       514.0         0.23         69.5 
       515.0         0.23         63.9 
       516.0         0.23         57.3 
       517.0         0.23         47.5 
       518.0         0.23         38.2 
       519.0         0.23         29.5 
       520.0         0.20         23.0 
       521.0         0.20         18.7 
       522.0         0.17         15.7 
       523.0         0.22         13.7 
       524.0         0.30         13.0 
       525.0         0.30         11.4 
       526.0         0.30          9.8 
       527.0         0.23          9.2 
       528.0         0.27          8.6 
       529.0         0.20          8.5 
       530.0         0.17          8.2 
       531.0         0.13          8.1 
       532.0         0.27          8.2 
       533.0         0.20          8.2 
       534.0         0.17          8.9 
       535.0         0.17          9.3 
       536.0         0.20          9.4 
       537.0         0.22          9.4 
       538.0         0.23          9.2 
       539.0         0.20          8.2 
       540.0         1.77          7.8 
       541.0         0.33          4.1 
       542.0         0.23          6.8 
       543.0         0.25          9.8 
       544.0         0.20         11.8 
       545.0         0.20         12.8 
       546.0         0.20         13.8 
       547.0         0.23         13.6 
       548.0         0.27         13.5 
       549.0         0.23         12.5 
       550.0         0.23         12.3 
       551.0         0.23         11.1 
       552.0         0.20         10.8 
       553.0         0.20         10.9 
       554.0         0.23          9.8 
       555.0         0.30          9.1 
       556.0         0.25          8.7 
       557.0         0.33          8.1 
       558.0         0.37          7.3 
       559.0         0.27          6.8 
       560.0         0.23          6.8 
       561.0         0.30          6.4 
       562.0         0.37          6.4 
       563.0         0.23          7.3 
       564.0         0.13          7.0 
       565.0         0.20          7.3 
       566.0         0.23          7.9 
       567.0         0.17          8.8 
       568.0         0.25         10.6 
       569.0         0.27         11.2 
       570.0         1.33         11.6 
       571.0         0.33          5.7 
       572.0         0.30          4.6 
       573.0         0.30          6.6 
       574.0         0.28         12.2 
       575.0         0.23         17.3 
       576.0         0.13         18.6 
