~Version Information
VERS.                      2.0: CWLS Log ASCII Standard - VERSION 2.0
WRAP.                       NO: One line per depth step
~Well Information Block
STRT.FT               490.0000: 
STOP.FT              2303.5000: 
STEP.FT                 0.1000: 
NULL.                -999.2500: 
COMP.          Pioneer Natural Resources: COMPANY
WELL.             Baa Baa 34-1: WELL
FLD.           Purgatoire River: FIELD
LOC.           617' FSL & 2289' FEL: LOCATION
STAT.                 Colorado: State
CNTY.               Las Animas: COUNTY
CTRY. USA : Country
SECT. 1 : Section
TOWN. 33S : Township
RANG. 67W : Range
SRVC.                Patterson: SERVICE COMPANY
DATE.          Thu Sep 08 09:44:32 2005: LOG DATE
API.           05 071 08502 00: UNIQUE WELL ID
~Curve Information Block
DEPT.FT            0 000 00 00: Depth
DCAL.in                       : CDL Caliper
RHOB.g/cc                     : CDL Bulk Density
RHOC.g/cc                     : CDL Density Correction
DPOR.pu                       : CDL Density Porosity
GR.GAPI                       : Gamma Ray
NPOR.pu                       : Neutron Porosity
~Parameter Information Block
~A  Depth       DCAL        RHOB        RHOC        DPOR         GR         NPOR    
# ...
  1805.2000      8.1198      2.1213     -0.0688     32.0425    164.5747     16.5248
  1805.3000      8.1279      2.0295     -0.0583     37.6039    164.6307     15.9966
  1805.4000      8.1279      1.9368     -0.0805     43.2240    164.8075     15.3682
  1805.5000      8.1321      1.8259     -0.1243     49.9463    158.9281     14.3975
  1805.6000      8.1321      1.7301     -0.1380     55.7538    149.5393     13.5097
  1805.7000      8.1321      1.6938     -0.0846     57.9487    141.5038     13.2379
  1805.8000      8.1432      1.7064      0.0964     57.1889    134.4110     13.2502
  1805.9000      8.1432      1.7049      0.1470     57.2807    128.3783     13.1178
  1806.0000      8.1970      1.6514      0.1260     60.5215    126.4674     12.8935
  1806.1000      8.1970      1.5717      0.0211     65.3540    124.6337     12.6473
  1806.2000      8.1970      1.5130      0.1110     68.9113    116.5742     12.3556
  1806.3000      8.2066      1.4835      0.1351     70.6942    104.3119     11.9701
  1806.4000      8.2066      1.4562      0.1578     72.3521     94.4670     11.4284
  1806.5000      8.2277      1.4195      0.1095     74.5753     88.2985     10.9376
  1806.6000      8.2277      1.3972      0.0926     75.9265     85.2036     10.7564
  1806.7000      8.2277      1.4115      0.1592     75.0625     85.8639     10.8478
  1806.8000      8.2288      1.4563      0.1649     72.3482     89.0643     11.2435
  1806.9000      8.2288      1.5239      0.1808     68.2457     92.9284     12.1824
  1807.0000      8.2141      1.6263      0.2252     62.0430     96.3796     13.7190
  1807.1000      8.2141      1.7660      0.3045     53.5774    100.7853     15.5816
  1807.2000      8.2141      1.9072      0.3883     45.0206    108.5230     17.3954
  1807.3000      8.4073      2.0064      0.3330     39.0079    117.1764     18.8377
  1807.4000      8.4073      2.0628      0.3001     35.5897    119.7665     19.9513
  1807.5000      8.5497      2.1163      0.2392     32.3480    115.8699     21.1536
  1807.6000      8.5497      2.2072      0.2454     26.8385    112.9984     22.4507
  1807.7000      8.5497      2.3276      0.2441     19.5422    116.7350     23.4171
  1807.8000      8.6828      2.4269      0.2131     13.5205    125.6499     24.0713
  1807.9000      8.6828      2.4768      0.1139     10.4956    136.1102     24.9198
  1808.0000      8.4807      2.5009      0.0858      9.0359    144.2846     25.9305
  1808.1000      8.4807      2.5357      0.1021      6.9245    143.9244     26.3366
  1808.2000      8.4807      2.5765      0.1850      4.4549    134.8874     26.1764
  1808.3000      8.0914      2.5872      0.1187      3.8072    124.6228     25.9660
  1808.4000      8.0914      2.5597      0.0654      5.4711    120.9254     25.5494
  1808.5000      8.0235      2.5210      0.0161      7.8190    127.3204     24.9014
  1808.6000      8.0235      2.4974     -0.0327      9.2508    139.7480     24.4559
  1808.7000      8.0235      2.4940      0.0136      9.4555    148.4517     24.3218
  1808.8000      8.0190      2.5003      0.0344      9.0755    148.0057     24.3342
  1808.9000      8.0190      2.5080      0.0048      8.6069    141.9264     24.4849
  1809.0000      8.0246      2.5135      0.0504      8.2701    134.7620     24.7985
  1809.1000      8.0246      2.5092      0.0692      8.5324    127.5483     25.2822
  1809.2000      8.0246      2.4956     -0.0241      9.3548    119.7549     25.6229
  1809.3000      8.0456      2.4845      0.0126     10.0324    112.5109     25.3817
  1809.4000      8.0456      2.4797     -0.0254     10.3182    109.7025     24.8302
  1809.5000      8.0554      2.4820     -0.0205     10.1835    114.5289     24.5434
  1809.6000      8.0554      2.4943     -0.0337      9.4347    123.3819     24.4096
  1809.7000      8.0554      2.5140      0.0175      8.2403    125.3697     24.0569
  1809.8000      8.0666      2.5304      0.0089      7.2488    119.7801     23.4172
  1809.9000      8.0666      2.5414      0.0601      6.5796    115.9992     22.6636
  1810.0000      8.0579      2.5505      0.0522      6.0333    118.7315     22.0942
  1810.1000      8.0579      2.5481      0.0947      6.1731    125.1199     21.8985
  1810.2000      8.0579      2.5238      0.0550      7.6461    131.3821     22.0628
  1810.3000      8.0239      2.4881      0.0446      9.8110    138.0694     22.3428
  1810.4000      8.0239      2.4573      0.0540     11.6803    144.4936     22.4027
  1810.5000      7.9955      2.4364     -0.0018     12.9432    148.4872     22.1839
  1810.6000      7.9955      2.4227      0.0024     13.7767    151.7569     21.9228
  1810.7000      7.9955      2.4095      0.0014     14.5756    155.4911     21.7884
  1810.8000      7.9874      2.3964      0.0120     15.3674    159.8204     21.9003
  1810.9000      7.9874      2.3862      0.0634     15.9895    165.3931     22.3113
  1811.0000      7.9992      2.3766      0.0818     16.5723    173.0876     22.8585
  1811.1000      7.9992      2.3667      0.0805     17.1671    178.8209     23.3552
  1811.2000      7.9992      2.3561      0.0774     17.8101    174.8454     23.7756
  1811.3000      8.0058      2.3388      0.0855     18.8591    163.1824     24.1464
  1811.4000      8.0058      2.3037      0.1201     20.9909    156.6389     24.2433
  1811.5000      8.0187      2.2458      0.1402     24.4976    160.4650     23.8581
  1811.6000      8.0187      2.1894      0.0452     27.9162    164.9035     23.4883
  1811.7000      8.0187      2.1754      0.0099     28.7661    162.4753     23.7189
  1811.8000      8.0510      2.2243      0.0177     25.8026    156.8113     24.1687
  1811.9000      8.0510      2.3241      0.0581     19.7534    152.1583     24.2171
  1812.0000      8.0733      2.4368      0.1717     12.9208    150.4821     23.9293
  1812.1000      8.0733      2.5300      0.2012      7.2730    153.5027     23.6331
  1812.2000      8.0733      2.5995      0.3199      3.0587    156.8524     23.5927
  1812.3000      8.1262      2.6395      0.4217      0.6379    155.2514     23.8325
  1812.4000      8.1262      2.6339      0.4423      0.9786    153.3429     24.0985
  1812.5000      8.1728      2.5947      0.3292      3.3542    156.1012     24.3831
  1812.6000      8.1728      2.5620      0.2693      5.3314    159.0461     24.8197
  1812.7000      8.1728      2.5559      0.1454      5.7051    156.8515     25.3381
  1812.8000      8.3183      2.5647      0.1190      5.1704    152.0831     25.6428
  1812.9000      8.3183      2.5737      0.0662      4.6220    148.8828     25.5212
  1813.0000      8.3533      2.5815      0.0487      4.1528    146.8318     25.2355
  1813.1000      8.3533      2.5943      0.0652      3.3754    145.3924     25.4569
  1813.2000      8.3533      2.6097      0.0457      2.4418    145.0742     26.3115
  1813.3000      8.1177      2.6053      0.1184      2.7064    144.8412     27.0148
  1813.4000      8.1177      2.5637      0.0487      5.2289    144.1642     26.9379
  1813.5000      8.0812      2.5090     -0.0034      8.5452    144.3666     26.2967
  1813.6000      8.0812      2.4794     -0.0077     10.3396    145.7455     25.7528
  1813.7000      8.0812      2.4831      0.0529     10.1149    146.5126     25.6219
  1813.8000      8.0583      2.5077      0.0314      8.6221    146.8330     25.4910
  1813.9000      8.0583      2.5416      0.0655      6.5677    148.0327     25.0915
  1814.0000      8.0378      2.5713      0.0741      4.7727    149.8631     24.7671
  1814.1000      8.0378      2.5889      0.0822      3.7019    151.2425     24.6348
  1814.2000      8.0378      2.6003      0.0682      3.0109    152.2937     24.4309
  1814.3000      7.9877      2.6084      0.1238      2.5221    155.8278     24.1792
  1814.4000      7.9877      2.6034      0.1006      2.8236    158.9384     24.2958
  1814.5000      7.9740      2.5729      0.0723      4.6726    154.1761     24.8158
  1814.6000      7.9740      2.5258     -0.0091      7.5278    145.0063     25.2596
  1814.7000      7.9740      2.4952     -0.0072      9.3837    142.1811     25.2724
