~Version Information
VERS.                      2.0: CWLS Log ASCII Standard - VERSION 2.0
WRAP.                       NO: One line per depth step
~Well Information Block
STRT.FT               655.0000: 
STOP.FT              2623.7000: 
STEP.FT                 0.1000: 
NULL.                -999.2500: 
COMP.          Pioneer Natural Resources: COMPANY
WELL.             Aviator 12-4: WELL
FLD.           Purgatoire River: FIELD
LOC.           1969' FNL & 732' FWL--: LOCATION
CNTY.               Las Animas: COUNTY
SRVC.                Patterson: SERVICE COMPANY
DATE.          Mon Apr 10 07:35:20 2006: LOG DATE
UWI.           05 071 08714 00: UNIQUE WELL ID
STAT.                 Colorado: STATE
~Curve Information Block
DEPT.FT            0 000 00 00: Depth
DCAL.in                       : CDL Caliper
RHOB.g/cc                     : CDL Bulk Density
RHOC.g/cc                     : CDL Density Correction
DPOR.pu                       : CDL Density Porosity
NPOR.pu                       : Neutron Porosity
GR.GAPI                       : Gamma Ray
~Parameter Information Block
~A  Depth       DCAL        RHOB        RHOC        DPOR        NPOR         GR     
# ...
  1816.6000      8.0146      2.5585      0.0650      5.5431     25.4043    109.5332
  1816.7000      8.0146      2.5475      0.0637      6.2091     24.3083    113.0496
  1816.8000      8.0179      2.5274      0.0219      7.4283     23.4108    117.4371
  1816.9000      8.0179      2.5074      0.0456      8.6408     23.0390    119.2424
  1817.0000      8.0186      2.4986      0.0403      9.1777     22.8962    111.1827
  1817.1000      8.0186      2.5027      0.0359      8.9284     22.4235     97.7252
  1817.2000      8.0186      2.5195      0.0214      7.9104     21.4606     91.2896
  1817.3000      8.0178      2.5442      0.0450      6.4141     20.4965     92.9942
  1817.4000      8.0178      2.5644      0.0623      5.1888     19.8992     91.9868
  1817.5000      8.0179      2.5745      0.0455      4.5746     19.6947     84.9041
  1817.6000      8.0179      2.5856      0.0263      3.9038     20.1560     81.0427
  1817.7000      8.0179      2.6027      0.1127      2.8645     20.9338     84.3961
  1817.8000      8.0187      2.6158      0.0722      2.0712     21.1566     88.1941
  1817.9000      8.0187      2.6223      0.0888      1.6763     21.0085     88.9062
  1818.0000      8.0194      2.6224      0.1049      1.6715     21.3226     92.2029
  1818.1000      8.0194      2.6098      0.0683      2.4344     22.1340     98.5225
  1818.2000      8.0194      2.5869      0.0207      3.8235     22.8625    100.2529
  1818.3000      8.0182      2.5638      0.0178      5.2260     23.0266     96.1760
  1818.4000      8.0182      2.5422      0.0586      6.5329     22.7446     93.4160
  1818.5000      8.0157      2.5191      0.0531      7.9326     22.4649     94.4315
  1818.6000      8.0157      2.5024      0.0187      8.9469     22.6820     92.3680
  1818.7000      8.0157      2.5001      0.0502      9.0826     23.6150     87.5082
  1818.8000      8.0142      2.5027      0.0507      8.9274     24.7568     88.7239
  1818.9000      8.0142      2.4913      0.1131      9.6163     25.6978     97.5604
  1819.0000      8.0145      2.4595      0.0454     11.5472     26.1887    107.5499
  1819.1000      8.0145      2.4293      0.0110     13.3743     26.0130    116.6092
  1819.2000      8.0145      2.4310      0.0113     13.2716     25.4924    128.8554
  1819.3000      8.0165      2.4700      0.0768     10.9077     24.8764    139.5418
  1819.4000      8.0165      2.5262      0.1861      7.5053     24.0343    140.3909
  1819.5000      8.0192      2.5773      0.1437      4.4063     23.1754    138.8178
  1819.6000      8.0192      2.6103      0.1820      2.4068     22.7513    141.0914
  1819.7000      8.0192      2.6167      0.1177      2.0192     22.7260    139.8114
  1819.8000      8.0196      2.6020      0.0914      2.9118     23.0686    134.7757
  1819.9000      8.0196      2.5799      0.0391      4.2475     23.6003    135.1352
  1820.0000      8.0181      2.5615      0.0428      5.3621     23.8240    140.2105
  1820.1000      8.0181      2.5540      0.0716      5.8190     23.7432    140.8782
  1820.2000      8.0181      2.5595      0.0346      5.4874     23.7596    136.9820
  1820.3000      8.0178      2.5750      0.0820      4.5456     23.9631    136.1201
  1820.4000      8.0178      2.5910      0.0590      3.5752     23.9303    139.8449
  1820.5000      8.0198      2.5988      0.0901      3.1036     23.5179    144.0696
  1820.6000      8.0198      2.6054      0.0481      2.7057     23.2573    144.8448
  1820.7000      8.0198      2.6233      0.0655      1.6194     23.4870    141.9671
  1820.8000      8.0228      2.6420      0.1032      0.4843     23.7881    139.0335
  1820.9000      8.0228      2.6404      0.1158      0.5838     23.6651    135.5904
  1821.0000      8.0241      2.6214      0.0486      1.7328     23.5856    131.5960
  1821.1000      8.0241      2.6063      0.0646      2.6502     24.0440    130.3981
  1821.2000      8.0241      2.5961      0.0461      3.2668     24.3079    129.2905
  1821.3000      8.0239      2.5794      0.0608      4.2804     23.6356    124.9450
  1821.4000      8.0239      2.5685      0.0074      4.9379     22.5310    122.6566
  1821.5000      8.0225      2.5829      0.0254      4.0653     21.8980    126.9558
  1821.6000      8.0225      2.6070      0.0895      2.6090     21.7983    130.6207
  1821.7000      8.0225      2.6096      0.0579      2.4469     21.7276    129.7734
  1821.8000      8.0198      2.5943      0.0313      3.3748     21.3069    130.9078
  1821.9000      8.0198      2.5879      0.0345      3.7661     20.8180    134.1304
  1822.0000      8.0176      2.5994      0.0554      3.0683     20.7650    133.1209
  1822.1000      8.0176      2.6125      0.0720      2.2709     21.0702    130.7367
  1822.2000      8.0176      2.6168      0.0590      2.0098     21.7356    133.3218
  1822.3000      8.0171      2.6152      0.0927      2.1090     22.8302    137.1471
  1822.4000      8.0171      2.5992      0.0796      3.0813     23.7755    138.2130
  1822.5000      8.0176      2.5671      0.0370      5.0232     24.1486    140.5199
  1822.6000      8.0176      2.5377      0.0299      6.8072     24.2743    146.0206
  1822.7000      8.0176      2.5207      0.0086      7.8352     24.1320    149.5672
  1822.8000      8.0188      2.5166     -0.0077      8.0864     23.7417    147.6365
  1822.9000      8.0188      2.5283     -0.0032      7.3737     23.7746    142.2452
  1823.0000      8.0185      2.5534      0.0454      5.8572     24.5750    137.3743
  1823.1000      8.0185      2.5812      0.0762      4.1690     25.6849    136.6814
  1823.2000      8.0185      2.6012      0.0969      2.9559     26.3309    140.7661
  1823.3000      8.0174      2.6051      0.1126      2.7190     26.1741    144.3631
  1823.4000      8.0174      2.5956      0.0705      3.2987     25.6378    141.9791
  1823.5000      8.0171      2.5870      0.0390      3.8180     25.3912    133.7919
  1823.6000      8.0171      2.5875      0.0883      3.7862     25.5445    126.8747
  1823.7000      8.0171      2.5933      0.0820      3.4370     25.5168    131.1633
  1823.8000      8.0160      2.6016      0.0545      2.9363     25.0965    148.2278
  1823.9000      8.0160      2.6085      0.0694      2.5181     24.7820    166.1321
  1824.0000      8.0156      2.6102      0.0706      2.4098     24.8227    169.9316
  1824.1000      8.0156      2.6117      0.0639      2.3207     24.8105    161.3794
  1824.2000      8.0156      2.6104      0.0743      2.3983     24.7070    154.0086
  1824.3000      8.0186      2.5996      0.0646      3.0558     25.1642    152.8755
  1824.4000      8.0186      2.5893      0.0471      3.6816     26.1766    156.9776
  1824.5000      8.0270      2.5891      0.0732      3.6914     27.0064    164.0127
  1824.6000      8.0270      2.5890      0.0584      3.6947     27.3429    167.9507
  1824.7000      8.0270      2.5846      0.0292      3.9609     27.1832    164.6191
  1824.8000      8.0382      2.5871      0.0634      3.8141     26.7963    157.1515
  1824.9000      8.0382      2.6015      0.0360      2.9395     26.6560    151.3641
  1825.0000      8.0462      2.6175      0.0664      1.9698     26.5927    148.3766
  1825.1000      8.0462      2.6137      0.0800      2.2005     26.3421    147.4725
  1825.2000      8.0462      2.5847      0.0636      3.9592     26.3505    149.7001
  1825.3000      8.0492      2.5501      0.0354      6.0526     26.9166    154.1212
  1825.4000      8.0492      2.5322     -0.0032      7.1409     27.4912    157.2199
  1825.5000      8.0489      2.5373      0.0082      6.8285     27.5794    157.6727
  1825.6000      8.0489      2.5509      0.0562      6.0057     27.3533    158.7048
  1825.7000      8.0489      2.5590      0.0398      5.5167     27.1064    162.3396
  1825.8000      8.0457      2.5621      0.0759      5.3250     26.9815    167.1499
  1825.9000      8.0457      2.5584      0.0719      5.5531     26.8978    173.2488
  1826.0000      8.0389      2.5454      0.0665      6.3412     26.7837    176.8421
  1826.1000      8.0389      2.5307      0.0456      7.2273     26.7161    172.8886
