~Version Information
 VERS.                                  2.0 : CWLS LAS VERSION
 WRAP.                                   NO : WRAPING MODE
 SWARE .                 MController 2.5.0J : SOFTWARE VERSION
~Well Information
 WELL.                Lorencito 15-36-33-67 : WELL
 COMP.    Pioneer Natural Resources USA Inc : COMPANY
 FLD.                      Purgatoire River : FIELD
 LOC.                 SW/SE Sec36 T33S R67W : LOCATION
 DATE.                             10/12/05 : DATE(S) LOGGED
 SRVC.       Blanco Geological Services LLC : SERVICE COMPANY
 STAT.                             Colorado : STATE
 CNTY.                            Las Animas : COUNTY
 CTRY.                                  USA : COUNTRY
 API.                       05-071-08515-00 : API NUMBER
 STRT.FT                             723.00 : START DEPTH
 STOP.FT                            1975.00 : STOP DEPTH
 STEP.FT                               1.00 : DEPTH INCREMENT
 NULL.                                -9999 : NULL VALUE
~Curve information
 DEPTH.FT                                   :
 ROP.MIN/FT                                 :
 GAS.UNITS                                  :
~ASCII Log data
# ...
      1323.0         0.17          9.5 
      1324.0         0.27          9.5 
      1325.0         0.25         10.1 
      1326.0         0.23         10.1 
      1327.0         0.23         10.0 
      1328.0         0.20         10.1 
      1329.0         0.23         10.6 
      1330.0         0.20         11.3 
      1331.0         0.20         12.1 
      1332.0         0.20         12.6 
      1333.0         0.23         12.4 
      1334.0         0.20         13.4 
      1335.0         0.17         13.2 
      1336.0         0.23         14.2 
      1337.0         0.23         13.8 
      1338.0         0.23         14.4 
      1339.0         0.20         15.2 
      1340.0         0.20         15.5 
      1341.0         0.25         15.5 
      1342.0         0.20         16.3 
      1343.0         0.20         17.0 
      1344.0         0.17         16.3 
      1345.0         0.20         16.0 
      1346.0         1.03         16.2 
      1347.0         0.17         14.8 
      1348.0         0.10         15.3 
      1349.0         0.40         13.7 
      1350.0         0.37         12.9 
      1351.0         0.23         11.4 
      1352.0         0.18         11.4 
      1353.0         0.23         11.7 
      1354.0         0.33         11.3 
      1355.0         0.23         11.5 
      1356.0         0.17         11.2 
      1357.0         0.20         11.7 
      1358.0         0.17         11.2 
      1359.0         0.17         11.3 
      1360.0         0.20         11.0 
      1361.0         0.13         11.0 
      1362.0         0.17         11.0 
      1363.0         0.17         11.2 
      1364.0         0.17         11.2 
      1365.0         0.17         10.6 
      1366.0         0.17         11.1 
      1367.0         0.20         13.3 
      1368.0         0.17         14.3 
      1369.0         0.22         15.1 
      1370.0         0.20         14.0 
      1371.0         0.23         13.6 
      1372.0         0.23         14.0 
      1373.0         0.17         13.5 
      1374.0         0.20         12.6 
      1375.0         0.27         12.3 
      1376.0         0.50         12.2 
      1377.0         0.53         13.0 
      1378.0         0.53         11.3 
      1379.0         0.27         10.6 
      1380.0         0.28         10.3 
      1381.0         0.27         10.4 
      1382.0         0.27         10.0 
      1383.0         0.27         10.0 
      1384.0         0.27         10.3 
      1385.0         0.27         10.3 
      1386.0         0.27         10.3 
      1387.0         0.27          9.8 
      1388.0         0.27          9.5 
      1389.0         0.27          9.6 
      1390.0         0.27          9.3 
      1391.0         0.27         10.1 
      1392.0         0.17          9.2 
      1393.0         0.28          9.7 
      1394.0         0.27          9.4 
      1395.0         0.20         10.0 
      1396.0         0.17         10.3 
      1397.0         0.17         10.1 
      1398.0         0.17          9.8 
      1399.0         0.17         10.0 
      1400.0         0.13          9.8 
      1401.0         0.17          9.7 
      1402.0         0.17          9.7 
      1403.0         0.20         10.2 
      1404.0         0.17          9.8 
      1405.0         0.17          9.8 
      1406.0         2.62          8.6 
      1407.0         0.23          8.5 
      1408.0         0.27          8.5 
      1409.0         0.27          8.0 
      1410.0         0.20          8.1 
      1411.0         0.20          8.0 
      1412.0         0.23          8.0 
      1413.0         0.20          8.2 
      1414.0         0.22          8.3 
      1415.0         0.20          8.4 
      1416.0         0.17          8.5 
      1417.0         0.17          8.4 
      1418.0         0.20          8.4 
      1419.0         0.20          8.5 
      1420.0         0.17          8.6 
      1421.0         0.17          8.8 
      1422.0         0.27          8.5 
      1423.0         0.20          9.1 
      1424.0         0.20          8.8 
      1425.0         0.20          9.0 
      1426.0         0.17          9.2 
      1427.0         0.20          8.9 
      1428.0         0.20          9.0 
      1429.0         0.20          9.0 
      1430.0         0.17          9.6 
      1431.0         0.20         10.3 
      1432.0         0.18          9.8 
      1433.0         0.17         10.0 
      1434.0         0.13         10.2 
      1435.0         0.20         10.4 
      1436.0         2.00         15.8 
      1437.0         0.37         14.1 
      1438.0         0.27         13.1 
      1439.0         0.22         13.0 
      1440.0         0.23         12.0 
      1441.0         0.20         11.6 
      1442.0         0.13         10.9 
      1443.0         0.20         11.0 
      1444.0         0.20         10.9 
      1445.0         0.17         11.1 
      1446.0         0.23         11.3 
      1447.0         0.20         11.0 
      1448.0         0.20         11.3 
      1449.0         0.23         10.9 
      1450.0         0.17         11.4 
      1451.0         0.17         11.5 
      1452.0         0.20         11.4 
      1453.0         0.17         12.2 
      1454.0         0.17         12.8 
      1455.0         0.17         13.3 
      1456.0         0.18         13.8 
      1457.0         0.20         14.4 
      1458.0         0.17         14.4 
      1459.0         0.17         14.5 
      1460.0         0.20         14.4 
      1461.0         0.13         14.7 
      1462.0         0.17         14.5 
      1463.0         0.20         14.4 
      1464.0         0.13         14.3 
      1465.0         0.17         14.3 
      1466.0         1.70         14.6 
      1467.0         0.35         13.7 
      1468.0         0.30         13.0 
      1469.0         0.27         12.6 
      1470.0         0.23         12.2 
      1471.0         0.17         12.1 
      1472.0         0.17         12.8 
      1473.0         0.17         12.3 
      1474.0         0.17         12.9 
      1475.0         0.13         12.3 
      1476.0         0.17         12.7 
      1477.0         0.13         13.4 
      1478.0         0.13         13.0 
      1479.0         0.13         13.6 
      1480.0         0.10         14.1 
      1481.0         0.20         14.3 
      1482.0         0.17         16.3 
      1483.0         0.20         17.5 
      1484.0         0.13         17.2 
      1485.0         0.18         17.3 
      1486.0         0.13         16.4 
      1487.0         0.17         16.0 
      1488.0         0.17         15.9 
      1489.0         0.20         14.7 
      1490.0         0.17         14.1 
      1491.0         0.17         13.4 
      1492.0         0.17         13.4 
      1493.0         0.27         12.1 
      1494.0         0.20         11.9 
      1495.0         0.13         12.5 
      1496.0         1.45         12.3 
      1497.0         0.23         12.1 
      1498.0         0.33         11.6 
      1499.0         0.23         11.1 
      1500.0         0.17         11.2 
      1501.0         0.17         11.2 
      1502.0         0.17         11.3 
      1503.0         0.20         11.8 
      1504.0         0.17         12.7 
      1505.0         0.17         12.4 
      1506.0         0.13         12.4 
      1507.0         0.13         13.0 
      1508.0         0.13         12.8 
      1509.0         0.17         13.2 
      1510.0         0.17         13.7 
      1511.0         0.13         13.7 
      1512.0         0.17         14.6 
      1513.0         0.17         14.0 
      1514.0         0.17         13.9 
      1515.0         0.18         14.1 
      1516.0         0.17         15.2 
      1517.0         0.17         15.4 
      1518.0         0.10         15.5 
      1519.0         0.10         15.4 
      1520.0         0.13         14.8 
      1521.0         0.13         14.1 
      1522.0         0.13         14.2 
