~Version Information
VERS.                      2.0: CWLS Log ASCII Standard - VERSION 2.0
WRAP.                       NO: One line per depth step
~Well Information Block
STRT.FT               615.0000: 
STOP.FT              1607.0000: 
STEP.FT                 0.1000: 
NULL.                -999.2500: 
COMP.          Pioneer Natural Resources: COMPANY
WELL.          Galloway 32-13 Tr: WELL
FLD.           Purgatoire River: FIELD
LOC.           1910' FNL & 2002' FEL: LOCATION
PROV.                 Colorado: PROVINCE
CNTY.               Las Animas: COUNTRY
SRVC.                Patterson: SERVICE COMPANY
DATE.          Mon Nov 14 07:13:22 2005: LOG DATE
UWI.           05 071 08608 00: UNIQUE WELL ID
~Curve Information Block
DEPT.FT            0 000 00 00: Depth
DCAL.in                       : CDL Caliper
RHOB.g/cc                     : CDL Bulk Density
RHOC.g/cc                     : CDL Density Correction
DPOR.pu                       : CDL Density Porosity
GR.GAPI                       : Gamma Ray
NPOR.pu                       : Neutron Porosity
~Parameter Information Block
~A  Depth       DCAL        RHOB        RHOC        DPOR         GR         NPOR    
# ...
   807.0000      7.8513      2.4122      0.0206     14.4110    107.3874     27.3010
   807.1000      7.8513      2.4091      0.0237     14.5978    109.9130     27.2646
   807.2000      7.8513      2.4018      0.0255     15.0406    111.3672     27.5066
   807.3000      7.8620      2.4087     -0.0255     14.6269    112.0190     27.6745
   807.4000      7.8620      2.4559      0.0614     11.7657    111.0188     27.1455
   807.5000      7.8482      2.5271      0.1290      7.4498    111.9201     26.1491
   807.6000      7.8482      2.5878      0.2066      3.7699    117.8219     26.1109
   807.7000      7.8482      2.6220      0.2618      1.6979    123.2517     27.5364
   807.8000      7.7942      2.6356      0.1649      0.8698    122.8829     29.3187
   807.9000      7.7942      2.6383      0.1883      0.7093    119.5331     30.3830
   808.0000      7.7643      2.6248      0.1055      1.5282    117.9014     30.8878
   808.1000      7.7643      2.5965      0.0431      3.2408    117.6466     31.1385
   808.2000      7.7643      2.5676     -0.0133      4.9912    119.3329     30.5176
   808.3000      7.7689      2.5489     -0.0008      6.1284    124.6107     29.2828
   808.4000      7.7689      2.5395      0.0432      6.6983    133.0718     28.6908
   808.5000      7.8029      2.5312      0.0880      7.2030    142.4356     28.8257
   808.6000      7.8029      2.5202      0.1158      7.8668    145.7016     28.8342
   808.7000      7.8029      2.5063      0.1083      8.7096    142.1504     28.5575
   808.8000      7.9130      2.4874      0.0950      9.8567    141.1218     28.0071
   808.9000      7.9130      2.4656      0.0340     11.1780    143.0317     27.1791
   809.0000      7.9213      2.4435      0.0730     12.5177    138.9305     26.8545
   809.1000      7.9213      2.4220      0.0572     13.8166    130.0379     27.5927
   809.2000      7.9213      2.4113      0.0041     14.4654    126.4021     28.6129
   809.3000      7.9635      2.4157      0.0412     14.1973    130.6520     28.8538
   809.4000      7.9635      2.4237      0.0445     13.7150    135.2440     28.2997
   809.5000      7.9955      2.4296      0.0658     13.3564    135.0369     27.6894
   809.6000      7.9955      2.4384      0.0576     12.8264    133.6114     27.6565
   809.7000      7.9955      2.4461      0.1029     12.3591    135.6949     28.0268
   809.8000      7.9902      2.4456      0.0695     12.3885    141.4375     28.5401
   809.9000      7.9902      2.4422      0.0607     12.5936    148.9641     29.3500
   810.0000      7.9778      2.4357      0.1227     12.9859    155.3354     30.2621
   810.1000      7.9778      2.4290      0.0535     13.3913    157.7113     30.9287
   810.2000      7.9778      2.4464      0.0575     12.3423    158.4608     31.2979
   810.3000      7.9990      2.4937      0.1503      9.4716    158.9638     31.0580
   810.4000      7.9990      2.5407      0.1708      6.6223    154.9678     30.4851
   810.5000      8.0154      2.5710      0.1503      4.7885    146.8987     30.4959
   810.6000      8.0154      2.5969      0.1334      3.2171    140.0983     30.7436
   810.7000      8.0154      2.6176      0.1855      1.9645    135.3337     30.1240
   810.8000      7.9943      2.6143      0.1485      2.1611    131.9573     28.8659
   810.9000      7.9943      2.5902      0.1249      3.6250    133.3497     28.0516
   811.0000      7.9628      2.5688      0.0717      4.9224    138.4992     27.9065
   811.1000      7.9628      2.5626      0.0787      5.2971    142.0950     28.2193
   811.2000      7.9628      2.5636      0.0833      5.2382    143.4479     28.8917
   811.3000      7.9483      2.5584      0.0922      5.5511    143.4098     29.4736
   811.4000      7.9483      2.5441      0.0751      6.4158    140.8309     29.8174
   811.5000      7.9393      2.5279      0.0637      7.3995    137.7667     30.0664
   811.6000      7.9393      2.5155      0.0516      8.1507    136.2844     30.2562
   811.7000      7.9393      2.5047      0.0727      8.8063    135.5222     29.9725
   811.8000      7.9489      2.4957      0.0600      9.3485    135.4715     28.9869
   811.9000      7.9489      2.4972      0.0720      9.2579    135.4156     28.2204
   812.0000      7.9569      2.5130      0.0474      8.3046    133.1190     28.1165
   812.1000      7.9569      2.5339      0.0815      7.0343    130.5381     28.5248
   812.2000      7.9569      2.5462      0.0721      6.2918    133.4177     29.2057
   812.3000      7.9586      2.5441      0.0956      6.4168    143.0295     29.5868
   812.4000      7.9586      2.5226      0.1221      7.7189    152.5878     29.4733
   812.5000      7.9642      2.4795      0.0595     10.3340    154.0963     29.2810
   812.6000      7.9642      2.4339      0.0252     13.0950    150.5227     29.4022
   812.7000      7.9642      2.4071      0.0080     14.7208    149.2232     29.6976
   812.8000      7.9395      2.3993      0.0538     15.1961    148.9354     29.9045
   812.9000      7.9395      2.4072      0.0192     14.7148    146.7423     29.8644
   813.0000      7.9621      2.4319      0.0214     13.2165    146.5342     29.8728
   813.1000      7.9621      2.4629      0.0943     11.3402    146.5238     30.1293
   813.2000      7.9621      2.4884      0.0524      9.7939    141.8821     30.2164
   813.3000      7.9898      2.5065      0.0787      8.6960    135.0161     30.2205
   813.4000      7.9898      2.5212      0.0600      7.8090    128.7751     30.4207
   813.5000      8.0101      2.5378      0.1496      6.8029    126.7356     30.5218
   813.6000      8.0101      2.5483      0.1410      6.1658    129.8717     30.5260
   813.7000      8.0101      2.5432      0.1389      6.4730    135.7745     30.3433
   813.8000      8.0281      2.5276      0.0800      7.4211    143.6967     29.8432
   813.9000      8.0281      2.5060      0.1114      8.7244    149.3410     29.5615
   814.0000      7.9187      2.4815      0.0286     10.2109    147.3169     29.5588
   814.1000      7.9187      2.4643      0.0348     11.2547    140.2857     29.4865
   814.2000      7.9187      2.4584      0.0122     11.6123    135.6770     29.5285
   814.3000      7.9473      2.4585      0.0196     11.6059    135.3101     29.8187
   814.4000      7.9473      2.4584      0.0120     11.6133    134.6918     30.0787
   814.5000      7.9704      2.4582     -0.0075     11.6242    131.7726     29.7391
   814.6000      7.9704      2.4629     -0.0036     11.3402    128.1320     28.7521
   814.7000      7.9704      2.4713      0.0338     10.8290    125.8816     27.8506
   814.8000      7.9942      2.4773      0.0416     10.4661    128.8560     27.3581
   814.9000      7.9942      2.4799      0.0508     10.3115    134.5106     27.5970
   815.0000      7.9640      2.4848      0.0476     10.0148    135.2560     28.6248
   815.1000      7.9640      2.5042      0.0407      8.8375    130.0809     29.2591
   815.2000      7.9640      2.5329      0.0946      7.0954    123.7040     28.7366
   815.3000      7.9468      2.5407      0.1363      6.6252    121.9835     27.5854
   815.4000      7.9468      2.5269      0.0143      7.4596    126.6969     26.5738
   815.5000      7.9492      2.5223      0.0383      7.7415    130.0064     26.1862
   815.6000      7.9492      2.5253      0.0644      7.5596    125.8548     26.8219
   815.7000      7.9492      2.5172      0.0539      8.0466    119.1952     28.3325
   815.8000      7.9274      2.5081      0.0451      8.5999    113.6791     29.5688
   815.9000      7.9274      2.5148      0.0392      8.1948    107.5738     29.3707
   816.0000      7.9156      2.5358      0.0351      6.9242    102.9528     27.8616
   816.1000      7.9156      2.5609      0.0514      5.4029    103.0418     26.3617
   816.2000      7.9156      2.5834      0.0175      4.0341    102.6079     26.0544
   816.3000      7.9453      2.6028      0.0266      2.8601     99.6487     26.7539
   816.4000      7.9453      2.6124      0.0864      2.2796    101.2605     27.2910
   816.5000      7.9472      2.6023      0.0771      2.8926    106.6920     27.2899
