~Version Information
VERS.                      2.0: CWLS Log ASCII Standard - VERSION 2.0
WRAP.                       NO: One line per depth step
~Well Information Block
STRT.FT               615.0000: 
STOP.FT              1609.0000: 
STEP.FT                 0.2500: 
NULL.                -999.2500: 
COMP.          Pioneer Natural Resources: COMPANY
WELL.          Galloway 32-13 Tr: WELL
FLD.           Purgatoire River: FIELD
LOC.           1910' FNL & 2002' FEL: LOCATION
PROV.                 Colorado: PROVINCE
CNTY.               Las Animas: COUNTRY
SRVC.                Patterson: SERVICE COMPANY
DATE.          Sat Nov 12 20:19:28 2005: LOG DATE
UWI.           05 071 08608 00: UNIQUE WELL ID
~Curve Information Block
DEPT.FT            0 000 00 00: Depth
SN.Ohm-m                      : IEL Short Normal
SP.mV                         : IEL Spontaneous Potential
DIR.Ohm-m                     : IEL Induction Resistivity
GR.GAPI                       : Gamma Ray
~Parameter Information Block
~A  Depth        SN          SP         DIR          GR     
# ...
   682.0000   2000.0000   2000.0000     13.7040    148.9372
   682.2500   2000.0000   2000.0000     13.9660    151.3839
   682.5000   2000.0000   2000.0000     14.3006    152.7679
   682.7500   2000.0000   2000.0000     14.7292    151.8142
   683.0000   2000.0000   2000.0000     15.2714    147.6744
   683.2500   2000.0000   2000.0000     15.9422    143.2827
   683.5000   2000.0000   2000.0000     16.7552    134.7278
   683.7500   2000.0000   2000.0000     17.7292    128.2866
   684.0000   2000.0000   2000.0000     18.8917    118.7708
   684.2500   2000.0000   2000.0000     20.2766    112.9383
   684.5000   2000.0000   2000.0000     21.9213    104.6614
   684.7500   2000.0000   2000.0000     23.8635     99.0506
   685.0000   2000.0000   2000.0000     26.1332     90.4084
   685.2500   2000.0000   2000.0000     28.7338     84.9817
   685.5000   2000.0000   2000.0000     31.6183     78.5950
   685.7500   2000.0000   2000.0000     34.6839     76.0942
   686.0000   2000.0000   2000.0000     37.7965     75.2368
   686.2500   2000.0000   2000.0000     40.8271     76.2389
   686.5000   2000.0000   2000.0000     43.6634     78.9746
   686.7500   2000.0000   2000.0000     46.1991     80.9598
   687.0000   2000.0000   2000.0000     48.3372     83.2741
   687.2500   2000.0000   2000.0000     50.0089     83.9839
   687.5000   2000.0000   2000.0000     51.1909     83.6861
   687.7500   2000.0000   2000.0000     51.9108     82.9723
   688.0000   2000.0000   2000.0000     52.2523     81.9937
   688.2500   2000.0000   2000.0000     52.3368     81.4592
   688.5000   2000.0000   2000.0000     52.2659     80.0867
   688.7500   2000.0000   2000.0000     52.0846     78.4831
   689.0000   2000.0000   2000.0000     51.8215     75.6919
   689.2500   2000.0000   2000.0000     51.5699     74.3674
   689.5000   2000.0000   2000.0000     51.5015     73.9369
   689.7500   2000.0000   2000.0000     51.7829     74.4719
   690.0000   2000.0000   2000.0000     52.4739     75.6610
   690.2500   2000.0000   2000.0000     53.4964     76.3529
   690.5000   2000.0000   2000.0000     54.6723     76.9545
   690.7500   2000.0000   2000.0000     55.7756     76.9486
   691.0000   2000.0000   2000.0000     56.5665     76.1042
   691.2500   2000.0000   2000.0000     56.8391     74.9109
   691.5000   2000.0000   2000.0000     56.5118     72.3764
   691.7500   2000.0000   2000.0000     55.7117     70.5275
   692.0000   2000.0000   2000.0000     54.7353     68.0938
   692.2500   2000.0000   2000.0000     53.8968     66.7935
   692.5000   2000.0000   2000.0000     53.3800     65.0767
   692.7500   2000.0000   2000.0000     53.1886     63.9283
   693.0000   2000.0000   2000.0000     53.1869     62.2509
   693.2500   2000.0000   2000.0000     53.1776     61.3834
   693.5000   2000.0000   2000.0000     52.9805     60.9771
   693.7500   2000.0000   2000.0000     52.4997     61.5717
   694.0000   2000.0000   2000.0000     51.7619     64.0207
   694.2500   2000.0000   2000.0000     50.8931     66.6715
   694.5000   2000.0000   2000.0000     50.0367     71.8421
   694.7500   2000.0000   2000.0000     49.2639     75.7848
   695.0000   2000.0000   2000.0000     48.5373     81.8752
   695.2500   2000.0000   2000.0000     47.7494     85.6648
   695.5000   2000.0000   2000.0000     46.7971     90.1816
   695.7500   2000.0000   2000.0000     45.6319     92.1237
   696.0000   2000.0000   2000.0000     44.2475     93.6493
   696.2500   2000.0000   2000.0000     42.6437     94.1558
   696.5000   2000.0000   2000.0000     40.8306     94.5504
   696.7500   2000.0000   2000.0000     38.8662     94.4018
   697.0000   2000.0000   2000.0000     36.8675     93.0358
   697.2500   2000.0000   2000.0000     34.9650     91.3863
   697.5000   2000.0000   2000.0000     33.2434     88.9964
   697.7500   2000.0000   2000.0000     31.7240     88.7660
   698.0000   2000.0000   2000.0000     30.3837     92.6146
   698.2500   2000.0000   2000.0000     29.1751     98.2529
   698.5000   2000.0000   2000.0000     28.0280    109.3048
   698.7500   2000.0000   2000.0000     26.8503    116.3943
   699.0000   2000.0000   2000.0000     25.5591    124.0042
   699.2500   2000.0000   2000.0000     24.1332    126.7556
   699.5000   2000.0000   2000.0000     22.6395    128.4616
   699.7500   2000.0000   2000.0000     21.1960    128.8016
   700.0000   2000.0000   2000.0000     19.9058    129.0246
   700.2500   2000.0000   2000.0000     18.8169    129.2227
   700.5000   2000.0000   2000.0000     17.9260    129.8985
   700.7500   2000.0000   2000.0000     17.2046    130.8280
   701.0000   2000.0000   2000.0000     16.6200    133.1623
   701.2500   2000.0000   2000.0000     16.1392    135.2058
   701.5000   2000.0000   2000.0000     15.7194    138.4654
   701.7500   2000.0000   2000.0000     15.3035    140.4162
   702.0000   2000.0000   2000.0000     14.8325    142.0476
   702.2500   2000.0000   2000.0000     14.2716    141.3387
   702.5000   2000.0000   2000.0000     13.6310    136.0570
   702.7500   2000.0000   2000.0000     12.9604    129.6858
   703.0000   2000.0000   2000.0000     12.3228    118.1074
   703.2500   2000.0000   2000.0000     11.7657    111.3085
   703.5000   2000.0000   2000.0000     11.3090    105.9440
   703.7500   2000.0000   2000.0000     10.9479    106.2915
   704.0000   2000.0000   2000.0000     10.6627    111.3230
   704.2500   2000.0000   2000.0000     10.4285    116.1463
   704.5000   2000.0000   2000.0000     10.2193    123.2960
   704.7500   2000.0000   2000.0000     10.0120    127.1261
   705.0000   2000.0000   2000.0000      9.7896    130.4565
   705.2500   2000.0000   2000.0000      9.5461    130.8269
   705.5000   2000.0000   2000.0000      9.2870    129.3829
   705.7500   2000.0000   2000.0000      9.0271    128.2422
   706.0000   2000.0000   2000.0000      8.7841    128.2939
   706.2500   2000.0000   2000.0000      8.5713    129.8917
   706.5000   2000.0000   2000.0000      8.3911    133.5087
   706.7500   2000.0000   2000.0000      8.2347    135.6852
   707.0000   2000.0000   2000.0000      8.0872    137.7947
   707.2500   2000.0000   2000.0000      7.9377    138.7592
   707.5000   2000.0000   2000.0000      7.7865    140.3834
   707.7500   2000.0000   2000.0000      7.6449    141.6222
   708.0000   2000.0000   2000.0000      7.5276    143.0443
   708.2500   2000.0000   2000.0000      7.4430    143.3180
   708.5000   2000.0000   2000.0000      7.3877    142.6626
   708.7500   2000.0000   2000.0000      7.3476    141.9010
   709.0000   2000.0000   2000.0000      7.3062    141.3108
   709.2500   2000.0000   2000.0000      7.2537    141.7197
   709.5000   2000.0000   2000.0000      7.1903    143.3400
   709.7500   2000.0000   2000.0000      7.1230    144.5275
   710.0000   2000.0000   2000.0000      7.0588    145.4713
   710.2500   2000.0000   2000.0000      7.0017    145.0718
   710.5000   2000.0000   2000.0000      6.9524    142.0627
   710.7500   2000.0000   2000.0000      6.9108    138.0956
   711.0000   2000.0000   2000.0000      6.8784    129.9558
   711.2500   2000.0000   2000.0000      6.8591    124.5708
   711.5000   2000.0000   2000.0000      6.8596    119.7457
   711.7500   2000.0000   2000.0000      6.8874    119.7424
   712.0000   2000.0000   2000.0000      6.9495    123.7905
   712.2500   2000.0000   2000.0000      7.0509    127.7364
   712.5000   2000.0000   2000.0000      7.1951    133.1576
   712.7500   2000.0000   2000.0000      7.3836    135.6550
   713.0000   2000.0000   2000.0000      7.6143    137.0482
   713.2500   2000.0000   2000.0000      7.8788    136.1518
   713.5000   2000.0000   2000.0000      8.1623    132.2251
   713.7500   2000.0000   2000.0000      8.4484    128.6080
   714.0000   2000.0000   2000.0000      8.7270    123.5209
   714.2500   2000.0000   2000.0000      8.9993    121.1119
   714.5000   2000.0000   2000.0000      9.2750    119.0439
   714.7500   2000.0000   2000.0000      9.5650    118.2338
   715.0000   2000.0000   2000.0000      9.8730    117.0578
   715.2500   2000.0000   2000.0000     10.1926    116.0985
