~Version Information
 VERS.                                  2.0 : CWLS LAS VERSION
 WRAP.                                   NO : WRAPING MODE
 SWARE .                 MController 2.5.0E : SOFTWARE VERSION
~Well Information
 WELL.                      Black Cat 13-23 : WELL
 COMP.     Pioneer Natural Resources USA Inc: COMPANY
 FLD.                      Purgatorie River : FIELD
 LOC.                 NW/SW Sec32 T32S R67W : LOCATION
 DATE.                           7/30-31/05 : DATE(S) LOGGED
 SRVC.       Blanco Geological Services LLC : SERVICE COMPANY
 STAT.                                   CO : STATE
 CNTY.                           Las Animas : COUNTY
 CTRY.                                  USA : COUNTRY
 API.                       05-071-08450-00 : API NUMBER
 STRT.FT                             327.00 : START DEPTH
 STOP.FT                            2850.00 : STOP DEPTH
 STEP.FT                               1.00 : DEPTH INCREMENT
 NULL.                                -9999 : NULL VALUE
~Curve information
 DEPTH.FT                                   :
 ROP.MIN/FT                                 :
 GAS.UNITS                                  :
~ASCII Log data
# ...
       527.0         0.20         76.0 
       528.0         0.20         40.0 
       529.0         0.23         26.8 
       530.0         0.23         14.4 
       531.0         0.23         12.9 
       532.0         0.20          8.8 
       533.0         0.22          5.1 
       534.0         0.20          4.3 
       535.0         0.20          2.8 
       536.0         0.23          1.5 
       537.0         0.20          1.6 
       538.0         0.23          0.2 
       539.0         0.20          0.2 
       540.0         0.20          0.2 
       541.0         2.02          4.5 
       542.0         0.87          5.4 
       543.0         2.55          9.2 
       544.0         0.07          4.3 
       545.0         0.10          4.3 
       546.0         0.07          4.3 
       547.0         0.13          3.6 
       548.0         0.23          3.5 
       549.0         0.20          2.4 
       550.0         0.23          3.1 
       551.0         0.27          4.9 
       552.0         0.27         10.7 
       553.0         0.33         30.4 
       554.0         0.27         39.0 
       555.0         0.27         46.6 
       556.0         0.27         52.4 
       557.0         0.23         52.4 
       558.0         0.25         56.1 
       559.0         0.30         61.9 
       560.0         0.30         68.6 
       561.0         0.40        133.4 
       562.0         0.30        194.1 
       563.0         0.33        209.1 
       564.0         0.27        171.5 
       565.0         0.33        109.3 
       566.0         0.33         34.2 
       567.0         0.37         20.2 
       568.0         0.45          9.6 
       569.0         0.40          2.4 
       570.0         0.37          1.2 
       571.0         6.00         11.5 
       572.0         0.10          9.2 
       573.0         0.10          8.9 
       574.0         0.07          8.9 
       575.0         0.20          8.2 
       576.0         0.27          5.6 
       577.0         0.30          7.8 
       578.0         0.27         14.3 
       579.0         0.27         23.3 
       580.0         0.30         34.4 
       581.0         0.23         34.4 
       582.0         0.27         35.8 
       583.0         0.23         40.2 
       584.0         0.27         42.3 
       585.0         0.32         47.5 
       586.0         0.23         56.5 
       587.0         0.23         83.3 
       588.0         0.23        149.4 
       589.0         0.27        231.9 
       590.0         0.30        256.8 
       591.0         0.33        209.7 
       592.0         0.50         59.4 
       593.0         0.30         32.0 
       594.0         0.23         17.2 
       595.0         0.30         15.7 
       596.0         0.27          5.6 
       597.0         0.28          4.1 
       598.0         0.30          2.9 
       599.0         0.40          3.3 
       600.0         0.33          5.8 
       601.0         5.28         12.1 
       602.0         0.10         12.1 
       603.0         0.15         13.9 
       604.0         0.23         15.8 
       605.0         0.37         18.3 
       606.0         0.33         20.3 
       607.0         1.13         78.9 
       608.0         0.33         98.6 
       609.0         0.13        127.4 
       610.0         0.17        148.3 
       611.0         0.17        162.6 
       612.0         0.17        149.4 
       613.0         0.20        143.0 
       614.0         0.22         54.4 
       615.0         0.20         43.2 
       616.0         0.20         22.2 
       617.0         0.20         18.7 
       618.0         0.20         13.4 
       619.0         0.10          8.2 
       620.0         0.30          7.8 
       621.0         0.20          5.8 
       622.0         0.13          4.2 
       623.0         0.17          4.4 
       624.0         0.20          3.6 
       625.0         0.17          3.4 
       626.0         0.17          3.7 
       627.0         0.17          3.7 
       628.0         0.20          3.8 
       629.0         0.20          3.2 
       630.0         0.13          2.6 
       631.0         5.10          5.1 
       632.0         0.07          2.6 
       633.0         0.10          4.0 
       634.0         0.47          7.9 
       635.0         0.30          9.5 
       636.0         0.43         13.5 
       637.0         0.43         21.1 
       638.0         0.48         27.6 
       639.0         0.40         29.9 
       640.0         0.33         32.3 
       641.0         0.33         47.1 
       642.0         0.27         93.6 
       643.0         0.27        120.4 
       644.0         0.27        121.6 
       645.0         0.20        105.2 
       646.0         0.23         74.1 
       647.0         0.17         54.6 
       648.0         0.20         33.6 
       649.0         0.23         17.1 
       650.0         0.22         10.6 
       651.0         0.20          9.5 
       652.0         0.20          6.8 
       653.0         0.23          3.2 
       654.0         0.20          2.8 
       655.0         0.20          2.8 
       656.0         0.23          2.7 
       657.0         0.20          1.4 
       658.0         0.20          1.9 
       659.0         0.17          2.3 
       660.0         0.20          1.8 
       661.0         5.33         29.5 
       662.0         0.10         29.5 
       663.0         0.10         29.5 
       664.0         0.10         34.6 
       665.0         0.30         71.2 
       666.0         0.20         86.1 
       667.0         0.13        116.5 
       668.0         0.20        121.4 
       669.0         0.17        120.1 
       670.0         0.17        102.9 
       671.0         0.13         77.2 
       672.0         0.17         61.8 
       673.0         0.13         33.0 
       674.0         0.17         30.1 
       675.0         0.13         18.5 
       676.0         0.20         17.3 
       677.0         0.18         10.6 
       678.0         0.13          7.7 
       679.0         0.17          8.1 
       680.0         0.17          6.3 
       681.0         0.20          5.7 
       682.0         0.17          4.2 
       683.0         0.17          4.0 
       684.0         0.17          4.0 
       685.0         0.20          3.8 
       686.0         0.20          2.7 
       687.0         0.20          2.2 
       688.0         0.20          2.2 
       689.0         0.20          2.6 
       690.0         0.23          2.7 
       691.0         5.47         11.9 
       692.0         0.07         17.1 
       693.0         0.10         17.1 
       694.0         0.17         23.3 
       695.0         0.23         26.0 
       696.0         0.33         31.6 
       697.0         0.20         35.1 
       698.0         0.20         35.1 
       699.0         0.20         38.9 
       700.0         0.20         41.9 
       701.0         0.20         44.5 
       702.0         0.22         48.6 
       703.0         0.20         48.6 
       704.0         0.17         91.8 
       705.0         0.13        101.2 
       706.0         0.17        149.5 
       707.0         0.23        154.1 
       708.0         0.13        134.4 
       709.0         0.23        129.4 
       710.0         0.23         54.2 
       711.0         0.30         45.4 
       712.0         0.23         24.5 
       713.0         0.37         13.6 
       714.0         0.33          4.9 
       715.0         0.40          4.0 
       716.0         0.35          2.3 
       717.0         0.27          1.6 
       718.0         0.30          1.4 
       719.0         0.27          1.1 
       720.0         0.23          1.1 
       721.0         5.63          6.9 
       722.0         0.43          7.7 
       723.0         0.30          6.6 
       724.0         0.23          5.1 
       725.0         0.20          5.1 
       726.0         0.20          5.8 
