~Version Information
 VERS.                                  2.0 : CWLS LAS VERSION
 WRAP.                                   NO : WRAPING MODE
 SWARE .                 MController 2.5.0J : SOFTWARE VERSION
~Well Information
 WELL.                     Collister 17-31R : WELL
 COMP.                Petrogulf Corporation : COMPANY
 FLD.                      Purgatoire River : FIELD
 LOC.                NW/NE Sec 17 T33S R67W : LOCATION
 DATE.                             09/25/05 : DATE(S) LOGGED
 SRVC.       BLANCO Geological Services LLC : SERVICE COMPANY
 STAT.                                   CO : STATE
 CNTY.                           Las Animas : COUNTY
 CTRY.                                  USA : COUNTRY
 API.                       05-071-08436-00 : API NUMBER
 STRT.FT                             861.00 : START DEPTH
 STOP.FT                            2010.00 : STOP DEPTH
 STEP.FT                               1.00 : DEPTH INCREMENT
 NULL.                                -9999 : NULL VALUE
~Curve information
 DEPTH.FT                                   :
 ROP.MIN/FT                                 :
 GAS.UNITS                                  :
~ASCII Log data
# ...
      1261.0         0.30         45.4 
      1262.0         0.23         37.6 
      1263.0         0.20         33.2 
      1264.0         0.20         30.6 
      1265.0         0.23         28.6 
      1266.0         0.23         27.9 
      1267.0         0.23         26.9 
      1268.0         0.30         26.1 
      1269.0         0.22         24.5 
      1270.0         0.27         23.6 
      1271.0         0.27         22.5 
      1272.0         0.23         22.5 
      1273.0         0.20         22.3 
      1274.0         0.23         22.1 
      1275.0         0.20         21.7 
      1276.0         0.33         20.9 
      1277.0         0.20         21.5 
      1278.0         0.23         21.5 
      1279.0         0.20         21.1 
      1280.0         0.23         21.3 
      1281.0         0.17         21.7 
      1282.0         0.20         21.6 
      1283.0         0.17         22.7 
      1284.0         0.25         24.4 
      1285.0         0.20         24.3 
      1286.0         0.17         24.0 
      1287.0         0.13         24.8 
      1288.0         2.43         59.0 
      1289.0         0.18         45.1 
      1290.0         0.20         39.1 
      1291.0         0.37         32.8 
      1292.0         0.67         26.5 
      1293.0         0.53         23.0 
      1294.0         0.33         23.3 
      1295.0         0.33         22.7 
      1296.0         0.27         22.4 
      1297.0         0.53         22.3 
      1298.0         0.22         21.6 
      1299.0         0.20         20.6 
      1300.0         0.17         21.2 
      1301.0         0.17         21.2 
      1302.0         0.20         21.0 
      1303.0         0.17         21.1 
      1304.0         0.17         20.8 
      1305.0         0.20         20.7 
      1306.0         0.23         20.8 
      1307.0         0.20         20.5 
      1308.0         0.23         20.1 
      1309.0         0.20         20.4 
      1310.0         0.23         20.4 
      1311.0         0.20         20.6 
      1312.0         0.17         20.9 
      1313.0         0.17         21.2 
      1314.0         0.18         21.0 
      1315.0         0.17         20.5 
      1316.0         0.20         19.4 
      1317.0         0.17         19.8 
      1318.0         2.78         68.9 
      1319.0         0.20         31.8 
      1320.0         0.23         29.1 
      1321.0         0.17         27.7 
      1322.0         0.20         26.1 
      1323.0         0.23         25.4 
      1324.0         0.27         25.6 
      1325.0         0.40         25.2 
      1326.0         0.47         24.6 
      1327.0         0.23         24.1 
      1328.0         0.17         22.6 
      1329.0         0.13         22.9 
      1330.0         0.17         22.7 
      1331.0         0.17         22.8 
      1332.0         0.13         22.7 
      1333.0         0.18         22.7 
      1334.0         0.13         22.9 
      1335.0         0.17         22.7 
      1336.0         0.17         22.0 
      1337.0         0.23         22.6 
      1338.0         0.20         22.8 
      1339.0         0.23         22.8 
      1340.0         0.23         22.8 
      1341.0         0.30         22.8 
      1342.0         0.23         22.5 
      1343.0         0.27         22.6 
      1344.0         0.37         22.7 
      1345.0         0.30         22.9 
      1346.0         0.30         23.2 
      1347.0         0.35         22.7 
      1348.0         3.75         68.3 
      1349.0         0.30         27.4 
      1350.0         0.40         25.7 
      1351.0         0.37         24.4 
      1352.0         0.40         24.8 
      1353.0         0.47         24.2 
      1354.0         0.27         23.6 
      1355.0         0.23         23.5 
      1356.0         0.28         23.0 
      1357.0         0.23         22.9 
      1358.0         0.23         22.8 
      1359.0         0.23         22.9 
      1360.0         0.23         23.0 
      1361.0         0.23         22.4 
      1362.0         0.23         22.8 
      1363.0         0.30         22.8 
      1364.0         0.37         23.0 
      1365.0         0.23         23.0 
      1366.0         0.20         22.6 
      1367.0         0.23         22.9 
      1368.0         0.20         22.9 
      1369.0         0.25         22.8 
      1370.0         0.20         23.1 
      1371.0         0.20         23.1 
      1372.0         0.23         22.9 
      1373.0         0.20         23.3 
      1374.0         0.23         23.0 
      1375.0         0.23         22.7 
      1376.0         0.23         21.8 
      1377.0         0.27         21.2 
      1378.0         3.12        102.3 
      1379.0         0.33         64.8 
      1380.0         0.38         41.1 
      1381.0         0.57         30.2 
      1382.0         0.60         25.2 
      1383.0         0.60         24.1 
      1384.0         0.60         24.4 
      1385.0         0.17         24.1 
      1386.0         0.25         23.9 
      1387.0         0.20         23.9 
      1388.0         0.20         24.5 
      1389.0         0.13         24.4 
      1390.0         0.13         23.5 
      1391.0         0.13         24.2 
      1392.0         0.20         24.0 
      1393.0         0.30         23.7 
      1394.0         0.20         23.5 
      1395.0         0.37         23.7 
      1396.0         0.40         24.0 
      1397.0         0.43         23.9 
      1398.0         0.33         23.8 
      1399.0         0.28         23.5 
      1400.0         0.30         23.5 
      1401.0         0.13         22.7 
      1402.0         0.23         24.5 
      1403.0         0.17         25.4 
      1404.0         0.20         25.4 
      1405.0         0.17         25.1 
      1406.0         0.13         23.1 
      1407.0         0.17         23.5 
      1408.0         2.42         52.9 
      1409.0         0.37         34.5 
      1410.0         0.37         29.0 
      1411.0         0.33         26.6 
      1412.0         0.27         25.1 
      1413.0         0.30         24.8 
      1414.0         0.27         24.9 
      1415.0         0.37         25.2 
      1416.0         0.35         24.9 
      1417.0         0.30         24.6 
      1418.0         0.23         24.1 
      1419.0         0.27         23.9 
      1420.0         0.23         23.1 
      1421.0         0.20         23.2 
      1422.0         0.23         22.9 
      1423.0         0.20         22.9 
      1424.0         0.20         22.9 
      1425.0         0.30         23.1 
      1426.0         0.20         22.7 
      1427.0         0.23         22.7 
      1428.0         0.25         22.8 
      1429.0         0.27         22.7 
      1430.0         0.23         22.9 
      1431.0         0.20         22.9 
      1432.0         0.23         23.0 
      1433.0         0.17         22.2 
      1434.0         0.23         22.7 
      1435.0         0.27         21.8 
      1436.0         0.23         21.3 
      1437.0         0.30         21.7 
      1438.0         1.48         50.0 
      1439.0         0.33         43.3 
      1440.0         0.20         37.3 
      1441.0         0.50         33.3 
      1442.0         0.37         27.4 
      1443.0         0.27         25.5 
      1444.0         0.27         24.5 
      1445.0         0.22         24.3 
      1446.0         0.23         24.6 
      1447.0         0.27         24.7 
      1448.0         0.27         26.0 
      1449.0         0.20         26.3 
      1450.0         0.20         25.7 
      1451.0         0.17         25.5 
      1452.0         0.20         24.6 
      1453.0         0.23         24.3 
      1454.0         0.20         24.2 
      1455.0         0.20         24.1 
      1456.0         0.23         24.3 
      1457.0         0.23         24.1 
      1458.0         0.33         24.0 
      1459.0         0.38         24.0 
      1460.0         0.33         23.6 
