~Version Information
VERS.                      2.0: CWLS Log ASCII Standard - VERSION 2.0
WRAP.                       NO: One line per depth step
~Well Information Block
STRT.FT               800.0000: 
STOP.FT              3500.0000: 
STEP.FT                 0.1000: 
NULL.                -999.2500: 
COMP.          Pioneer Natural Resources: COMPANY
WELL.          Cordillera 34-7: WELL
FLD.           Purgatoire River: FIELD
LOC.           598' FSL & 1770' FEL--: LOCATION
PROV.                 Colorado: PROVINCE
CNTY.               Las Animas: COUNTRY
SRVC.                Patterson: SERVICE COMPANY
DATE.          Fri Oct 28 07:22:44 2005: LOG DATE
UWI.           05 071 08552 00: UNIQUE WELL ID
~Curve Information Block
DEPT.FT            0 000 00 00: Depth
DCAL.in                       : CDL Caliper
RHOB.g/cc                     : CDL Bulk Density
RHOC.g/cc                     : CDL Density Correction
DPOR.pu                       : CDL Density Porosity
NPOR.pu                       : Neutron Porosity
GR.GAPI                       : Gamma Ray
~Parameter Information Block
~A  Depth       DCAL        RHOB        RHOC        DPOR        NPOR         GR     
# ...
  1510.4000      8.0485      2.4471      0.0375     12.2972     18.9480     61.6202
  1510.5000      8.0483      2.4673      0.0564     11.0747     19.9056     60.5607
  1510.6000      8.0483      2.4768      0.0433     10.4960     20.7854     60.6704
  1510.7000      8.0483      2.4665      0.0405     11.1225     20.9234     59.9685
  1510.8000      8.0479      2.4463      0.0353     12.3477     20.8011     59.9344
  1510.9000      8.0479      2.4323      0.0026     13.1922     20.5332     62.4327
  1511.0000      8.0470      2.4321      0.0347     13.2087     19.8261     63.6477
  1511.1000      8.0470      2.4391      0.0379     12.7793     19.3280     60.2543
  1511.2000      8.0470      2.4471      0.0546     12.2975     19.3289     57.1570
  1511.3000      8.0463      2.4516      0.0688     12.0253     19.0884     57.4319
  1511.4000      8.0463      2.4535      0.0417     11.9101     18.6335     57.8731
  1511.5000      8.0466      2.4633      0.0541     11.3126     18.6293     57.9794
  1511.6000      8.0466      2.4845      0.0707     10.0311     18.8404     58.9926
  1511.7000      8.0466      2.5051      0.0882      8.7841     19.0045     58.1142
  1511.8000      8.0500      2.5105      0.1095      8.4560     19.3764     56.0508
  1511.9000      8.0500      2.4988      0.0639      9.1646     19.7554     56.3119
  1512.0000      8.0594      2.4824      0.0534     10.1604     19.5412     59.3015
  1512.1000      8.0594      2.4723      0.0093     10.7713     18.7349     64.0519
  1512.2000      8.0594      2.4712      0.0413     10.8391     18.1780     68.2931
  1512.3000      8.0705      2.4770      0.0477     10.4841     18.2935     69.7947
  1512.4000      8.0705      2.4885      0.0343      9.7861     18.7805     68.2835
  1512.5000      8.0755      2.4983      0.0679      9.1921     19.4444     64.5490
  1512.6000      8.0755      2.4943      0.0663      9.4361     19.7899     60.8182
  1512.7000      8.0755      2.4799      0.0293     10.3090     19.6123     59.8200
  1512.8000      8.0753      2.4697      0.0545     10.9279     19.4514     62.4224
  1512.9000      8.0753      2.4727      0.0588     10.7454     19.2043     67.7039
  1513.0000      8.0757      2.4893      0.0815      9.7366     18.6020     71.5632
  1513.1000      8.0757      2.5065      0.0822      8.6984     18.1721     70.9794
  1513.2000      8.0757      2.5071      0.0719      8.6617     18.6158     68.4014
  1513.3000      8.0761      2.4871      0.0850      9.8714     19.5497     67.0451
  1513.4000      8.0761      2.4601      0.0379     11.5104     19.7724     67.0126
  1513.5000      8.0755      2.4482      0.0062     12.2333     19.2958     65.3338
  1513.6000      8.0755      2.4603      0.0396     11.4989     18.8097     62.8336
  1513.7000      8.0755      2.4797      0.0785     10.3185     18.7239     63.9736
  1513.8000      8.0769      2.4847      0.0826     10.0153     19.1445     67.7210
  1513.9000      8.0769      2.4800      0.0046     10.3051     19.5508     70.8995
  1514.0000      8.0799      2.4778      0.0672     10.4391     19.4421     73.1437
  1514.1000      8.0799      2.4700      0.0595     10.9108     19.1260     73.0002
  1514.2000      8.0799      2.4552      0.0311     11.8056     19.1377     68.4450
  1514.3000      8.0814      2.4481      0.0154     12.2389     19.3226     62.1178
  1514.4000      8.0814      2.4550      0.0445     11.8173     19.1615     60.7590
  1514.5000      8.0808      2.4700      0.0384     10.9070     18.6362     65.3327
  1514.6000      8.0808      2.4826      0.0544     10.1437     18.2654     68.6137
  1514.7000      8.0808      2.4828      0.0524     10.1351     18.4300     65.3278
  1514.8000      8.0784      2.4666      0.0533     11.1144     18.9988     58.8332
  1514.9000      8.0784      2.4400      0.0378     12.7245     19.3573     56.6739
  1515.0000      8.0764      2.4138      0.0369     14.3136     19.2881     60.3529
  1515.1000      8.0764      2.3966      0.0216     15.3563     19.2859     64.8430
  1515.2000      8.0764      2.3973     -0.0159     15.3173     19.4453     67.4220
  1515.3000      8.0763      2.4168      0.0263     14.1323     19.4296     70.4656
  1515.4000      8.0763      2.4374      0.0602     12.8878     19.1455     74.0229
  1515.5000      8.0754      2.4425      0.0531     12.5774     18.8170     74.6784
  1515.6000      8.0754      2.4360      0.0484     12.9702     18.5340     74.9491
  1515.7000      8.0754      2.4266      0.0590     13.5419     18.2404     78.8505
  1515.8000      8.0743      2.4161      0.0335     14.1778     17.8340     82.4380
  1515.9000      8.0743      2.4057      0.0475     14.8067     17.2738     79.5864
  1516.0000      8.0730      2.4006      0.0449     15.1166     16.7176     71.3744
  1516.1000      8.0730      2.4120      0.0321     14.4229     16.6368     64.7197
  1516.2000      8.0730      2.4413      0.0640     12.6472     17.3460     62.0258
  1516.3000      8.0685      2.4672      0.0895     11.0761     18.3556     60.6933
  1516.4000      8.0685      2.4741      0.0613     10.6629     18.9768     60.1869
  1516.5000      8.0642      2.4729      0.0417     10.7364     18.9674     59.5974
  1516.6000      8.0642      2.4739      0.0814     10.6715     18.4715     58.0230
  1516.7000      8.0642      2.4742      0.0642     10.6533     17.8260     57.2854
  1516.8000      8.0647      2.4725      0.0912     10.7570     17.1057     58.0395
  1516.9000      8.0647      2.4747      0.0466     10.6213     16.1846     58.8380
  1517.0000      8.0693      2.4897      0.0722      9.7155     15.5571     58.8720
  1517.1000      8.0693      2.5110      0.1088      8.4215     15.6086     58.6451
  1517.2000      8.0693      2.5240      0.0842      7.6379     15.6746     59.5485
  1517.3000      8.0745      2.5214      0.0983      7.7925     15.4559     60.5429
  1517.4000      8.0745      2.5077      0.0528      8.6215     15.4123     60.0276
  1517.5000      8.0762      2.4959      0.0593      9.3388     15.5973     59.6483
  1517.6000      8.0762      2.4857      0.0899      9.9570     16.0136     62.4167
  1517.7000      8.0762      2.4686      0.0463     10.9948     16.9078     65.6453
  1517.8000      8.0770      2.4486      0.0260     12.2049     17.7134     63.3235
  1517.9000      8.0770      2.4278      0.0458     13.4642     17.6055     58.6968
  1518.0000      8.0794      2.4091      0.0014     14.5979     17.0187     58.0284
  1518.1000      8.0794      2.4068      0.0263     14.7423     16.7677     61.0647
  1518.2000      8.0794      2.4186      0.0552     14.0251     17.1579     65.5735
  1518.3000      8.0787      2.4263      0.0584     13.5582     17.9290     67.6755
  1518.4000      8.0787      2.4202      0.0442     13.9273     18.1257     63.6805
  1518.5000      8.0757      2.4028      0.0285     14.9838     17.6309     57.3298
  1518.6000      8.0757      2.3843      0.0348     16.1002     17.3607     54.4303
  1518.7000      8.0757      2.3777      0.0180     16.5031     17.4777     54.0931
  1518.8000      8.0754      2.3884      0.0174     15.8539     17.4150     53.1772
  1518.9000      8.0754      2.4102      0.0739     14.5335     17.1305     52.1552
  1519.0000      8.0781      2.4283      0.1055     13.4340     16.9831     53.2989
  1519.1000      8.0781      2.4325      0.0998     13.1820     16.8000     54.8284
  1519.2000      8.0781      2.4228      0.0811     13.7703     16.3316     54.5761
  1519.3000      8.0804      2.4046      0.0638     14.8707     16.1080     56.9258
  1519.4000      8.0804      2.3868      0.0558     15.9544     16.6189     64.1939
  1519.5000      8.0785      2.3766      0.0423     16.5684     17.3747     70.5484
  1519.6000      8.0785      2.3788      0.0353     16.4372     17.7790     70.1447
  1519.7000      8.0785      2.3963      0.0485     15.3787     17.9457     65.3710
  1519.8000      8.0743      2.4218      0.0699     13.8286     17.9072     63.3051
  1519.9000      8.0743      2.4422      0.0856     12.5912     17.6930     65.4576
