~Version Information
VERS.                      2.0: CWLS Log ASCII Standard - VERSION 2.0
WRAP.                       NO: One line per depth step
~Well Information Block
STRT.FT                -7.5000: 
STOP.FT              1350.7500: 
STEP.FT                 0.2500: 
NULL.                -999.2500: 
COMP.          Pioneer Natural Resources: COMPANY
WELL.            Gamma 13-3 Tr: WELL
FLD.           Purgatorie River: FIELD
LOC.           2127' FSL & 738' FWL: LOCATION
STAT.                       CO: State
CNTY.               Las Animas: COUNTY
CTRY.                      USA: Country
SECT.                        3: Section
TOWN.                      33S: Township
RANG.                      67W: Range
SRVC.          Patterson Wireline: SERVICE COMPANY
DATE.          Fri Sep 23 13:24:40 2005: LOG DATE
API.           05 071 08524 00: API
~Curve Information Block
DEPT.FT            0 000 00 00: Depth
CCL.                          : Casing Collar Locator
TT3.usec                      : CBL 3' Travel Time
AMP3.mV                       : CBL 3' Amplitude
GR.GAPI                       : Gamma Ray
~Parameter Information Block
~A  Depth       CCL         TT3         AMP3         GR     
# ...
   160.0000      0.0000    780.5580     14.7687     81.9491
   160.2500      0.0000    780.8204     14.7581     84.9314
   160.5000      0.0000    780.8974     14.7622     89.2969
   160.7500      0.0000    780.6510     14.7963     93.5407
   161.0000      0.0000    779.5983     14.8738     96.6819
   161.2500      0.0000    776.1385     15.0130     98.2745
   161.5000      0.0000    766.6685     15.2324     98.0792
   161.7500      0.0000    746.4163     15.5215     96.3500
   162.0000      0.0000    714.4225     15.8009     94.1070
   162.2500      0.0000    680.2281     15.9208     92.5037
   162.5000      0.0000    663.1947     15.7383     91.7526
   162.7500      0.0000    679.1920     15.2415     90.8229
   163.0000      0.0000    725.1363     14.6012     88.3515
   163.2500      0.0000    777.8574     14.0693     83.9617
   163.5000      0.0000    809.6782     13.8064     78.6640
   163.7500      0.0000    807.2746     13.8019     74.0386
   164.0000      2.0000    778.9764     13.9388     71.2251
   164.2500      0.0000    745.8123     14.1040     70.5685
   164.5000      0.0000    724.4058     14.2539     71.6198
   164.7500      0.0000    716.7111     14.4230     73.2393
   165.0000      0.0000    713.9010     14.6859     74.1664
   165.2500      0.0000    706.9647     15.0905     73.8069
   165.5000      0.0000    692.6942     15.6178     72.3192
   165.7500      0.0000    673.9453     16.2104     70.1579
   166.0000      0.0000    656.8220     16.8091     67.9728
   166.2500      0.0000    645.3949     17.3394     66.5445
   166.5000      0.0000    639.1976     17.7073     66.1130
   166.7500      0.0000    637.4924     17.8617     65.9884
   167.0000      0.0000    642.1518     17.8438     65.3767
   167.2500      0.0000    651.3448     17.7532     64.4230
   167.5000      0.0000    653.3127     17.6755     64.0513
   167.7500      0.0000    632.7200     17.6442     65.0185
   168.0000      0.0000    584.7590     17.6471     67.4910
   168.2500      0.0000    521.1636     17.6550     71.2567
   168.5000      0.0000    461.5784     17.6490     75.8404
   168.7500      0.0000    419.6581     17.6297     80.5403
   169.0000      0.0000    396.9763     17.6065     84.8602
   169.2500      0.0000    387.4111     17.5831     88.9479
   169.5000      0.0000    384.1909     17.5552     93.2821
   169.7500      0.0000    383.3021     17.5189     97.8060
   170.0000      0.0000    383.2213     17.4781    101.5144
   170.2500      0.0000    383.9464     17.4394    103.1779
   170.5000      0.0000    386.8958     17.4037    102.7617
   170.7500      0.0000    395.6450     17.3669    101.8597
   171.0000      0.0000    415.8668     17.3267    102.1079
   171.2500      0.0000    452.1581     17.2870    103.2179
   171.5000      0.0000    502.6487     17.2539    103.2939
   171.7500      0.0000    557.5240     17.2312    101.1679
   172.0000      0.0000    605.6595     17.2194     97.7057
   172.2500      0.0000    642.9485     17.2190     94.7142
   172.5000      0.0000    672.5718     17.2320     93.2492
   172.7500      0.0000    698.1453     17.2616     93.1902
   173.0000      0.0000    718.6360     17.3106     93.9538
   173.2500      0.0000    728.2372     17.3829     95.0934
   173.5000      0.0000    718.7457     17.4841     96.1570
   173.7500      0.0000    684.6647     17.6163     96.4666
   174.0000      0.0000    631.7488     17.7724     95.5831
   174.2500      0.0000    581.3995     17.9337     93.9593
   174.5000      0.0000    560.6567     18.0758     92.9069
   174.7500      0.0000    582.2451     18.1800     93.8859
   175.0000      0.0000    634.2460     18.2434     97.4487
   175.2500      0.0000    690.9393     18.2772    102.3183
   175.5000      0.0000    732.8268     18.2985    105.9010
   175.7500      0.0000    755.8765     18.3214    106.4765
   176.0000      0.0000    765.8677     18.3534    104.6819
   176.2500      0.0000    769.3759     18.3958    102.3625
   176.5000      0.0000    770.4219     18.4462    100.3986
   176.7500      0.0000    771.2134     18.5017     98.2360
   177.0000      0.0000    772.3240     18.5615     95.2351
   177.2500      0.0000    771.5800     18.6259     91.8933
   177.5000      0.0000    763.2929     18.6971     89.6862
   177.7500      0.0000    739.0176     18.7779     89.7901
   178.0000      0.0000    691.4825     18.8689     91.8437
   178.2500      0.0000    621.4720     18.9647     94.1390
   178.5000      0.0000    541.5081     19.0550     95.3405
   178.7500      0.0000    469.5332     19.1325     95.6593
   179.0000      0.0000    416.9908     19.1989     95.9293
   179.2500      0.0000    383.8451     19.2622     96.0627
   179.5000      0.0000    364.3769     19.3292     95.1891
   179.7500      0.0000    354.6770     19.3977     93.1636
   180.0000      0.0000    353.5984     19.4568     90.9762
   180.2500      0.0000    359.2390     19.4947     89.3526
   180.5000      0.0000    367.5559     19.5048     87.7230
   180.7500      0.0000    374.6501     19.4864     85.0702
   181.0000      0.0000    378.9857     19.4398     81.1536
   181.2500      0.0000    381.1195     19.3661     76.4552
   181.5000      0.0000    382.1248     19.2700     71.5382
   181.7500      0.0000    382.6818     19.1601     66.9353
   182.0000      0.0000    383.1154     19.0445     63.3237
   182.2500      0.0000    383.8742     18.9289     61.4659
   182.5000      0.0000    386.2062     18.8210     61.8467
   182.7500      0.0000    393.0315     18.7307     64.1660
   183.0000      0.0000    409.1702     18.6632     67.3109
   183.2500      0.0000    439.1706     18.6121     70.2644
   183.5000      0.0000    482.7432     18.5645     73.0221
   183.7500      0.0000    532.1893     18.5107     76.3155
   184.0000      0.0000    576.4171     18.4483     80.5714
   184.2500      0.0000    608.8862     18.3778     85.4986
   184.5000      0.0000    631.4170     18.2964     90.5215
   184.7500      0.0000    650.5298     18.1973     95.2151
   185.0000      0.0000    670.9083     18.0771     99.2169
   185.2500      0.0000    692.1227     17.9416    101.9779
   185.5000      0.0000    710.4694     17.8013    102.8340
   185.7500      0.0000    722.9975     17.6609    101.4235
   186.0000      0.0000    729.5374     17.5153     98.0467
   186.2500      0.0000    731.6600     17.3570     93.6806
   186.5000      0.0000    730.6886     17.1874     89.6908
   186.7500      0.0000    727.0675     17.0214     87.2397
   187.0000      0.0000    721.4344     16.8790     86.4037
   187.2500      0.0000    715.9335     16.7732     85.8899
   187.5000      0.0000    713.6498     16.7062     84.1516
   187.7500      0.0000    716.0917     16.6722     80.9696
   188.0000      0.0000    721.6842     16.6615     77.6793
   188.2500      0.0000    727.3490     16.6635     75.8819
   188.5000      0.0000    731.1257     16.6747     76.1027
   188.7500      0.0000    732.9449     16.7030     77.5052
   189.0000      0.0000    733.6304     16.7617     78.6571
   189.2500      0.0000    733.8824     16.8586     78.6569
   189.5000      0.0000    734.0119     16.9891     77.6848
   189.7500      0.0000    734.0960     17.1349     76.5479
   190.0000      0.0000    734.1341     17.2652     75.7975
   190.2500      0.0000    734.1036     17.3447     75.2436
   190.5000      0.0000    733.8734     17.3516     74.2281
   190.7500      0.0000    732.9823     17.2929     72.4751
   191.0000      0.0000    730.3530     17.2012     70.7028
   191.2500      0.0000    724.3460     17.1115     70.2176
   191.5000      0.0000    713.7997     17.0385     71.7396
   191.7500      0.0000    699.6384     16.9702     74.6780
   192.0000      0.0000    684.9488     16.8813     77.7442
   192.2500      0.0000    672.4648     16.7517     80.3196
   192.5000      0.0000    662.3223     16.5759     82.8286
   192.7500      0.0000    653.3345     16.3624     85.5577
   193.0000      0.0000    645.9735     16.1294     87.7500
   193.2500      0.0000    643.1199     15.9011     88.3877
