~Version Information
VERS.                      2.0: CWLS Log ASCII Standard - VERSION 2.0
WRAP.                       NO: One line per depth step
~Well Information Block
STRT.FT               -15.7500: 
STOP.FT              1862.5000: 
STEP.FT                 0.2500: 
NULL.                -999.2500: 
COMP.          XTO Energy Inc.: COMPANY
WELL.          Golden Eagle 19-11: WELL
FLD.           Purgatorie River: FIELD
LOC.           2351' FSL &1926' WL--: LOCATION
CNTY.               Las Animas: COUNTY
SRVC.          Patterson Wireline: SERVICE COMPANY
DATE.          Fri Mar 24 16:29:29 2006: LOG DATE
UWI.           05 071 08696 00: UNIQUE WELL ID
STAT.                       CO: STATE
~Curve Information Block
DEPT.FT            0 000 00 00: Depth
CCL.                          : Casing Collar Locator
TT3.usec                      : CBL 3' Travel Time
AMP3.mV                       : CBL 3' Amplitude
GR.GAPI                       : Gamma Ray
~Parameter Information Block
~A  Depth       CCL         TT3         AMP3         GR     
# ...
  1089.7500      0.0000    706.0108      3.4656     41.4697
  1090.0000      0.0000    705.0554      3.4637     43.8858
  1090.2500      0.0000    704.7531      3.4733     46.3843
  1090.5000      0.0000    705.1167      3.4896     48.6468
  1090.7500      0.0000    706.3909      3.5154     50.2379
  1091.0000      0.0000    708.9020      3.5592     50.9406
  1091.2500      0.0000    712.7191      3.6296     50.7868
  1091.5000      0.0000    717.1114      3.7320     49.9873
  1091.7500      0.0000    720.4589      3.8672     48.8644
  1092.0000      0.0000    721.2603      4.0331     47.7405
  1092.2500      0.0000    719.4399      4.2295     46.9600
  1092.5000      0.0000    716.3893      4.4618     47.0794
  1092.7500      0.0000    713.6854      4.7362     48.9153
  1093.0000      0.0000    712.0271      5.0459     53.3925
  1093.2500      0.0000    711.2736      5.3638     61.1295
  1093.5000      0.0000    711.0041      5.6533     71.6538
  1093.7500      0.0000    710.8774      5.8868     83.0074
  1094.0000      0.0000    710.7209      6.0567     92.8453
  1094.2500      0.0000    710.5259      6.1742    100.2966
  1094.5000      0.0000    710.3845      6.2586    106.3711
  1094.7500      0.0000    710.3835      6.3210    112.4017
  1095.0000      0.0000    710.5417      6.3582    118.6191
  1095.2500      0.0000    710.8301      6.3584    124.3801
  1095.5000      0.0000    711.2048      6.3124    129.0924
  1095.7500      0.0000    711.6053      6.2197    132.4464
  1096.0000      0.0000    711.9593      6.0884    134.1705
  1096.2500      0.0000    712.2173      5.9344    134.0961
  1096.5000      0.0000    712.3770      5.7790    132.5005
  1096.7500      0.0000    712.4726      5.6472    130.3825
  1097.0000      0.0000    712.5523      5.5637    129.3927
  1097.2500      0.0000    712.6582      5.5440    131.0106
  1097.5000      0.0000    712.8104      5.5833    135.3239
  1097.7500      0.0000    712.9973      5.6557    140.7887
  1098.0000      0.0000    713.1774      5.7282    145.5380
  1098.2500      0.0000    713.1826      5.7784    148.7299
  1098.5000      0.0000    712.3915      5.8025    150.3548
  1098.7500      0.0000    709.1640      5.8108    150.2668
  1099.0000      0.0000    700.6195      5.8151    148.3477
  1099.2500      0.0000    683.8321      5.8202    145.5570
  1099.5000      0.0000    658.5600      5.8262    143.7174
  1099.7500      0.0000    629.3095      5.8382    143.7097
  1100.0000      0.0000    604.0073      5.8669    144.3907
  1100.2500      0.0000    589.9642      5.9170    143.7972
  1100.5000      0.0000    590.7229      5.9813    141.2879
  1100.7500      0.0000    605.5043      6.0475    138.1249
  1101.0000      0.0000    629.7859      6.1099    135.9438
  1101.2500      0.0000    656.3651      6.1708    135.1873
  1101.5000      0.0000    678.2031      6.2306    135.5475
  1101.7500      0.0000    692.1575      6.2831    137.4822
  1102.0000      0.0000    699.8654      6.3209    142.0337
  1102.2500      0.0000    704.7195      6.3433    148.8001
  1102.5000      0.0000    708.6252      6.3560    155.1746
  1102.7500      0.0000    711.6394      6.3637    158.3155
  1103.0000      0.0000    713.4509      6.3642    157.4501
  1103.2500      0.0000    714.2503      6.3481    153.9182
  1103.5000      0.0000    714.4447      6.3066    149.6374
  1103.7500      0.0000    714.1160      6.2400    146.1221
  1104.0000      0.0000    712.8265      6.1621    144.4221
  1104.2500      0.0000    709.9551      6.0943    144.9957
  1104.5000      0.0000    705.4631      6.0555    147.5242
  1104.7500      0.0000    700.3834      6.0533    151.2498
  1105.0000      0.0000    695.7783      6.0840    155.4704
  1105.2500      0.0000    690.6325      6.1358    159.6157
  1105.5000      0.0000    681.7908      6.1918    163.2321
  1105.7500      0.0000    667.5308      6.2331    166.0672
  1106.0000      0.0000    651.1903      6.2461    167.8567
  1106.2500      0.0000    640.1101      6.2311    168.0145
  1106.5000      0.0000    640.4052      6.2010    166.0220
  1106.7500      0.0000    652.4149      6.1692    162.2523
  1107.0000      0.0000    670.4796      6.1379    158.0192
  1107.2500      0.0000    686.6716      6.0955    154.6828
  1107.5000      0.0000    695.4364      6.0270    152.8723
  1107.7500      0.0000    696.1721      5.9263    152.4645
  1108.0000      0.0000    692.6577      5.8025    152.8540
  1108.2500      0.0000    689.8405      5.6751    153.0614
  1108.5000      0.0000    689.8336      5.5584    151.8886
  1108.7500      0.0000    690.5256      5.4511    148.4066
  1109.0000      0.0000    688.1475      5.3417    142.6198
  1109.2500      0.0000    680.6840      5.2205    135.7447
  1109.5000      0.0000    669.0952      5.0837    129.6317
  1109.7500      0.0000    657.3244      4.9309    125.6401
  1110.0000      0.0000    651.8107      4.7642    123.9272
  1110.2500      0.0000    658.2707      4.5878    123.7409
  1110.5000      0.0000    676.6613      4.4043    124.2461
  1110.7500      0.0000    700.2285      4.2154    125.0676
  1111.0000      0.0000    720.7546      4.0276    126.4050
  1111.2500      0.0000    734.1542      3.8546    128.8604
  1111.5000      0.0000    741.0729      3.7091    132.9271
  1111.7500      0.0000    743.6877      3.5944    138.2582
  1112.0000      0.0000    742.9361      3.5044    143.2888
  1112.2500      0.0000    738.6778      3.4313    145.9282
  1112.5000      0.0000    731.8040      3.3712    145.0741
  1112.7500      0.0000    724.9227      3.3241    141.6129
  1113.0000      0.0000    720.3157      3.2892    137.7421
  1113.2500      0.0000    718.0317      3.2593    135.1215
  1113.5000      0.0000    716.6000      3.2208    133.7338
  1113.7500      0.0000    714.9651      3.1628    132.5366
  1114.0000      0.0000    713.0347      3.0884    130.7436
  1114.2500      0.0000    710.9055      3.0157    128.1294
  1114.5000      0.0000    708.5169      2.9639    124.6743
  1114.7500      0.0000    706.0278      2.9397    120.7657
  1115.0000      0.0000    703.9186      2.9351    117.5753
  1115.2500      0.0000    702.6283      2.9373    116.2395
  1115.5000      0.0000    702.3903      2.9421    116.2095
  1115.7500      0.0000    703.4813      2.9569    115.0676
  1116.0000      0.0000    706.2858      2.9953    110.7211
  1116.2500      0.0000    710.6922      3.0710    103.5682
  1116.5000      0.0000    715.3193      3.1951     96.0148
  1116.7500      0.0000    717.9653      3.3751     90.1436
  1117.0000      0.0000    717.4772      3.6099     86.3310
  1117.2500      0.0000    714.8001      3.8832     83.9035
  1117.5000      0.0000    711.6243      4.1599     82.4665
  1117.7500      0.0000    708.6601      4.3958     82.2269
  1118.0000      0.0000    705.9993      4.5587     83.2316
  1118.2500      0.0000    704.2984      4.6453     85.0128
  1118.5000      0.0000    704.3746      4.6779     87.4027
  1118.7500      0.0000    706.0642      4.6878     91.1029
  1119.0000      0.0000    708.5148      4.6998     96.7633
  1119.2500      0.0000    711.5110      4.7234    104.0173
  1119.5000      0.0000    715.8267      4.7527    112.1146
  1119.7500      0.0000    722.0222      4.7762    120.9451
  1120.0000      0.0000    728.9366      4.7917    130.5827
  1120.2500      0.0000    733.7657      4.8140    140.2961
  1120.5000      0.0000    734.2861      4.8676    148.8526
  1120.7500      0.0000    731.0143      4.9714    155.3654
  1121.0000      0.0000    726.8553      5.1269    159.2067
  1121.2500      0.0000    724.9374      5.3188    159.9913
  1121.5000      0.0000    726.8290      5.5216    158.5982
  1121.7500      0.0000    731.7284      5.7030    157.4056
  1122.0000      0.0000    736.8052      5.8278    158.3042
  1122.2500      0.0000    739.1453      5.8705    160.6168
  1122.5000      0.0000    737.7044      5.8361    161.6480
  1122.7500      0.0000    733.3063      5.7670    159.3174
  1123.0000      0.0000    727.7414      5.7198    154.0427
