~Version Information
VERS.                      2.0: CWLS Log ASCII Standard - VERSION 2.0
WRAP.                       NO: One line per depth step
~Well Information Block
STRT.FT                -7.2500: 
STOP.FT              1334.7500: 
STEP.FT                 0.2500: 
NULL.                -999.2500: 
COMP.          Pioneer Natural Resources: COMPANY
WELL.          Buffet 41-36 Tr: WELL
FLD.           Purgatorie River: FIELD
LOC.           119' FNL & 271' FEL--: LOCATION
PROV.                       CO: PROVINCE
CNTY.               Las Animas: COUNTRY
SRVC.          Patterson Wireline: SERVICE COMPANY
DATE.          Tue Jan 03 09:43:31 2006: LOG DATE
UWI.           05 071 08627 00: UNIQUE WELL ID
~Curve Information Block
DEPT.FT            0 000 00 00: Depth
CCL.                          : Casing Collar Locator
TT3.usec                      : CBL 3' Travel Time
AMP3.mV                       : CBL 3' Amplitude
GR.GAPI                       : Gamma Ray
~Parameter Information Block
~A  Depth       CCL         TT3         AMP3         GR     
# ...
   696.2500      0.0000    685.0797      6.5324    146.4184
   696.5000      0.0000    685.3638      6.5121    150.3626
   696.7500      0.0000    685.6954      6.5025    152.9764
   697.0000      0.0000    685.9716      6.5051    154.6081
   697.2500      0.0000    686.0858      6.5084    155.7740
   697.5000      0.0000    685.9922      6.4863    157.1085
   697.7500      0.0000    685.7098      6.4033    159.2789
   698.0000      0.0000    685.3234      6.2283    162.1373
   698.2500      0.0000    685.1385      5.9496    164.1854
   698.5000      0.0000    685.9774      5.5839    163.6472
   698.7500      0.0000    689.2224      5.1704    159.9818
   699.0000      0.0000    696.0083      4.7553    153.8127
   699.2500      0.0000    705.9039      4.3715    145.8967
   699.5000      0.0000    716.8044      4.0281    136.9286
   699.7500      0.0000    726.9570      3.7185    127.8184
   700.0000      0.0000    736.8172      3.4417    119.2682
   700.2500      0.0000    748.0560      3.2154    111.3301
   700.5000      0.0000    761.1342      3.0660    103.8188
   700.7500      0.0000    775.2415      3.0092     96.9402
   701.0000      0.0000    790.2507      3.0430     91.4518
   701.2500      0.0000    806.1852      3.1551     88.4327
   701.5000      0.0000    819.3275      3.3281     88.7339
   701.7500      0.0000    821.4027      3.5378     92.3864
   702.0000      0.0000    806.1919      3.7588     98.5973
   702.2500      0.0000    776.6155      3.9817    106.3719
   702.5000      0.0000    743.0997      4.2248    114.9216
   702.7500      0.0000    715.5209      4.5214    123.4071
   703.0000      0.0000    697.8507      4.8877    130.5481
   703.2500      0.0000    688.8221      5.3017    134.8376
   703.5000      0.0000    685.2088      5.7143    135.4515
   703.7500      0.0000    684.2259      6.0758    133.1593
   704.0000      0.0000    684.2308      6.3505    130.1734
   704.2500      0.0000    684.4573      6.5185    128.7273
   704.5000      0.0000    684.5708      6.5785    129.6089
   704.7500      0.0000    684.4601      6.5520    131.9365
   705.0000      0.0000    684.1533      6.4766    134.2486
   705.2500      0.0000    683.7681      6.3912    135.7570
   705.5000      0.0000    683.4445      6.3237    136.4342
   705.7500      0.0000    683.2711      6.2852    136.2699
   706.0000      0.0000    683.2487      6.2708    135.3826
   706.2500      0.0000    683.3093      6.2723    134.7399
   706.5000      0.0000    683.3702      6.2903    135.5519
   706.7500      0.0000    683.3796      6.3315    137.7818
   707.0000      0.0000    683.3445      6.3973    140.0352
   707.2500      0.0000    683.3326      6.4795    140.8754
   707.5000      0.0000    683.4348      6.5644    139.9287
   707.7500      0.0000    683.7011      6.6337    138.3596
   708.0000      0.0000    684.1112      6.6687    138.6499
   708.2500      0.0000    684.6115      6.6611    143.0409
   708.5000      0.0000    685.2472      6.6172    151.2987
   708.7500      0.0000    686.3549      6.5495    160.1057
   709.0000      0.0000    688.7344      6.4697    165.2006
   709.2500      0.0000    693.3587      6.3897    164.3304
   709.5000      0.0000    700.1902      6.3200    158.2549
   709.7500      0.0000    707.0198      6.2637    149.4319
   710.0000      0.0000    710.4536      6.2175    140.2142
   710.2500      0.0000    709.1411      6.1822    132.0138
   710.5000      0.0000    705.4944      6.1700    125.4530
   710.7500      0.0000    703.2371      6.1934    120.7992
   711.0000      0.0000    703.8307      6.2497    118.1457
   711.2500      0.0000    706.4457      6.3177    117.4184
   711.5000      0.0000    710.9703      6.3703    118.3628
   711.7500      0.0000    719.0949      6.3905    120.4600
   712.0000      0.0000    731.5679      6.3810    122.8842
   712.2500      0.0000    745.9949      6.3582    124.8359
   712.5000      0.0000    758.9808      6.3371    126.0079
   712.7500      0.0000    769.2361      6.3238    126.5726
   713.0000      0.0000    776.5955      6.3215    126.6942
   713.2500      0.0000    779.0334      6.3369    126.3088
   713.5000      0.0000    773.4811      6.3781    125.5475
   713.7500      0.0000    760.3274      6.4462    125.0822
   714.0000      0.0000    745.7269      6.5360    125.5523
   714.2500      0.0000    737.9427      6.6386    126.6894
   714.5000      0.0000    740.9296      6.7422    127.7192
   714.7500      0.0000    751.9927      6.8330    128.6319
   715.0000      0.0000    765.6285      6.9026    130.1565
   715.2500      0.0000    777.9151      6.9493    132.4528
   715.5000      0.0000    786.4454      6.9692    134.6355
   715.7500      0.0000    788.8616      6.9544    135.5428
   716.0000      0.0000    784.7255      6.9079    134.5696
   716.2500      0.0000    777.8809      6.8499    132.1548
   716.5000      0.0000    774.1708      6.7979    129.6670
   716.7500      0.0000    776.6608      6.7449    128.4386
   717.0000      0.0000    784.3867      6.6676    128.7478
   717.2500      0.0000    794.4513      6.5577    129.7255
   717.5000      0.0000    803.1495      6.4387    130.1625
   717.7500      0.0000    806.3835      6.3478    129.5029
   718.0000      0.0000    801.8927      6.3040    128.0821
   718.2500      0.0000    791.4191      6.2989    126.2653
   718.5000      0.0000    779.7099      6.3161    123.7221
   718.7500      0.0000    771.5820      6.3517    120.0009
   719.0000      0.0000    769.7147      6.4102    115.3023
   719.2500      0.0000    774.2252      6.4873    110.1301
   719.5000      0.0000    784.0822      6.5636    104.8725
   719.7500      0.0000    798.5888      6.6176    100.4004
   720.0000      0.0000    816.5334      6.6422     98.2617
   720.2500      0.0000    834.0539      6.6495     99.3524
   720.5000      0.0000    845.1847      6.6589    102.6310
   720.7500      0.0000    845.7881      6.6790    105.7609
   721.0000      0.0000    836.8017      6.6991    107.1091
   721.2500      0.0000    822.7619      6.6965    107.0466
   721.5000      0.0000    807.6595      6.6491    107.3564
   721.7500      0.0000    794.1875      6.5464    109.4204
   722.0000      0.0000    787.7492      6.3932    113.0332
   722.2500      0.0000    798.0594      6.2089    116.8340
   722.5000      0.0000    832.6196      6.0240    119.5395
   722.7500      0.0000    887.3339      5.8774    120.6800
   723.0000      0.0000    944.7964      5.7997    120.6426
   723.2500      0.0000    984.4809      5.7905    120.3621
   723.5000      0.0000    996.8400      5.8171    120.5642
   723.7500     -2.0000    987.5006      5.8416    121.0952
   724.0000      0.0000    968.2647      5.8485    121.3633
   724.2500      0.0000    946.4692      5.8602    121.4366
   724.5000      0.0000    923.5605      5.9329    122.0842
   724.7500      0.0000    899.6019      6.1135    123.8175
   725.0000      0.0000    875.6100      6.3731    126.4891
   725.2500      0.0000    853.2655      6.5994    129.6836
   725.5000      0.0000    834.6553      6.6817    132.9197
   725.7500      0.0000    821.2897      6.5961    135.6944
   726.0000      0.0000    812.8105      6.3983    137.7616
   726.2500      0.0000    807.2537      6.1586    139.2162
   726.5000      0.0000    802.7052      5.9214    140.1699
   726.7500      0.0000    798.8760      5.7050    140.5592
   727.0000      0.0000    797.3851      5.5126    140.1392
   727.2500      0.0000    799.9236      5.3392    138.2417
   727.5000      0.0000    805.6024      5.1740    133.6983
   727.7500      0.0000    811.0170      5.0013    125.8545
   728.0000      0.0000    813.9210      4.8064    115.8112
   728.2500      0.0000    816.1597      4.5829    105.9084
   728.5000      0.0000    822.3898      4.3336     97.5978
   728.7500      0.0000    835.4927      4.0636     90.3549
   729.0000      0.0000    852.2348      3.7758     82.8706
   729.2500      0.0000    863.3555      3.4755     74.7309
   729.5000      0.0000    859.9471      3.1741     66.6073
