~Version Information
VERS.                      2.0: CWLS Log ASCII Standard - VERSION 2.0
WRAP.                       NO: One line per depth step
~Well Information Block
STRT.FT                 0.0000: 
STOP.FT               878.0000: 
STEP.FT                 0.2500: 
NULL.                -999.2500: 
COMP.          Pioneer Natural Resources: COMPANY
WELL.           Hartford 31-18: WELL
FLD.           Purgatorie River: FIELD
LOC.           375' FNL & 1660' FEL: LOCATION
PROV.                 Colorado: PROVINCE
CNTY.               Las Animas: COUNTRY
SRVC.                Patterson: SERVICE COMPANY
DATE.          Mon Nov 28 12:10:49 2005: LOG DATE
UWI.             05-071-08555             : UNIQUE WELL ID
~Curve Information Block
DEPT.FT            0 000 00 00: Depth
CCL.                          : Casing Collar Locator
TT3.usec                      : CBL 3' Travel Time
AMP3.mV                       : CBL 3' Amplitude
GR.GAPI                       : Gamma Ray
~Parameter Information Block
~A  Depth       CCL         TT3         AMP3         GR     
# ...
   603.0000      0.0000    392.4178     10.6338     93.7512
   603.2500      0.0000    378.7346     10.6013     92.1299
   603.5000      0.0000    368.5689     10.5807     91.6187
   603.7500      0.0000    358.1662     10.5825     91.4102
   604.0000      0.0000    350.1021     10.6008     90.7577
   604.2500      0.0000    346.0921     10.6079     89.2248
   604.5000      0.0000    345.6176     10.5582     86.6556
   604.7500      0.0000    348.6510     10.4367     83.1109
   605.0000      0.0000    355.5610     10.2917     78.8919
   605.2500      0.0000    364.4026     10.1874     74.6121
   605.5000      0.0000    371.4915     10.1498     71.1214
   605.7500      0.0000    375.2185     10.1653     69.2721
   606.0000      0.0000    376.7545     10.2146     69.6672
   606.2500      0.0000    377.3273     10.3035     72.3297
   606.5000      0.0000    376.5367     10.4442     76.4442
   606.7500      0.0000    372.7856     10.6156     80.6304
   607.0000      0.0000    365.2401     10.7703     83.7767
   607.2500      0.0000    356.0034     10.8814     85.7150
   607.5000      0.0000    348.8609     10.9706     86.9592
   607.7500      0.0000    345.3358     11.0702     87.7689
   608.0000      0.0000    344.1391     11.1636     87.7223
   608.2500      0.0000    343.8561     11.2025     86.3070
   608.5000      0.0000    344.0253     11.1671     83.6810
   608.7500      0.0000    344.3590     11.0941     80.8171
   609.0000      0.0000    344.4630     11.0473     79.0430
   609.2500      0.0000    344.2711     11.0471     79.2369
   609.5000      0.0000    344.1065     11.0530     81.0658
   609.7500      0.0000    344.2932     11.0155     83.0985
   610.0000      0.0000    344.8262     10.9148     83.9495
   610.2500      0.0000    345.3067     10.7658     83.1659
   610.5000      0.0000    345.3098     10.6051     80.8499
   610.7500      0.0000    345.0440     10.4545     76.8706
   611.0000      0.0000    345.6891     10.3021     71.0124
   611.2500      0.0000    349.0579     10.1364     63.8336
   611.5000      0.0000    356.1268      9.9818     56.8457
   611.7500      0.0000    365.2940      9.8739     51.6652
   612.0000      0.0000    374.8799      9.8093     49.1891
   612.2500      0.0000    390.8271      9.7464     49.3890
   612.5000      0.0000    429.6167      9.6575     51.3570
   612.7500      0.0000    501.5041      9.5496     53.5108
   613.0000      0.0000    583.5447      9.4415     54.3230
   613.2500      0.0000    629.5020      9.3467     53.2899
   613.5000      0.0000    621.8146      9.2813     51.2009
   613.7500      0.0000    592.0781      9.2584     49.3503
   614.0000      0.0000    581.9034      9.2642     48.4667
   614.2500      0.0000    608.5353      9.2692     48.3984
   614.5000      0.0000    661.8298      9.2745     48.6905
   614.7500      0.0000    711.4746      9.3000     49.2029
   615.0000      0.0000    734.2346      9.3313     50.0681
   615.2500      0.0000    734.1175      9.3478     51.2646
   615.5000      0.0000    726.8520      9.3819     52.4576
   615.7500      0.0000    719.9112      9.4756     53.1607
   616.0000      0.0000    710.6707      9.5999     52.8519
   616.2500      0.0000    694.8729      9.6825     51.1561
   616.5000      0.0000    673.9987      9.6949     48.2983
   616.7500      0.0000    653.5283      9.6626     45.3623
   617.0000      0.0000    637.2140      9.6231     43.8037
   617.2500      0.0000    629.0892      9.6012     44.5380
   617.5000      0.0000    634.8417      9.5984     47.4148
   617.7500      0.0000    653.2032      9.6041     51.3230
   618.0000      0.0000    673.6373      9.6150     54.6980
   618.2500      0.0000    687.6367      9.6214     56.2868
   618.5000      0.0000    693.6356      9.6057     55.8457
   618.7500      0.0000    693.4727      9.5731     54.1485
   619.0000      0.0000    693.7346      9.5476     52.2966
   619.2500      0.0000    700.6590      9.5309     51.0475
   619.5000      0.0000    710.9893      9.5032     50.5753
   619.7500      0.0000    718.0952      9.4663     50.5270
   620.0000      0.0000    720.8791      9.4481     50.3971
   620.2500      0.0000    721.6607      9.4572     50.1530
   620.5000      0.0000    722.0256      9.4602     50.3832
   620.7500      0.0000    722.3372      9.4250     51.5305
   621.0000      0.0000    722.5487      9.3628     53.0968
   621.2500      0.0000    722.6855      9.3036     53.9913
   621.5000      0.0000    722.8596      9.2512     53.6812
   621.7500      0.0000    723.1395      9.1862     52.7646
   622.0000      0.0000    723.7720      9.1029     52.4794
   622.2500      0.0000    725.6584      9.0175     53.7572
   622.5000      0.0000    729.5011      8.9367     56.4475
   622.7500      0.0000    732.1369      8.8330     59.2336
   623.0000      0.0000    726.1580      8.6690     60.6929
   623.2500      0.0000    709.7602      8.4572     60.7284
   623.5000      0.0000    691.9026      8.2726     60.6216
   623.7500      0.0000    680.9521      8.1740     61.5252
   624.0000      0.0000    676.6703      8.1439     63.3518
   624.2500      0.0000    675.3084      8.1265     65.1776
   624.5000      0.0000    674.7378      8.0992     66.0028
   624.7500      0.0000    674.4673      8.1061     64.9498
   625.0000      0.0000    674.4240      8.2144     61.6311
   625.2500      0.0000    674.5015      8.4268     56.9197
   625.5000      0.0000    674.7969      8.6629     52.8679
   625.7500      0.0000    676.0964      8.8454     51.3502
   626.0000      0.0000    679.8088      8.9687     52.8547
   626.2500      0.0000    686.3576      9.0703     56.5825
   626.5000      0.0000    694.1007      9.1878     61.2843
   626.7500      0.0000    701.7309      9.3564     65.9122
   627.0000      0.0000    709.3487      9.5920     69.9888
   627.2500      0.0000    715.9645      9.8707     73.7062
   627.5000      0.0000    719.7943     10.1776     77.5709
   627.7500      0.0000    718.8531     10.5496     81.8652
   628.0000      0.0000    709.0587     10.9782     86.3137
   628.2500      0.0000    690.6390     11.3151     89.9507
   628.5000      0.0000    677.7823     11.3915     91.3268
   628.7500      0.0000    683.9818     11.2084     89.4874
   629.0000      0.0000    701.4302     10.9384     84.9941
   629.2500      0.0000    714.5673     10.7579     79.4475
   629.5000      0.0000    719.6760     10.7098     73.7846
   629.7500      0.0000    720.7940     10.7091     67.6256
   630.0000      0.0000    720.9221     10.6495     60.4611
   630.2500      0.0000    720.9271     10.4979     52.8904
   630.5000      0.0000    720.9116     10.3055     46.4937
   630.7500      0.0000    720.7767     10.1602     42.8938
   631.0000      0.0000    720.2387     10.1164     42.8904
   631.2500      0.0000    718.6469     10.1714     45.9808
   631.5000      0.0000    715.1125     10.3196     50.6663
   631.7500      0.0000    710.2177     10.5800     55.6233
   632.0000      0.0000    706.8799     10.9393     60.6105
   632.2500      0.0000    706.3474     11.3198     65.9446
   632.5000      0.0000    706.3063     11.6413     71.2131
   632.7500      0.0000    705.9368     11.8820     75.0069
   633.0000      0.0000    705.9990     12.0614     76.0367
   633.2500      0.0000    703.9976     12.1834     74.2890
   633.5000      0.0000    693.2573     12.2149     71.0074
   633.7500      0.0000    661.7884     12.1244     67.7142
   634.0000      0.0000    604.0411     11.9233     65.3120
   634.2500      0.0000    547.1708     11.6565     63.9521
   634.5000      0.0000    535.0798     11.3840     63.5554
   634.7500      0.0000    572.0281     11.1685     64.3457
   635.0000      0.0000    620.9484     11.0294     66.7914
   635.2500      0.0000    654.7701     10.9156     70.9136
   635.5000      0.0000    673.2995     10.7674     75.7051
   635.7500      0.0000    683.5457     10.5843     79.5475
   636.0000      0.0000    687.6201     10.4067     81.4253
   636.2500      0.0000    685.8848     10.2590     81.5458
