~Version Information
VERS.                      2.0: CWLS Log ASCII Standard - VERSION 2.0
WRAP.                       NO: One line per depth step
~Well Information Block
STRT.FT                 0.0000: 
STOP.FT               878.0000: 
STEP.FT                 0.2500: 
NULL.                -999.2500: 
COMP.          Pioneer Natural Resources: COMPANY
WELL.           Hartford 31-18: WELL
FLD.           Purgatorie River: FIELD
LOC.           375' FNL & 1660' FEL: LOCATION
PROV.                 Colorado: PROVINCE
CNTY.               Las Animas: COUNTRY
SRVC.                Patterson: SERVICE COMPANY
DATE.          Mon Nov 28 12:10:49 2005: LOG DATE
UWI.             05-071-08555             : UNIQUE WELL ID
~Curve Information Block
DEPT.FT            0 000 00 00: Depth
CCL.                          : Casing Collar Locator
TT3.usec                      : CBL 3' Travel Time
AMP3.mV                       : CBL 3' Amplitude
GR.GAPI                       : Gamma Ray
~Parameter Information Block
~A  Depth       CCL         TT3         AMP3         GR     
# ...
   770.5000      0.0000    715.3897      8.0142     53.3411
   770.7500      0.0000    710.7092      8.1341     54.4263
   771.0000      0.0000    697.1426      8.2115     56.3190
   771.2500      0.0000    671.1788      8.2367     58.5165
   771.5000      0.0000    639.5746      8.2563     60.3304
   771.7500      0.0000    617.7900      8.3019     60.9614
   772.0000      0.0000    617.6780      8.3615     59.9809
   772.2500      0.0000    639.5269      8.4087     57.7659
   772.5000      0.0000    671.6155      8.4343     55.1706
   772.7500      0.0000    697.9366      8.4448     52.8247
   773.0000      0.0000    710.9659      8.4408     50.8634
   773.2500      0.0000    712.3340      8.4078     49.1598
   773.5000      0.0000    700.4783      8.3392     47.7185
   773.7500      0.0000    663.2477      8.2561     46.9731
   774.0000      0.0000    591.3255      8.1818     47.6561
   774.2500      0.0000    503.4358      8.1125     50.2986
   774.5000      0.0000    441.8991      8.0379     54.8974
   774.7500      0.0000    437.3123      7.9536     60.9984
   775.0000      0.0000    488.7837      7.8480     67.6813
   775.2500      0.0000    565.5819      7.7384     73.3601
   775.5000      0.0000    622.3770      7.6743     76.1709
   775.7500      0.0000    627.4380      7.6703     75.1404
   776.0000      0.0000    585.3365      7.6952     70.9814
   776.2500      0.0000    541.8079      7.7045     65.6892
   776.5000      0.0000    548.2549      7.6739     61.3950
   776.7500      0.0000    604.1124      7.6231     59.2107
   777.0000      0.0000    661.1196      7.5633     58.6177
   777.2500      0.0000    682.6514      7.4725     58.0202
   777.5000      0.0000    668.9503      7.3597     56.2667
   777.7500      0.0000    640.8088      7.2658     53.6138
   778.0000      0.0000    617.4216      7.2122     51.1311
   778.2500      0.0000    597.0541      7.2057     49.5962
   778.5000      0.0000    560.9373      7.2435     49.2316
   778.7500      0.0000    505.7692      7.2918     50.0883
   779.0000      0.0000    453.8290      7.3110     52.2754
   779.2500      0.0000    421.4655      7.3150     55.8255
   779.5000      0.0000    403.3981      7.3595     60.3152
   779.7500      0.0000    390.5135      7.4731     64.5780
   780.0000      0.0000    381.7106      7.6429     67.1155
   780.2500      0.0000    380.0273      7.8410     67.0768
   780.5000      0.0000    390.2859      8.0121     64.6668
   780.7500      0.0000    417.8824      8.0858     60.7018
   781.0000      0.0000    457.4915      8.0621     56.2429
   781.2500      0.0000    489.6831      8.0349     52.5606
   781.5000      0.0000    508.8197      8.0914     50.7662
   781.7500      0.0000    532.7991      8.2221     51.1680
   782.0000      0.0000    561.2656      8.3473     53.0778
   782.2500      0.0000    564.5735      8.4209     55.2290
   782.5000      0.0000    527.6919      8.4782     56.4619
   782.7500      0.0000    469.4297      8.5657     56.4251
   783.0000      0.0000    418.9288      8.6640     55.8339
   783.2500      0.0000    390.1412      8.7130     55.7354
   783.5000      0.0000    378.9301      8.6870     56.4047
   783.7500      0.0000    376.0094      8.6112     57.2349
   784.0000      0.0000    375.8537      8.5324     57.6710
   784.2500      0.0000    377.2872      8.4853     57.8078
   784.5000      0.0000    381.6950      8.4639     58.0023
   784.7500      0.0000    390.5889      8.4342     58.3863
   785.0000      0.0000    404.7791      8.3690     58.9412
   785.2500      0.0000    428.8761      8.2620     59.6148
   785.5000      0.0000    470.3150      8.1355     60.0838
   785.7500      0.0000    521.8479      8.0392     59.7027
   786.0000      0.0000    552.8433      8.0177     58.0942
   786.2500      0.0000    535.3008      8.0856     55.8261
   786.5000      0.0000    478.2109      8.2268     54.2559
   786.7500      0.0000    420.4690      8.3852     54.5145
   787.0000      0.0000    387.9022      8.4786     56.6271
   787.2500      0.0000    377.0584      8.4552     59.5451
   787.5000      0.0000    375.2616      8.3336     61.8895
   787.7500      0.0000    375.5191      8.1921     62.7033
   788.0000      0.0000    376.8029      8.1144     61.8569
   788.2500      0.0000    383.1194      8.1176     60.0558
   788.5000      0.0000    404.0786      8.1348     58.3547
   788.7500      0.0000    448.5530      8.0970     57.4745
   789.0000      0.0000    510.3233      8.0182     57.5759
   789.2500      0.0000    564.3464      7.9616     58.6027
   789.5000      0.0000    585.1368      7.9356     60.5716
   789.7500      0.0000    570.2523      7.8829     63.4862
   790.0000      0.0000    538.0047      7.7723     67.2007
   790.2500      0.0000    498.9655      7.6447     71.3725
   790.5000      0.0000    453.0399      7.5596     75.3786
   790.7500      0.0000    411.0737      7.5307     78.3460
   791.0000      0.0000    386.3101      7.5090     79.5237
   791.2500      0.0000    377.3181      7.4303     78.6473
   791.5000      0.0000    375.5147      7.2945     75.8335
   791.7500      0.0000    375.6458      7.1757     71.3035
   792.0000      0.0000    377.0237      7.1292     65.5314
   792.2500      0.0000    383.8062      7.1250     59.6105
   792.5000      0.0000    406.2995      7.0977     55.0689
   792.7500      0.0000    453.7844      7.0216     52.9568
   793.0000      0.0000    515.1189      6.9392     53.0378
   793.2500      0.0000    554.2250      6.9379     54.0403
   793.5000      0.0000    546.9276      7.0650     55.0078
   793.7500      0.0000    520.2516      7.2718     56.4786
   794.0000      0.0000    525.1976      7.4659     59.9244
   794.2500      0.0000    569.7555      7.6030     65.6835
   794.5000      0.0000    615.8061      7.7151     71.7404
   794.7500      0.0000    637.0203      7.8521     75.1503
   795.0000      0.0000    641.4001      8.0142     74.8134
   795.2500      0.0000    643.6361      8.1539     72.4365
   795.5000      0.0000    645.3351      8.2437     70.6121
   795.7500      0.0000    643.9276      8.3098     70.3815
   796.0000      0.0000    642.8258      8.3822     70.7989
   796.2500      0.0000    645.1546      8.4565     70.3345
   796.5000      0.0000    646.7095      8.5167     68.2751
   796.7500      0.0000    639.5536      8.5412     65.0045
   797.0000      0.0000    612.7231      8.4856     61.4433
   797.2500      0.0000    558.3289      8.3336     58.4935
   797.5000      0.0000    494.5651      8.1387     56.8895
   797.7500      0.0000    463.7540      7.9661     57.1725
   798.0000      0.0000    488.6971      7.8347     59.4499
   798.2500      0.0000    547.6132      7.7235     63.0535
   798.5000      0.0000    602.9511      7.5983     66.5735
   798.7500      0.0000    637.9501      7.4373     68.4835
   799.0000      0.0000    655.7806      7.2489     67.9056
   799.2500      0.0000    663.3875      7.0543     64.9609
   799.5000      0.0000    666.1069      6.8521     60.5940
   799.7500      0.0000    667.5292      6.6267     56.1035
   800.0000      0.0000    669.3477      6.4292     52.5452
   800.2500      0.0000    670.6677      6.3858     50.2148
   800.5000      0.0000    669.4374      6.4882     48.7157
   800.7500      0.0000    669.0137      6.4538     47.7061
   801.0000      0.0000    679.1102      6.0675     47.3228
   801.2500      0.0000    703.0399      5.5883     47.6409
   801.5000      0.0000    727.3574      5.4935     48.1391
   801.7500      2.0000    731.5220      5.9187     48.1959
   802.0000     -2.0000    709.3221      6.6188     47.8751
   802.2500     -2.0000    675.6877      7.3303     47.7773
   802.5000      0.0000    647.3843      7.9284     48.3367
   802.7500      0.0000    624.2659      8.4994     49.6989
   803.0000      0.0000    600.2225      9.6158     52.0844
   803.2500      0.0000    569.8702     11.9948     55.6797
   803.5000      0.0000    519.0324     15.1488     60.0329
   803.7500      0.0000    448.0793     17.3700     63.9181
