~Version Information
VERS.                      2.0: CWLS Log ASCII Standard - VERSION 2.0
WRAP.                       NO: One line per depth step
~Well Information Block
STRT.FT               525.0000: 
STOP.FT              2377.2500: 
STEP.FT                 0.2500: 
NULL.                -999.2500: 
COMP.          Pioneer Natural Resources: COMPANY
WELL.          Sparrowhawk 22-12: WELL
FLD.           Purgatoire River: FIELD
LOC.           2049' FNL & 2060' FWL--: LOCATION
CNTY.               Las Animas: COUNTY
SRVC.                Patterson: SERVICE COMPANY
DATE.          Thu Mar 23 10:52:44 2006: LOG DATE
UWI.           05 071 08484 00: UNIQUE WELL ID
STAT.                 Colorado: STATE
~Curve Information Block
DEPT.FT            0 000 00 00: Depth
SN.Ohm-m                      : IEL Short Normal
SP.mV                         : IEL Spontaneous Potential
DIR.Ohm-m                     : IEL Induction Resistivity
GR.GAPI                       : Gamma Ray
~Parameter Information Block
~A  Depth        SN          SP         DIR          GR     
# ...
  1262.0000     13.7633     16.5380     11.4401    118.2045
  1262.2500     13.5707     17.1088     11.3504    118.9621
  1262.5000     13.3823     17.7363     11.3030    121.8798
  1262.7500     13.2358     18.4126     11.2991    124.8279
  1263.0000     13.1594     19.1263     11.3419    129.7895
  1263.2500     13.1525     19.8636     11.4325    132.5179
  1263.5000     13.1889     20.6083     11.5672    134.4267
  1263.7500     13.2417     21.3430     11.7366    134.3898
  1264.0000     13.3077     22.0497     11.9266    134.0264
  1264.2500     13.4075     22.7107     12.1208    134.3827
  1264.5000     13.5597     23.3104     12.3051    135.5384
  1264.7500     13.7568     23.8353     12.4743    135.8536
  1265.0000     13.9665     24.2752     12.6368    134.5452
  1265.2500     14.1586     24.6230     12.8143    132.5946
  1265.5000     14.3309     24.8743     13.0347    128.8956
  1265.7500     14.5124     25.0277     13.3217    126.2324
  1266.0000     14.7379     25.0849     13.6847    122.2244
  1266.2500     15.0150     25.0513     14.1124    119.7777
  1266.5000     15.3099     24.9357     14.5704    116.5642
  1266.7500     15.5660     24.7509     15.0075    114.4166
  1267.0000     15.7468     24.5128     15.3702    110.7062
  1267.2500     15.8759     24.2394     15.6235    108.1438
  1267.5000     16.0458     23.9493     15.7688    105.2090
  1267.7500     16.3833     23.6601     15.8487    104.3548
  1268.0000     16.9870     23.3878     15.9336    105.1583
  1268.2500     17.8700     23.1456     16.0976    107.2283
  1268.5000     18.9384     22.9437     16.3911    112.3664
  1268.7500     20.0125     22.7895     16.8199    116.2428
  1269.0000     20.8796     22.6873     17.3329    119.9131
  1269.2500     21.3604     22.6383     17.8302    119.2384
  1269.5000     21.3775     22.6411     18.1954    112.2607
  1269.7500     21.0050     22.6922     18.3447    104.3441
  1270.0000     20.4586     22.7869     18.2610     90.9852
  1270.2500     20.0000     22.9209     17.9903     83.6537
  1270.5000     19.7968     23.0919     17.6068     78.8111
  1270.7500     19.8346     23.3010     17.1769     80.8215
  1271.0000     19.9399     23.5526     16.7393     91.0711
  1271.2500     19.8917     23.8531     16.3021    100.9507
  1271.5000     19.5429     24.2085     15.8523    116.1395
  1271.7500     18.8754     24.6211     15.3713    124.4618
  1272.0000     17.9755     25.0865     14.8543    132.8332
  1272.2500     16.9742     25.5916     14.3208    135.9182
  1272.5000     16.0014     26.1152     13.8120    137.5712
  1272.7500     15.1622     26.6301     13.3742    136.9282
  1273.0000     14.5223     27.1078     13.0411    133.8334
  1273.2500     14.0964     27.5238     12.8228    130.8963
  1273.5000     13.8541     27.8621     12.7073    126.2261
  1273.7500     13.7454     28.1192     12.6687    123.4633
  1274.0000     13.7351     28.3037     12.6794    120.8493
  1274.2500     13.8151     28.4344     12.7197    120.8091
  1274.5000     13.9861     28.5350     12.7797    123.8858
  1274.7500     14.2260     28.6288     12.8522    127.5673
  1275.0000     14.4762     28.7335     12.9243    133.5782
  1275.2500     14.6605     28.8589     12.9723    136.7759
  1275.5000     14.7230     29.0071     12.9668    139.4809
  1275.7500     14.6587     29.1743     12.8840    140.0874
  1276.0000     14.5136     29.3541     12.7197    140.2974
  1276.2500     14.3541     29.5398     12.4938    140.6773
  1276.5000     14.2262     29.7259     12.2430    142.2572
  1276.7500     14.1329     29.9083     12.0048    143.8253
  1277.0000     14.0409     30.0841     11.8038    145.9510
  1277.2500     13.9077     30.2505     11.6455    146.6052
  1277.5000     13.7070     30.4052     11.5187    146.0127
  1277.7500     13.4389     30.5469     11.4036    144.6552
  1278.0000     13.1287     30.6750     11.2827    141.4202
  1278.2500     12.8238     30.7904     11.1501    138.6756
  1278.5000     12.5888     30.8953     11.0170    134.6243
  1278.7500     12.4904     30.9926     10.9110    132.8049
  1279.0000     12.5726     31.0853     10.8675    132.3977
  1279.2500     12.8379     31.1767     10.9211    133.5860
  1279.5000     13.2485     31.2704     11.0975    136.3214
  1279.7500     13.7511     31.3709     11.4086    137.7228
  1280.0000     14.3126     31.4837     11.8484    137.1231
  1280.2500     14.9466     31.6139     12.3878    133.6570
  1280.5000     15.7167     31.7638     12.9667    122.3671
  1280.7500     16.7190     31.9295     13.4912    111.0387
  1281.0000     18.0544     32.0979     13.8503     91.2246
  1281.2500     19.8017     32.2459     13.9619     78.6060
  1281.5000     21.9866     32.3426     13.8270     64.4404
  1281.7500     24.5377     32.3547     13.5414     59.6981
  1282.0000     27.2463     32.2535     13.2513     60.8059
  1282.2500     29.7874     32.0216     13.1025     66.8808
  1282.5000     31.8297     31.6566     13.2452     82.3265
  1282.7500     33.1702     31.1704     13.9246     95.0126
  1283.0000     33.7875     30.5860     15.7359    113.5532
  1283.2500     33.7946     29.9317     20.5808    123.4531
  1283.5000     33.3641     29.2352     39.3456    132.7712
  1283.7500     32.6860     28.5198 100000.0000    135.3175
  1284.0000     31.9514     27.8028 100000.0000    134.5954
  1284.2500     31.3323     27.0945 100000.0000    131.8683
  1284.5000     30.9528     26.3992 100000.0000    126.3420
  1284.7500     30.8687     25.7157 100000.0000    123.1075
  1285.0000     31.0636     25.0372 100000.0000    120.4853
  1285.2500     31.4579     24.3513 100000.0000    119.8946
  1285.5000     31.9382     23.6392 100000.0000    118.4154
  1285.7500     32.4102     22.8751 100000.0000    115.6690
  1286.0000     32.8482     22.0254 100000.0000    108.2807
  1286.2500     33.2970     21.0490 100000.0000    102.0844
  1286.5000     33.8176     19.8981 100000.0000     93.8448
  1286.7500     34.4186     18.5204 100000.0000     90.6706
  1287.0000     35.0235     16.8616 100000.0000     90.2636
  1287.2500     35.4915     14.8689     45.1023     92.0855
  1287.5000     35.6732     12.4935     36.4966     95.4647
  1287.7500     35.4677      9.6924   1614.4222     96.9699
  1288.0000     34.8474      6.4283 100000.0000     97.7025
  1288.2500     33.8396      2.6658 100000.0000     97.8704
  1288.5000     32.4868     -1.6369 100000.0000     99.3588
  1288.7500     30.8089     -6.5392 100000.0000    101.8296
  1289.0000     28.7768    -12.1296 100000.0000    107.9654
  1289.2500     26.3045    -18.5332 100000.0000    113.4949
  1289.5000     23.2928    -25.9046 100000.0000    123.2635
  1289.7500     19.7456    -34.4016 100000.0000    129.8349
  1290.0000     15.8885    -44.1340    313.2842    136.9737
  1290.2500     12.1570    -55.0955      1.4303    138.1667
  1290.5000      9.0026    -67.0956      0.5093    133.4131
  1290.7500      6.6596    -79.7142      0.2343    126.6172
  1291.0000      5.0783    -92.3051      0.1199    113.3505
  1291.2500      4.0564   -104.0622      0.0707    103.6775
  1291.5000      3.4108   -114.1432      0.0495     89.5654
  1291.7500      3.0608   -121.8235      0.0410     81.3365
  1292.0000      3.0473   -126.6410      0.0402     71.9988
  1292.2500      3.5619   -128.4900      0.0465     67.8919
  1292.5000      4.9758   -127.6350      0.0640     63.8101
  1292.7500      7.7518   -124.6435      0.1031     61.4920
  1293.0000     12.1648   -120.2565      0.1848     57.4846
  1293.2500     17.9524   -115.2377      0.3416     54.4191
  1293.5000     24.1863   -110.2407      0.6244     50.0137
  1293.7500     29.5398   -105.7237      1.1071     47.8559
  1294.0000     32.8018   -101.9273      1.6703     46.6584
  1294.2500     33.3117    -98.9042      1.6058     47.3678
  1294.5000     31.1313    -96.5842      0.9575     50.1323
  1294.7500     26.9706    -94.8414      0.4588     52.3581
  1295.0000     21.9206    -93.5399      0.1889     54.8193
  1295.2500     17.0467    -92.5420      0.0658     55.4410
