~Version Information
VERS.                      2.0: CWLS Log ASCII Standard - VERSION 2.0
WRAP.                       NO: One line per depth step
~Well Information Block
STRT.FT                -5.2500: 
STOP.FT              1184.2500: 
STEP.FT                 0.2500: 
NULL.                -999.2500: 
COMP.          Pioneer Natural Resources: COMPANY
WELL.          Lucky Lady 42-29: WELL
FLD.           Purgatoire River: FIELD
LOC.           2482' FNL & 662' FEL: LOCATION
CNTY.               Las Animas: COUNTY
SRVC.                         : SERVICE COMPANY
DATE.          Tue Mar 14 14:47:22 2006: LOG DATE
UWI.           05 071 08659 00: UNIQUE WELL ID
STAT.                       CO: STATE
~Curve Information Block
DEPT.FT            0 000 00 00: Depth
GR.GAPI                       : Gamma Ray
CCL.                          : Casing Collar Locator
TT3.usec                      : CBL 3' Travel Time
AMP3.mV                       : CBL 3' Amplitude
~Parameter Information Block
~A  Depth        GR         CCL         TT3         AMP3    
# ...
   865.7500     69.9265      0.0000    667.0983      8.0311
   866.0000     68.5055      0.0000    660.6569      7.9875
   866.2500     66.5518      0.0000    652.4947      8.0051
   866.5000     64.3257      0.0000    648.3266      8.0480
   866.7500     62.2489     -1.5057    651.2924      8.0923
   867.0000     60.7366      0.0000    658.9450      8.1532
   867.2500     60.0277      0.0000    664.7249      8.2846
   867.5000     60.2316      0.0000    664.0504      8.5394
   867.7500     61.5697      0.0000    659.7830      8.8987
   868.0000     64.2653      0.0000    660.6384      9.2546
   868.2500     68.0034      0.0000    672.5447      9.5029
   868.5000     71.8796      0.0000    692.3359      9.6299
   868.7500     75.0737      0.0000    711.3663      9.6838
   869.0000     77.2183      0.0000    723.8470      9.6990
   869.2500     78.0252      0.0000    730.1285      9.6893
   869.5000     77.1379      0.0000    733.7344      9.6814
   869.7500     74.7645      0.0000    737.2064      9.7141
   870.0000     72.2783      0.0000    739.5801      9.8080
   870.2500     71.8577      0.0000    735.6183      9.9534
   870.5000     75.2962      0.0000    717.3506     10.1286
   870.7500     82.8584      0.0000    678.7968     10.3161
   871.0000     93.1127      0.0000    622.0038     10.5006
   871.2500    103.8421      0.0000    559.0790     10.6654
   871.5000    113.1561      0.0000    506.0366     10.8028
   871.7500    119.8865      0.0000    472.7157     10.9215
   872.0000    123.3787      0.0000    458.1636     11.0400
   872.2500    123.3836      0.0000    454.9646     11.1746
   872.5000    120.3084      0.0000    457.0944     11.3193
   872.7500    115.3655      0.0000    463.9986     11.4354
   873.0000    110.1393      0.0000    477.7651     11.4794
   873.2500    105.8243      0.0000    496.3216     11.4461
   873.5000    102.8572      0.0000    510.1853     11.3681
   873.7500    101.0867      0.0000    508.0963     11.2772
   874.0000    100.1069      0.0000    487.1645     11.1924
   874.2500     99.4804      0.0000    456.4081     11.1427
   874.5000     98.9258      0.0000    429.4691     11.1717
   874.7500     98.5524      0.0000    414.6090     11.3012
   875.0000     98.9733      0.0000    411.2517     11.4971
   875.2500    100.9307      0.0000    413.3793     11.6738
   875.5000    104.6740      0.0000    414.7033     11.7447
   875.7500    109.7594      0.0000    412.0579     11.6849
   876.0000    115.3039      0.0000    406.0277     11.5484
   876.2500    120.0108      0.0000    399.3583     11.4189
   876.5000    122.0193      0.0000    395.0919     11.3457
   876.7500    119.5954      0.0000    396.4370     11.3308
   877.0000    112.5915      0.0000    408.0563     11.3594
   877.2500    102.8954      0.0000    435.9070     11.4227
   877.5000     93.1427      0.0000    483.2836     11.5113
   877.7500     85.2076      0.0000    545.4483     11.5996
   878.0000     79.6112      0.0000    609.2498     11.6477
   878.2500     75.5181      0.0000    660.3975     11.6272
   878.5000     71.3440      0.0000    692.1559     11.5515
   878.7500     66.2311      0.0000    707.3642     11.4738
   879.0000     61.0857      0.0000    713.4319     11.4420
   879.2500     57.6375      0.0000    716.5475     11.4562
   879.5000     56.6105      0.0000    719.7815     11.4681
   879.7500     57.3146      0.0000    724.4038     11.4181
   880.0000     58.7666      0.0000    731.0125     11.2793
   880.2500     60.3966      0.0000    739.0903     11.0797
   880.5000     61.6052      0.0000    746.5277     10.8795
   880.7500     61.4506      0.0000    750.3752     10.7245
   881.0000     59.3567      0.0000    747.7163     10.6189
   881.2500     55.9446      0.0000    736.2748     10.5304
   881.5000     52.8340      0.0000    716.2002     10.4070
   881.7500     51.5440      0.0000    692.0610     10.2000
   882.0000     52.4810      0.0000    670.0967      9.8959
   882.2500     54.7894      0.0000    650.5141      9.5317
   882.5000     57.0837      0.0000    624.6901      9.1719
   882.7500     58.4263      0.0000    584.1316      8.8684
   883.0000     58.6594      0.0000    531.6146      8.6350
   883.2500     57.9521      0.0000    480.7022      8.4500
   883.5000     56.4780      0.0000    445.3674      8.2818
   883.7500     54.7765      0.0000    432.9158      8.1217
   884.0000     53.8894      0.0000    445.2440      7.9932
   884.2500     54.4213      0.0000    481.2423      7.9267
   884.5000     55.5321      0.0000    534.4203      7.9301
   884.7500     55.3974      0.0000    590.3781      7.9837
   885.0000     52.9537      0.0000    630.9612      8.0576
   885.2500     49.0208      0.0000    643.0270      8.1318
   885.5000     45.5369      0.0000    623.8057      8.2038
   885.7500     43.8904      0.0000    580.3589      8.2807
   886.0000     44.2038      0.0000    525.9330      8.3678
   886.2500     45.9258      0.0000    474.6102      8.4649
   886.5000     48.5926      0.0000    435.5869      8.5678
   886.7500     51.9294      0.0000    410.9798      8.6685
   887.0000     55.4535      0.0000    398.2809      8.7584
   887.2500     58.2581      0.0000    393.6943      8.8399
   887.5000     59.4541      0.0000    393.7505      8.9315
   887.7500     58.9276      0.0000    396.4924      9.0510
   888.0000     57.5061      0.0000    403.4261      9.1862
   888.2500     56.3819      0.0000    420.2916      9.2915
   888.5000     56.4131      0.0000    453.6054      9.3215
   888.7500     57.5490      0.0000    503.9367      9.2679
   889.0000     58.5900      0.0000    562.2606      9.1650
   889.2500     58.0018      0.0000    614.7953      9.0605
   889.5000     55.5219      0.0000    652.3733      8.9803
   889.7500     52.6824      0.0000    674.7823      8.9175
   890.0000     51.2862      0.0000    687.2388      8.8503
   890.2500     51.6019      0.0000    694.9307      8.7664
   890.5000     52.4830      0.0000    700.9340      8.6763
   890.7500     53.0293      0.0000    707.0109      8.6107
   891.0000     53.6103      0.0000    714.4230      8.6029
   891.2500     55.3950      0.0000    723.3995      8.6597
   891.5000     59.4183      0.0000    732.1854      8.7515
   891.7500     66.1794      0.0000    737.6714      8.8390
   892.0000     75.6704      0.0000    737.9412      8.9094
   892.2500     87.4190      0.0000    734.1022      8.9865
   892.5000    100.3694      0.0000    729.1461      9.1133
   892.7500    112.6512      0.0000    725.1088      9.3275
   893.0000    121.6872      0.0000    721.7357      9.6326
   893.2500    125.2735      0.0000    717.9252      9.9782
   893.5000    123.1047      0.0000    713.9625     10.2775
   893.7500    117.3079      0.0000    711.5574     10.4650
   894.0000    111.3538      0.0000    711.1637     10.5404
   894.2500    108.1538      0.0000    709.0933     10.5514
   894.5000    108.6797      0.0000    697.6970     10.5399
   894.7500    111.8542      0.0000    670.0292     10.5133
   895.0000    115.5628      0.0000    626.3922     10.4674
   895.2500    118.1760      0.0000    576.4094     10.4173
   895.5000    119.5840      0.0000    533.3607     10.3933
   895.7500    120.7934      0.0000    506.1497     10.4068
   896.0000    122.4895      0.0000    496.8905     10.4343
   896.2500    124.2693      0.0000    504.2697     10.4340
   896.5000    125.2831      0.0000    525.8360     10.3790
   896.7500    125.3194      0.0000    555.4338     10.2752
   897.0000    125.0768      0.0000    580.3776     10.1498
   897.2500    125.5277      0.0000    585.4271     10.0235
   897.5000    127.1221      0.0000    562.9800      9.8999
   897.7500    129.4391      0.0000    520.1223      9.7729
   898.0000    131.2924      0.0000    474.8755      9.6342
   898.2500    131.1844      0.0000    444.7313      9.4717
   898.5000    128.1551      0.0000    436.9949      9.2738
   898.7500    122.5728      0.0000    446.4300      9.0454
   899.0000    115.9960      0.0000    459.4730      8.8182
