~Version Information
VERS.                      2.0: CWLS Log ASCII Standard - VERSION 2.0
WRAP.                       NO: One line per depth step
~Well Information Block
STRT.FT               -16.2500: 
STOP.FT               938.7500: 
STEP.FT                 0.2500: 
NULL.                -999.2500: 
COMP.          XTO Energy Inc.: COMPANY
WELL.          Golden Eagle 20-04: WELL
FLD.           Purgatrorie River: FIELD
LOC.           702' FNL & 487' FWL--: LOCATION
STAT.                       CO: PROVINCE
CNTY.               Las Animas: COUNTY
CTRY. USA : Country
SECT. 20 : Section 
TOWN. 33S : Township
RANG. 67W : Range
SRVC.          Patterson Wireline: SERVICE COMPANY
DATE.          Mon Dec 05 10:32:54 2005: LOG DATE
API.           05 071 08599 00: UNIQUE WELL ID
~Curve Information Block
DEPT.FT            0 000 00 00: Depth
CCL.                          : Casing Collar Locator
TT3.usec                      : CBL 3' Travel Time
AMP3.mV                       : CBL 3' Amplitude
GR.GAPI                       : Gamma Ray
~Parameter Information Block
~A  Depth       CCL         TT3         AMP3         GR     
# ...
   117.7500      0.0000    478.4064     10.9269    130.0491
   118.0000      0.0000    470.5061     10.5966    132.8870
   118.2500      0.0000    466.7560     10.3845    138.6710
   118.5000      0.0000    467.2588     10.2604    145.5403
   118.7500      0.0000    471.8890     10.1714    150.3111
   119.0000      0.0000    479.8294     10.0743    151.0077
   119.2500      0.0000    489.2649      9.9511    148.4789
   119.5000      0.0000    498.1563      9.8063    145.1261
   119.7500      0.0000    505.7933      9.6554    142.5677
   120.0000      0.0000    513.5876      9.5147    141.1024
   120.2500      0.0000    523.8660      9.3927    140.7970
   120.5000      0.0000    537.1293      9.2879    142.0753
   120.7500      0.0000    550.2132      9.1955    145.0313
   121.0000      0.0000    558.2349      9.1172    148.6116
   121.2500      0.0000    559.4964      9.0659    150.8927
   121.5000      0.0000    558.0652      9.0596    150.3809
   121.7500      0.0000    560.8204      9.1071    147.1689
   122.0000      0.0000    572.2316      9.1950    143.0338
   122.2500      0.0000    591.6362      9.2922    140.5386
   122.5000      0.0000    614.1367      9.3668    141.6560
   122.7500      0.0000    633.8057      9.4039    146.5219
   123.0000      0.0000    647.0142      9.4074    153.0699
   123.2500      0.0000    653.4579      9.3881    158.0086
   123.5000      0.0000    654.4506      9.3487    158.7259
   123.7500      0.0000    650.7502      9.2820    154.9599
   124.0000      0.0000    642.2546      9.1843    149.0303
   124.2500      0.0000    629.5724      9.0686    144.2806
   124.5000      0.0000    615.4510      8.9630    142.8186
   124.7500      0.0000    604.2382      8.8914    144.3948
   125.0000      0.0000    599.7872      8.8564    147.3307
   125.2500      0.0000    603.6220      8.8381    150.2906
   125.5000      0.0000    614.3153      8.8138    152.8927
   125.7500      0.0000    628.0735      8.7850    154.9072
   126.0000      0.0000    640.5421      8.7881    155.7089
   126.2500      0.0000    648.9903      8.8730    154.8236
   126.5000      0.0000    653.1645      9.0639    152.4574
   126.7500      0.0000    654.2741      9.3386    149.2377
   127.0000      0.0000    653.3149      9.6454    145.6294
   127.2500      0.0000    649.9220      9.9362    141.6985
   127.5000      0.0000    642.2730     10.1780    137.5434
   127.7500      0.0000    628.6199     10.3381    134.0269
   128.0000      0.0000    610.3144     10.3677    132.6678
   128.2500      0.0000    593.6323     10.2083    134.1815
   128.5000      0.0000    586.8752      9.8230    137.2549
   128.7500      0.0000    593.9322      9.2365    139.4574
   129.0000      0.0000    610.8142      8.5445    139.5404
   129.2500      0.0000    629.1453      7.8651    138.3673
   129.5000      0.0000    642.5978      7.2714    137.4454
   129.7500      0.0000    649.8168      6.7777    136.9578
   130.0000      0.0000    652.7123      6.3865    135.4128
   130.2500      0.0000    653.6109      6.1307    131.0280
   130.5000      0.0000    653.8981      6.0648    123.6086
   130.7500      0.0000    654.0627      6.2219    115.4298
   131.0000      0.0000    654.1525      6.5798    110.0128
   131.2500      0.0000    654.1151      7.0661    109.5539
   131.5000      0.0000    653.9547      7.5940    113.2464
   131.7500      0.0000    653.7382      8.0916    117.8644
   132.0000      0.0000    653.5349      8.4956    119.9592
   132.2500      0.0000    653.3777      8.7339    118.0325
   132.5000      0.0000    653.2794      8.7405    113.3159
   132.7500      0.0000    653.2511      8.5016    108.7016
   133.0000      0.0000    653.2881      8.0829    106.5371
   133.2500      0.0000    653.3519      7.6062    107.0227
   133.5000      0.0000    653.3816      7.1950    108.5307
   133.7500      0.0000    653.3195      6.9239    109.1955
   134.0000      0.0000    653.1299      6.7859    108.1262
   134.2500      0.0000    652.8240      6.6950    105.6351
   134.5000      0.0000    652.4944      6.5345    102.8096
   134.7500      0.0000    652.3270      6.2344    100.7981
   135.0000      0.0000    652.5359      5.8172    100.1527
   135.2500      0.0000    653.2271      5.3773    100.6568
   135.5000      0.0000    654.2894      5.0138    101.7945
   135.7500      0.0000    655.4263      4.7732    103.5163
   136.0000      0.0000    656.3193      4.6450    106.5582
   136.2500      0.0000    656.7788      4.5992    111.9715
   136.5000      0.0000    656.7614      4.6189    120.3148
   136.7500      0.0000    656.3116      4.6974    131.1546
   137.0000      0.0000    655.5637      4.8258    142.9802
   137.2500      0.0000    654.7675      4.9941    153.3610
   137.5000      0.0000    654.1909      5.1983    159.5101
   137.7500      0.0000    653.9528      5.4258    159.5077
   138.0000      0.0000    653.9988      5.6339    153.5872
   138.2500      0.0000    654.2224      5.7630    144.2267
   138.5000      0.0000    654.5447      5.7813    134.7793
   138.7500      0.0000    654.8896      5.7036    127.8564
   139.0000      0.0000    655.1627      5.5676    124.5467
   139.2500      0.0000    655.2916      5.4115    124.6324
   139.5000      0.0000    655.2739      5.2736    127.3690
   139.7500      0.0000    655.1706      5.1896    132.0151
   140.0000      0.0000    655.0575      5.1717    137.6499
   140.2500      0.0000    654.9800      5.1943    142.8098
   140.5000      0.0000    654.9431      5.2148    145.7003
   140.7500      0.0000    654.9350      5.2157    145.0330
   141.0000      0.0000    654.9620      5.2265    140.8775
   141.2500      0.0000    655.0562      5.2987    134.7793
   141.5000      0.0000    655.2348      5.4568    128.7919
   141.7500      0.0000    655.4468      5.6717    124.0923
   142.0000      0.0000    655.5822      5.8810    120.5047
   142.2500      0.0000    655.5591      6.0307    117.2937
   142.5000      0.0000    655.3914      6.0986    114.1883
   142.7500      0.0000    655.1579      6.0920    111.5694
   143.0000      0.0000    654.9296      6.0359    109.9108
   143.2500      0.0000    654.7362      5.9634    109.3525
   143.5000      0.0000    654.5786      5.9039    109.7951
   143.7500      0.0000    654.4474      5.8723    111.1534
   144.0000      0.0000    654.3391      5.8689    113.2247
   144.2500      0.0000    654.2667      5.8937    115.3274
   144.5000      0.0000    654.2537      5.9537    116.5887
   144.7500      0.0000    654.3101      6.0485    116.7642
   145.0000      0.0000    654.4121      6.1550    116.1842
   145.2500      0.0000    654.5127      6.2425    114.7473
   145.5000      0.0000    654.5797      6.3070    111.8680
   145.7500      0.0000    654.6258      6.3801    107.8966
   146.0000      0.0000    654.6888      6.4984    104.7476
   146.2500      0.0000    654.7780      6.6628    104.3562
   146.5000      0.0000    654.8477      6.8230    106.7935
   146.7500      0.0000    654.8206      6.9012    110.2955
   147.0000      0.0000    654.6315      6.8430    113.0841
   147.2500      0.0000    654.2628      6.6534    114.9072
   147.5000      0.0000    653.7700      6.3782    116.6448
   147.7500      0.0000    653.2697      6.0534    118.7646
   148.0000      0.0000    652.8746      5.6922    120.7385
   148.2500      0.0000    652.6241      5.3207    121.8832
   148.5000      0.0000    652.4672      5.0126    122.1056
   148.7500      0.0000    652.2700      4.8811    121.7027
   149.0000      0.0000    651.7811      5.0316    120.9828
   149.2500      0.0000    650.4571      5.5035    120.3131
   149.5000      0.0000    647.2300      6.2375    120.2824
   149.7500      0.0000    640.5281      7.1000    121.7145
   150.0000      0.0000    628.9717      7.9574    125.3940
   150.2500      0.0000    612.6511      8.7449    131.2921
   150.5000      0.0000    593.7770      9.4777    138.0777
   150.7500      0.0000    575.3598     10.2123    144.0552
   151.0000      0.0000    558.8243     10.9984    148.5361
