~Version Information
VERS.                      2.0: CWLS Log ASCII Standard - VERSION 2.0
WRAP.                       NO: One line per depth step
~Well Information Block
STRT.FT                10.0000: 
STOP.FT              1360.0000: 
STEP.FT                 0.1000: 
NULL.                -999.2500: 
COMP.          Pioneer Natural Resources: COMPANY
WELL.              Geyser 41-2: WELL
FLD.           Purgatorie River: FIELD
LOC.           506' FNL & 1127' FEL: LOCATION
PROV.                 Colorado: PROVINCE
CNTY.               Las Animas: COUNTRY
SRVC.                Patterson: SERVICE COMPANY
DATE.          Thu Dec 01 07:38:14 2005: LOG DATE
UWI.                          : UNIQUE WELL ID
~Curve Information Block
DEPT.FT            0 000 00 00: Depth
DCAL.in                       : CDL Caliper
RHOB.g/cc                     : CDL Bulk Density
RHOC.g/cc                     : CDL Density Correction
DPOR.pu                       : CDL Density Porosity
GR.GAPI                       : Gamma Ray
NPOR.pu                       : Neutron Porosity
~Parameter Information Block
~A  Depth       DCAL        RHOB        RHOC        DPOR         GR         NPOR    
# ...
    96.4000      2.7444      0.5116      1.7415     -0.0428    153.6308     26.9721
    96.5000      2.7444      0.5218      1.7592     -0.0426    151.2549     27.5800
    96.6000      2.7444      0.5222      1.7089     -0.0426    148.9260     28.2963
    96.7000      2.7444      0.5208      1.7266     -0.0426    149.7039     29.0222
    96.8000      2.7444      0.5202      1.7133     -0.0426    153.8386     29.5717
    96.9000      2.7444      0.5180      1.7246     -0.0427    158.2096     29.7004
    97.0000      2.7444      0.5162      1.7013     -0.0427    160.2924     29.5991
    97.1000      2.7444      0.5217      1.7218     -0.0426    160.7982     29.8930
    97.2000      2.7444      0.5410      1.7195     -0.0422    161.3684     30.9101
    97.3000      2.7444      0.5717      1.7699     -0.0416    161.9594     32.2717
    97.4000      2.7444      0.6034      1.7850     -0.0410    159.9310     33.4746
    97.5000      2.7444      0.6335      1.7541     -0.0404    154.9522     34.4139
    97.6000      2.7444      0.6693      1.7927     -0.0396    150.2077     35.3378
    97.7000      2.7444      0.7110      1.8228     -0.0388    147.0202     36.4455
    97.8000      2.7444      0.7479      1.8638     -0.0381    146.1921     37.2498
    97.9000      2.7444      0.7711      1.8367     -0.0376    146.8691     37.0345
    98.0000      2.7444      0.7810      1.8515     -0.0374    146.1458     35.9929
    98.1000      2.7444      0.7801      1.8434     -0.0374    144.0526     34.8345
    98.2000      2.7444      0.7650      1.8586     -0.0377    144.3558     33.7692
    98.3000      2.7444      0.7315      1.8407     -0.0384    148.6891     32.7095
    98.4000      2.7444      0.6867      1.7788     -0.0393    152.2115     31.8611
    98.5000      2.7444      0.6442      1.7937     -0.0401    152.2891     31.4575
    98.6000      2.7444      0.6103      1.7770     -0.0408    151.9555     31.1842
    98.7000      2.7444      0.5867      1.7542     -0.0413    152.2868     30.6218
    98.8000      2.7444      0.5728      1.7678     -0.0416    152.2764     29.7896
    98.9000      2.7444      0.5662      1.7363     -0.0417    151.8526     29.1424
    99.0000      2.7444      0.5667      1.7666     -0.0417    152.3058     29.1757
    99.1000      2.7444      0.5718      1.7706     -0.0416    154.3186     29.6499
    99.2000      2.7444      0.5806      1.7480     -0.0414    157.9094     29.9408
    99.3000      2.7444      0.5917      1.8081     -0.0412    161.5471     29.9998
    99.4000      2.7444      0.5961      1.7870     -0.0411    162.2047     30.1211
    99.5000      2.7444      0.5876      1.8190     -0.0413    160.5761     30.3101
    99.6000      2.7444      0.5715      1.7590     -0.0416    157.5130     30.0874
    99.7000      2.7444      0.5635      1.7258     -0.0418    154.1808     29.4495
    99.8000      2.7444      0.5638      1.8152     -0.0417    153.5375     29.3143
    99.9000      2.7444      0.5558      1.7527     -0.0419    152.9773     29.9449
   100.0000      2.7444      0.5388      1.7384     -0.0422    149.6314     30.3771
   100.1000      2.7444      0.5245      1.7301     -0.0425    146.5373     30.0988
   100.2000      2.7444      0.5168      1.7327     -0.0427    146.1891     29.6522
   100.3000      2.7444      0.5145      1.7204     -0.0427    147.5048     29.4471
   100.4000      2.7444      0.5156      1.7268     -0.0427    148.1419     29.5649
   100.5000      2.7444      0.5184      1.7135     -0.0427    147.7430     29.9267
   100.6000      2.7444      0.5210      1.7273     -0.0426    148.6380     30.1187
   100.7000      2.7444      0.5248      1.6903     -0.0425    150.6276     30.0887
   100.8000      2.7444      0.5382      1.7138     -0.0423    149.9066     29.9639
   100.9000      2.7444      0.5637      1.7540     -0.0417    146.3159     29.6885
   101.0000      2.7444      0.5888      1.7944     -0.0412    144.6378     29.2669
   101.1000      2.7444      0.6004      1.7996     -0.0410    148.2190     28.7216
   101.2000      2.7444      0.6009      1.7679     -0.0410    153.4398     28.1408
   101.3000      2.7444      0.5994      1.7936     -0.0410    155.4223     27.9611
   101.4000      2.7444      0.5971      1.7813     -0.0411    156.4718     28.4328
   101.5000      2.7444      0.5951      1.7862     -0.0411    159.5198     29.0217
   101.6000      2.7444      0.6015      1.7456     -0.0410    160.6307     28.8551
   101.7000      2.7444      0.6182      1.8166     -0.0407    155.1280     28.0892
   101.8000      2.7444      0.6317      1.8246     -0.0404    146.9430     27.8355
   101.9000      2.7444      0.6345      1.8103     -0.0403    143.3030     28.2672
   102.0000      2.7444      0.6339      1.8048     -0.0403    145.7404     28.6580
   102.1000      2.7444      0.6386      1.7902     -0.0402    150.9016     28.8356
   102.2000      2.7444      0.6437      1.8451     -0.0401    155.0465     29.0623
   102.3000      2.7444      0.6330      1.8581     -0.0404    157.5344     29.2580
   102.4000      2.7444      0.6064      1.7688     -0.0409    159.9483     29.2211
   102.5000      2.7444      0.5850      1.7748     -0.0413    160.2316     29.1329
   102.6000      2.7444      0.5776      1.7700     -0.0415    157.0100     29.1945
   102.7000      2.7444      0.5733      1.7968     -0.0416    154.2048     29.2570
   102.8000      2.7444      0.5647      1.7457     -0.0417    154.0883     29.3440
   102.9000      2.7444      0.5555      1.7648     -0.0419    155.4712     29.7434
   103.0000      2.7444      0.5490      1.7570     -0.0420    156.1751     30.1668
   103.1000      2.7444      0.5459      1.7429     -0.0421    154.0242     29.8636
   103.2000      2.7444      0.5465      1.7408     -0.0421    150.0934     28.7681
   103.3000      2.7444      0.5487      1.7571     -0.0420    148.0183     27.8421
   103.4000      2.7444      0.5496      1.7451     -0.0420    146.2846     27.8892
   103.5000      2.7444      0.5490      1.7565     -0.0420    142.3074     28.3260
   103.6000      2.7444      0.5495      1.7217     -0.0420    141.6933     28.6078
   103.7000      2.7444      0.5557      1.7374     -0.0419    149.3598     29.0786
   103.8000      2.7444      0.5685      1.7414     -0.0417    159.2126     29.5100
   103.9000      2.7444      0.5843      1.7810     -0.0413    162.0241     29.5165
   104.0000      2.7444      0.5990      1.7778     -0.0410    158.5576     29.4582
   104.1000      2.7444      0.6127      1.7758     -0.0408    155.4578     29.5644
   104.2000      2.7444      0.6245      1.8005     -0.0405    154.6639     29.6276
   104.3000      2.7444      0.6308      1.7933     -0.0404    155.0760     29.4405
   104.4000      2.7444      0.6369      1.7731     -0.0403    155.5361     28.9718
   104.5000      2.7444      0.6497      1.7982     -0.0400    152.7784     28.5819
   104.6000      2.7444      0.6629      1.8309     -0.0398    145.3653     28.4506
   104.7000      2.7444      0.6695      1.8055     -0.0396    139.3640     28.3506
   104.8000      2.7444      0.6742      1.8226     -0.0395    140.2249     28.2534
   104.9000      2.7444      0.6836      1.8078     -0.0393    143.8764     28.3197
   105.0000      2.7444      0.6978      1.8387     -0.0391    143.4810     28.5452
   105.1000      2.7444      0.7137      1.8374     -0.0387    140.4621     28.7381
   105.2000      2.7444      0.7303      1.8707     -0.0384    139.3506     28.7727
   105.3000      2.7444      0.7459      1.8745     -0.0381    139.0623     28.6094
   105.4000      2.7444      0.7585      1.8873     -0.0379    136.4486     28.1668
   105.5000      2.7444      0.7679      1.9017     -0.0377    133.1547     27.5703
   105.6000      2.7444      0.7729      1.8997     -0.0376    132.8340     26.9755
   105.7000      2.7444      0.7713      1.8990     -0.0376    133.3223     26.5161
   105.8000      2.7444      0.7638      1.8924     -0.0377    130.7711     26.2047
   105.9000      2.7444      0.7566      1.8542     -0.0379    126.2525     25.9553
