~Version Information
 VERS.                                  2.0 : CWLS LAS VERSION
 WRAP.                                   NO : WRAPING MODE
 SWARE .                 MController 2.5.0N : SOFTWARE VERSION
~Well Information
 WELL.                       ALABASTER 11-8 : WELL
 COMP.    PIONEER NATURAL RESOURCES USA INC : COMPANY
 FLD.                      PURGATOIRE RIVER : FIELD
 LOC.                 NW/NW SEC 8 T33S R66W : LOCATION
 DATE.                             01/18/06 : DATE(S) LOGGED
 SRVC.       BLANCO GEOLOGICAL SERVICES LLC : SERVICE COMPANY
 STAT.                             COLORADO : STATE
 CNTY.                           LAS ANIMAS : COUNTY
 CTRY.                                  USA : COUNTRY
 API.                       05-071-08642-00 : API NUMBER
 STRT.FT                             555.00 : START DEPTH
 STOP.FT                            2045.00 : STOP DEPTH
 STEP.FT                               1.00 : DEPTH INCREMENT
 NULL.                                -9999 : NULL VALUE
~Curve information
 DEPTH.FT                                   :
 ROP.MIN/FT                                 :
 GAS.UNITS                                  :
~ASCII Log data
# ...
      1555.0         0.23         12.5 
      1556.0         1.58         18.1 
      1557.0         0.33          4.6 
      1558.0         0.30          4.5 
      1559.0         0.27          4.7 
      1560.0         0.37          4.5 
      1561.0         0.27          4.4 
      1562.0         0.20          5.0 
      1563.0         0.20          6.8 
      1564.0         0.23          8.1 
      1565.0         0.23          9.0 
      1566.0         0.23         10.2 
      1567.0         0.22         11.2 
      1568.0         0.13         11.2 
      1569.0         0.13         11.0 
      1570.0         0.13         10.5 
      1571.0         0.23         12.4 
      1572.0         0.23         12.5 
      1573.0         0.30         10.6 
      1574.0         0.27         10.6 
      1575.0         0.30         11.8 
      1576.0         0.27         12.9 
      1577.0         0.30         14.9 
      1578.0         0.30         15.0 
      1579.0         0.27         13.0 
      1580.0         0.32         12.5 
      1581.0         0.27         12.0 
      1582.0         0.33         11.9 
      1583.0         0.27         13.7 
      1584.0         0.13         13.5 
      1585.0         0.13         13.6 
      1586.0         1.80         20.8 
      1587.0         0.68          4.5 
      1588.0         0.33          7.2 
      1589.0         0.47          9.5 
      1590.0         0.90         16.6 
      1591.0         0.40         16.2 
      1592.0         0.33          8.9 
      1593.0         0.30         10.6 
      1594.0         0.35         11.7 
      1595.0         0.33         13.2 
      1596.0         0.33         13.8 
      1597.0         0.33         14.0 
      1598.0         0.30         13.7 
      1599.0         0.27         13.5 
      1600.0         0.37         13.3 
      1601.0         0.23         12.9 
      1602.0         0.27         13.4 
      1603.0         0.27         12.8 
      1604.0         0.17         12.3 
      1605.0         0.17         12.1 
      1606.0         0.07         11.7 
      1607.0         0.10         11.9 
      1608.0         0.12         11.9 
      1609.0         0.07         11.7 
      1610.0         0.03         11.7 
      1611.0         0.10         11.7 
      1612.0         0.17         12.4 
      1613.0         0.07         12.9 
      1614.0         0.27         12.5 
      1615.0         0.23         13.8 
      1616.0         4.08         19.3 
      1617.0         0.40          4.7 
      1618.0         0.13          4.7 
      1619.0         0.17          4.7 
      1620.0         0.23          4.9 
      1621.0         0.23          8.1 
      1622.0         0.20          8.9 
      1623.0         0.25          9.5 
      1624.0         0.30          9.9 
      1625.0         0.20         11.5 
      1626.0         0.17         13.5 
      1627.0         0.17         14.4 
      1628.0         0.23         15.6 
      1629.0         0.13         17.1 
      1630.0         0.13         19.3 
      1631.0         0.20         20.3 
      1632.0         0.23         21.2 
      1633.0         0.20         24.0 
      1634.0         0.23         24.8 
      1635.0         0.27         21.7 
      1636.0         0.07         20.2 
      1637.0         0.03         20.4 
      1638.0         0.60         23.0 
      1639.0         0.42         22.2 
      1640.0         0.33         15.8 
      1641.0         0.37         12.6 
      1642.0         0.30         13.9 
      1643.0         0.20         14.6 
      1644.0         0.27         14.9 
      1645.0         0.27         16.5 
      1646.0         2.02         34.8 
      1647.0         0.33          4.8 
      1648.0         0.37          4.7 
      1649.0         0.23          5.1 
      1650.0         0.20          4.6 
      1651.0         0.27         10.2 
      1652.0         0.17         12.8 
      1653.0         0.20         18.0 
      1654.0         0.17         21.7 
      1655.0         0.13         22.6 
      1656.0         0.20         23.1 
      1657.0         0.23         21.5 
      1658.0         0.18         19.4 
      1659.0         0.20         20.0 
      1660.0         0.20         20.0 
      1661.0         0.20         22.2 
      1662.0         0.27         24.1 
      1663.0         0.20         24.8 
      1664.0         0.13         25.7 
      1665.0         0.20         26.7 
      1666.0         0.23         26.6 
      1667.0         0.37         25.2 
      1668.0         0.30         23.9 
      1669.0         0.30         23.2 
      1670.0         0.30         21.7 
      1671.0         0.37         20.9 
      1672.0         0.35         20.3 
      1673.0         0.33         20.5 
      1674.0         0.30         19.9 
      1675.0         0.33         25.3 
      1676.0         1.57         33.1 
      1677.0         0.55          4.7 
      1678.0         0.47          4.6 
      1679.0         0.37          4.9 
      1680.0         0.33          5.0 
      1681.0         0.37         11.0 
      1682.0         0.33         14.8 
      1683.0         0.27         16.5 
      1684.0         0.23         17.4 
      1685.0         0.37         18.2 
      1686.0         0.30         18.5 
      1687.0         0.28         17.9 
      1688.0         0.27         17.1 
      1689.0         0.33         19.9 
      1690.0         0.30         20.8 
      1691.0         0.40         20.9 
      1692.0         0.27         21.6 
      1693.0         0.27         21.8 
      1694.0         0.23         19.0 
      1695.0         0.27         19.9 
      1696.0         0.30         20.1 
      1697.0         0.27         20.8 
      1698.0         0.27         20.8 
      1699.0         0.28         19.9 
      1700.0         0.27         18.2 
      1701.0         0.27         18.1 
      1702.0         0.20         18.3 
      1703.0         0.27         17.3 
      1704.0         0.23         15.7 
      1705.0         0.33         23.3 
      1706.0         1.47         29.9 
      1707.0         0.45          4.8 
      1708.0         0.43          4.8 
      1709.0         0.40          4.7 
      1710.0         0.30          4.7 
      1711.0         0.33          7.2 
      1712.0         0.30         11.7 
      1713.0         0.33         13.4 
      1714.0         0.30         14.1 
      1715.0         0.27         15.6 
      1716.0         0.20         16.4 
      1717.0         0.25         16.8 
      1718.0         0.23         17.0 
      1719.0         0.30         17.1 
      1720.0         0.27         18.6 
      1721.0         0.23         19.9 
      1722.0         0.27         21.7 
      1723.0         0.23         21.9 
      1724.0         0.13         22.3 
      1725.0         0.20         22.0 
      1726.0         0.23         21.7 
      1727.0         0.30         21.1 
      1728.0         0.27         20.5 
      1729.0         0.23         20.1 
      1730.0         0.27         19.0 
      1731.0         0.28         19.3 
      1732.0         0.30         18.3 
      1733.0         0.47         18.2 
      1734.0         0.33         20.4 
      1735.0         0.10         20.7 
      1736.0         2.00         30.7 
      1737.0         0.48          4.6 
      1738.0         0.37          4.5 
      1739.0         0.33          4.6 
      1740.0         0.33          4.7 
      1741.0         0.33          7.8 
      1742.0         0.33         14.2 
      1743.0         0.27         15.8 
      1744.0         0.30         17.4 
      1745.0         0.30         17.4 
      1746.0         0.27         18.5 
      1747.0         0.25         18.6 
      1748.0         0.23         18.6 
      1749.0         0.30         19.9 
      1750.0         0.13         20.2 
      1751.0         0.17         20.2 
      1752.0         0.23         22.3 
      1753.0         0.30         22.2 
      1754.0         0.30         22.4 
