~Version Information
VERS.                      2.0: CWLS Log ASCII Standard - VERSION 2.0
WRAP.                       NO: One line per depth step
~Well Information Block
STRT.FT               520.0000: 
STOP.FT              1373.0000: 
STEP.FT                 0.1000: 
NULL.                -999.2500: 
COMP.          Pioneer Natural Resources: COMPANY
WELL.            Gamma 13-3 Tr: WELL
FLD.           Purgatoire River: FIELD
LOC.           2127' FSL & 738' FWL: LOCATION
STAT.                 Colorado: State
CNTY.               Las Animas: COUNTY
CTRY.                      USA: Country
SECT.                        3: Section
TOWN.                       33S: Township
RANG.                       67W: Range
SRVC.                Patterson: SERVICE COMPANY
DATE.          Mon Sep 19 09:58:04 2005: LOG DATE
API.           05 071 08524 00: API
~Curve Information Block
DEPT.FT            0 000 00 00: Depth
DPOR.pu                       : CDL Density Porosity
GR.GAPI                       : Gamma Ray
NPOR.pu                       : Neutron Porosity
RHOB.g/cc                     : CDL Bulk Density
RHOC.g/cc                     : CDL Density Correction
DCAL.in                       : CDL Caliper
~Parameter Information Block
~A  Depth       DPOR         GR         NPOR        RHOB        RHOC        DCAL    
# ...
   913.6000      5.0186    134.3238     25.5463      2.5672      0.0716      8.0633
   913.7000      4.3170    148.6367     25.6754      2.5788      0.0913      8.0633
   913.8000      3.7919    149.3768     25.7118      2.5874      0.0623      8.0699
   913.9000      3.4513    136.7693     25.9224      2.5931      0.0617      8.0699
   914.0000      3.2588    122.7276     26.0317      2.5962      0.0722      8.0717
   914.1000      3.1043    114.3479     25.8700      2.5988      0.0471      8.0717
   914.2000      2.7263    108.1958     25.6056      2.6050      0.0918      8.0717
   914.3000      2.4631    103.2089     25.1569      2.6094      0.0234      8.0698
   914.4000      2.4946    101.9853     24.6327      2.6088      0.0653      8.0698
   914.5000      2.4400    101.8771     24.4922      2.6097      0.0460      8.0640
   914.6000      1.8355     99.4131     24.8763      2.6197      0.0547      8.0640
   914.7000      0.7385     96.9379     25.3794      2.6378      0.0763      8.0640
   914.8000     -0.1808     96.1468     25.7124      2.6530      0.0591      8.0560
   914.9000     -0.4080     94.3616     25.5742      2.6567      0.0280      8.0560
   915.0000     -0.1517     92.6036     24.7994      2.6525      0.0554      8.0504
   915.1000     -0.0761     93.0448     24.1005      2.6513      0.0153      8.0504
   915.2000     -0.4367     92.6408     23.9386      2.6572      0.0859      8.0504
   915.3000     -1.3099     89.6923     23.7735      2.6716      0.0202      8.0487
   915.4000     -2.8680     85.8983     23.2822      2.6973      0.0804      8.0487
   915.5000     -3.5762     82.9564     22.7389      2.7090      0.1313      8.0466
   915.6000     -2.1489     83.1687     22.3072      2.6855      0.0180      8.0466
   915.7000     -0.2196     86.9197     21.8681      2.6536      0.0578      8.0466
   915.8000      1.1265     90.5710     21.3373      2.6314      0.0972      8.0444
   915.9000      2.1777     90.9825     21.0221      2.6141      0.0655      8.0444
   916.0000      2.8792     89.5900     21.3162      2.6025      0.0905      8.0410
   916.1000      3.2600     87.7916     22.0981      2.5962      0.0688      8.0410
   916.2000      2.7571     86.1952     22.8880      2.6045      0.0189      8.0410
   916.3000      1.2729     88.3655     23.2988      2.6290      0.0799      8.0330
   916.4000     -0.3463     93.8044     23.2350      2.6557      0.0480      8.0330
   916.5000     -2.1050     96.4320     23.0027      2.6847      0.0609      8.0325
   916.6000     -3.6312     94.8452     22.9538      2.7099      0.1150      8.0325
   916.7000     -3.7655     93.6572     23.3446      2.7121      0.1017      8.0325
   916.8000     -2.7084     94.7875     24.2512      2.6947      0.0730      8.0391
   916.9000     -1.7987     96.1054     25.2050      2.6797      0.0360      8.0391
   917.0000     -1.3222     97.4759     25.4185      2.6718      0.0340      8.0339
   917.1000     -0.7728     99.0595     24.8098      2.6628     -0.0114      8.0339
   917.2000     -0.1708     99.0719     24.2614      2.6528     -0.0109      8.0339
   917.3000      0.6766     97.3017     24.3862      2.6388      0.0131      8.0261
   917.4000      1.6333     95.7349     24.7713      2.6231     -0.0399      8.0261
   917.5000      1.5631     95.8915     24.8397      2.6242      0.0184      8.0297
   917.6000      0.8588     94.5767     24.6814      2.6358      0.0029      8.0297
   917.7000      1.0734     90.2915     24.7131      2.6323      0.0279      8.0297
   917.8000      2.2112     87.8091     24.8368      2.6135      0.0362      8.0485
   917.9000      2.8480     90.1503     24.8664      2.6030     -0.0157      8.0485
   918.0000      2.3633     95.0960     24.9138      2.6110      0.0184      8.0778
   918.1000      1.9237    100.3576     24.9386      2.6183      0.0086      8.0778
   918.2000      2.8372    103.9949     24.8695      2.6032      0.0167      8.0778
   918.3000      4.7748    103.4886     24.7483      2.5712     -0.0127      8.1038
   918.4000      6.1884    100.5692     24.5650      2.5479     -0.0429      8.1038
   918.5000      6.3811     99.7828     24.3971      2.5447     -0.0593      8.1161
   918.6000      5.8179    102.7562     24.3062      2.5540     -0.0175      8.1161
   918.7000      4.8458    104.0759     24.3529      2.5700     -0.0537      8.1161
   918.8000      3.7376     99.5024     24.5626      2.5883     -0.0033      8.1187
   918.9000      3.2525     92.2864     24.6820      2.5963     -0.0099      8.1187
   919.0000      3.6107     88.7900     24.5459      2.5904     -0.0215      8.1294
   919.1000      3.9838     92.8499     24.4205      2.5843     -0.0234      8.1294
   919.2000      3.8522     99.7849     24.6807      2.5864     -0.0398      8.1294
   919.3000      3.5640    103.3738     25.2586      2.5912      0.0045      8.1464
   919.4000      3.5025    103.8930     25.5968      2.5922      0.0090      8.1464
   919.5000      3.4197    103.5654     25.3699      2.5936      0.0215      8.1610
   919.6000      2.9662    104.8481     24.9118      2.6011     -0.0051      8.1610
   919.7000      2.3066    106.3437     24.7097      2.6119     -0.0063      8.1610
   919.8000      1.7041    105.1225     24.6758      2.6219     -0.0273      8.1623
   919.9000      1.3604    103.0850     24.5581      2.6276      0.0222      8.1623
   920.0000      1.5438    103.8886     24.4926      2.6245     -0.0162      8.1531
   920.1000      2.3364    106.7577     24.6232      2.6115      0.0188      8.1531
   920.2000      3.1453    106.6998     25.0244      2.5981     -0.0140      8.1531
   920.3000      3.0782    104.6975     25.4413      2.5992     -0.0462      8.1473
   920.4000      2.3940    104.8859     25.2743      2.6105     -0.0104      8.1473
   920.5000      2.2283    105.3069     24.5150      2.6132      0.0172      8.1395
   920.6000      2.9945    102.5398     23.6458      2.6006      0.0054      8.1395
   920.7000      4.1102     98.5959     22.9509      2.5822     -0.0085      8.1395
   920.8000      5.2873     96.9448     22.5850      2.5628      0.0294      8.1295
   920.9000      6.8166     99.4342     22.4541      2.5375      0.0131      8.1295
   921.0000      8.7731    105.6435     22.2497      2.5052      0.0220      8.1242
   921.1000     10.8071    112.8168     22.0720      2.4717     -0.0276      8.1242
   921.2000     12.0640    120.0247     22.2260      2.4509     -0.0445      8.1242
   921.3000     12.6236    126.8329     22.3501      2.4417      0.0032      8.1240
   921.4000     14.3934    130.5915     21.7888      2.4125      0.0138      8.1240
   921.5000     18.7017    128.5163     20.4954      2.3414      0.0168      8.1248
   921.6000     24.9551    122.6552     18.7989      2.2382     -0.0119      8.1248
   921.7000     32.2229    116.1817     17.0239      2.1183     -0.0416      8.1248
   921.8000     39.6181    110.6194     15.5917      1.9963     -0.1134      8.1103
   921.9000     46.5809    107.6690     14.6644      1.8814     -0.0762      8.1103
   922.0000     53.6855    103.0618     14.0163      1.7642     -0.0879      8.0909
   922.1000     61.1339     92.4424     13.5156      1.6413     -0.1248      8.0909
   922.2000     67.9771     80.8211     13.1010      1.5284     -0.1552      8.0909
   922.3000     73.7061     74.6368     12.7572      1.4338     -0.1004      8.0936
   922.4000     78.0748     71.4925     12.6370      1.3618     -0.0098      8.0936
   922.5000     79.8209     68.6236     12.6799      1.3330     -0.0183      8.1162
   922.6000     78.5231     67.9347     12.7274      1.3544      0.0857      8.1162
   922.7000     75.7203     67.5465     13.0085      1.4006      0.1105      8.1162
   922.8000     71.9055     65.3008     13.9356      1.4636      0.1419      8.1586
   922.9000     65.6946     64.6704     15.6544      1.5660      0.1656      8.1586
   923.0000     56.9438     69.5149     17.6836      1.7104      0.2350      8.2168
   923.1000     47.7137     74.9322     19.2259      1.8627      0.2666      8.2168
