~Version Information
VERS.                      2.0: CWLS Log ASCII Standard - VERSION 2.0
WRAP.                       NO: One line per depth step
~Well Information Block
STRT.FT                31.2500: 
STOP.FT               700.7500: 
STEP.FT                 0.2500: 
NULL.                -999.2500: 
COMP.          XTO Energy Inc.: COMPANY
WELL.          Golden Eagle 20-14: WELL
FLD.           Purgatrorie River: FIELD
LOC.           587' FSL & 2478' FWL--: LOCATION
STAT.                       CO: State
CNTY.               Las Animas: COUNTY
CTRY. USA : Country
SECT. 20 : Section
TOWN. 33S : Township
RANG. 67W : Range
SRVC.          Patterson Wireline: SERVICE COMPANY
DATE.          Sat Dec 10 15:54:00 2005: LOG DATE
API.           05 071 08614 00: UNIQUE WELL ID
~Curve Information Block
DEPT.FT            0 000 00 00: Depth
CCL.                          : Casing Collar Locator
TT3.usec                      : CBL 3' Travel Time
AMP3.mV                       : CBL 3' Amplitude
GR.GAPI                       : Gamma Ray
~Parameter Information Block
~A  Depth       CCL         TT3         AMP3         GR     
# ...
   131.7500      0.0000    894.0000      2.3988     39.5173
   132.0000      0.0000    894.0000      2.3922     36.9110
   132.2500      0.0000    894.0000      2.3868     35.4040
   132.5000      0.0000    894.0000      2.3838     36.2810
   132.7500      0.0000    894.0000      2.3820     39.8980
   133.0000      0.0000    894.0000      2.3793     44.9887
   133.2500      0.0000    894.0000      2.3749     49.2315
   133.5000      0.0000    894.0000      2.3687     50.7464
   133.7500      0.0000    894.0000      2.3620     49.3001
   134.0000      0.0000    894.0000      2.3580     46.2556
   134.2500      0.0000    894.0000      2.3603     43.3774
   134.5000      0.0000    894.0000      2.3693     41.6688
   134.7500      0.0000    894.0000      2.3813     41.2028
   135.0000      0.0000    894.0000      2.3906     41.6908
   135.2500      0.0000    894.0000      2.3938     42.8907
   135.5000      0.0000    894.0000      2.3926     44.6691
   135.7500      0.0000    894.0000      2.3915     47.1124
   136.0000      0.0000    894.0000      2.3934     50.5358
   136.2500      0.0000    894.0000      2.3966     54.8237
   136.5000      0.0000    894.0000      2.3975     58.5939
   136.7500      0.0000    894.0000      2.3947     59.6336
   137.0000      0.0000    894.0000      2.3892     56.8113
   137.2500      0.0000    894.0000      2.3823     51.5271
   137.5000      0.6754    894.0000      2.3752     46.9219
   137.7500     -1.8829    894.0000      2.3709     45.4564
   138.0000      0.8954    894.0000      2.3723     47.1861
   138.2500      0.0000    894.0000      2.3793     50.1860
   138.5000      0.0000    894.0000      2.3874     52.3424
   138.7500      0.0000    894.0000      2.3911     52.7379
   139.0000      0.0000    894.0000      2.3882     51.8091
   139.2500      0.0000    894.0000      2.3797     50.5303
   139.5000      0.0000    894.0000      2.3684     49.4343
   139.7500      0.0000    894.0000      2.3567     48.3757
   140.0000      0.0000    894.0000      2.3466     47.2288
   140.2500      0.0000    894.0000      2.3414     46.4815
   140.5000      0.0000    894.0000      2.3449     46.8599
   140.7500      0.0000    894.0000      2.3595     48.4699
   141.0000      0.0000    894.0000      2.3833     50.5438
   141.2500      0.0000    894.0000      2.4086     52.0811
   141.5000      0.0000    894.0000      2.4253     52.5405
   141.7500      0.0000    894.0000      2.4280     51.8448
   142.0000      0.0000    894.0000      2.4196     50.0587
   142.2500      0.0000    894.0000      2.4088     47.4168
   142.5000      0.0000    894.0000      2.4042     44.5084
   142.7500      0.0000    894.0000      2.4080     42.1000
   143.0000      0.0000    894.0000      2.4165     40.6844
   143.2500      0.0000    894.0000      2.4241     40.2023
   143.5000      0.0000    894.0000      2.4259     40.1102
   143.7500      0.0000    894.0000      2.4194     39.7850
   144.0000      0.0000    894.0000      2.4046     39.1377
   144.2500      0.0000    894.0000      2.3845     38.7924
   144.5000      0.0000    894.0000      2.3645     39.3145
   144.7500      0.0000    894.0000      2.3513     40.3209
   145.0000      0.0000    894.0000      2.3499     40.7629
   145.2500      0.0000    894.0000      2.3585     40.0361
   145.5000      0.0000    894.0000      2.3699     38.4227
   145.7500      0.0000    894.0000      2.3764     36.6190
   146.0000      0.0000    894.0000      2.3758     35.2874
   146.2500      0.0000    894.0000      2.3709     34.9550
   146.5000      0.0000    894.0000      2.3661     35.8188
   146.7500      0.0000    894.0000      2.3645     37.4891
   147.0000      0.0000    894.0000      2.3653     39.2314
   147.2500      0.0000    894.0000      2.3656     40.6860
   147.5000      0.0000    894.0000      2.3638     42.2952
   147.7500      0.0000    894.0000      2.3609     44.9308
   148.0000      0.0000    894.0000      2.3600     49.0897
   148.2500      0.0000    894.0000      2.3630     54.3648
   148.5000      0.0000    894.0000      2.3694     59.7420
   148.7500      0.0000    894.0000      2.3768     64.5387
   149.0000      0.0000    894.0000      2.3828     68.9246
   149.2500      0.0000    894.0000      2.3868     73.4053
   149.5000      0.0000    894.0000      2.3899     78.1181
   149.7500      0.0000    894.0000      2.3938     82.9014
   150.0000      0.0000    894.0000      2.3993     87.5694
   150.2500      0.0000    894.0000      2.4052     91.7098
   150.5000      0.0000    894.0000      2.4087     94.6862
   150.7500      0.0000    894.0000      2.4074     96.3347
   151.0000      0.0000    894.0000      2.4026     97.3916
   151.2500      0.0000    894.0000      2.3990     98.8710
   151.5000      0.0000    894.0000      2.4012    100.9948
   151.7500      0.0000    894.0000      2.4092    102.6013
   152.0000      0.0000    894.0000      2.4172    101.5681
   152.2500      0.0000    894.0000      2.4181     96.3316
   152.5000      0.0000    894.0000      2.4081     87.4366
   152.7500      0.0000    894.0000      2.3894     77.5317
   153.0000      0.0000    894.0000      2.3682     69.7289
   153.2500      0.0000    894.0000      2.3522     65.7429
   153.5000      0.0000    894.0000      2.3457     64.9941
   153.7500      0.0000    894.0000      2.3482     65.1860
   154.0000      0.0000    894.0000      2.3558     64.1123
   154.2500      0.0000    894.0000      2.3638     61.2093
   154.5000      0.0000    894.0000      2.3680     57.3317
   154.7500      0.0000    894.0000      2.3655     53.4604
   155.0000      0.0000    894.0000      2.3569     50.2368
   155.2500      0.0000    894.0000      2.3466     48.4024
   155.5000      0.0000    894.0000      2.3403     48.7240
   155.7500      0.0000    894.0000      2.3412     51.1831
   156.0000      0.0000    894.0000      2.3491     54.6099
   156.2500      0.0000    894.0000      2.3604     57.4777
   156.5000      0.0000    894.0000      2.3712     59.0469
   156.7500      0.0000    894.0000      2.3786     59.6092
   157.0000      0.0000    894.0000      2.3833     59.7258
   157.2500      0.0000    894.0000      2.3889     59.5237
   157.5000      0.0000    894.0000      2.3980     58.6869
   157.7500      0.0000    894.0000      2.4093     56.8707
   158.0000      0.0000    894.0000      2.4187     54.2205
   158.2500      0.0000    894.0000      2.4229     51.6653
   158.5000      0.0000    894.0000      2.4223     50.3482
   158.7500      0.0000    894.0000      2.4190     50.4629
   159.0000      0.0000    894.0000      2.4134     50.8862
   159.2500      0.0000    894.0000      2.4037     50.1735
   159.5000      0.0000    894.0000      2.3895     47.9249
   159.7500      0.0000    894.0000      2.3743     45.4074
   160.0000      0.0000    894.0000      2.3640     44.9576
   160.2500      0.0000    894.0000      2.3614     48.3450
   160.5000      0.0000    894.0000      2.3647     55.3807
   160.7500      0.0000    894.0000      2.3699     64.4375
   161.0000      0.0000    894.0000      2.3743     74.4651
   161.2500      0.0000    894.0000      2.3780     85.8555
   161.5000      0.0000    894.0000      2.3811     98.9896
   161.7500      0.0000    894.0000      2.3832    112.5025
   162.0000      0.0000    894.0000      2.3837    123.6127
   162.2500      0.0000    894.0000      2.3832    130.0491
   162.5000      0.0000    894.0000      2.3832    131.4626
   162.7500      0.0000    894.0000      2.3844    129.2471
   163.0000      0.0000    894.0000      2.3851    125.2946
   163.2500      0.0000    894.0000      2.3831    120.8859
   163.5000      0.0000    894.0000      2.3788    116.8456
   163.7500      0.0000    894.0000      2.3751    114.6772
   164.0000      0.0000    894.0000      2.3745    116.6083
   164.2500      0.0000    894.0000      2.3764    123.5371
   164.5000      0.0000    894.0000      2.3790    133.3158
   164.7500      0.0000    894.0000      2.3821    142.0712
   165.0000      0.0000    894.0000      2.3865    147.3748
