~Version Information
VERS.                      2.0: CWLS Log ASCII Standard - VERSION 2.0
WRAP.                       NO: One line per depth step
~Well Information Block
STRT.FT                 2.0000: 
STOP.FT               698.7500: 
STEP.FT                 0.2500: 
NULL.                -999.2500: 
COMP.          XTO Energy Inc.: COMPANY
WELL.          Golden Eagle 20-14: WELL
FLD.           Purgatrorie River: FIELD
LOC.           587' FSL & 2478' FWL--: LOCATION
STAT.                       CO: State
CNTY.               Las Animas: COUNTY
CTRY. USA : Country
SECT. 20 : Section
TOWN. 33S : Township
RANG. 67W : Range
SRVC.          Patterson Wireline: SERVICE COMPANY
DATE.          Sat Dec 10 16:49:08 2005: LOG DATE
API.           05 071 08614 00: UNIQUE WELL ID
~Curve Information Block
DEPT.FT            0 000 00 00: Depth
MINMK.                        : Magnetic Mark Ticks
TEMP.degF                     : Downhole Temperature
DTMP.degF                     : Delta Temperature
~Parameter Information Block
~A  Depth      MINMK        TEMP        DTMP    
# ...
    85.5000      0.0000     40.2995      0.1688
    85.7500      0.0000     40.3416      0.1679
    86.0000      0.0000     40.3833      0.1671
    86.2500      0.0000     40.4248      0.1663
    86.5000      0.0000     40.4661      0.1708
    86.7500      0.0000     40.5073      0.1704
    87.0000      0.0000     40.5488      0.1699
    87.2500      0.0000     40.5897      0.1696
    87.5000      0.0000     40.6412      0.1694
    87.7500      0.0000     40.6824      0.1692
    88.0000      0.0000     40.7230      0.1687
    88.2500      0.0000     40.7640      0.1684
    88.5000      0.0000     40.8049      0.1628
    88.7500      0.0000     40.8456      0.1622
    89.0000      0.0000     40.8861      0.1617
    89.2500      0.0000     40.9265      0.1611
    89.5000      0.0000     40.9667      0.1606
    89.7500      0.0000     41.0067      0.1599
    90.0000      0.0000     41.0465      0.1592
    90.2500      0.0000     41.0862      0.1588
    90.5000      0.0000     41.1261      0.1585
    90.7500      0.0000     41.1654      0.1629
    91.0000      0.0000     41.2046      0.1626
    91.2500      0.0000     41.2441      0.1625
    91.5000      0.0000     41.2836      0.1621
    91.7500      0.0000     41.3325      0.1617
    92.0000      0.0000     41.3718      0.1618
    92.2500      0.0000     41.4111      0.1614
    92.5000      0.0000     41.4502      0.1609
    92.7500      0.0000     41.4888      0.1557
    93.0000      0.0000     41.5282      0.1600
    93.2500      0.0000     41.5669      0.1594
    93.5000      0.0000     41.6054      0.1542
    93.7500      0.0000     41.6439      0.1538
    94.0000      0.0000     41.6917      0.1580
    94.2500      0.0000     41.7298      0.1577
    94.5000      0.0000     41.7586      0.1572
    94.7500      0.0000     41.7965      0.1570
    95.0000      0.0000     41.8442      0.1519
    95.2500      0.0000     41.8823      0.1517
    95.5000      0.0000     41.9199      0.1561
    95.7500      0.0000     41.9578      0.1606
    96.0000      0.0000     41.9956      0.1554
    96.2500      0.0000     42.0332      0.1550
    96.5000      0.0000     42.0709      0.1548
    96.7500      0.0000     42.1177      0.1545
    97.0000      0.0000     42.1551      0.1540
    97.2500      0.0000     42.1923      0.1537
    97.5000      0.0000     42.2294      0.1532
    97.7500      0.0000     42.2668      0.1481
    98.0000      0.0000     42.3036      0.1475
    98.2500      0.0000     42.3406      0.1471
    98.5000      0.0000     42.3772      0.1465
    98.7500      0.0000     42.4139      0.1458
    99.0000      0.0000     42.4501      0.1453
    99.2500      0.0000     42.4865      0.1490
    99.5000      0.0000     42.5223      0.1485
    99.7500      0.0000     42.5584      0.1479
   100.0000      0.0000     42.5942      0.1474
   100.2500      0.0000     42.6387      0.1468
   100.5000      0.0000     42.6743      0.1464
   100.7500      0.0000     42.7096      0.1459
   101.0000      0.0000     42.7449      0.1456
   101.2500      0.0000     42.7801      0.1407
   101.5000      0.0000     42.8152      0.1447
   101.7500      0.0000     42.8501      0.1446
   102.0000      0.0000     42.8854      0.1443
   102.2500      0.0000     42.9201      0.1442
   102.5000      0.0000     42.9637      0.1443
   102.7500      0.0000     42.9988      0.1445
   103.0000      0.0000     43.0334      0.1445
   103.2500      0.0000     43.0686      0.1449
   103.5000      0.0000     43.1038      0.1409
   103.7500      0.0000     43.1391      0.1414
   104.0000      0.0000     43.1745      0.1419
   104.2500      0.0000     43.2099      0.1421
   104.5000      0.0000     43.2455      0.1469
   104.7500      0.0000     43.2815      0.1473
   105.0000      0.0000     43.3172      0.1476
   105.2500      0.0000     43.3528      0.1477
   105.5000      0.0000     43.3977      0.1478
   105.7500      0.0000     43.4337      0.1477
   106.0000      0.0000     43.4697      0.1477
   106.2500      0.0000     43.5053      0.1474
   106.5000      0.0000     43.5412      0.1471
   106.7500      0.0000     43.5769      0.1467
   107.0000      0.0000     43.6125      0.1463
   107.2500      0.0000     43.6476      0.1418
   107.5000      0.0000     43.6919      0.1458
   107.7500      0.0000     43.7271      0.1454
   108.0000      0.0000     43.7623      0.1450
   108.2500      0.0000     43.7889      0.1451
   108.5000      0.0000     43.8327      0.1447
   108.7500      0.0000     43.8677      0.1446
   109.0000      0.0000     43.9026      0.1443
   109.2500      0.0000     43.9378      0.1484
   109.5000      0.0000     43.9813      0.1439
   109.7500      0.0000     44.0163      0.1436
   110.0000      0.0000     44.0509      0.1434
   110.2500      0.0000     44.0857      0.1429
   110.5000      0.0000     44.1205      0.1382
   110.7500      0.0000     44.1548      0.1376
   111.0000      0.0000     44.1893      0.1371
   111.2500      0.0000     44.2236      0.1363
   111.5000      0.0000     44.2577      0.1355
   111.7500      0.0000     44.2915      0.1388
   112.0000      0.0000     44.3251      0.1378
   112.2500      0.0000     44.3584      0.1369
   112.5000      0.0000     44.3914      0.1362
   112.7500      0.0000     44.4324      0.1354
   113.0000      0.0000     44.4649      0.1347
   113.2500      0.0000     44.4974      0.1344
   113.5000      0.0000     44.5300      0.1342
   113.7500      0.0000     44.5623      0.1341
   114.0000      0.0000     44.5946      0.1341
   114.2500      0.0000     44.6272      0.1343
   114.5000      0.0000     44.6598      0.1343
   114.7500      0.0000     44.7006      0.1347
   115.0000      0.0000     44.7330      0.1350
   115.2500      0.0000     44.7659      0.1353
   115.5000      0.0000     44.7987      0.1354
   115.7500      0.0000     44.8316      0.1315
   116.0000      0.0000     44.8645      0.1317
   116.2500      0.0000     44.8978      0.1319
   116.5000      0.0000     44.9306      0.1320
   116.7500      0.0000     44.9635      0.1366
   117.0000      0.0000     44.9964      0.1369
   117.2500      0.0000     45.0297      0.1372
   117.5000      0.0000     45.0628      0.1377
   117.7500      0.0000     45.1049      0.1384
   118.0000      0.0000     45.1382      0.1391
   118.2500      0.0000     45.1721      0.1399
   118.5000      0.0000     45.2061      0.1406
   118.7500      0.0000     45.2403      0.1413
   119.0000      0.0000     45.2746      0.1420
   119.2500      0.0000     45.3095      0.1426
   119.5000      0.0000     45.3440      0.1429
   119.7500      0.0000     45.3875      0.1432
   120.0000      0.0000     45.4222      0.1435
   120.2500      0.0000     45.4573      0.1433
   120.5000      0.0000     45.4919      0.1434
   120.7500      0.0000     45.5268      0.1390
   121.0000      0.0000     45.5616      0.1390
   121.2500      0.0000     45.5961      0.1389
   121.5000      0.0000     45.6308      0.1433
   121.7500      0.0000     45.6656      0.1432
   122.0000      0.0000     45.7003      0.1431
   122.2500      0.0000     45.7350      0.1434
   122.5000      0.0000     45.7785      0.1433
   122.7500      0.0000     45.8132      0.1433
   123.0000      0.0000     45.8478      0.1433
   123.2500      0.0000     45.8829      0.1432
   123.5000      0.0000     45.9175      0.1432
   123.7500      0.0000     45.9521      0.1431
   124.0000      0.0000     45.9870      0.1428
   124.2500      0.0000     46.0214      0.1426
   124.5000      0.0000     46.0648      0.1425
   124.7500      0.0000     46.0994      0.1424
   125.0000      0.0000     46.1335      0.1422
   125.2500      0.0000     46.1680      0.1423
   125.5000      0.0000     46.2024      0.1382
   125.7500      0.0000     46.2369      0.1383
   126.0000      0.0000     46.2714      0.1390
   126.2500      0.0000     46.3060      0.1441
   126.5000      0.0000     46.3411      0.1448
   126.7500      0.0000     46.3761      0.1457
   127.0000      0.0000     46.4116      0.1466
