~Version Information
VERS.                      2.0: CWLS Log ASCII Standard - VERSION 2.0
WRAP.                       NO: One line per depth step
~Well Information Block
STRT.FT                 0.0000: 
STOP.FT              1906.7500: 
STEP.FT                 0.2500: 
NULL.                -999.2500: 
COMP.          Petrogulf Corporation: COMPANY
WELL.             Kraft 17-23R: WELL
FLD.           Purgatorie River: FIELD
LOC.           1509' FSL & 1673' FWL: LOCATION
STAT.                 Colorado: State
CNTY.               Las Animas: COUNTY
CTRY. USA : Country
SECT. 17 : Section
TOWN. 33S : Township
RANG. 67W : Range
SRVC.                Patterson: SERVICE COMPANY
DATE.          Fri Jan 06 08:59:54 2006: LOG DATE
API. 05-071-08560                         : UNIQUE WELL ID
~Curve Information Block
DEPT.FT            0 000 00 00: Depth
CCL.                          : Casing Collar Locator
TT3.usec                      : CBL 3' Travel Time
AMP3.mV                       : CBL 3' Amplitude
AMP3.mV                       : CBL 3' Amplitude
GR.GAPI                       : Gamma Ray
AMP3.mV                       : CBL 3' Amplitude
~Parameter Information Block
~A  Depth       CCL         TT3         AMP3        AMP3         GR        .AMP3    
# ...
   504.0000      0.0000    446.6028      7.6957      7.6957     93.0654      7.6957
   504.2500      0.0000    448.1212      7.6113      7.6113     93.0314      7.6113
   504.5000      0.0000    446.4576      7.5001      7.5001     91.0228      7.5001
   504.7500      0.0000    435.8229      7.4326      7.4326     88.2192      7.4326
   505.0000      0.0000    412.4541      7.4253      7.4253     85.3694      7.4253
   505.2500      0.0000    382.5848      7.4656      7.4656     82.2239      7.4656
   505.5000      0.0000    360.1640      7.5415      7.5415     78.1285      7.5415
   505.7500      0.0000    356.7775      7.6211      7.6211     73.0596      7.6211
   506.0000      0.0000    380.4064      7.6221      7.6221     68.0777      7.6221
   506.2500      0.0000    433.4028      7.4720      7.4720     64.7514      7.4720
   506.5000      0.0000    500.1396      7.1988      7.1988     64.0835      7.1988
   506.7500      0.0000    552.9960      6.9227      6.9227     66.1025      6.9227
   507.0000      0.0000    579.3347      6.7520      6.7520     70.4179      6.7520
   507.2500      0.0000    587.3707      6.6784      6.6784     76.5317      6.6784
   507.5000      0.0000    588.9017      6.6064      6.6064     83.2934      6.6064
   507.7500      0.0000    589.4923      6.4818      6.4818     88.8670      6.4818
   508.0000      0.0000    590.3013      6.3406      6.3406     92.0288      6.3406
   508.2500      0.0000    591.3291      6.2494      6.2494     93.1041      6.2494
   508.5000      0.0000    593.1289      6.2380      6.2380     93.0643      6.2380
   508.7500      0.0000    597.3019      6.2847      6.2847     92.1206      6.2847
   509.0000      0.0000    604.9662      6.3452      6.3452     89.8341      6.3452
   509.2500      0.0000    614.2510      6.3767      6.3767     86.4214      6.3767
   509.5000      0.0000    621.1729      6.3622      6.3622     83.1877      6.3622
   509.7500      0.0000    623.2921      6.3313      6.3313     81.3370      6.3313
   510.0000      0.0000    620.4267      6.3325      6.3325     80.7201      6.3325
   510.2500      0.0000    613.5411      6.3679      6.3679     80.1047      6.3679
   510.5000      0.0000    605.6898      6.3810      6.3810     78.5394      6.3810
   510.7500      0.0000    601.4709      6.3345      6.3345     76.1838      6.3345
   511.0000      0.0000    602.3928      6.2692      6.2692     73.9475      6.2692
   511.2500      0.0000    604.0698      6.2532      6.2532     72.7289      6.2532
   511.5000      0.0000    600.9393      6.2997      6.2997     73.0128      6.2997
   511.7500      0.0000    593.9492      6.3695      6.3695     74.7753      6.3695
   512.0000      0.0000    590.1758      6.4293      6.4293     77.4804      6.4293
   512.2500      0.0000    594.0599      6.4800      6.4800     80.2133      6.4800
   512.5000      0.0000    602.2353      6.5340      6.5340     82.0657      6.5340
   512.7500      0.0000    608.6911      6.5673      6.5673     82.6332      6.5673
   513.0000      0.0000    612.4267      6.5215      6.5215     82.1408      6.5215
   513.2500      0.0000    615.9404      6.3815      6.3815     81.0319      6.3815
   513.5000      0.0000    619.4536      6.2166      6.2166     79.6286      6.2166
   513.7500      0.0000    621.4336      6.1131      6.1131     78.3434      6.1131
   514.0000      0.0000    621.1754      6.1043      6.1043     77.8554      6.1043
   514.2500      0.0000    618.2391      6.1731      6.1731     78.4887      6.1731
   514.5000      0.0000    612.3455      6.2836      6.2836     79.4557      6.2836
   514.7500      0.0000    605.1058      6.3948      6.3948     79.3981      6.3948
   515.0000      0.0000    599.6302      6.4796      6.4796     78.0239      6.4796
   515.2500      0.0000    597.9163      6.5654      6.5654     76.7587      6.5654
   515.5000      0.0000    600.4828      6.7237      6.7237     77.2451      6.7237
   515.7500      0.0000    606.9698      6.9644      6.9644     79.2761      6.9644
   516.0000      0.0000    614.5247      7.1657      7.1657     80.7943      7.1657
   516.2500      0.0000    619.3184      7.1980      7.1980     80.0653      7.1980
   516.5000      0.0000    623.1469      7.0981      7.0981     77.2203      7.0981
   516.7500      0.0000    632.9384      7.0421      7.0421     73.4858      7.0421
   517.0000      0.0000    649.7216      7.2211      7.2211     69.7898      7.2211
   517.2500      0.0000    663.8111      7.6984      7.6984     66.6352      7.6984
   517.5000      2.0000    664.8021      8.2838      8.2838     64.5926      8.2838
   517.7500     -2.0000    648.5428      8.7031      8.7031     64.1307      8.7031
   518.0000      0.0000    613.1683      8.8891      8.8891     65.1053      8.8891
   518.2500      2.0000    567.6538      8.9499      8.9499     66.8681      8.9499
   518.5000      0.0000    542.5455      8.9435      8.9435     68.9251      8.9435
   518.7500      0.0000    561.1204      8.8096      8.8096     71.2487      8.8096
   519.0000      0.0000    601.1990      8.4841      8.4841     74.0613      8.4841
   519.2500      0.0000    617.6835      8.0389      8.0389     77.5979      8.0389
   519.5000      0.0000    595.1382      7.7170      7.7170     81.9741      7.7170
   519.7500      0.0000    556.9714      7.7307      7.7307     87.0381      7.7307
   520.0000      0.0000    537.6994      7.9628      7.9628     92.3944      7.9628
   520.2500      0.0000    549.4431      8.0813      8.0813     97.6332      8.0813
   520.5000      0.0000    571.8738      7.9715      7.9715    102.3767      7.9715
   520.7500      0.0000    579.4695      7.8048      7.8048    106.0871      7.8048
   521.0000      0.0000    560.4564      7.7333      7.7333    108.0703      7.7333
   521.2500      0.0000    513.5733      7.7372      7.7372    107.7885      7.7372
   521.5000      0.0000    451.3080      7.7404      7.7404    105.0770      7.7404
   521.7500      0.0000    396.1513      7.7409      7.7409    100.0965      7.7409
   522.0000      0.0000    361.2450      7.7989      7.7989     93.3643      7.7989
   522.2500      0.0000    344.3605      7.9564      7.9564     85.9563      7.9564
   522.5000      0.0000    337.8890      8.2041      8.2041     79.3712      8.2041
   522.7500      0.0000    335.9402      8.4918      8.4918     74.8558      8.4918
   523.0000      0.0000    335.4193      8.7478      8.7478     72.8119      8.7478
   523.2500      0.0000    335.1763      8.9121      8.9121     72.8622      8.9121
   523.5000      0.0000    334.9272      8.9771      8.9771     74.3344      8.9771
   523.7500      0.0000    334.6140      8.9837      8.9837     76.4702      8.9837
   524.0000      0.0000    334.2368      8.9665      8.9665     78.3316      8.9665
   524.2500      0.0000    333.8753      8.9259      8.9259     78.9635      8.9259
   524.5000      0.0000    333.6717      8.8653      8.8653     77.9431      8.8653
   524.7500      0.0000    333.7238      8.8151      8.8151     75.7124      8.8151
   525.0000      0.0000    333.9552      8.7969      8.7969     73.1584      8.7969
   525.2500      0.0000    334.1541      8.8148      8.8148     70.7882      8.8148
   525.5000      0.0000    334.1952      8.8751      8.8751     68.5494      8.8751
   525.7500      0.0000    334.1125      8.9606      8.9606     66.6218      8.9606
   526.0000      0.0000    333.9705      9.0275      9.0275     65.9592      9.0275
   526.2500      0.0000    333.7835      9.0605      9.0605     67.5070      9.0605
   526.5000      0.0000    333.5258      9.0786      9.0786     71.0281      9.0786
   526.7500      0.0000    333.1843      9.0874      9.0874     75.1731      9.0874
   527.0000      0.0000    332.7846      9.0681      9.0681     78.6304      9.0681
   527.2500      0.0000    332.3608      9.0061      9.0061     80.8507      9.0061
   527.5000      0.0000    331.9719      8.9038      8.9038     81.8299      8.9038
   527.7500      0.0000    331.7360      8.7656      8.7656     81.7553      8.7656
