~Version Information
VERS.                      2.0: CWLS Log ASCII Standard - VERSION 2.0
WRAP.                       NO: One line per depth step
~Well Information Block
STRT.FT               460.0000: 
STOP.FT              2811.5000: 
STEP.FT                 0.1000: 
NULL.                -999.2500: 
COMP.          Pioneer Natural Resources: COMPANY
WELL.           Dolzanie 34-12: WELL
FLD.           Purgatoire River: FIELD
LOC.           1001' FSL & 1750' FEL--: LOCATION
PROV.                 Colorado: PROVINCE
CNTY.               Las Animas: COUNTRY
SRVC.                Patterson: SERVICE COMPANY
DATE.          Wed Jul 20 07:56:24 2005: LOG DATE
UWI.           05 071 08439 00: UNIQUE WELL ID
~Curve Information Block
DEPT.FT            0 000 00 00: Depth
DCAL.in                       : CDL Caliper
DPOR.pu                       : CDL Density Porosity
NPOR.pu                       : Neutron Porosity
RHOB.g/cc                     : CDL Bulk Density
RHOC.g/cc                     : CDL Density Correction
GR.GAPI                       : Gamma Ray
~Parameter Information Block
~A  Depth       DCAL        DPOR        NPOR        RHOB        RHOC         GR     
# ...
  2322.4000      7.9705      1.9815     27.1163      2.6173      0.1506    151.1889
  2322.5000      7.9780      2.8289     27.4399      2.6033      0.1484    141.6977
  2322.6000      7.9780      3.6628     27.4814      2.5896      0.1162    133.5536
  2322.7000      7.9780      3.8091     27.0236      2.5872      0.1177    133.2599
  2322.8000      7.9838      3.4478     26.5950      2.5931      0.1142    136.6846
  2322.9000      7.9838      3.6405     26.9601      2.5899      0.1483    139.6482
  2323.0000      7.9841      4.9213     27.8393      2.5688      0.0802    140.1966
  2323.1000      7.9841      6.2323     28.2250      2.5472      0.0006    134.1106
  2323.2000      7.9841      6.7661     27.6551      2.5384      0.0420    125.7744
  2323.3000      7.9797      7.1658     26.9554      2.5318      0.0571    124.4316
  2323.4000      7.9797      7.5534     27.0995      2.5254      0.0274    130.5805
  2323.5000      7.9776      7.3522     27.8631      2.5287      0.0517    140.2801
  2323.6000      7.9776      6.8370     28.2619      2.5372      0.0739    148.6084
  2323.7000      7.9776      6.5458     28.1140      2.5420      0.0726    149.8349
  2323.8000      7.9800      6.3526     28.0386      2.5452      0.0672    142.3589
  2323.9000      7.9800      6.1790     28.0990      2.5480      0.1187    130.2523
  2324.0000      7.9844      6.2841     27.8900      2.5463      0.0705    121.4849
  2324.1000      7.9844      6.2558     27.4032      2.5468      0.0784    120.0012
  2324.2000      7.9844      5.5057     26.8768      2.5592      0.0867    121.5447
  2324.3000      7.9876      4.5809     26.3794      2.5744      0.1383    123.3671
  2324.4000      7.9876      4.3751     26.1358      2.5778      0.1265    127.9887
  2324.5000      7.9829      4.3437     26.2617      2.5783      0.0852    132.4297
  2324.6000      7.9829      3.4871     26.1241      2.5925      0.0776    128.2862
  2324.7000      7.9829      2.0559     25.2845      2.6161      0.1148    119.1340
  2324.8000      7.9705      0.7897     24.2270      2.6370      0.0948    119.7019
  2324.9000      7.9705     -0.0264     23.5829      2.6504      0.1016    130.4905
  2325.0000      7.9646     -0.2898     23.3141      2.6548      0.0994    139.2842
  2325.1000      7.9646     -0.2398     22.9135      2.6540      0.0909    139.5939
  2325.2000      7.9646     -0.2540     22.4974      2.6542      0.1244    131.4355
  2325.3000      7.9704     -0.4269     22.7019      2.6570      0.0508    121.5552
  2325.4000      7.9704     -0.1704     23.6624      2.6528      0.1300    118.5024
  2325.5000      7.9802      1.5174     24.8407      2.6250      0.0537    123.2157
  2325.6000      7.9802      3.9454     25.8843      2.5849      0.0462    130.4935
  2325.7000      7.9802      5.3624     26.7495      2.5615      0.0215    135.3068
  2325.8000      7.9859      5.3007     27.2131      2.5625      0.0557    138.2510
  2325.9000      7.9859      4.3693     27.3679      2.5779      0.0458    140.6984
  2326.0000      7.9881      3.0711     27.3486      2.5993      0.0720    141.4223
  2326.1000      7.9881      2.0630     27.0331      2.6160      0.1228    140.1980
  2326.2000      7.9881      1.7594     26.5889      2.6210      0.0852    138.3958
  2326.3000      7.9884      2.0318     26.2481      2.6165      0.1100    138.0647
  2326.4000      7.9884      2.9046     25.9915      2.6021      0.0772    144.0008
  2326.5000      7.9873      3.7125     26.0183      2.5887      0.0601    156.1107
  2326.6000      7.9873      3.5772     26.5076      2.5910      0.0510    166.2824
  2326.7000      7.9873      3.2611     27.2391      2.5962      0.1047    168.5678
  2326.8000      7.9856      4.4797     28.1650      2.5761      0.0802    162.7262
  2326.9000      7.9856      7.2988     28.7610      2.5296      0.0316    151.4851
  2327.0000      7.9861     10.1201     28.5000      2.4830      0.0271    139.9041
  2327.1000      7.9861     11.9522     28.2759      2.4528     -0.0043    136.3017
  2327.2000      7.9861     13.3463     28.8639      2.4298      0.0129    142.6254
  2327.3000      7.9930     15.8411     29.8922      2.3886      0.0416    147.2433
  2327.4000      7.9930     20.3591     30.7830      2.3141      0.0206    141.6694
  2327.5000      8.0106     26.1468     31.3369      2.2186     -0.0333    131.3864
  2327.6000      8.0106     31.5543     31.5715      2.1294     -0.0882    123.1485
  2327.7000      8.0106     35.3637     31.3952      2.0665     -0.0656    117.5154
  2327.8000      8.0395     36.9109     30.9776      2.0410     -0.0606    114.8832
  2327.9000      8.0395     36.0706     30.8118      2.0548      0.0422    115.2190
  2328.0000      8.0777     33.7434     30.8117      2.0932      0.1168    117.1073
  2328.1000      8.0777     30.5919     30.2822      2.1452      0.1184    118.5265
  2328.2000      8.0777     26.6847     29.0839      2.2097      0.1988    115.7398
  2328.3000      8.1190     22.8190     27.7284      2.2735      0.2815    111.5938
  2328.4000      8.1190     19.5178     26.7139      2.3280      0.2840    111.4779
  2328.5000      8.1575     16.0854     25.9502      2.3846      0.2606    114.6276
  2328.6000      8.1575     12.3737     25.2405      2.4458      0.2099    122.2932
  2328.7000      8.1575      9.2624     24.9720      2.4972      0.1285    134.2377
  2328.8000      8.1840      7.1078     25.4765      2.5327      0.0968    142.0432
  2328.9000      8.1840      5.6036     26.2920      2.5575      0.0929    141.9022
  2329.0000      8.1908      4.7278     26.7097      2.5720      0.0706    137.9731
  2329.1000      8.1908      4.6830     26.4251      2.5727      0.0828    134.2050
  2329.2000      8.1908      4.9683     25.8109      2.5680      0.0229    136.1486
  2329.3000      8.1851      4.9848     25.5297      2.5678      0.0692    144.3403
  2329.4000      8.1851      5.5072     25.6683      2.5591      0.0848    148.7533
  2329.5000      8.1739      6.6571     26.0202      2.5402     -0.0134    142.4905
  2329.6000      8.1739      7.3267     26.7310      2.5291      0.0359    134.8728
  2329.7000      8.1739      8.0368     27.6279      2.5174      0.0726    137.3849
  2329.8000      8.1566     10.3889     28.3094      2.4786      0.0547    149.0710
  2329.9000      8.1566     14.8109     28.9445      2.4056      0.0154    159.7941
  2330.0000      8.1366     20.6220     29.7166      2.3097     -0.0077    156.4826
  2330.1000      8.1366     26.8259     30.4637      2.2074     -0.0200    139.5208
  2330.2000      8.1366     32.9967     31.0225      2.1056     -0.0542    123.0653
  2330.3000      8.1243     39.5836     31.4161      1.9969     -0.0748    109.5942
  2330.4000      8.1243     46.5332     31.7893      1.8822     -0.1274     96.1503
  2330.5000      8.1184     52.5005     32.2724      1.7837     -0.1207     89.5644
  2330.6000      8.1184     56.6247     33.2503      1.7157     -0.0466     90.1532
  2330.7000      8.1184     59.7929     34.3670      1.6634      0.0051     92.0869
  2330.8000      8.1179     63.1582     34.5742      1.6079      0.0052     93.9170
  2330.9000      8.1179     66.0620     34.2802      1.5600      0.0210     93.4479
  2331.0000      8.1442     66.4647     34.5479      1.5533      0.0877     93.0913
  2331.1000      8.1442     62.9467     34.8933      1.6114      0.1694     94.2757
  2331.2000      8.1442     55.6216     34.3919      1.7322      0.2189     90.5984
  2331.3000      8.2695     46.3839     33.2088      1.8847      0.3182     84.8414
  2331.4000      8.2695     37.9385     32.0038      2.0240      0.3568     88.9210
  2331.5000      8.5686     31.2088     31.1399      2.1351      0.3657     99.3684
  2331.6000      8.5686     25.2845     30.6782      2.2328      0.3677    104.7181
  2331.7000      8.5686     20.1271     30.4451      2.3179      0.3896    106.8451
  2331.8000      8.9431     16.7167     30.1860      2.3742      0.3465    112.4267
  2331.9000      8.9431     14.5368     29.8946      2.4101      0.2735    119.7778
