~Version Information
VERS.                      2.0: CWLS Log ASCII Standard - VERSION 2.0
WRAP.                       NO: One line per depth step
~Well Information Block
STRT.FT                -3.2500: 
STOP.FT               989.2500: 
STEP.FT                 0.2500: 
NULL.                -999.2500: 
COMP.          Pioneer Natural Resources: COMPANY
WELL.                Doc 34-30: WELL
FLD.           Purgatoire River: FIELD
LOC.           454' FSL & 1386' FEL: LOCATION
CNTY.               Las Animas: COUNTY
SRVC.                         : SERVICE COMPANY
DATE.          Wed Mar 08 14:28:55 2006: LOG DATE
UWI.           05 071 08694 00: UNIQUE WELL ID
STAT.                       CO: STATE
~Curve Information Block
DEPT.FT            0 000 00 00: Depth
GR.GAPI                       : Gamma Ray
CCL.                          : Casing Collar Locator
TT3.usec                      : CBL 3' Travel Time
AMP3.mV                       : CBL 3' Amplitude
~Parameter Information Block
~A  Depth        GR         CCL         TT3         AMP3    
# ...
   767.2500     75.0215      0.0000    664.7616      6.2083
   767.5000     85.5476      0.0000    661.1249      6.2248
   767.7500     94.3196      0.0000    650.1429      6.3090
   768.0000    100.4774      0.0000    631.1685      6.4707
   768.2500    104.2580      0.0000    605.8928      6.6922
   768.5000    106.4407      0.0000    577.9597      6.9281
   768.7500    107.3455      0.0000    550.9991      7.1257
   769.0000    106.6135      0.0000    528.0236      7.2544
   769.2500    104.0688      0.0000    511.9020      7.3159
   769.5000    100.5933      0.0000    504.2117      7.3257
   769.7500     97.9897      0.0000    503.4628      7.2959
   770.0000     97.8324      0.0000    505.6688      7.2397
   770.2500    100.2994      0.0000    507.0168      7.1800
   770.5000    104.0816      0.0000    506.0981      7.1409
   770.7500    107.3928      0.0000    504.1764      7.1332
   771.0000    108.9636      0.0000    503.7114      7.1532
   771.2500    108.3214      0.0000    506.3943      7.1918
   771.5000    105.7919      0.0000    512.0162      7.2377
   771.7500    102.5823      0.0000    518.9891      7.2732
   772.0000    100.4518      0.0000    526.1080      7.2776
   772.2500    100.7489      0.0000    533.8091      7.2421
   772.5000    103.4743      0.0000    543.3344      7.1815
   772.7500    107.2522      0.0000    554.7515      7.1258
   773.0000    110.4506      0.0000    566.2463      7.1011
   773.2500    112.4971      0.0000    575.2872      7.1154
   773.5000    113.8383      0.0000    579.9968      7.1566
   773.7500    114.5823      0.0000    579.3662      7.2015
   774.0000    113.8546      0.0000    572.8534      7.2281
   774.2500    110.9672      0.0000    560.5009      7.2248
   774.5000    106.6333      0.0000    543.3989      7.1926
   774.7500    102.4826      0.0000    523.5084      7.1431
   775.0000     99.7983      0.0000    503.0070      7.0976
   775.2500     99.0058      0.0000    484.0601      7.0785
   775.5000     99.8379      0.0000    468.7191      7.0972
   775.7500    101.6517      0.0000    458.1782      7.1459
   776.0000    103.7678      0.0000    452.1118      7.2015
   776.2500    105.5695      0.0000    449.0923      7.2417
   776.5000    106.4032      0.0000    447.6214      7.2596
   776.7500    105.9703      0.0000    446.7522      7.2656
   777.0000    105.0259      0.0000    446.0970      7.2743
   777.2500    104.9907      0.0000    445.5894      7.2929
   777.5000    106.4503      0.0000    445.2816      7.3184
   777.7500    108.4929      0.0000    445.2166      7.3451
   778.0000    109.6921      0.0000    445.3725      7.3697
   778.2500    109.3028      0.0000    445.6461      7.3905
   778.5000    107.5176      0.0000    445.8929      7.4009
   778.7500    105.1612      0.0000    445.9988      7.3903
   779.0000    103.3442      0.0000    445.9337      7.3552
   779.2500    103.0223      0.0000    445.7567      7.3077
   779.5000    104.6235      0.0000    445.5779      7.2669
   779.7500    107.9464      0.0000    445.4912      7.2445
   780.0000    112.0844      0.0000    445.5188      7.2419
   780.2500    115.6203      0.0000    445.6253      7.2541
   780.5000    117.6460      0.0000    445.9254      7.2713
   780.7500    118.7292      0.0000    447.1902      7.2815
   781.0000    120.3321      0.0000    451.5966      7.2801
   781.2500    123.1439      0.0000    463.0783      7.2749
   781.5000    126.5466      0.0000    485.9662      7.2703
   781.7500    129.9341      0.0000    521.4999      7.2492
   782.0000    133.8247      0.0000    564.8306      7.1778
   782.2500    138.7176      0.0000    606.4854      7.0361
   782.5000    142.9229      0.0000    638.0978      6.8456
   782.7500    142.5855      0.0000    657.0320      6.6666
   783.0000    134.5726      0.0000    665.9350      6.5614
   783.2500    119.1712      0.0000    669.1559      6.5481
   783.5000     99.8804      0.0000    670.0251      6.5864
   783.7500     81.0300      0.0000    670.5655      6.6159
   784.0000     65.6839      0.0000    672.3435      6.6230
   784.2500     54.9545      0.0000    677.1017      6.6773
   784.5000     48.3503      0.0000    686.0435      6.8954
   784.7500     44.6295      0.0000    697.6935      7.3470
   785.0000     42.7005      0.0000    706.8311      7.9820
   785.2500     42.0955      0.0000    708.1285      8.6557
   785.5000     42.9508      0.0000    702.1230      9.2319
   785.7500     45.6293      0.0000    695.0571      9.6574
   786.0000     50.1824      0.0000    691.4216      9.9446
   786.2500     55.9256      0.0000    689.2980     10.1112
   786.5000     61.4976      0.0000    683.8938     10.1608
   786.7500     65.4738      0.0000    672.6946     10.1121
   787.0000     67.1903      0.0000    656.3541     10.0200
   787.2500     67.1217      0.0000    637.3339      9.9412
   787.5000     66.3756      0.0000    618.2282      9.8683
   787.7500     65.7387      0.0000    598.5976      9.7090
   788.0000     65.2967      0.0000    572.9368      9.3634
   788.2500     64.9514      0.0000    535.5793      8.8333
   788.5000     64.9405      0.0000    489.0819      8.2385
   788.7500     65.4880      0.0000    445.2571      7.7211
   789.0000     66.2011      0.0000    417.2825      7.3547
   789.2500     66.4020      0.0000    412.5022      7.1415
   789.5000     66.1179      0.0000    430.3694      7.0564
   789.7500     66.4033      0.0000    462.4660      7.0707
   790.0000     68.6082      0.0000    495.5984      7.1507
   790.2500     73.3358      0.0000    520.5284      7.2572
   790.5000     79.9770      0.0000    538.9849      7.3528
   790.7500     87.0772      0.0000    558.6426      7.4065
   791.0000     93.2210      0.0000    581.5144      7.3962
   791.2500     97.6523      0.0000    601.7738      7.3121
   791.5000    100.0882      0.0000    614.9971      7.1605
   791.7500    100.2372      0.0000    624.2261      6.9708
   792.0000     97.9955      0.0000    634.9367      6.7929
   792.2500     94.0637      0.0000    647.9464      6.6719
   792.5000     89.7529      0.0000    659.7617      6.6158
   792.7500     85.9528      0.0000    667.4663      6.5935
   793.0000     82.8793      0.0000    671.0508      6.5664
   793.2500     81.0848      0.0000    672.1628      6.5151
   793.5000     81.9322      0.0000    672.3222      6.4380
   793.7500     86.3198      0.0000    672.2604      6.3408
   794.0000     93.1268      0.0000    672.1245      6.2316
   794.2500     99.4218      0.0000    671.8695      6.1209
   794.5000    102.4487      0.0000    671.5185      6.0234
   794.7500    101.4865      0.0000    671.1757      5.9581
   795.0000     97.9271      0.0000    670.9638      5.9373
   795.2500     93.6273      0.0000    670.9763      5.9557
   795.5000     89.3324      0.0000    671.2690      5.9980
   795.7500     84.8575      0.0000    671.8516      6.0528
   796.0000     80.6291      0.0000    672.6558      6.1128
   796.2500     78.3271      0.0000    673.5281      6.1662
   796.5000     79.4420      0.0000    674.2981      6.2019
   796.7500     83.3409      0.0000    674.8663      6.2256
   797.0000     87.3151      0.0000    675.2770      6.2592
   797.2500     88.7606      0.0000    675.8763      6.3246
   797.5000     87.1327      0.0000    677.5557      6.4300
   797.7500     83.8618      0.0000    681.6390      6.5672
   798.0000     80.9002      0.0000    688.7997      6.7170
   798.2500     79.4656      0.0000    697.4454      6.8561
   798.5000     79.5993      0.0000    703.4103      6.9600
   798.7500     80.4870      0.0000    702.1115      7.0082
   799.0000     81.2811      0.0000    691.0178      6.9955
   799.2500     81.6532      0.0000    669.6074      6.9399
   799.5000     81.6268      0.0000    638.2243      6.8717
   799.7500     81.2948      0.0000    599.4673      6.8140
   800.0000     80.9472      0.0000    560.7757      6.7753
   800.2500     81.0814      0.0000    533.1031      6.7535
   800.5000     82.0331      0.0000    525.2536      6.7403
