~Version Information
VERS.                      2.0: CWLS Log ASCII Standard - VERSION 2.0
WRAP.                       NO: One line per depth step
~Well Information Block
STRT.FT                 5.0000: 
STOP.FT               880.0000: 
STEP.FT                 0.2500: 
NULL.                -999.2500: 
COMP.          Pioneer Natural Resources: COMPANY
WELL.          Bienville 31-28: WELL
FLD.           Purgatoire River: FIELD
LOC.           1212' FNL & 2271' FEL: LOCATION
PROV.                 Colorado: PROVINCE
CNTY.               Las Animas: COUNTRY
SRVC.                Patterson: SERVICE COMPANY
DATE.          Tue Jan 24 11:44:03 2006: LOG DATE
UWI.           05 071 08666 00: UNIQUE WELL ID
~Curve Information Block
DEPT.FT            0 000 00 00: Depth
GR.GAPI                       : Gamma Ray
CCL.                          : Casing Collar Locator
TT3.usec                      : CBL 3' Travel Time
AMP3.mV                       : CBL 3' Amplitude
~Parameter Information Block
~A  Depth        GR         CCL         TT3         AMP3    
# ...
   239.5000     99.6926      0.0000    376.2318      6.1823
   239.7500    101.1688      0.0000    379.4971      6.0294
   240.0000    101.6562      0.0000    385.0899      5.8463
   240.2500     99.4714      0.0000    392.8442      5.6547
   240.5000     94.4935      0.0000    401.5854      5.4809
   240.7500     88.5927      0.0000    410.2109      5.3430
   241.0000     84.1780      0.0000    419.5541      5.2449
   241.2500     82.1943      0.0000    433.1187      5.1836
   241.5000     81.8127      0.0000    455.1268      5.1563
   241.7500     81.9349      0.0000    486.7240      5.1588
   242.0000     82.4474      0.0000    523.9904      5.1819
   242.2500     83.7952      0.0000    560.5721      5.2123
   242.5000     85.7732      0.0000    592.3396      5.2376
   242.7500     87.4468      0.0000    618.7112      5.2478
   243.0000     88.5056      0.0000    640.1390      5.2354
   243.2500     90.1279      0.0000    656.2233      5.1969
   243.5000     93.7576      0.0000    666.5894      5.1350
   243.7500     99.0593      0.0000    672.1815      5.0561
   244.0000    103.6956      0.0000    674.9798      4.9663
   244.2500    105.2393      0.0000    676.9731      4.8735
   244.5000    103.0133      0.0000    679.6252      4.7918
   244.7500     98.2342      0.0000    683.7551      4.7383
   245.0000     92.9232      0.0000    689.4648      4.7216
   245.2500     88.6943      0.0000    696.2698      4.7365
   245.5000     86.0672      0.0000    703.4747      4.7706
   245.7500     84.5313      0.0000    710.3187      4.8138
   246.0000     83.0956      0.0000    715.7635      4.8626
   246.2500     80.8836      0.0000    718.3290      4.9193
   246.5000     77.7327      0.0000    715.9367      4.9890
   246.7500     74.5432      0.0000    705.8372      5.0737
   247.0000     72.7316      0.0000    685.7444      5.1673
   247.2500     73.0587      0.0000    656.5890      5.2579
   247.5000     75.0526      0.0000    624.0121      5.3357
   247.7500     77.5473      0.0000    595.1916      5.4001
   248.0000     79.6163      0.0000    572.8414      5.4600
   248.2500     80.9662      0.0000    552.7491      5.5236
   248.5000     81.6643      0.0000    527.8398      5.5869
   248.7500     81.7176      0.0000    494.8462      5.6352
   249.0000     80.9102      0.0000    457.4067      5.6584
   249.2500     78.9454      0.0000    423.2300      5.6631
   249.5000     75.8831      0.0000    398.4543      5.6645
   249.7500     72.6211      0.0000    384.5203      5.6714
   250.0000     70.7822      0.0000    379.6355      5.6836
   250.2500     71.7201      0.0000    382.3908      5.7011
   250.5000     75.5306      0.0000    393.9478      5.7265
   250.7500     81.1647      0.0000    417.0508      5.7598
   251.0000     87.3689      0.0000    452.7853      5.7945
   251.2500     93.2428      0.0000    498.2353      5.8216
   251.5000     98.1094      0.0000    547.3442      5.8336
   251.7500    101.4285      0.0000    593.4742      5.8253
   252.0000    103.0318      0.0000    631.0840      5.7936
   252.2500    103.1655      0.0000    656.8707      5.7410
   252.5000    102.1597      0.0000    670.9774      5.6799
   252.7500    100.1285      0.0000    676.6627      5.6298
   253.0000     97.0070      0.0000    678.0467      5.6058
   253.2500     92.8663      0.0000    678.1321      5.6062
   253.5000     88.2347      0.0000    678.5104      5.6088
   253.7500     84.0428      0.0000    679.8958      5.5777
   254.0000     81.1162      0.0000    682.2739      5.4805
   254.2500     79.7724      0.0000    684.7728      5.3116
   254.5000     80.0289      0.0000    686.1789      5.1052
   254.7500     82.0325      0.0000    686.2452      4.9201
   255.0000     85.9339      0.0000    686.4515      4.8015
   255.2500     91.2186      0.0000    688.9345      4.7562
   255.5000     96.3249      0.0000    694.3890      4.7596
   255.7500     99.2614      0.0000    700.9933      4.7811
   256.0000     98.9491      0.0000    705.4666      4.8022
   256.2500     96.0568      0.0000    705.4625      4.8164
   256.5000     92.4616      0.0000    701.4498      4.8175
   256.7500     89.9159      0.0000    696.6385      4.7922
   257.0000     89.1510      0.0000    694.6372      4.7240
   257.2500     89.8889      0.0000    696.2274      4.5995
   257.5000     91.3549      0.0000    698.1409      4.4040
   257.7500     92.8120      0.0000    695.9890      4.1247
   258.0000     93.8880      0.0000    689.4185      3.7809
   258.2500     94.7103      0.0000    684.4832      3.4382
   258.5000     95.8803      0.0000    689.9817      3.1599
   258.7500     97.9998      0.0000    709.7041      2.9526
   259.0000    100.7914      0.0000    736.9281      2.7947
   259.2500    102.9709      0.0000    758.0413      2.6957
   259.5000    103.6190      0.0000    764.8264      2.6846
   259.7500    103.5441      0.0000    763.3411      2.7626
   260.0000    104.7504     -2.5735    769.2361      2.9102
   260.2500    108.5159      0.0000    794.3535      3.1337
   260.5000    114.1535      0.0000    836.0284      3.4967
   260.7500    119.5405      0.0000    875.0070      4.1030
   261.0000    122.7236      0.0000    885.7429      5.0013
   261.2500    123.0801      0.0000    856.6058      6.0520
   261.5000    121.2838      0.0000    801.2883      6.9298
   261.7500    118.6526      0.0000    746.5641      7.3539
   262.0000    116.3997      0.0000    710.2836      7.3135
   262.2500    114.8747      0.0000    693.2267      7.0206
   262.5000    113.4341      0.0000    686.9565      6.6857
   262.7500    111.4014      0.0000    683.9209      6.3955
   263.0000    108.9134      0.0000    681.1183      6.1544
   263.2500    106.4620      0.0000    678.5707      5.9625
   263.5000    104.2187      0.0000    676.9028      5.8406
   263.7500    102.3488      0.0000    676.2721      5.8121
   264.0000    101.4069      0.0000    676.6073      5.8750
   264.2500    101.8768      0.0000    678.0566      5.9892
   264.5000    103.6631      0.0000    681.1929      6.0961
   264.7500    106.3203      0.0000    686.6592      6.1550
   265.0000    109.5583      0.0000    694.2735      6.1586
   265.2500    113.3498      0.0000    702.3931      6.1174
   265.5000    117.5950      0.0000    708.6086      6.0412
   265.7500    121.8383      0.0000    711.4828      5.9443
   266.0000    125.4606      0.0000    711.5926      5.8543
   266.2500    128.0442      0.0000    710.5782      5.8050
   266.5000    129.2779      0.0000    709.1306      5.8201
   266.7500    128.6675      0.0000    706.3038      5.9033
   267.0000    125.8819      0.0000    701.0536      6.0377
   267.2500    121.5609      0.0000    694.0020      6.1908
   267.5000    117.3246      0.0000    687.1803      6.3276
   267.7500    114.6642      0.0000    682.2746      6.4280
   268.0000    114.0124      0.0000    679.5671      6.4968
   268.2500    114.8589      0.0000    678.3760      6.5557
   268.5000    116.2955      0.0000    677.9693      6.6227
   268.7500    117.3599      0.0000    677.9662      6.6981
   269.0000    117.4229      0.0000    678.2587      6.7696
   269.2500    116.6745      0.0000    678.8772      6.8254
   269.5000    115.9701      0.0000    679.9948      6.8594
   269.7500    115.7258      0.0000    681.8593      6.8693
   270.0000    115.0751      0.0000    684.4023      6.8576
   270.2500    112.6257      0.0000    686.7946      6.8377
   270.5000    108.1902      0.0000    687.7394      6.8315
   270.7500    103.4208      0.0000    686.5853      6.8565
   271.0000    100.4064      0.0000    684.0136      6.9140
   271.2500     99.6849      0.0000    681.3841      6.9882
   271.5000     99.8919      0.0000    679.5889      7.0546
   271.7500     99.3774      0.0000    678.6836      7.0912
   272.0000     97.7608      0.0000    678.3024      7.0863
   272.2500     95.7393      0.0000    678.1141      7.0416
   272.5000     93.8921      0.0000    677.9618      6.9707
   272.7500     92.2065      0.0000    677.8088      6.8927
