~Version Information
VERS.                      2.0: CWLS Log ASCII Standard - VERSION 2.0
WRAP.                       NO: One line per depth step
~Well Information Block
STRT.FT               505.0000: 
STOP.FT               770.5000: 
STEP.FT                 0.1000: 
NULL.                -999.2500: 
COMP.          Pioneer Natural Resources: COMPANY
WELL.                Zed 11-23: WELL
FLD.           Purgatoire River: FIELD
LOC.           641' FNL & 952' FWL: LOCATION
CNTY.               Las Animas: COUNTY
SRVC.                Patterson: SERVICE COMPANY
DATE.          Mon Feb 27 07:12:43 2006: LOG DATE
UWI.           05 071 08702 00: UNIQUE WELL ID
STAT.                 Colorado: STATE
~Curve Information Block
DEPT.FT            0 000 00 00: Depth
DCAL.in                       : CDL Caliper
RHOB.g/cc                     : CDL Bulk Density
RHOC.g/cc                     : CDL Density Correction
DPOR.pu                       : CDL Density Porosity
GR.GAPI                       : Gamma Ray
NPOR.pu                       : Neutron Porosity
~Parameter Information Block
~A  Depth       DCAL        RHOB        RHOC        DPOR         GR         NPOR    
# ...
   533.8000      7.9705      2.5681      0.0885      4.9661     81.2511     15.0623
   533.9000      7.9705      2.5567      0.0561      5.6523     71.6480     13.9785
   534.0000      7.9584      2.5410     -0.0139      6.6090     65.7916     14.5742
   534.1000      7.9584      2.5485      0.0249      6.1494     69.0750     18.0745
   534.2000      7.9584      2.5719      0.0979      4.7339     74.4827     22.4330
   534.3000      7.9477      2.5823      0.1028      4.1052     75.1762     24.8063
   534.4000      7.9477      2.5714      0.0481      4.7636     73.3265     23.8766
   534.5000      7.9539      2.5539      0.0130      5.8238     75.4023     19.8639
   534.6000      7.9539      2.5457      0.0104      6.3213     78.9063     15.4089
   534.7000      7.9539      2.5486      0.0554      6.1473     78.1320     14.2667
   534.8000      7.9515      2.5547      0.0106      5.7762     75.6452     17.0230
   534.9000      7.9515      2.5606      0.0313      5.4174     74.7921     19.5915
   535.0000      7.9494      2.5597      0.0458      5.4723     75.6949     19.9812
   535.1000      7.9494      2.5504     -0.0039      6.0375     78.6182     20.4682
   535.2000      7.9494      2.5449     -0.0247      6.3723     81.1968     21.8666
   535.3000      7.9479      2.5450      0.0384      6.3629     81.0222     22.7716
   535.4000      7.9479      2.5424      0.0028      6.5237     80.0745     22.3441
   535.5000      7.9477      2.5343      0.0131      7.0148     78.5417     19.9871
   535.6000      7.9477      2.5262     -0.0269      7.5023     73.5134     15.5154
   535.7000      7.9477      2.5283      0.0037      7.3778     66.3043     11.5527
   535.8000      7.9413      2.5395      0.0308      6.6951     62.1075     12.6599
   535.9000      7.9413      2.5527     -0.0053      5.8964     63.5801     17.1239
   536.0000      7.9484      2.5681      0.0333      4.9614     65.3131     19.3137
   536.1000      7.9484      2.5850      0.0719      3.9388     61.6580     18.4340
   536.2000      7.9484      2.5982      0.0748      3.1394     56.6725     18.1746
   536.3000      7.9730      2.6033      0.0279      2.8294     56.5611     19.2444
   536.4000      7.9730      2.6018      0.0220      2.9205     58.6682     19.6236
   536.5000      7.9740      2.5987      0.0305      3.1068     57.4424     17.6088
   536.6000      7.9740      2.5965      0.0340      3.2425     54.5087     14.5626
   536.7000      7.9740      2.5944      0.0379      3.3725     54.3840     14.2091
   536.8000      7.9767      2.5920      0.0255      3.5130     57.4617     16.6419
   536.9000      7.9767      2.5968      0.0240      3.2232     59.1328     17.6020
   537.0000      7.9683      2.6130      0.0498      2.2445     54.5541     15.9702
   537.1000      7.9683      2.6201      0.0506      1.8139     47.3443     14.6562
   537.2000      7.9683      2.6011      0.0535      2.9629     44.1320     15.4064
   537.3000      7.9639      2.5728     -0.0130      4.6769     42.7651     17.7712
   537.4000      7.9639      2.5551      0.0196      5.7539     42.0102     20.2951
   537.5000      7.9654      2.5441      0.0137      6.4174     45.3643     20.6335
   537.6000      7.9654      2.5408     -0.0021      6.6164     50.7403     17.3301
   537.7000      7.9654      2.5566     -0.0178      5.6624     54.0284     13.2764
   537.8000      7.9698      2.5810      0.0804      4.1806     54.4241     12.9927
   537.9000      7.9698      2.5953      0.0115      3.3132     52.4467     15.9906
   538.0000      7.9482      2.5982      0.0458      3.1419     49.9708     16.7176
   538.1000      7.9482      2.5864      0.0557      3.8543     50.5284     13.0707
   538.2000      7.9482      2.5645     -0.0062      5.1821     55.6379      9.3909
   538.3000      7.9591      2.5544     -0.0259      5.7951     60.9348     11.2887
   538.4000      7.9591      2.5630      0.0016      5.2731     61.8869     15.4015
   538.5000      7.9510      2.5736      0.0527      4.6309     60.2997     15.9036
   538.6000      7.9510      2.5752      0.0107      4.5363     57.1119     13.3322
   538.7000      7.9510      2.5722      0.0405      4.7157     52.2105     12.6901
   538.8000      7.9563      2.5635      0.0301      5.2417     50.3224     15.3846
   538.9000      7.9563      2.5410      0.0091      6.6057     54.4819     18.0404
   539.0000      7.9640      2.5066      0.0008      8.6933     58.9781     18.3780
   539.1000      7.9640      2.4736     -0.0336     10.6901     59.0703     16.1038
   539.2000      7.9640      2.4554     -0.0063     11.7965     59.0068     12.6809
   539.3000      7.9603      2.4578     -0.0611     11.6514     62.8776     11.9139
   539.4000      7.9603      2.4731      0.0184     10.7238     67.0606     14.5133
   539.5000      7.9639      2.4871     -0.0240      9.8702     65.4925     16.7421
   539.6000      7.9639      2.5040     -0.0212      8.8461     58.0811     18.6392
   539.7000      7.9639      2.5321      0.0393      7.1436     53.1639     21.9374
   539.8000      7.9673      2.5654      0.0674      5.1247     57.9020     24.6693
   539.9000      7.9673      2.5913      0.1050      3.5562     65.0592     23.9866
   540.0000      7.9599      2.6016      0.0846      2.9330     64.6382     20.3633
   540.1000      7.9599      2.6009      0.0854      2.9780     60.6292     16.6221
   540.2000      7.9599      2.5908      0.0931      3.5862     57.2289     15.0506
   540.3000      7.9501      2.5749      0.0274      4.5539     54.1057     14.7667
   540.4000      7.9501      2.5723      0.0215      4.7074     54.8837     13.7857
   540.5000      7.9547      2.5900      0.0549      3.6362     58.6790     13.8541
   540.6000      7.9547      2.6070      0.1146      2.6086     62.1377     15.9255
   540.7000      7.9547      2.6062      0.0397      2.6516     64.9467     17.6741
   540.8000      7.9687      2.5928      0.0393      3.4684     64.2078     18.6978
   540.9000      7.9687      2.5752      0.0139      4.5317     57.5905     19.7524
   541.0000      7.9809      2.5571     -0.0158      5.6332     50.4412     19.2347
   541.1000      7.9809      2.5332      0.0393      7.0759     48.7616     16.3595
   541.2000      7.9809      2.5001     -0.0323      9.0846     51.0671     14.3335
   541.3000      7.9768      2.4717     -0.0615     10.8088     55.5329     15.7724
   541.4000      7.9768      2.4574      0.0098     11.6715     64.1603     18.0358
   541.5000      7.9845      2.4474     -0.0011     12.2812     75.4883     19.4052
   541.6000      7.9845      2.4349     -0.0460     13.0369     85.4367     21.9673
   541.7000      7.9845      2.4273     -0.0484     13.4999     94.1935     25.6478
   541.8000      7.9903      2.4227      0.0324     13.7745    101.0599     27.9505
   541.9000      7.9903      2.4033      0.0417     14.9489    104.8202     27.1277
   542.0000      7.9695      2.3582      0.0319     17.6867    110.5826     24.4983
   542.1000      7.9695      2.2914      0.0034     21.7331    116.6030     23.8845
   542.2000      7.9695      2.2147      0.0017     26.3827    113.1516     25.9221
   542.3000      7.9642      2.1361     -0.0507     31.1430    103.8243     26.4682
   542.4000      7.9642      2.0481     -0.0063     36.4758     97.1815     24.2046
   542.5000      7.9664      1.9422     -0.0494     42.8990     95.1128     23.6641
   542.6000      7.9664      1.8344     -0.0527     49.4329     96.6136     26.8338
   542.7000      7.9664      1.7395     -0.0255     55.1819     94.8222     30.2944
   542.8000      7.9640      1.6522     -0.0312     60.4719     84.4684     30.2364
   542.9000      7.9640      1.5721     -0.0235     65.3268     72.1911     29.0851
   543.0000      8.0091      1.5067      0.0021     69.2935     65.4695     30.4537
   543.1000      8.0091      1.4506      0.0813     72.6894     62.5597     33.3851
   543.2000      8.0091      1.3947      0.0587     76.0772     60.7187     33.6364
   543.3000      8.0245      1.3475      0.0511     78.9393     57.9000     29.5564
