~Version Information
VERS.                      2.0: CWLS Log ASCII Standard - VERSION 2.0
WRAP.                       NO: One line per depth step
~Well Information Block
STRT.FT                -3.0000: 
STOP.FT              1123.0000: 
STEP.FT                 0.2500: 
NULL.                -999.2500: 
COMP.          Pioneer Natural Resources: COMPANY
WELL.               Ryan 41-17: WELL
FLD.           Purgatoire River: FIELD
LOC.           822' FNL & 532' FEL--: LOCATION
CNTY.               Las Animas: COUNTY
SRVC.                Patterson: SERVICE COMPANY
DATE.          Mon Mar 27 14:50:31 2006: LOG DATE
UWI.           05 071 08719 00: UNIQUE WELL ID
STAT.                 Colorado: STATE
~Curve Information Block
DEPT.FT            0 000 00 00: Depth
CCL.                          : Casing Collar Locator
TT3.usec                      : CBL 3' Travel Time
AMP3.mV                       : CBL 3' Amplitude
GR.GAPI                       : Gamma Ray
~Parameter Information Block
~A  Depth       CCL         TT3         AMP3         GR     
# ...
   700.5000      0.0000    295.7871     53.4772     86.8484
   700.7500      0.0000    298.2432     53.2380     92.0349
   701.0000      0.0000    300.3712     53.0902     97.2028
   701.2500      0.0000    300.9828     53.0559     97.3973
   701.5000      0.0000    301.2971     52.8946     93.2868
   701.7500      0.0000    301.3489     52.6226     89.2936
   702.0000      0.0000    301.3783     51.9519     83.8265
   702.2500      0.0000    301.3991     51.4036     80.6382
   702.5000      0.0000    301.4424     50.6078     75.6697
   702.7500      0.0000    301.4738     50.1618     72.3321
   703.0000      0.0000    301.5150     49.6282     68.8800
   703.2500      0.0000    301.5365     49.3405     68.4786
   703.5000      0.0000    301.5606     48.9861     70.4711
   703.7500      0.0000    301.5729     48.7812     72.3541
   704.0000      0.0000    301.5934     48.4561     73.9390
   704.2500      0.0000    301.6140     48.2073     73.9505
   704.5000      0.0000    301.6540     47.8403     73.7344
   704.7500      0.0000    301.6780     47.6472     74.1286
   705.0000      0.0000    301.6956     47.4184     75.0715
   705.2500      0.0000    301.6980     47.2342     75.0663
   705.5000      0.0000    301.7371     46.7916     73.0856
   705.7500      0.0000    301.8500     46.3665     70.4335
   706.0000      0.0000    302.5449     45.5511     65.2904
   706.2500      0.0000    303.9770     44.8821     61.9317
   706.5000      0.0000    309.5657     43.6006     58.5344
   706.7500      0.0000    316.7910     42.4723     57.9482
   707.0000      0.0000    332.5494     40.2698     59.6801
   707.2500      0.0000    343.9454     38.5290     62.0566
   707.5000      0.0000    357.2722     35.8608     65.8874
   707.7500      0.0000    362.5704     34.2540     67.8048
   708.0000      0.0000    366.3822     32.2592     69.4931
   708.2500      0.0000    366.2555     31.2372     70.3239
   708.5000      0.0000    360.0030     30.2897     71.9132
   708.7500      0.0000    351.4608     30.1163     73.1320
   709.0000      0.0000    335.5285     30.4817     74.4362
   709.2500     -2.0000    325.8313     31.0239     74.5839
   709.5000      0.0000    315.5980     32.1712     73.5625
   709.7500      0.0000    311.4018     33.2439     72.1642
   710.0000      0.0000    306.6755     35.7321     69.4145
   710.2500      0.0000    303.2277     38.2155     67.4556
   710.5000      0.0000    296.5953     43.0682     64.6381
   710.7500      0.0000    291.3977     46.5862     62.8244
   711.0000      0.0000    283.2773     51.3227     60.1717
   711.2500      0.0000    278.0690     53.8247     58.5753
   711.5000      0.0000    271.2125     56.5620     56.8839
   711.7500      0.0000    267.6932     57.7727     56.6313
   712.0000      0.0000    264.3438     58.8505     58.2976
   712.2500      0.0000    263.2039     59.2716     60.7942
   712.5000      0.0000    262.4315     59.7793     65.4770
   712.7500      0.0000    262.2060     60.0996     68.2132
   713.0000      0.0000    262.0328     60.4946     70.2307
   713.2500      0.0000    261.9742     60.6731     69.5717
   713.5000      0.0000    261.9279     60.8599     65.4459
   713.7500      0.0000    261.8973     60.9917     61.5648
   714.0000      0.0000    261.8245     61.2557     57.2624
   714.2500      0.0000    261.7668     61.4332     57.0786
   714.5000      0.0000    261.7196     61.5360     61.4291
   714.7500      0.0000    261.7389     61.4407     66.5517
   715.0000      0.0000    261.8271     61.1432     75.5716
   715.2500      0.0000    261.8898     60.9500     81.4751
   715.5000      0.0000    261.9399     60.7804     88.6359
   715.7500      0.0000    261.9349     60.7505     91.5129
   716.0000      0.0000    261.8798     60.7812     92.3830
   716.2500      0.0000    261.8278     60.8098     90.9492
   716.5000      0.0000    261.7609     60.8052     87.2857
   716.7500      0.0000    261.7321     60.7734     85.0397
   717.0000      0.0000    261.6977     60.7562     83.7009
   717.2500      0.0000    261.6673     60.8144     84.4017
   717.5000      0.0000    261.6020     61.0507     86.6121
   717.7500      0.0000    261.5493     61.2962     87.7622
   718.0000      0.0000    261.4801     61.6857     87.8111
   718.2500      0.0000    261.4615     61.8599     86.4049
   718.5000      0.0000    261.4983     61.8807     81.4336
   718.7500      0.0000    261.5608     61.7400     75.9272
   719.0000      0.0000    261.6909     61.3584     65.2445
   719.2500      0.0000    261.7984     61.0117     57.8043
   719.5000      0.0000    261.9898     60.3961     48.3707
   719.7500      0.0000    262.1258     59.9760     43.8061
   720.0000      0.0000    262.3105     59.4316     39.4261
   720.2500      0.0000    262.4082     59.1573     38.1630
   720.5000      0.0000    262.5114     58.8860     39.7749
   720.7500      0.0000    262.5553     58.7861     43.7056
   721.0000      0.0000    262.5922     58.7322     52.3391
   721.2500      0.0000    262.5938     58.7678     57.3210
   721.5000      0.0000    262.5378     58.9821     59.1650
   721.7500      0.0000    262.4553     59.2416     56.1276
   722.0000      0.0000    262.2920     59.7208     48.6855
   722.2500      0.0000    262.1876     60.0174     44.7273
   722.5000      0.0000    262.0820     60.3150     43.2062
   722.7500      0.0000    262.0558     60.3924     45.0101
   723.0000      0.0000    262.0651     60.3746     49.8421
   723.2500      0.0000    262.0774     60.3380     53.0429
   723.5000      0.0000    262.0667     60.3374     55.7955
   723.7500      0.0000    262.0365     60.3844     55.4656
   724.0000      0.0000    261.9682     60.5160     51.2935
   724.2500      0.0000    261.9081     60.6548     46.4550
   724.5000      0.0000    261.7903     60.9684     37.5876
   724.7500      0.0000    261.6955     61.2438     31.7044
   725.0000      0.0000    261.5458     61.7011     24.8914
   725.2500      0.0000    261.4566     61.9762     22.6647
   725.5000      0.0000    261.3768     62.2056     23.6248
   725.7500      0.0000    261.3876     62.1625     26.9599
   726.0000      0.0000    261.5450     61.7563     34.7440
   726.2500      0.0000    261.7925     61.2749     40.8193
   726.5000      0.0000    262.6363     60.2908     49.9898
   726.7500      0.0000    263.8632     59.4911     55.8930
   727.0000      0.0000    267.5985     58.1441     64.5806
   727.2500      0.0000    271.7524     57.2039     70.1693
   727.5000      0.0000    280.0931     55.8422     77.1566
   727.7500      0.0000    286.0654     55.0188     79.9708
   728.0000      0.0000    293.5618     53.9228     80.4597
   728.2500      0.0000    296.8984     53.2443     78.4975
   728.5000      0.0000    299.5836     52.2368     73.9672
   728.7500      0.0000    300.3546     51.5904     71.4650
   729.0000      0.0000    300.8041     50.7916     70.2429
   729.2500      0.0000    300.8972     50.4522     70.8387
   729.5000      0.0000    300.9106     50.2800     72.0641
   729.7500      0.0000    300.8759     50.3637     72.5047
   730.0000      0.0000    300.8003     50.6919     73.0908
   730.2500      0.0000    300.7473     50.9849     73.8200
   730.5000      0.0000    300.6604     51.4630     74.6089
   730.7500      0.0000    300.5679     51.7924     73.6908
   731.0000      0.0000    300.1867     52.2925     68.6324
   731.2500      0.0000    299.4911     52.6206     63.2266
   731.5000      0.0000    296.9344     53.1306     54.8118
   731.7500      0.0000    293.6784     53.5472     50.8364
   732.0000      0.0000    286.2749     54.4210     49.3764
   732.2500      0.0000    280.3369     55.1993     51.8267
   732.5000      0.0000    271.9981     56.6068     60.5401
   732.7500      0.0000    267.8110     57.6525     69.3464
   733.0000      0.0000    263.9761     59.3187     85.7294
   733.2500      0.0000    262.6563     60.4752     97.5083
   733.5000      0.0000    261.6501     62.2392    114.0799
   733.7500      0.0000    261.2865     63.3847    123.3458
