~Version Information
 VERS.                                  2.0 : CWLS LAS VERSION
 WRAP.                                   NO : WRAPING MODE
 SWARE .                  MController 2.5.1 : SOFTWARE VERSION
~Well Information
 WELL.                 Rock Island 44-24 Tr : WELL
 COMP.  Pioneer Natural Resources USA, Inc. : COMPANY
 FLD.                      Purgatoire River : FIELD
 LOC.              SE/SE Sec.24, T32S, R66W : LOCATION
 DATE.                04/17/2006-04/18/2006 : DATE(S) LOGGED
 SRVC.                  Entrada GeoSciences : SERVICE COMPANY
 STAT.                             Colorado : STATE
 CNTY.                           Las Animas : COUNTY
 CTRY.                        United States : COUNTRY
 API.                       05-071-08680-00 : API NUMBER
 STRT.FT                             729.00 : START DEPTH
 STOP.FT                            1245.00 : STOP DEPTH
 STEP.FT                               1.00 : DEPTH INCREMENT
 NULL.                                -9999 : NULL VALUE
~Curve information
 DEPTH.FT                                   :
 ROP.MIN/FT                                 :
 GAS.UNITS                                  :
~ASCII Log data
# ...
     1129.00         0.23        773.2 
     1130.00         0.27        788.2 
     1131.00         0.27        763.3 
     1132.00         0.23        723.3 
     1133.00         0.13        680.4 
     1134.00         0.13        642.0 
     1135.00         0.27        651.6 
     1136.00         0.27        781.5 
     1137.00         0.17        899.5 
     1138.00         0.33       1572.4 
     1139.00         0.20       1877.8 
     1140.00         0.17       1199.8 
     1141.00         0.13       1126.9 
     1142.00         0.22       1060.7 
     1143.00         0.17       1014.6 
     1144.00         0.23       1083.4 
     1145.00         0.23       1150.9 
     1146.00         0.20       1164.0 
     1147.00         0.20       1165.0 
     1148.00         0.20       1156.6 
     1149.00         0.13       1151.5 
     1150.00         0.20       1136.8 
     1151.00         0.27       1131.7 
     1152.00         0.17       1118.6 
     1153.00         0.17       1090.8 
     1154.00         0.17       1074.1 
     1155.00         0.20       1075.7 
     1156.00         0.23       1069.0 
     1157.00         0.27       1083.1 
     1158.00         0.27       1050.1 
     1159.00         0.28        960.3 
     1160.00         0.13        880.0 
     1161.00         0.20        808.3 
     1162.00         0.27        899.5 
     1163.00         0.17       1046.6 
     1164.00         0.10       1155.7 
     1165.00         0.23       1567.6 
     1166.00         0.23       2229.6 
     1167.00         0.23       2495.7 
     1168.00         0.20       2468.9 
     1169.00         0.23       1632.5 
     1170.00         0.17       1485.7 
     1171.00         0.20       1361.6 
     1172.00         0.17       1266.7 
     1173.00         0.18       1205.9 
     1174.00         0.17       1179.3 
     1175.00         0.17       1160.5 
     1176.00         0.17       1150.6 
     1177.00         0.17       1141.6 
     1178.00         0.13       1131.1 
     1179.00         0.17       1123.1 
     1180.00         0.17       1114.1 
     1181.00         0.20       1105.5 
     1182.00         0.17       1096.8 
     1183.00         0.13       1092.7 
     1184.00         0.27       1084.4 
     1185.00         0.13       1079.9 
     1186.00         0.13       1083.4 
     1187.00         0.17       1077.3 
     1188.00         0.13       1079.6 
     1189.00         0.33       1066.4 
     1190.00         0.27       1059.4 
     1191.00         0.35        955.1 
     1192.00         0.27        833.0 
     1193.00         0.40        750.5 
     1194.00         0.40       1096.8 
     1195.00         0.27       1627.4 
     1196.00         0.27       2347.7 
     1197.00         0.43       2449.4 
     1198.00         0.33       1978.3 
     1199.00         0.47       1450.2 
     1200.00         0.27       1284.9 
     1201.00         0.32       1180.9 
     1202.00         0.27       1127.2 
     1203.00         0.27       1095.9 
     1204.00         0.17       1083.7 
     1205.00         0.13       1069.6 
     1206.00         0.17       1048.5 
     1207.00         0.13       1037.7 
     1208.00         0.13       1027.7 
     1209.00         0.17       1013.4 
     1210.00         0.23       1008.2 
     1211.00         0.43       1044.7 
     1212.00         0.37        916.8 
     1213.00         0.27        769.3 
     1214.00         0.23        715.9 
     1215.00         0.28        700.2 
     1216.00         0.27        715.9 
     1217.00         0.27        733.2 
     1218.00         0.27        750.5 
     1219.00         0.27        774.1 
     1220.00         0.27        853.1 
     1221.00         0.27       1017.5 
     1222.00         0.27       1272.1 
     1223.00         0.27       1558.3 
     1224.00         0.43       1062.4 
     1225.00         0.37       1612.2 
     1226.00         0.27       1174.1 
     1227.00         0.35       1101.3 
     1228.00         0.20       1648.8 
     1229.00         0.27       1242.1 
     1230.00         0.33       1869.2 
     1231.00         0.27       1419.0 
     1232.00         0.33       1067.6 
     1233.00         0.37       1654.2 
     1234.00         0.37       1033.8 
     1235.00         0.23       1207.5 
     1236.00         0.17       1300.6 
     1237.00         0.27       1378.3 
     1238.00         0.28       1408.7 
     1239.00         0.20       1429.1 
     1240.00         0.30       1459.5 
     1241.00         0.30       1480.9 
     1242.00         0.27       1472.0 
     1243.00         0.33       1475.8 
     1244.00         0.30       1212.4 
     1245.00         0.13       1112.2 
