~Version Information
VERS.                      2.0: CWLS Log ASCII Standard - VERSION 2.0
WRAP.                       NO: One line per depth step
~Well Information Block
STRT.FT               260.0000: 
STOP.FT              1230.0000: 
STEP.FT                 0.2500: 
NULL.                -999.2500: 
COMP.          Pioneer Natural Resources: COMPANY
WELL.             Mahalo 12-20: WELL
FLD.           Purgatoire River: FIELD
LOC.           1689' FNL & 479' FWL: LOCATION
CNTY.               Las Animas: COUNTY
SRVC.                Patterson: SERVICE COMPANY
DATE.          Thu Feb 23 20:25:01 2006: LOG DATE
UWI.           05 071 08700 00: UNIQUE WELL ID
STAT.                 Colorado: STATE
~Curve Information Block
DEPT.FT            0 000 00 00: Depth
SN.Ohm-m                      : IEL Short Normal
SP.mV                         : IEL Spontaneous Potential
DIR.Ohm-m                     : IEL Induction Resistivity
GR.GAPI                       : Gamma Ray
~Parameter Information Block
~A  Depth        SN          SP         DIR          GR     
   260.0000   2000.0000   2000.0000     68.2954    120.4238
   260.2500   2000.0000   2000.0000     67.8913    119.9123
   260.5000   2000.0000   2000.0000     67.0949    120.3943
   260.7500   2000.0000   2000.0000     65.9729    120.8856
   261.0000   2000.0000   2000.0000     64.7467    120.6956
   261.2500   2000.0000   2000.0000     63.6592    119.7916
   261.5000   2000.0000   2000.0000     62.8548    118.3081
   261.7500   2000.0000   2000.0000     62.3656    118.1519
   262.0000   2000.0000   2000.0000     62.1609    119.6626
   262.2500   2000.0000   2000.0000     62.1926    121.2007
   262.5000   2000.0000   2000.0000     62.4038    122.8142
   262.7500   2000.0000   2000.0000     62.7214    122.9969
   263.0000   2000.0000   2000.0000     63.0434    122.0178
   263.2500   2000.0000   2000.0000     63.2487    120.8491
   263.5000   2000.0000   2000.0000     63.2320    119.1595
   263.7500   2000.0000   2000.0000     62.9606    118.5709
   264.0000   2000.0000   2000.0000     62.4951    118.8149
   264.2500   2000.0000   2000.0000     61.9570    119.4840
   264.5000   2000.0000   2000.0000     61.4654    120.3360
   264.7500   2000.0000   2000.0000     61.0963    120.2348
   265.0000   2000.0000   2000.0000     60.8741    118.3485
   265.2500   2000.0000   2000.0000     60.7742    115.7524
   265.5000   2000.0000   2000.0000     60.7257    110.1773
   265.7500   2000.0000   2000.0000     60.6373    106.0086
   266.0000   2000.0000   2000.0000     60.4563    100.7679
   266.2500   2000.0000   2000.0000     60.2209     98.7283
   266.5000   2000.0000   2000.0000     60.0461     97.7369
   266.7500   2000.0000   2000.0000     60.0454     94.2257
   267.0000   2000.0000   2000.0000     60.2431     92.4921
   267.2500   2000.0000   2000.0000     60.5324     89.9765
   267.5000   2000.0000   2000.0000     60.6981     85.1916
   267.7500   2000.0000   2000.0000     60.4881     74.0994
   268.0000   2000.0000   2000.0000     59.6885     73.4360
   268.2500   2000.0000   2000.0000     58.1732     75.2873
   268.5000   2000.0000   2000.0000     55.9589     81.1840
   268.7500   2000.0000   2000.0000     53.2776     76.6582
   269.0000   2000.0000   2000.0000     50.5627     84.7507
   269.2500   2000.0000   2000.0000     48.2663     89.7136
   269.5000   2000.0000   2000.0000     46.6218     94.8026
   269.7500   2000.0000   2000.0000     45.5278     83.5298
   270.0000   2000.0000   2000.0000     44.6108     82.5485
   270.2500   2000.0000   2000.0000     43.4312     80.7194
   270.5000   2000.0000   2000.0000     41.7280     77.3981
   270.7500   2000.0000   2000.0000     39.5726     75.2288
   271.0000   2000.0000   2000.0000     37.3753     72.0533
   271.2500   2000.0000   2000.0000     35.7967     69.8195
   271.5000   2000.0000   2000.0000     35.6641     66.5576
   271.7500   2000.0000   2000.0000     38.0732     65.1269
   272.0000   2000.0000   2000.0000     44.9478     65.4767
   272.2500   2000.0000   2000.0000     60.7775     67.6606
   272.5000   2000.0000   2000.0000     98.7324     73.1363
   272.7500   2000.0000   2000.0000    211.3263     77.5439
   273.0000   2000.0000   2000.0000    819.1949     84.3769
   273.2500   2000.0000   2000.0000 100000.0000     88.7160
   273.5000   2000.0000   2000.0000 100000.0000     94.1983
   273.7500   2000.0000   2000.0000 100000.0000     96.7370
   274.0000   2000.0000   2000.0000  10201.1221     98.5523
   274.2500   2000.0000   2000.0000 100000.0000     98.6464
   274.5000   2000.0000   2000.0000 100000.0000     97.8557
   274.7500   2000.0000   2000.0000 100000.0000     97.0236
   275.0000   2000.0000   2000.0000 100000.0000     95.3185
   275.2500   2000.0000   2000.0000 100000.0000     93.7093
   275.5000   2000.0000   2000.0000 100000.0000     90.5227
   275.7500   2000.0000   2000.0000 100000.0000     88.0116
   276.0000   2000.0000   2000.0000 100000.0000     83.8753
   276.2500   2000.0000   2000.0000 100000.0000     80.9873
   276.5000   2000.0000   2000.0000 100000.0000     76.9108
   276.7500   2000.0000   2000.0000 100000.0000     74.6680
   277.0000   2000.0000   2000.0000 100000.0000     72.1219
   277.2500   2000.0000   2000.0000 100000.0000     70.8108
   277.5000   2000.0000   2000.0000 100000.0000     69.3111
   277.7500   2000.0000   2000.0000 100000.0000     68.7277
   278.0000   2000.0000   2000.0000 100000.0000     68.6554
   278.2500   2000.0000   2000.0000 100000.0000     69.2873
   278.5000   2000.0000   2000.0000 100000.0000     71.9841
   278.7500   2000.0000   2000.0000     39.2356     75.4561
   279.0000   2000.0000   2000.0000      7.0808     83.0191
   279.2500   2000.0000   2000.0000      4.0947     88.6237
   279.5000   2000.0000   2000.0000      3.2503     95.5746
   279.7500   2000.0000   2000.0000      3.0742     98.5077
   280.0000   2000.0000   2000.0000      3.2458    100.8446
   280.2500   2000.0000   2000.0000      3.6825    101.7255
   280.5000   2000.0000   2000.0000      4.4228    102.4363
   280.7500   2000.0000   2000.0000      5.6610    102.2774
   281.0000   2000.0000   2000.0000      7.8587    101.0878
   281.2500   2000.0000   2000.0000     11.8680    100.1395
   281.5000   2000.0000   2000.0000     18.2545     99.3870
   281.7500   2000.0000   2000.0000     23.4510     99.5064
   282.0000   2000.0000   2000.0000     21.6431    100.3273
   282.2500   2000.0000   2000.0000     16.8383    101.0399
   282.5000   2000.0000   2000.0000     13.3656    102.1466
   282.7500   2000.0000   2000.0000     11.4638    102.9753
   283.0000   2000.0000   2000.0000     10.5331    104.5327
   283.2500   2000.0000   2000.0000     10.1153    105.7620
   283.5000   2000.0000   2000.0000      9.9327    107.6214
   283.7500   2000.0000   2000.0000      9.8371    108.6532
   284.0000   2000.0000   2000.0000      9.7664    109.5151
   284.2500   2000.0000   2000.0000      9.7120    109.5160
   284.5000   2000.0000   2000.0000      9.6999    109.0622
   284.7500   2000.0000   2000.0000      9.7715    109.0784
   285.0000   2000.0000   2000.0000      9.9556    110.3839
   285.2500   2000.0000   2000.0000     10.2293    111.8704
   285.5000   2000.0000   2000.0000     10.4964    113.7490
   285.7500   2000.0000   2000.0000     10.6184    114.2690
   286.0000   2000.0000   2000.0000     10.5038    114.2219
   286.2500   2000.0000   2000.0000     10.1743    114.1847
   286.5000   2000.0000   2000.0000      9.7322    114.9006
   286.7500   2000.0000   2000.0000      9.2785    116.0382
   287.0000   2000.0000   2000.0000      8.8703    118.4928
   287.2500   2000.0000   2000.0000      8.5271    120.3119
   287.5000   2000.0000   2000.0000      8.2537    122.7223
   287.7500   2000.0000   2000.0000      8.0531    123.9370
   288.0000   2000.0000   2000.0000      7.9263    125.4187
   288.2500   2000.0000   2000.0000      7.8643    126.4305
   288.5000   2000.0000   2000.0000      7.8440    127.6826
   288.7500   2000.0000   2000.0000      7.8340    127.6135
   289.0000   2000.0000   2000.0000      7.8091    124.9924
   289.2500   2000.0000   2000.0000      7.7634    121.5512
   289.5000   2000.0000   2000.0000      7.7100    114.9328
   289.7500   2000.0000   2000.0000      7.6706    110.4475
   290.0000   2000.0000   2000.0000      7.6637    105.2453
   290.2500   2000.0000   2000.0000      7.6981    103.7906
   290.5000   2000.0000   2000.0000      7.7719    105.8494
   290.7500   2000.0000   2000.0000      7.8726    109.9455
   291.0000   2000.0000   2000.0000      7.9785    118.2794
   291.2500   2000.0000   2000.0000      8.0625    123.6609
   291.5000   2000.0000   2000.0000      8.0989    129.2243
   291.7500   2000.0000   2000.0000      8.0736    130.8085
   292.0000   2000.0000   2000.0000      7.9896    130.8236
   292.2500   2000.0000   2000.0000      7.8665    130.3289
   292.5000   2000.0000   2000.0000      7.7314    130.5439
   292.7500   2000.0000   2000.0000      7.6085    131.7184
   293.0000   2000.0000   2000.0000      7.5121    134.4660
   293.2500   2000.0000   2000.0000      7.4445    136.2505
