~Version Information
VERS.                      2.0: CWLS Log ASCII Standard - VERSION 2.0
WRAP.                       NO: One line per depth step
~Well Information Block
STRT.FT               680.0000: 
STOP.FT              1585.5000: 
STEP.FT                 0.1000: 
NULL.                -999.2500: 
COMP.          Pioneer Natural Resources: COMPANY
WELL.          Screamin' 12-29: WELL
FLD.           Purgatoire River: FIELD
LOC.           2038' FNL & 612' FWL: LOCATION
CNTY.               Las Animas: COUNTY
SRVC.                Patterson: SERVICE COMPANY
DATE.          Wed Mar 29 10:01:18 2006: LOG DATE
UWI.           05 071 08661 00: UNIQUE WELL ID
STAT.                 Colorado: STATE
~Curve Information Block
DEPT.FT            0 000 00 00: Depth
DCAL.in                       : CDL Caliper
RHOB.g/cc                     : CDL Bulk Density
RHOC.g/cc                     : CDL Density Correction
DPOR.pu                       : CDL Density Porosity
GR.GAPI                       : Gamma Ray
NPOR.pu                       : Neutron Porosity
~Parameter Information Block
~A  Depth       DCAL        RHOB        RHOC        DPOR         GR         NPOR    
# ...
  1572.8000      7.8247      2.4832      0.0363     10.1068   -999.2500   -999.2500
  1572.9000      7.8247      2.4687      0.0419     10.9877   -999.2500   -999.2500
  1573.0000      7.8267      2.4516      0.0010     12.0271   -999.2500   -999.2500
  1573.1000      7.8267      2.4432      0.0310     12.5329   -999.2500   -999.2500
  1573.2000      7.8267      2.4473      0.0310     12.2839   -999.2500   -999.2500
  1573.3000      7.8266      2.4613      0.0112     11.4389   -999.2500   -999.2500
  1573.4000      7.8266      2.4814      0.0319     10.2201   -999.2500   -999.2500
  1573.5000      7.8214      2.4971      0.0669      9.2653   -999.2500   -999.2500
  1573.6000      7.8214      2.4944      0.0715      9.4299   -999.2500   -999.2500
  1573.7000      7.8214      2.4796      0.0385     10.3253   -999.2500   -999.2500
  1573.8000      7.8136      2.4751      0.0218     10.6025   -999.2500   -999.2500
  1573.9000      7.8136      2.4855      0.0501      9.9691   -999.2500   -999.2500
  1574.0000      7.8100      2.5015      0.0562      9.0007   -999.2500   -999.2500
  1574.1000      7.8100      2.5177      0.0646      8.0161   -999.2500   -999.2500
  1574.2000      7.8100      2.5302      0.0746      7.2589   -999.2500   -999.2500
  1574.3000      7.8086      2.5391      0.0582      6.7222   -999.2500   -999.2500
  1574.4000      7.8086      2.5494      0.0862      6.0980   -999.2500   -999.2500
  1574.5000      7.8070      2.5598      0.0770      5.4691   -999.2500   -999.2500
  1574.6000      7.8070      2.5640      0.0908      5.2118   -999.2500   -999.2500
  1574.7000      7.8070      2.5622      0.0443      5.3183   -999.2500   -999.2500
  1574.8000      7.8065      2.5573      0.0768      5.6185   -999.2500   -999.2500
  1574.9000      7.8065      2.5489      0.0567      6.1268   -999.2500   -999.2500
  1575.0000      7.8063      2.5438      0.0648      6.4370   -999.2500   -999.2500
  1575.1000      7.8063      2.5447      0.0586      6.3795   -999.2500   -999.2500
  1575.2000      7.8063      2.5410      0.0557      6.6055   -999.2500   -999.2500
  1575.3000      7.8056      2.5279      0.0590      7.4015   -999.2500   -999.2500
  1575.4000      7.8056      2.5168      0.0201      8.0708   -999.2500   -999.2500
  1575.5000      7.8057      2.5200      0.0159      7.8816   -999.2500   -999.2500
  1575.6000      7.8057      2.5297      0.0547      7.2923   -999.2500   -999.2500
  1575.7000      7.8057      2.5332      0.0272      7.0761   -999.2500   -999.2500
  1575.8000      7.8064      2.5349      0.0489      6.9772   -999.2500   -999.2500
  1575.9000      7.8064      2.5381      0.0584      6.7840   -999.2500   -999.2500
  1576.0000      7.8030      2.5357      0.0569      6.9277   -999.2500   -999.2500
  1576.1000      7.8030      2.5303      0.0376      7.2563   -999.2500   -999.2500
  1576.2000      7.8030      2.5324      0.0497      7.1253   -999.2500   -999.2500
  1576.3000      7.7944      2.5358      0.0824      6.9223   -999.2500   -999.2500
  1576.4000      7.7944      2.5268      0.0426      7.4657   -999.2500   -999.2500
  1576.5000      7.7900      2.5118      0.0548      8.3780   -999.2500   -999.2500
  1576.6000      7.7900      2.5025      0.0705      8.9401   -999.2500   -999.2500
  1576.7000      7.7900      2.4954      0.0558      9.3703   -999.2500   -999.2500
  1576.8000      7.7902      2.4853      0.0318      9.9831   -999.2500   -999.2500
  1576.9000      7.7902      2.4780      0.0386     10.4272   -999.2500   -999.2500
  1577.0000      7.7846      2.4803      0.0287     10.2875   -999.2500   -999.2500
  1577.1000      7.7846      2.4900      0.0422      9.6979   -999.2500   -999.2500
  1577.2000      7.7846      2.4984      0.0497      9.1886   -999.2500   -999.2500
  1577.3000      7.7658      2.5042      0.0362      8.8369   -999.2500   -999.2500
  1577.4000      7.7658      2.5189      0.0303      7.9474   -999.2500   -999.2500
  1577.5000      7.7414      2.5497      0.0822      6.0775   -999.2500   -999.2500
  1577.6000      7.7414      2.5815      0.1049      4.1488   -999.2500   -999.2500
  1577.7000      7.7414      2.5993      0.1226      3.0716   -999.2500   -999.2500
  1577.8000      7.7281      2.6092      0.0950      2.4725   -999.2500   -999.2500
  1577.9000      7.7281      2.6183      0.1264      1.9206   -999.2500   -999.2500
  1578.0000      7.7249      2.6248      0.1288      1.5283   -999.2500   -999.2500
  1578.1000      7.7249      2.6339      0.1333      0.9775   -999.2500   -999.2500
  1578.2000      7.7249      2.6485      0.1569      0.0938   -999.2500   -999.2500
  1578.3000      7.7307      2.6568      0.1488     -0.4109   -999.2500   -999.2500
  1578.4000      7.7307      2.6558      0.0858     -0.3530   -999.2500   -999.2500
  1578.5000      7.7517      2.6497      0.1113      0.0190   -999.2500   -999.2500
  1578.6000      7.7517      2.6342      0.0975      0.9596   -999.2500   -999.2500
  1578.7000      7.7517      2.6099      0.0743      2.4313   -999.2500   -999.2500
  1578.8000      7.7697      2.5869      0.0279      3.8253   -999.2500   -999.2500
  1578.9000      7.7697      2.5742      0.0420      4.5965   -999.2500   -999.2500
  1579.0000      7.7736      2.5689      0.0528      4.9168   -999.2500   -999.2500
  1579.1000      7.7736      2.5637      0.0111      5.2291   -999.2500   -999.2500
  1579.2000      7.7736      2.5581      0.0169      5.5682   -999.2500   -999.2500
  1579.3000      7.7686      2.5519      0.0222      5.9481   -999.2500   -999.2500
  1579.4000      7.7686      2.5418      0.0234      6.5591   -999.2500   -999.2500
  1579.5000      7.7653      2.5351     -0.0149      6.9612   -999.2500   -999.2500
  1579.6000      7.7653      2.5484      0.0406      6.1570   -999.2500   -999.2500
  1579.7000      7.7653      2.5748      0.0563      4.5587   -999.2500   -999.2500
  1579.8000      7.7665      2.5889      0.0340      3.7037   -999.2500   -999.2500
  1579.9000      7.7665      2.5871      0.0176      3.8110   -999.2500   -999.2500
  1580.0000      7.7684      2.5807      0.0384      4.1976   -999.2500   -999.2500
  1580.1000      7.7684      2.5728      0.0212      4.6814   -999.2500   -999.2500
  1580.2000      7.7684      2.5669      0.0398      5.0371   -999.2500   -999.2500
  1580.3000      7.7690      2.5676      0.0407      4.9954   -999.2500   -999.2500
  1580.4000      7.7690      2.5722      0.0401      4.7126   -999.2500   -999.2500
  1580.5000      7.7693      2.5757      0.0046      4.5046   -999.2500   -999.2500
  1580.6000      7.7693      2.5731      0.0617      4.6593   -999.2500   -999.2500
  1580.7000      7.7693      2.5664      0.0149      5.0696   -999.2500   -999.2500
  1580.8000      7.7698      2.5657      0.0119      5.1090   -999.2500   -999.2500
  1580.9000      7.7698      2.5690      0.0233      4.9064   -999.2500   -999.2500
  1581.0000      7.7715      2.5642      0.0154      5.1970   -999.2500   -999.2500
  1581.1000      7.7715      2.5512      0.0365      5.9875   -999.2500   -999.2500
  1581.2000      7.7715      2.5439     -0.0092      6.4330   -999.2500   -999.2500
  1581.3000      7.7745      2.5528      0.0263      5.8883   -999.2500   -999.2500
  1581.4000      7.7745      2.5677      0.0576      4.9865   -999.2500   -999.2500
  1581.5000      7.7771      2.5723      0.0497      4.7089   -999.2500   -999.2500
  1581.6000      7.7771      2.5647      0.0466      5.1681   -999.2500   -999.2500
  1581.7000      7.7771      2.5520      0.0260      5.9406   -999.2500   -999.2500
  1581.8000      7.7733      2.5388      0.0458      6.7365   -999.2500   -999.2500
  1581.9000      7.7733      2.5318      0.0169      7.1623   -999.2500   -999.2500
  1582.0000      7.7593      2.5414      0.0250      6.5843   -999.2500   -999.2500
  1582.1000      7.7593      2.5601      0.0427      5.4462   -999.2500   -999.2500
  1582.2000      7.7593      2.5654      0.0717      5.1300   -999.2500   -999.2500
  1582.3000      7.7436      2.5542      0.0416      5.8051   -999.2500   -999.2500
