~Version Information
VERS.                      2.0: CWLS Log ASCII Standard - VERSION 2.0
WRAP.                       NO: One line per depth step
~Well Information Block
STRT.FT                -6.2500: 
STOP.FT              2245.0000: 
STEP.FT                 0.0500: 
NULL.                -999.2500: 
COMP.          Pioneer Natural Resources: COMPANY
WELL.          Roadster 41-33 Kv: WELL
FLD.           Purgatoire River: FIELD
LOC.           903' FNL & 248' FEL--: LOCATION
PROV.                 Colorado: PROVINCE
CNTY.               Las Animas: COUNTRY
SRVC.                Patterson: SERVICE COMPANY
DATE.          Tue Jan 17 11:20:00 2006: LOG DATE
UWI.           05 071 08615 00: UNIQUE WELL ID
~Curve Information Block
DEPT.FT            0 000 00 00: Depth
CCL.                          : Casing Collar Locator
TT3.usec                      : CBL 3' Travel Time
AMP3.mV                       : CBL 3' Amplitude
GR.GAPI                       : Gamma Ray
~Parameter Information Block
~A  Depth       CCL         TT3         AMP3         GR     
# ...
  1038.9500      0.0000    742.4574      5.1736    158.0398
  1039.0000      0.0000    742.5507      5.1342    162.7603
  1039.0500      0.0000    742.5507      5.1342    162.7603
  1039.1000      0.0000    742.5507      5.1342    162.7603
  1039.1500      0.0000    742.5507      5.1342    162.7603
  1039.2000      0.0000    742.5507      5.1342    162.7603
  1039.2500      0.0000    742.6588      5.0675    160.9308
  1039.3000      0.0000    742.6588      5.0675    160.9308
  1039.3500      0.0000    742.6588      5.0675    160.9308
  1039.4000      0.0000    742.6588      5.0675    160.9308
  1039.4500      0.0000    742.6588      5.0675    160.9308
  1039.5000      0.0000    742.7096      4.9822    153.2393
  1039.5500      0.0000    742.7096      4.9822    153.2393
  1039.6000      0.0000    742.7096      4.9822    153.2393
  1039.6500      0.0000    742.7096      4.9822    153.2393
  1039.7000      0.0000    742.7096      4.9822    153.2393
  1039.7500      0.0000    742.6523      4.9003    142.9577
  1039.8000      0.0000    742.6523      4.9003    142.9577
  1039.8500      0.0000    742.6523      4.9003    142.9577
  1039.9000      0.0000    742.6523      4.9003    142.9577
  1039.9500      0.0000    742.6523      4.9003    142.9577
  1040.0000      0.0000    742.4680      4.8434    134.0112
  1040.0500      0.0000    742.4680      4.8434    134.0112
  1040.1000      0.0000    742.4680      4.8434    134.0112
  1040.1500      0.0000    742.4680      4.8434    134.0112
  1040.2000      0.0000    742.4680      4.8434    134.0112
  1040.2500      0.0000    742.1798      4.8192    128.5553
  1040.3000      0.0000    742.1798      4.8192    128.5553
  1040.3500      0.0000    742.1798      4.8192    128.5553
  1040.4000      0.0000    742.1798      4.8192    128.5553
  1040.4500      0.0000    742.1798      4.8192    128.5553
  1040.5000      0.0000    741.8448      4.8226    126.6617
  1040.5500      0.0000    741.8448      4.8226    126.6617
  1040.6000      0.0000    741.8448      4.8226    126.6617
  1040.6500      0.0000    741.8448      4.8226    126.6617
  1040.7000      0.0000    741.8448      4.8226    126.6617
  1040.7500      0.0000    741.5179      4.8394    127.4276
  1040.8000      0.0000    741.5179      4.8394    127.4276
  1040.8500      0.0000    741.5179      4.8394    127.4276
  1040.9000      0.0000    741.5179      4.8394    127.4276
  1040.9500      0.0000    741.5179      4.8394    127.4276
  1041.0000      0.0000    741.2279      4.8506    129.4594
  1041.0500      0.0000    741.2279      4.8506    129.4594
  1041.1000      0.0000    741.2279      4.8506    129.4594
  1041.1500      0.0000    741.2279      4.8506    129.4594
  1041.2000      0.0000    741.2279      4.8506    129.4594
  1041.2500      0.0000    740.9916      4.8466    131.0373
  1041.3000      0.0000    740.9916      4.8466    131.0373
  1041.3500      0.0000    740.9916      4.8466    131.0373
  1041.4000      0.0000    740.9916      4.8466    131.0373
  1041.4500      0.0000    740.9916      4.8466    131.0373
  1041.5000      0.0000    740.8380      4.8370    131.0644
  1041.5500      0.0000    740.8380      4.8370    131.0644
  1041.6000      0.0000    740.8380      4.8370    131.0644
  1041.6500      0.0000    740.8380      4.8370    131.0644
  1041.7000      0.0000    740.8380      4.8370    131.0644
  1041.7500      0.0000    740.8073      4.8368    129.7403
  1041.8000      0.0000    740.8073      4.8368    129.7403
  1041.8500      0.0000    740.8073      4.8368    129.7403
  1041.9000      0.0000    740.8073      4.8368    129.7403
  1041.9500      0.0000    740.8073      4.8368    129.7403
  1042.0000      0.0000    740.9279      4.8446    127.8952
  1042.0500      0.0000    740.9279      4.8446    127.8952
  1042.1000      0.0000    740.9279      4.8446    127.8952
  1042.1500      0.0000    740.9279      4.8446    127.8952
  1042.2000      0.0000    740.9279      4.8446    127.8952
  1042.2500      0.0000    741.1826      4.8492    126.4371
  1042.3000      0.0000    741.1826      4.8492    126.4371
  1042.3500      0.0000    741.1826      4.8492    126.4371
  1042.4000      0.0000    741.1826      4.8492    126.4371
  1042.4500      0.0000    741.1826      4.8492    126.4371
  1042.5000      0.0000    741.4871      4.8510    126.7425
  1042.5500      0.0000    741.4871      4.8510    126.7425
  1042.6000      0.0000    741.4871      4.8510    126.7425
  1042.6500      0.0000    741.4871      4.8510    126.7425
  1042.7000      0.0000    741.4871      4.8510    126.7425
  1042.7500      0.0000    741.7183      4.8616    130.2484
  1042.8000      0.0000    741.7183      4.8616    130.2484
  1042.8500      0.0000    741.7183      4.8616    130.2484
  1042.9000      0.0000    741.7183      4.8616    130.2484
  1042.9500      0.0000    741.7183      4.8616    130.2484
  1043.0000      0.0000    741.7971      4.8833    136.5320
  1043.0500      0.0000    741.7971      4.8833    136.5320
  1043.1000      0.0000    741.7971      4.8833    136.5320
  1043.1500      0.0000    741.7971      4.8833    136.5320
  1043.2000      0.0000    741.7971      4.8833    136.5320
  1043.2500      0.0000    741.7480      4.9046    142.3970
  1043.3000      0.0000    741.7480      4.9046    142.3970
  1043.3500      0.0000    741.7480      4.9046    142.3970
  1043.4000      0.0000    741.7480      4.9046    142.3970
  1043.4500      0.0000    741.7480      4.9046    142.3970
  1043.5000      0.0000    741.6663      4.9141    144.1132
  1043.5500      0.0000    741.6663      4.9141    144.1132
  1043.6000      0.0000    741.6663      4.9141    144.1132
  1043.6500      0.0000    741.6663      4.9141    144.1132
  1043.7000      0.0000    741.6663      4.9141    144.1132
  1043.7500      0.0000    741.6303      4.9098    141.0206
  1043.8000      0.0000    741.6303      4.9098    141.0206
  1043.8500      0.0000    741.6303      4.9098    141.0206
  1043.9000      0.0000    741.6303      4.9098    141.0206
  1043.9500      0.0000    741.6303      4.9098    141.0206
  1044.0000      0.0000    741.6627      4.8993    136.4078
  1044.0500      0.0000    741.6627      4.8993    136.4078
  1044.1000      0.0000    741.6627      4.8993    136.4078
  1044.1500      0.0000    741.6627      4.8993    136.4078
  1044.2000      0.0000    741.6627      4.8993    136.4078
  1044.2500      0.0000    741.7570      4.8958    134.3692
  1044.3000      0.0000    741.7570      4.8958    134.3692
  1044.3500      0.0000    741.7570      4.8958    134.3692
  1044.4000      0.0000    741.7570      4.8958    134.3692
  1044.4500      0.0000    741.7570      4.8958    134.3692
  1044.5000      0.0000    741.8920      4.9075    136.1783
  1044.5500      0.0000    741.8920      4.9075    136.1783
  1044.6000      0.0000    741.8920      4.9075    136.1783
  1044.6500      0.0000    741.8920      4.9075    136.1783
  1044.7000      0.0000    741.8920      4.9075    136.1783
  1044.7500      0.0000    742.0002      4.9278    140.0633
  1044.8000      0.0000    742.0002      4.9278    140.0633
  1044.8500      0.0000    742.0002      4.9278    140.0633
  1044.9000      0.0000    742.0002      4.9278    140.0633
  1044.9500      0.0000    742.0002      4.9278    140.0633
  1045.0000      0.0000    741.9681      4.9397    143.6310
  1045.0500      0.0000    741.9681      4.9397    143.6310
  1045.1000      0.0000    741.9681      4.9397    143.6310
  1045.1500      0.0000    741.9681      4.9397    143.6310
  1045.2000      0.0000    741.9681      4.9397    143.6310
  1045.2500      0.0000    741.7176      4.9272    145.6302
  1045.3000      0.0000    741.7176      4.9272    145.6302
  1045.3500      0.0000    741.7176      4.9272    145.6302
  1045.4000      0.0000    741.7176      4.9272    145.6302
  1045.4500      0.0000    741.7176      4.9272    145.6302
  1045.5000      0.0000    741.2928      4.8826    145.8482
  1045.5500      0.0000    741.2928      4.8826    145.8482
  1045.6000      0.0000    741.2928      4.8826    145.8482
