~Version Information
VERS.                      2.0: CWLS Log ASCII Standard - VERSION 2.0
WRAP.                       NO: One line per depth step
~Well Information Block
STRT.FT                 0.0000: 
STOP.FT              1906.7500: 
STEP.FT                 0.2500: 
NULL.                -999.2500: 
COMP.          Petrogulf Corporation: COMPANY
WELL.             Kraft 17-23R: WELL
FLD.           Purgatorie River: FIELD
LOC.           1509' FSL & 1673' FWL: LOCATION
STAT.                 Colorado: State
CNTY.               Las Animas: COUNTY
CTRY. USA : Country
SECT. 17 : Section
TOWN. 33S : Township
RANG. 67W : Range
SRVC.                Patterson: SERVICE COMPANY
DATE.          Fri Jan 06 08:59:54 2006: LOG DATE
API. 05-071-08560                         : UNIQUE WELL ID
~Curve Information Block
DEPT.FT            0 000 00 00: Depth
CCL.                          : Casing Collar Locator
TT3.usec                      : CBL 3' Travel Time
AMP3.mV                       : CBL 3' Amplitude
AMP3.mV                       : CBL 3' Amplitude
GR.GAPI                       : Gamma Ray
AMP3.mV                       : CBL 3' Amplitude
~Parameter Information Block
~A  Depth       CCL         TT3         AMP3        AMP3         GR        .AMP3    
# ...
  1128.0000      0.0000    621.2042      6.3238      6.3238    126.2379      6.3238
  1128.2500      0.0000    613.7332      6.2804      6.2804    125.1711      6.2804
  1128.5000      0.0000    589.4904      6.1793      6.1793    126.2312      6.1793
  1128.7500      0.0000    561.0283      6.0780      6.0780    129.5938      6.0780
  1129.0000      0.0000    539.9822      6.0361      6.0361    133.5753      6.0361
  1129.2500      0.0000    531.6176      6.0408      6.0408    135.8286      6.0408
  1129.5000      0.0000    537.9405      6.0360      6.0360    134.9333      6.0360
  1129.7500      0.0000    557.4362      5.9834      5.9834    131.1710      5.9834
  1130.0000      0.0000    581.5193      5.8923      5.8923    126.1912      5.8923
  1130.2500      0.0000    597.7830      5.8033      5.8033    122.1519      5.8033
  1130.5000      0.0000    600.4728      5.7608      5.7608    120.9144      5.7608
  1130.7500      0.0000    594.2421      5.7939      5.7939    123.3350      5.7939
  1131.0000      0.0000    587.0932      5.8814      5.8814    128.6577      5.8814
  1131.2500      0.0000    583.0053      5.9468      5.9468    134.7034      5.9468
  1131.5000      0.0000    581.6842      5.9251      5.9251    139.3065      5.9251
  1131.7500      0.0000    582.2450      5.8332      5.8332    141.7418      5.8332
  1132.0000      0.0000    585.7228      5.7527      5.7527    142.5336      5.7527
  1132.2500      0.0000    595.3510      5.7560      5.7560    142.3350      5.7560
  1132.5000      0.0000    613.2225      5.8780      5.8780    141.5763      5.8780
  1132.7500      0.0000    634.8840      6.1297      6.1297    140.5775      6.1297
  1133.0000      0.0000    651.1038      6.4873      6.4873    139.1888      6.4873
  1133.2500      0.0000    657.8855      6.9099      6.9099    136.8057      6.9099
  1133.5000      0.0000    662.2991      7.3894      7.3894    133.5020      7.3894
  1133.7500      0.0000    674.8350      7.8920      7.8920    130.6980      7.8920
  1134.0000      0.0000    692.6423      8.2896      8.2896    129.8013      8.2896
  1134.2500      0.0000    699.9457      8.4557      8.4557    130.2287      8.4557
  1134.5000      0.0000    691.3855      8.3718      8.3718    129.4599      8.3718
  1134.7500      0.0000    678.2252      8.0984      8.0984    125.1436      8.0984
  1135.0000      0.0000    670.4178      7.7121      7.7121    116.8037      7.7121
  1135.2500      0.0000    668.0975      7.3058      7.3058    105.7015      7.3058
  1135.5000      0.0000    667.7195      6.9804      6.9804     93.7480      6.9804
  1135.7500      0.0000    667.6722      6.7742      6.7742     82.8546      6.7742
  1136.0000      0.0000    669.2632      6.6374      6.6374     74.7948      6.6374
  1136.2500      0.0000    674.7327      6.5299      6.5299     70.9133      6.5299
  1136.5000      0.0000    683.1551      6.4530      6.4530     71.5860      6.4530
  1136.7500      0.0000    689.8030      6.3658      6.3658     76.0302      6.3658
  1137.0000      0.0000    694.2558      6.2336      6.2336     82.7718      6.2336
  1137.2500      0.0000    702.5438      6.1327      6.1327     90.3163      6.1327
  1137.5000      0.0000    712.3727      6.1630      6.1630     97.4174      6.1630
  1137.7500      0.0000    709.4824      6.3043      6.3043    103.0381      6.3043
  1138.0000      0.0000    689.0510      6.4308      6.4308    106.6325      6.4308
  1138.2500      0.0000    664.3781      6.4454      6.4454    108.7589      6.4454
  1138.5000      0.0000    646.6884      6.3831      6.3831    111.0096      6.3831
  1138.7500      0.0000    631.7234      6.3538      6.3538    114.8278      6.3538
  1139.0000      0.0000    609.5343      6.3988      6.3988    120.2505      6.3988
  1139.2500      0.0000    579.3803      6.4639      6.4639    125.6666      6.4639
  1139.5000      0.0000    552.9427      6.4744      6.4744    128.8450      6.4744
  1139.7500      0.0000    541.4954      6.3741      6.3741    128.6735      6.3741
  1140.0000      0.0000    544.2502      6.1339      6.1339    126.0835      6.1339
  1140.2500      0.0000    553.3830      5.7934      5.7934    122.9880      5.7934
  1140.5000      0.0000    563.8073      5.4697      5.4697    120.5130      5.4697
  1140.7500      0.0000    573.4357      5.2667      5.2667    118.6782      5.2667
  1141.0000      0.0000    580.2088      5.1958      5.1958    117.2490      5.1958
  1141.2500      0.0000    583.4123      5.2184      5.2184    116.0605      5.2184
  1141.5000      0.0000    584.5507      5.3153      5.3153    114.8069      5.3153
  1141.7500      0.0000    585.8132      5.4668      5.4668    113.1953      5.4668
  1142.0000      0.0000    589.3384      5.6333      5.6333    111.1623      5.6333
  1142.2500      0.0000    596.4987      5.7943      5.7943    108.6443      5.7943
  1142.5000      0.0000    606.3958      5.9579      5.9579    105.4415      5.9579
  1142.7500      0.0000    616.5546      6.1170      6.1170    101.6524      6.1170
  1143.0000      0.0000    624.4943      6.2357      6.2357     97.9477      6.2357
  1143.2500      0.0000    627.3492      6.2874      6.2874     95.0658      6.2874
  1143.5000      0.0000    624.0390      6.2814      6.2814     93.1357      6.2814
  1143.7500      0.0000    618.1017      6.2487      6.2487     91.5125      6.2487
  1144.0000      0.0000    614.5287      6.2151      6.2151     89.2391      6.2151
  1144.2500      0.0000    615.1230      6.1847      6.1847     85.8649      6.1847
  1144.5000      0.0000    618.2187      6.1417      6.1417     81.8635      6.1417
  1144.7500      0.0000    623.4412      6.0896      6.0896     78.0267      6.0896
  1145.0000      0.0000    633.3505      6.0710      6.0710     74.5950      6.0710
  1145.2500      0.0000    647.1431      6.1030      6.1030     71.3750      6.1030
  1145.5000      0.0000    659.7054      6.1344      6.1344     68.5684      6.1344
  1145.7500      0.0000    665.9451      6.0974      6.0974     66.8485      6.0974
  1146.0000      0.0000    660.1366      5.9707      5.9707     66.4601      5.9707
  1146.2500      0.0000    640.8030      5.7973      5.7973     66.7324      5.7973
  1146.5000      0.0000    620.5346      5.6510      5.6510     66.7909      5.6510
  1146.7500      0.0000    615.4384      5.5857      5.5857     66.6995      5.5857
  1147.0000      0.0000    625.6676      5.6131      5.6131     67.7411      5.6131
  1147.2500      0.0000    641.1986      5.6975      5.6975     71.2804      5.6975
  1147.5000      0.0000    656.7030      5.7560      5.7560     77.1471      5.7560
  1147.7500      0.0000    668.1865      5.7026      5.7026     83.3518      5.7026
  1148.0000      0.0000    665.7354      5.5330      5.5330     87.6198      5.5330
  1148.2500      0.0000    642.5232      5.3302      5.3302     89.0070      5.3302
  1148.5000      0.0000    607.9726      5.1695      5.1695     88.0812      5.1695
  1148.7500      0.0000    582.4495      5.0855      5.0855     86.1471      5.0855
  1149.0000      0.0000    579.9113      5.0981      5.0981     84.4674      5.0981
  1149.2500      0.0000    599.9872      5.1893      5.1893     83.6749      5.1893
  1149.5000      0.0000    628.6001      5.3076      5.3076     83.6361      5.3076
  1149.7500      0.0000    644.9242      5.4297      5.4297     83.9489      5.4297
  1150.0000      0.0000    638.5143      5.5695      5.5695     84.3236      5.5695
  1150.2500      0.0000    618.7068      5.7126      5.7126     84.3751      5.7126
  1150.5000      0.0000    602.6237      5.7988      5.7988     83.5132      5.7988
  1150.7500      0.0000    599.0976      5.7755      5.7755     81.4597      5.7755
  1151.0000      0.0000    605.0514      5.6302      5.6302     78.7293      5.6302
  1151.2500      0.0000    611.7576      5.4032      5.4032     76.2641      5.4032
  1151.5000      0.0000    616.2863      5.1755      5.1755     74.5759      5.1755
  1151.7500      0.0000    624.8997      5.0209      5.0209     73.5411      5.0209
