~Version Information
VERS.                      2.0: CWLS Log ASCII Standard - VERSION 2.0
WRAP.                       NO: One line per depth step
~Well Information Block
STRT.FT                10.0000: 
STOP.FT               907.0000: 
STEP.FT                 0.1000: 
NULL.                -999.2500: 
COMP.          Pioneer Natural Resources: COMPANY
WELL.           Hartford 31-18: WELL
FLD.           Purgatorie River: FIELD
LOC.           375' FNL & 1660' FEL: LOCATION
PROV.                 Colorado: PROVINCE
CNTY.               Las Animas: COUNTRY
SRVC.                Patterson: SERVICE COMPANY
DATE.          Mon Nov 21 07:39:41 2005: LOG DATE
UWI.            05-071-08555              : UNIQUE WELL ID
~Curve Information Block
DEPT.FT            0 000 00 00: Depth
DCAL.in                       : CDL Caliper
RHOB.g/cc                     : CDL Bulk Density
RHOC.g/cc                     : CDL Density Correction
DPOR.pu                       : CDL Density Porosity
GR.GAPI                       : Gamma Ray
NPOR.pu                       : Neutron Porosity
~Parameter Information Block
~A  Depth       DCAL        RHOB        RHOC        DPOR         GR         NPOR    
# ...
   538.0000      8.0363      2.4917      0.0307      9.5935    108.3997     24.8896
   538.1000      8.0363      2.4644     -0.0359     11.2473    103.6875     24.8870
   538.2000      8.0363      2.4409     -0.0153     12.6712    102.0467     24.5703
   538.3000      8.0393      2.4293     -0.0320     13.3776    102.9130     23.9720
   538.4000      8.0393      2.4323      0.0101     13.1928    100.7877     23.1343
   538.5000      8.0423      2.4443      0.0375     12.4696     95.6557     22.1382
   538.6000      8.0423      2.4537      0.0290     11.8971     91.8788     21.3890
   538.7000      8.0423      2.4539      0.0632     11.8818     91.4822     21.0148
   538.8000      8.0498      2.4476      0.0279     12.2659     93.2835     20.7291
   538.9000      8.0498      2.4415      0.0619     12.6338     93.2431     20.4216
   539.0000      8.0359      2.4353      0.1036     13.0098     88.8817     20.0664
   539.1000      8.0359      2.4288      0.0714     13.4084     83.0122     19.6321
   539.2000      8.0359      2.4246      0.0737     13.6621     79.8005     19.2098
   539.3000      8.0312      2.4174      0.0396     14.0976     79.1121     18.8133
   539.4000      8.0312      2.4064      0.0301     14.7619     77.3049     18.4300
   539.5000      8.0396      2.3999      0.0388     15.1570     73.4698     18.2493
   539.6000      8.0396      2.4042      0.0489     14.8940     70.5723     18.4060
   539.7000      8.0396      2.4222      0.0283     13.8032     69.9743     18.6379
   539.8000      8.0385      2.4421      0.0824     12.5999     70.0342     18.6489
   539.9000      8.0385      2.4425      0.0864     12.5757     70.1014     18.4658
   540.0000      8.0424      2.4247      0.0120     13.6530     70.1124     18.1359
   540.1000      8.0424      2.4075      0.0548     14.6981     69.5107     17.8158
   540.2000      8.0424      2.3979      0.0115     15.2816     68.7086     17.7769
   540.3000      8.0553      2.3903      0.0524     15.7384     68.2239     17.9611
   540.4000      8.0553      2.3808      0.0033     16.3145     68.5857     18.0942
   540.5000      8.0605      2.3765     -0.0030     16.5785     70.9696     18.1095
   540.6000      8.0605      2.3761      0.0518     16.5977     75.0461     18.1108
   540.7000      8.0605      2.3691      0.0214     17.0270     77.9599     18.1123
   540.8000      8.0586      2.3621     -0.0115     17.4463     77.9321     18.0760
   540.9000      8.0586      2.3713      0.0143     16.8905     75.5851     17.9620
   541.0000      8.0585      2.3924      0.0378     15.6113     71.2170     17.7175
   541.1000      8.0585      2.4027      0.0784     14.9908     67.0510     17.5489
   541.2000      8.0585      2.3916     -0.0068     15.6632     66.3530     17.6616
   541.3000      8.0511      2.3757      0.0317     16.6222     67.4046     17.8528
   541.4000      8.0511      2.3717      0.0328     16.8694     66.6019     17.9291
   541.5000      8.0541      2.3777      0.0309     16.5023     65.1829     17.9567
   541.6000      8.0541      2.3795      0.0766     16.3924     66.4213     17.9102
   541.7000      8.0541      2.3662      0.0485     17.2012     70.5092     17.6039
   541.8000      8.0643      2.3503     -0.0151     18.1627     73.7797     17.1148
   541.9000      8.0643      2.3486      0.0096     18.2672     72.6109     16.9407
   542.0000      8.0612      2.3556      0.0309     17.8445     68.0974     17.3146
   542.1000      8.0612      2.3609      0.0062     17.5195     64.4636     17.7743
   542.2000      8.0612      2.3629      0.0219     17.3999     63.7895     17.9419
   542.3000      8.0663      2.3612      0.0201     17.5048     64.2086     17.7827
   542.4000      8.0663      2.3605     -0.0009     17.5472     63.2756     17.3973
   542.5000      8.0696      2.3689      0.0252     17.0384     61.1654     17.1712
   542.6000      8.0696      2.3835      0.0397     16.1491     59.6686     17.2466
   542.7000      8.0696      2.4041      0.0210     14.9017     59.4482     17.2608
   542.8000      8.0593      2.4396      0.0766     12.7538     60.2133     16.9140
   542.9000      8.0593      2.4821      0.1147     10.1754     61.1794     16.5515
   543.0000      8.0533      2.5195      0.0786      7.9121     61.1030     16.7742
   543.1000      8.0533      2.5553      0.1325      5.7405     59.8254     17.6542
   543.2000      8.0533      2.5973      0.1578      3.1939     58.1954     18.7582
   543.3000      8.0274      2.6549      0.1319     -0.2952     56.6462     19.8669
   543.4000      8.0274      2.7244      0.1670     -4.5075     55.5681     21.1044
   543.5000      8.0097      2.7861      0.1645     -8.2461     55.2446     22.4038
   543.6000      8.0097      2.8347      0.1070    -11.1932     54.7814     23.6327
   543.7000      8.0097      2.8730      0.1393    -13.5167     52.7272     24.8101
   543.8000      7.9973      2.8913      0.1399    -14.6225     49.2534     25.8883
   543.9000      7.9973      2.8827      0.1227    -14.1049     47.1196     26.5675
   544.0000      7.9817      2.8619      0.0471    -12.8395     48.0864     26.7558
   544.1000      7.9817      2.8487      0.0335    -12.0395     49.5356     26.8502
   544.2000      7.9817      2.8470      0.0205    -11.9387     48.2178     27.3540
   544.3000      7.9426      2.8557     -0.0027    -12.4656     44.9415     28.0576
   544.4000      7.9426      2.8748      0.0402    -13.6258     41.9123     28.3219
   544.5000      7.9382      2.8990      0.0656    -15.0897     40.4152     28.2010
   544.6000      7.9382      2.9169      0.0872    -16.1730     41.1671     28.0086
   544.7000      7.9382      2.9207      0.0806    -16.4033     42.8028     27.9736
   544.8000      7.9854      2.9132      0.0702    -15.9517     43.7986     28.2465
   544.9000      7.9854      2.8988     -0.0136    -15.0809     44.3642     28.4814
   545.0000      8.0198      2.8760      0.0170    -13.6958     46.1660     28.2697
   545.1000      8.0198      2.8412     -0.0297    -11.5849     50.7004     27.7659
   545.2000      8.0198      2.7929     -0.0215     -8.6611     56.0818     27.3295
   545.3000      8.0035      2.7275     -0.0506     -4.6977     59.5761     26.7546
   545.4000      8.0035      2.6562     -0.1233     -0.3736     61.9801     25.6322
   545.5000      7.9575      2.6034     -0.0932      2.8221     66.4441     24.2205
   545.6000      7.9575      2.5720     -0.0520      4.7283     72.6376     23.0005
   545.7000      7.9575      2.5501     -0.0165      6.0540     77.9841     22.1561
   545.8000      7.9484      2.5368      0.0210      6.8632     84.4722     21.7398
   545.9000      7.9484      2.5377     -0.0078      6.8074     93.4491     21.6010
   546.0000      7.9389      2.5545      0.0761      5.7885    102.8664     21.4179
   546.1000      7.9389      2.5719      0.1499      4.7307    113.0153     21.2095
   546.2000      7.9389      2.5768      0.1254      4.4367    123.2517     21.3043
   546.3000      7.9708      2.5770      0.1011      4.4243    129.6769     21.7335
   546.4000      7.9708      2.5806      0.1229      4.2066    131.2678     22.3415
   546.5000      8.0096      2.5813      0.1396      4.1629    131.4715     23.1682
   546.6000      8.0096      2.5731      0.1259      4.6623    132.8977     24.1198
   546.7000      8.0096      2.5589      0.1189      5.5222    135.7241     24.8141
   546.8000      8.0246      2.5425      0.1253      6.5178    139.7271     25.1045
   546.9000      8.0246      2.5302      0.0639      7.2620    143.1003     25.2859
   547.0000      8.0169      2.5261      0.1098      7.5094    142.2669     25.6045
   547.1000      8.0169      2.5216      0.0828      7.7798    137.7015     26.0279
   547.2000      8.0169      2.5161      0.0654      8.1149    133.8993     26.4534
   547.3000      8.0255      2.5207      0.0523      7.8392    134.2650     26.6626
   547.4000      8.0255      2.5339      0.1085      7.0359    139.1254     26.5096
   547.5000      8.0331      2.5427      0.0692      6.5024    143.8613     26.3306
