~Version Information
VERS.                      2.0: CWLS Log ASCII Standard - VERSION 2.0
WRAP.                       NO: One line per depth step
~Well Information Block
STRT.FT               892.0000: 
STOP.FT              2094.0000: 
STEP.FT                 0.1000: 
NULL.                -999.2500: 
COMP.          Pioneer Natural Resources: COMPANY
WELL.          Greenwood 43-29 Tr: WELL
FLD.           Purgatoire River: FIELD
LOC.           1478' FSL & 744' FEL: LOCATION
STAT.                 Colorado: State
CNTY.               Las Animas: COUNTY
CTRY. USA : Country
SECT. 29 : Section
TOWN. 32S : Township
RANG. 67W : Range
SRVC.                Patterson: SERVICE COMPANY
DATE.          Wed Aug 31 10:39:20 2005: LOG DATE
API.           05 071 08478 00: UNIQUE WELL ID
~Curve Information Block
DEPT.FT            0 000 00 00: Depth
DCAL.in                       : CDL Caliper
RHOB.g/cc                     : CDL Bulk Density
RHOC.g/cc                     : CDL Density Correction
DPOR.pu                       : CDL Density Porosity
GR.GAPI                       : Gamma Ray
NPOR.pu                       : Neutron Porosity
~Parameter Information Block
~A  Depth       DCAL        RHOB        RHOC        DPOR         GR         NPOR    
# ...
   968.8000      8.3609      2.6014      0.0589      2.9458    125.2642     26.8872
   968.9000      8.3609      2.5904      0.0505      3.6126    124.0966     26.8487
   969.0000      8.3054      2.5781      0.0204      4.3587    125.1626     26.8867
   969.1000      8.3054      2.5623     -0.0145      5.3140    126.2028     26.8818
   969.2000      8.3054      2.5442     -0.0255      6.4104    129.8915     26.8050
   969.3000      8.3125      2.5313     -0.0152      7.1937    137.1934     26.8322
   969.4000      8.3125      2.5333     -0.0797      7.0727    144.3221     27.0366
   969.5000      8.2906      2.5558     -0.0054      5.7106    147.8901     27.3327
   969.6000      8.2906      2.5933      0.0133      3.4353    145.8379     27.6515
   969.7000      8.2906      2.6308      0.0961      1.1649    140.7845     27.8865
   969.8000      8.2609      2.6453      0.0830      0.2852    137.3029     27.8114
   969.9000      8.2609      2.6284      0.0586      1.3079    134.7098     27.3571
   970.0000      8.2565      2.5991      0.0235      3.0845    130.0801     26.9316
   970.1000      8.2565      2.5733     -0.0055      4.6463    126.7357     26.8971
   970.2000      8.2565      2.5475      0.0094      6.2115    128.6916     27.1470
   970.3000      8.2583      2.5213     -0.0044      7.7971    131.1354     27.2575
   970.4000      8.2583      2.5044     -0.0023      8.8245    127.1556     26.9423
   970.5000      8.2624      2.5042     -0.0296      8.8364    120.8185     26.4981
   970.6000      8.2624      2.5236     -0.0120      7.6596    120.8607     26.4818
   970.7000      8.2624      2.5567     -0.0234      5.6521    125.7703     26.8313
   970.8000      8.2352      2.5910      0.0199      3.5758    127.7950     27.0477
   970.9000      8.2352      2.6135      0.0219      2.2099    124.9979     26.9076
   971.0000      8.1883      2.6183      0.0434      1.9225    117.7342     26.6200
   971.1000      8.1883      2.6126      0.0410      2.2686    106.0007     26.5456
   971.2000      8.1883      2.6141      0.0540      2.1764     96.4921     26.8077
   971.3000      8.1570      2.6348      0.0203      0.9240     94.9026     27.0096
   971.4000      8.1570      2.6577      0.0920     -0.4692     98.8820     26.8093
   971.5000      8.1036      2.6511      0.0560     -0.0636    103.8782     26.4302
   971.6000      8.1036      2.6149      0.0467      2.1292    104.9771     25.8983
   971.7000      8.1036      2.5748     -0.0234      4.5591     99.8157     24.9744
   971.8000      8.1009      2.5585     -0.0878      5.5459     93.0439     23.9083
   971.9000      8.1009      2.5784     -0.0150      4.3396     89.4266     23.3217
   972.0000      8.1113      2.6130      0.0114      2.2423     86.2164     23.3581
   972.1000      8.1113      2.6335      0.0109      1.0022     81.2703     23.6041
   972.2000      8.1113      2.6350      0.0555      0.9088     79.4395     23.4631
   972.3000      8.0891      2.6214      0.0852      1.7321     82.0291     22.5859
   972.4000      8.0891      2.6013     -0.0037      2.9524     84.3555     21.3527
   972.5000      8.0995      2.5879      0.0414      3.7632     82.1590     20.5254
   972.6000      8.0995      2.5789      0.0544      4.3106     76.3370     20.1942
   972.7000      8.0995      2.5608      0.0845      5.4067     70.6164     19.6707
   972.8000      8.0818      2.5305      0.0188      7.2441     65.8434     18.9009
   972.9000      8.0818      2.5053     -0.0039      8.7696     61.6461     18.4652
   973.0000      8.0831      2.5015      0.0377      8.9994     58.8085     18.2447
   973.1000      8.0831      2.5141      0.0329      8.2377     57.9519     17.7692
   973.2000      8.0831      2.5311      0.0678      7.2032     57.1974     17.1100
   973.3000      8.0287      2.5447      0.0966      6.3808     54.8329     16.6339
   973.4000      8.0287      2.5478      0.1272      6.1965     53.4551     16.4706
   973.5000      8.0390      2.5438      0.1058      6.4360     53.9197     16.4984
   973.6000      8.0390      2.5449      0.0704      6.3707     53.7498     16.6206
   973.7000      8.0390      2.5516      0.0903      5.9618     53.7873     16.7535
   973.8000      7.9864      2.5504      0.0686      6.0350     54.7838     16.8083
   973.9000      7.9864      2.5306      0.0650      7.2381     54.2822     16.8690
   974.0000      8.0262      2.5010      0.0365      9.0292     50.8803     17.0198
   974.1000      8.0262      2.4781      0.0242     10.4179     47.1037     17.0884
   974.2000      8.0262      2.4630      0.0252     11.3359     45.5801     16.9263
   974.3000      8.0493      2.4522      0.0003     11.9882     46.2417     16.7263
   974.4000      8.0493      2.4555     -0.0175     11.7876     47.8883     16.7583
   974.5000      8.0535      2.4741      0.0352     10.6620     49.3860     16.9453
   974.6000      8.0535      2.4902      0.0485      9.6874     50.9116     17.0985
   974.7000      8.0535      2.4941      0.0478      9.4492     51.6495     17.2188
   974.8000      8.0654      2.4904      0.0551      9.6717     47.9303     17.2019
   974.9000      8.0654      2.4849      0.0380     10.0091     42.0589     16.8216
   975.0000      8.0586      2.4803      0.0476     10.2876     40.6059     16.1791
   975.1000      8.0586      2.4734      0.0445     10.7006     42.4113     15.7307
   975.2000      8.0586      2.4643      0.0165     11.2520     43.3706     15.7925
   975.3000      8.0851      2.4666      0.0119     11.1127     42.8812     16.1031
   975.4000      8.0851      2.4909      0.0546      9.6432     40.8762     16.2700
   975.5000      8.0736      2.5287      0.0802      7.3543     38.8522     16.4268
   975.6000      8.0736      2.5596      0.1064      5.4788     39.6154     16.6936
   975.7000      8.0736      2.5714      0.1160      4.7627     40.9336     16.8729
   975.8000      8.0310      2.5727      0.0766      4.6863     39.5981     17.0835
   975.9000      8.0310      2.5816      0.0908      4.1425     39.9581     17.4118
   976.0000      8.0246      2.5972      0.1595      3.1988     45.0603     17.4374
   976.1000      8.0246      2.5958      0.1507      3.2854     50.8942     17.0132
   976.2000      8.0246      2.5668      0.0674      5.0417     53.4577     16.6752
   976.3000      8.0199      2.5251      0.0505      7.5673     51.6164     16.7290
   976.4000      8.0199      2.4858      0.0198      9.9535     48.0360     16.8591
   976.5000      8.0326      2.4581     -0.0324     11.6328     47.2068     16.9614
   976.6000      8.0326      2.4428      0.0078     12.5572     49.1923     17.2123
   976.7000      8.0326      2.4307     -0.0202     13.2905     50.4896     17.5276
   976.8000      8.0585      2.4293     -0.0337     13.3733     48.4413     17.8395
   976.9000      8.0585      2.4560      0.0230     11.7577     43.1249     18.1096
   977.0000      8.0921      2.4967      0.0982      9.2913     39.0661     18.1073
   977.1000      8.0921      2.5262      0.0325      7.5034     39.8873     17.9071
   977.2000      8.0921      2.5403      0.0946      6.6480     42.5441     17.9286
   977.3000      8.0853      2.5418      0.1109      6.5594     42.1373     18.1819
   977.4000      8.0853      2.5455      0.0785      6.3358     41.0133     18.2716
   977.5000      8.0369      2.5739      0.0938      4.6093     42.3340     18.2026
   977.6000      8.0369      2.6143      0.1686      2.1609     44.5847     18.2870
   977.7000      8.0369      2.6248      0.1736      1.5301     48.2388     18.5352
   977.8000      8.0235      2.6031      0.1057      2.8407     53.2285     18.6870
   977.9000      8.0235      2.5872      0.1324      3.8059     56.8013     18.4463
   978.0000      8.0115      2.5922      0.1191      3.5007     57.0536     18.0151
   978.1000      8.0115      2.6045      0.1621      2.7570     54.3175     17.7555
   978.2000      8.0115      2.6104      0.1110      2.3971     50.0370     17.5687
   978.3000      7.9781      2.5988      0.1767      3.1052     46.3062     17.2426
