~Version Information
VERS.                      2.0: CWLS Log ASCII Standard - VERSION 2.0
WRAP.                       NO: One line per depth step
~Well Information Block
STRT.FT               370.0000: 
STOP.FT              2831.7500: 
STEP.FT                 0.2500: 
NULL.                -999.2500: 
COMP.          Pioneer Natural Resources: COMPANY
WELL.          Black Cat 13-32: WELL
FLD.           Purgatoire River: FIELD
LOC.           1865' FSL & 1120' FWL--: LOCATION
PROV.                 Colorado: PROVINCE
CNTY.               Las Animas: COUNTRY
SRVC.                Patterson: SERVICE COMPANY
DATE.          Sun Jul 31 08:49:16 2005: LOG DATE
UWI.           05 071 08450 00: UNIQUE WELL ID
~Curve Information Block
DEPT.FT            0 000 00 00: Depth
DIR.Ohm-m                     : IEL Induction Resistivity
SN.Ohm-m                      : IEL Short Normal
SP.mV                         : IEL Spontaneous Potential
GR.GAPI                       : Gamma Ray
~Parameter Information Block
~A  Depth       DIR          SN          SP          GR     
# ...
   973.0000     28.8653     34.2467    -36.4499     73.7206
   973.2500     26.2170     31.4854    -33.6845     81.2525
   973.5000     23.9498     29.0102    -31.2603     93.1669
   973.7500     21.9898     26.7676    -29.2074    100.5866
   974.0000     20.2977     24.7408    -27.5264    109.5884
   974.2500     18.8652     22.9362    -26.1932    113.7578
   974.5000     17.6955     21.3737    -25.1659    117.2715
   974.7500     16.7879     20.0736    -24.3927    118.1918
   975.0000     16.1320     19.0428    -23.8210    118.5975
   975.2500     15.7079     18.2698    -23.4045    118.8709
   975.5000     15.4893     17.7375    -23.1079    119.8454
   975.7500     15.4469     17.4403    -22.9091    120.8189
   976.0000     15.5515     17.3862    -22.7974    122.2390
   976.2500     15.7762     17.5819    -22.7692    122.6949
   976.5000     16.0985     18.0167    -22.8225    121.6379
   976.7500     16.5035     18.6602    -22.9496    119.2444
   977.0000     16.9890     19.4725    -23.1325    113.1242
   977.2500     17.5668     20.4112    -23.3394    108.2145
   977.5000     18.2585     21.4298    -23.5264    101.7392
   977.7500     19.0835     22.4737    -23.6429     98.6571
   978.0000     20.0464     23.4913    -23.6409     95.1969
   978.2500     21.1279     24.4455    -23.4856     92.8863
   978.5000     22.2818     25.3100    -23.1638     89.0946
   978.7500     23.4361     26.0463    -22.6869     86.9301
   979.0000     24.4949     26.5885    -22.0880     85.5136
   979.2500     25.3453     26.8535    -21.4129     86.0618
   979.5000     25.8757     26.7752    -20.7103     88.3247
   979.7500     26.0102     26.3434    -20.0239     89.8369
   980.0000     25.7395     25.6222    -19.3896     90.7980
   980.2500     25.1236     24.7318    -18.8377     90.6781
   980.5000     24.2609     23.8019    -18.3969     91.3129
   980.7500     23.2510     22.9241    -18.0977     93.6777
   981.0000     22.1724     22.1337    -17.9732    100.8779
   981.2500     21.0806     21.4226    -18.0542    107.1517
   981.5000     20.0170     20.7688    -18.3643    115.9824
   981.7500     19.0187     20.1572    -18.9135    120.2750
   982.0000     18.1245     19.5878    -19.6958    124.0362
   982.2500     17.3739     19.0739    -20.6895    125.4676
   982.5000     16.8009     18.6374    -21.8617    127.5648
   982.7500     16.4277     18.3005    -23.1741    129.4912
   983.0000     16.2624     18.0758    -24.5888    133.4107
   983.2500     16.3008     17.9623    -26.0719    136.5870
   983.5000     16.5294     17.9525    -27.5945    141.1747
   983.7500     16.9284     18.0478    -29.1325    142.7587
   984.0000     17.4745     18.2691    -30.6638    140.1842
   984.2500     18.1427     18.6546    -32.1667    134.5032
   984.5000     18.9069     19.2408    -33.6192    121.8268
   984.7500     19.7389     20.0376    -34.9992    112.8534
   985.0000     20.6092     21.0104    -36.2864    102.1751
   985.2500     21.4891     22.0836    -37.4638     97.9078
   985.5000     22.3543     23.1593    -38.5185     95.6737
   985.7500     23.1816     24.1452    -39.4423     96.3962
   986.0000     23.9426     24.9798    -40.2298     99.6100
   986.2500     24.6011     25.6472    -40.8778    102.2699
   986.5000     25.1260     26.1670    -41.3833    105.0589
   986.7500     25.5100     26.5632    -41.7433    105.1660
   987.0000     25.7744     26.8337    -41.9559    102.6276
   987.2500     25.9515     26.9489    -42.0219    100.0858
   987.5000     26.0581     26.8778    -41.9477     97.0646
   987.7500     26.0840     26.6181    -41.7469     96.3027
   988.0000     26.0059     26.2091    -41.4424     97.0956
   988.2500     25.8149     25.7224    -41.0662     98.4842
   988.5000     25.5338     25.2417    -40.6584    100.9895
   988.7500     25.2101     24.8413    -40.2647    102.7108
   989.0000     24.8947     24.5662    -39.9328    105.6272
   989.2500     24.6237     24.4223    -39.7082    107.9658
   989.5000     24.4148     24.3813    -39.6295    111.6207
   989.7500     24.2737     24.4018    -39.7252    113.5372
   990.0000     24.2046     24.4565    -40.0106    114.9461
   990.2500     24.2169     24.5479    -40.4876    115.1113
   990.5000     24.3259     24.7067    -41.1454    115.1733
   990.7500     24.5477     24.9757    -41.9623    115.4694
   991.0000     24.8958     25.3968    -42.9097    116.1432
   991.2500     25.3843     26.0053    -43.9551    116.4317
   991.5000     26.0325     26.8293    -45.0653    116.3523
   991.7500     26.8638     27.8872    -46.2085    115.9477
   992.0000     27.8950     29.1846    -47.3545    114.3773
   992.2500     29.1235     30.7149    -48.4746    111.9789
   992.5000     30.5199     32.4663    -49.5378    105.0251
   992.7500     32.0321     34.4292    -50.5092     97.9989
   993.0000     33.5965     36.5897    -51.3469     85.1896
   993.2500     35.1520     38.9066    -52.0026     76.3913
   993.5000     36.6471     41.2783    -52.4239     64.5427
   993.7500     38.0310     43.5156    -52.5594     58.0344
   994.0000     39.2287     45.3373    -52.3662     50.7409
   994.2500     40.1095     46.4116    -51.8170     47.7734
   994.5000     40.4791     46.4623    -50.9052     46.4934
   994.7500     40.1207     45.4062    -49.6480     47.6160
   995.0000     38.8963     43.4256    -48.0851     51.6010
   995.2500     36.8557     40.8914    -46.2760     55.5626
   995.5000     34.2559     38.1802    -44.2949     63.5492
   995.7500     31.4557     35.5303    -42.2255     70.2262
   996.0000     28.7700     33.0391    -40.1553     81.6603
   996.2500     26.3930     30.7531    -38.1692     89.5657
   996.5000     24.4051     28.7388    -36.3443    100.4646
   996.7500     22.8183     27.0759    -34.7428    106.4378
   997.0000     21.6152     25.8083    -33.4075    113.3144
   997.2500     20.7676     24.9108    -32.3576    116.9196
   997.5000     20.2398     24.2990    -31.5878    121.1670
   997.7500     19.9878     23.8650    -31.0705    122.7270
   998.0000     19.9608     23.5170    -30.7598    121.8694
   998.2500     20.1090     23.2094    -30.5995    118.9238
   998.5000     20.3936     22.9590    -30.5302    112.0348
   998.7500     20.7938     22.8351    -30.4980    107.0268
   999.0000     21.3032     22.9190    -30.4603    101.0038
   999.2500     21.9144     23.2525    -30.3906     98.8409
   999.5000     22.5988     23.8058    -30.2792     99.0375
   999.7500     23.2930     24.4819    -30.1312    101.3589
  1000.0000     23.9050     25.1542    -29.9626    107.0864
  1000.2500     24.3432     25.7127    -29.7937    111.4667
  1000.5000     24.5574     26.1008    -29.6446    117.2398
  1000.7500     24.5679     26.3297    -29.5303    119.7677
  1001.0000     24.4618     26.4703    -29.4588    120.7691
  1001.2500     24.3622     26.6298    -29.4310    119.5940
  1001.5000     24.3879     26.9229    -29.4419    115.9771
  1001.7500     24.6261     27.4466    -29.4831    113.1726
  1002.0000     25.1232     28.2601    -29.5456    109.9130
  1002.2500     25.8894     29.3749    -29.6220    109.0597
  1002.5000     26.9062     30.7613    -29.7080    109.8665
  1002.7500     28.1349     32.3647    -29.8036    110.9983
  1003.0000     29.5220     34.1178    -29.9117    111.4247
  1003.2500     31.0013     35.9420    -30.0357    109.9275
  1003.5000     32.4843     37.7481    -30.1758    104.9156
  1003.7500     33.8444     39.4430    -30.3252    100.4252
  1004.0000     34.9178     40.9299    -30.4664     93.5826
  1004.2500     35.5532     42.0974    -30.5700     89.7169
  1004.5000     35.6896     42.8111    -30.5955     85.5489
  1004.7500     35.3826     42.9383    -30.4955     83.7807
  1005.0000     34.7350     42.4041    -30.2212     82.2113
  1005.2500     33.8017     41.2357    -29.7299     81.8124
  1005.5000     32.5746     39.5485    -28.9912     82.7073
  1005.7500     31.0540     37.4803    -27.9927     84.7587
  1006.0000     29.3148     35.1310    -26.7415     90.1288
  1006.2500     27.4911     32.5567    -25.2647     94.6887
