~Version Information
VERS.                      2.0: CWLS Log ASCII Standard - VERSION 2.0
WRAP.                       NO: One line per depth step
~Well Information Block
STRT.FT                -8.2500: 
STOP.FT               686.7500: 
STEP.FT                 0.2500: 
NULL.                -999.2500: 
COMP.          Pioneer Natural Resources: COMPANY
WELL.           Quintessa 23-7: WELL
FLD.           Purgatorie River: FIELD
LOC.           1964' FSL & 2589' FWL--: LOCATION
PROV.                       CO: PROVINCE
CNTY.               Las Animas: COUNTRY
SRVC.          Patterson Wireline: SERVICE COMPANY
DATE.          Wed Nov 23 10:31:07 2005: LOG DATE
UWI.           05 071 08558 00: UNIQUE WELL ID
~Curve Information Block
DEPT.FT            0 000 00 00: Depth
CCL.                          : Casing Collar Locator
TT3.usec                      : CBL 3' Travel Time
AMP3.mV                       : CBL 3' Amplitude
GR.GAPI                       : Gamma Ray
~Parameter Information Block
~A  Depth       CCL         TT3         AMP3         GR     
# ...
   527.7500      0.0000    553.8369     17.2717     91.2723
   528.0000      0.0000    630.8671     15.9515     89.8936
   528.2500      0.0000    717.3110     15.0273     87.3021
   528.5000      0.0000    813.3798     14.5152     83.5523
   528.7500      0.0000    911.1221     14.4141     78.9520
   529.0000      0.0000    996.8467     14.7315     73.6833
   529.2500      0.0000   1058.8793     15.3781     68.2459
   529.5000      0.0000   1089.7678     16.1566     63.7523
   529.7500     -2.0000   1085.3417     16.8512     61.3467
   530.0000      0.0000   1046.7003     17.2938     61.3440
   530.2500      0.0000    983.4625     17.4474     63.0305
   530.5000      0.0000    910.2903     17.5588     65.2297
   530.7500      0.0000    835.6723     18.1580     67.0565
   531.0000      0.0000    755.3306     19.7127     68.3439
   531.2500      0.0000    661.1256     22.2164     69.5045
   531.5000      0.0000    556.7450     25.1502     70.9035
   531.7500      0.0000    460.2312     27.8496     72.3276
   532.0000      0.0000    389.6438     29.8791     73.2399
   532.2500      0.0000    349.5242     31.1094     73.5380
   532.5000      0.0000    331.9042     31.5856     73.7274
   532.7500      0.0000    325.9738     31.4277     74.2234
   533.0000      0.0000    324.5126     30.8106     74.7206
   533.2500      0.0000    324.3800     29.9364     74.4939
   533.5000      0.0000    324.5526     28.9900     73.3096
   533.7500      0.0000    324.7808     28.1132     71.9742
   534.0000      0.0000    324.9584     27.3994     71.8769
   534.2500      0.0000    325.0497     26.8857     73.6828
   534.5000      0.0000    325.0519     26.5538     76.3428
   534.7500      0.0000    324.9904     26.3555     77.7816
   535.0000      0.0000    324.8966     26.2507     76.6773
   535.2500      0.0000    324.7884     26.2252     73.1648
   535.5000      0.0000    324.6691     26.2739     68.0079
   535.7500      0.0000    324.5416     26.3775     61.9805
   536.0000      0.0000    324.4150     26.5053     56.1669
   536.2500      0.0000    324.2966     26.6410     52.0005
   536.5000      0.0000    324.1826     26.7955     50.4541
   536.7500      0.0000    324.0658     26.9828     51.3077
   537.0000      0.0000    323.9497     27.1840     53.3182
   537.2500      0.0000    323.8517     27.3431     55.1236
   537.5000      0.0000    323.7904     27.4047     56.0690
   537.7500      0.0000    323.7707     27.3563     56.2719
   538.0000      0.0000    323.7792     27.2324     56.0294
   538.2500      0.0000    323.7940     27.0838     55.2793
   538.5000      0.0000    323.7999     26.9431     53.6976
   538.7500      0.0000    323.7963     26.8132     51.3235
   539.0000      0.0000    323.7925     26.6812     48.8950
   539.2500      0.0000    323.7976     26.5389     47.2773
   539.5000      0.0000    323.8150     26.3856     46.6144
   539.7500      0.0000    323.8476     26.2089     46.3394
   540.0000      0.0000    323.9049     25.9764     45.9936
   540.2500      0.0000    324.0040     25.6573     45.6885
   540.5000      0.0000    324.1611     25.2504     45.7021
   540.7500      0.0000    324.3831     24.7834     45.9617
   541.0000      0.0000    324.6912     24.2873     46.0400
   541.2500      0.0000    325.1650     23.7781     45.4429
   541.5000      0.0000    326.2195     23.2606     43.9950
   541.7500      0.0000    329.1404     22.7431     42.3080
   542.0000      0.0000    336.5923     22.2458     41.6374
   542.2500      0.0000    351.6666     21.7940     42.6866
   542.5000      0.0000    374.1880     21.4057     44.6503
   542.7500      0.0000    397.3585     21.0849     45.9487
   543.0000      0.0000    411.5522     20.8221     45.8717
   543.2500      0.0000    415.4095     20.5997     45.1295
   543.5000      0.0000    421.8492     20.4008     44.8750
   543.7500      0.0000    449.0193     20.2168     45.5262
   544.0000      0.0000    503.9674     20.0439     46.5652
   544.2500      0.0000    575.5599     19.8721     47.2459
   544.5000      0.0000    642.5270     19.6823     47.3285
   544.7500      0.0000    687.2479     19.4557     47.1289
   545.0000      0.0000    702.2744     19.1901     47.0288
   545.2500      0.0000    687.1645     18.9107     47.1307
   545.5000      0.0000    644.2923     18.6624     47.4363
   545.7500      0.0000    580.2642     18.4820     48.2642
   546.0000      0.0000    508.7196     18.3736     50.2295
   546.2500      0.0000    446.3457     18.3175     53.4802
   546.5000      0.0000    403.7078     18.3002     56.9355
   546.7500      0.0000    380.6548     18.3297     58.6307
   547.0000      0.0000    370.0704     18.4173     57.0992
   547.2500      0.0000    364.2826     18.5520     52.5567
   547.5000      0.0000    358.4889     18.6985     46.8750
   547.7500      0.0000    351.1362     18.8191     42.3997
   548.0000      0.0000    343.0918     18.8958     40.5228
   548.2500      0.0000    336.3070     18.9313     41.0996
   548.5000      0.0000    332.4433     18.9363     43.0195
   548.7500      0.0000    332.2609     18.9195     45.1156
   549.0000      0.0000    335.9435     18.8935     46.4771
   549.2500      0.0000    344.0935     18.8768     46.3511
   549.5000      0.0000    359.6463     18.8680     44.4989
   549.7500      0.0000    389.6109     18.8071     41.8680
   550.0000      0.0000    442.4618     18.5787     40.4160
   550.2500      0.0000    519.4523     18.0845     41.7740
   550.5000      0.0000    607.9291     17.3293     46.0387
   550.7500      0.0000    687.0087     16.4405     51.8326
   551.0000      0.0000    741.7988     15.6141     57.3164
   551.2500      0.0000    771.1462     15.0341     61.1804
   551.5000      0.0000    783.0225     14.8047     63.1048
   551.7500      0.0000    785.8525     14.9090     63.5728
   552.0000      0.0000    784.2631     15.2093     63.1273
   552.2500      0.0000    779.7521     15.4984     61.7574
   552.5000      0.0000    772.9974     15.5881     59.2197
   552.7500      0.0000    765.3765     15.3925     56.0510
   553.0000      0.0000    758.9252     14.9620     54.0126
   553.2500      0.0000    755.3350     14.4470     55.1086
   553.5000      0.0000    755.3016     14.0144     59.7479
   553.7500      0.0000    758.5087     13.7774     65.7560
   554.0000      0.0000    763.7908     13.7772     69.5376
   554.2500      0.0000    769.5231     13.9983     68.6901
   554.5000      0.0000    774.5345     14.3743     63.7478
   554.7500      0.0000    778.9555     14.7843     57.5264
   555.0000      0.0000    784.0640     15.0800     52.8427
   555.2500      0.0000    791.5978     15.1533     50.7572
   555.5000      0.0000    802.9194     14.9903     50.6751
   555.7500      0.0000    817.1166     14.6561     51.6902
   556.0000      0.0000    828.9898     14.2342     53.3888
   556.2500      0.0000    831.1888     13.7906     55.3248
   556.5000      0.0000    821.0285     13.3818     56.4145
   556.7500      0.0000    804.2674     13.0671     55.5870
   557.0000      0.0000    790.0821     12.8972     52.8841
   557.2500      0.0000    783.0422     12.9005     49.4483
   557.5000      0.0000    781.1016     13.0818     46.5511
   557.7500      0.0000    779.3984     13.4330     44.8741
   558.0000      0.0000    773.3638     13.9512     44.4737
   558.2500      0.0000    757.8170     14.6623     45.1362
   558.5000      0.0000    725.1864     15.6342     46.9786
   558.7500      0.0000    668.3420     16.9637     50.9118
   559.0000      0.0000    588.4146     18.7348     58.0754
   559.2500      0.0000    499.4212     20.9595     68.4103
   559.5000      0.0000    421.5879     23.5223     79.9217
   559.7500      0.0000    368.2668     26.1646     89.6635
   560.0000      0.0000    339.6570     28.5517     95.6609
   560.2500      0.0000    327.5995     30.4108     98.0798
   560.5000      0.0000    323.5670     31.6428     98.5397
   560.7500      0.0000    322.4598     32.3212     98.2398
   561.0000      0.0000    322.1882     32.6010     97.1946
