~Version Information
VERS.                      2.0: CWLS Log ASCII Standard - VERSION 2.0
WRAP.                       NO: One line per depth step
~Well Information Block
STRT.FT               525.0000: 
STOP.FT              2377.2500: 
STEP.FT                 0.2500: 
NULL.                -999.2500: 
COMP.          Pioneer Natural Resources: COMPANY
WELL.          Sparrowhawk 22-12: WELL
FLD.           Purgatoire River: FIELD
LOC.           2049' FNL & 2060' FWL--: LOCATION
CNTY.               Las Animas: COUNTY
SRVC.                Patterson: SERVICE COMPANY
DATE.          Thu Mar 23 10:52:44 2006: LOG DATE
UWI.           05 071 08484 00: UNIQUE WELL ID
STAT.                 Colorado: STATE
~Curve Information Block
DEPT.FT            0 000 00 00: Depth
SN.Ohm-m                      : IEL Short Normal
SP.mV                         : IEL Spontaneous Potential
DIR.Ohm-m                     : IEL Induction Resistivity
GR.GAPI                       : Gamma Ray
~Parameter Information Block
~A  Depth        SN          SP         DIR          GR     
# ...
  1362.5000     37.2024     50.4552     32.0668     89.9182
  1362.7500     36.0293     50.4246     30.7034     95.1777
  1363.0000     34.9007     50.4057     29.4654    101.2434
  1363.2500     33.7796     50.3950     28.3960    104.1568
  1363.5000     32.6777     50.3885     27.5214    107.9583
  1363.7500     31.6595     50.3815     26.8546    110.5559
  1364.0000     30.8124     50.3684     26.3975    113.9309
  1364.2500     30.1810     50.3427     26.1370    115.0249
  1364.5000     29.7014     50.2965     26.0341    114.1790
  1364.7500     29.1898     50.2218     26.0115    112.0445
  1365.0000     28.4283     50.1111     25.9554    106.6162
  1365.2500     27.3108     49.9595     25.7403    101.4320
  1365.5000     25.9393     49.7660     25.2737     92.0012
  1365.7500     24.5792     49.5346     24.5365     86.0020
  1366.0000     23.4995     49.2743     23.5897     80.8584
  1366.2500     22.8253     48.9975     22.5437     81.6392
  1366.5000     22.4986     48.7177     21.5109     89.7154
  1366.7500     22.3491     48.4471     20.5704     98.4864
  1367.0000     22.2063     48.1941     19.7585    112.7906
  1367.2500     21.9830     47.9626     19.0783    120.6099
  1367.5000     21.6905     47.7524     18.5167    126.7694
  1367.7500     21.3972     47.5608     18.0572    126.6292
  1368.0000     21.1755     47.3844     17.6873    121.2296
  1368.2500     21.0714     47.2209     17.3990    115.6676
  1368.5000     21.0957     47.0698     17.1869    107.1896
  1368.7500     21.2227     46.9325     17.0461    102.6770
  1369.0000     21.3958     46.8112     16.9681     98.6920
  1369.2500     21.5463     46.7080     16.9362     98.1048
  1369.5000     21.6158     46.6241     16.9226    100.3734
  1369.7500     21.5702     46.5591     16.8905    103.8026
  1370.0000     21.3995     46.5119     16.8012    110.9964
  1370.2500     21.1144     46.4813     16.6243    116.4392
  1370.5000     20.7429     46.4668     16.3463    124.1243
  1370.7500     20.3256     46.4690     15.9762    128.0374
  1371.0000     19.9107     46.4891     15.5475    130.9982
  1371.2500     19.5479     46.5280     15.1152    130.9881
  1371.5000     19.2840     46.5853     14.7441    128.8468
  1371.7500     19.1558     46.6578     14.4951    126.5981
  1372.0000     19.1818     46.7394     14.4138    122.6822
  1372.2500     19.3517     46.8220     14.5253    119.9020
  1372.5000     19.6233     46.8966     14.8345    115.3208
  1372.7500     19.9316     46.9563     15.3289    111.5788
  1373.0000     20.2174     46.9974     15.9821    104.3063
  1373.2500     20.4668     47.0208     16.7582     98.5357
  1373.5000     20.7407     47.0320     17.6186     90.0230
  1373.7500     21.1668     47.0395     18.5350     85.7347
  1374.0000     21.8824     47.0528     19.4973     83.2994
  1374.2500     22.9540     47.0802     20.5070     84.7083
  1374.5000     24.3256     47.1267     21.5537     90.0944
  1374.7500     25.8344     47.1938     22.5893     94.3639
  1375.0000     27.2820     47.2789     23.5244     99.6196
  1375.2500     28.5091     47.3768     24.2546    102.0257
  1375.5000     29.4304     47.4810     24.7061    104.5634
  1375.7500     30.0331     47.5845     24.8705    105.8449
  1376.0000     30.3611     47.6802     24.8081    107.1275
  1376.2500     30.4951     47.7605     24.6256    107.5573
  1376.5000     30.5277     47.8167     24.4415    108.0640
  1376.7500     30.5413     47.8391     24.3568    108.6583
  1377.0000     30.5967     47.8172     24.4399    109.8973
  1377.2500     30.7291     47.7434     24.7241    110.4771
  1377.5000     30.9437     47.6176     25.2136    109.9560
  1377.7500     31.2180     47.4516     25.8904    108.3074
  1378.0000     31.5237     47.2723     26.7193    103.8465
  1378.2500     31.8510     47.1195     27.6534     99.9212
  1378.5000     32.2127     47.0389     28.6452     93.9531
  1378.7500     32.6225     47.0699     29.6580     90.8270
  1379.0000     33.0708     47.2318     30.6653     88.2136
  1379.2500     33.5184     47.5150     31.6300     87.6963
  1379.5000     33.9047     47.8791     32.4773     88.0368
  1379.7500     34.1621     48.2619     33.0883     88.7535
  1380.0000     34.2320     48.5952     33.3324     90.7505
  1380.2500     34.0817     48.8237     33.1252     92.9984
  1380.5000     33.7151     48.9182     32.4740     97.7994
  1380.7500     33.1734     48.8810     31.4819    101.5087
  1381.0000     32.5244     48.7404     30.3121    106.8591
  1381.2500     31.8472     48.5401     29.1378    110.0332
  1381.5000     31.2165     48.3252     28.0982    114.3724
  1381.7500     30.6904     48.1334     27.2740    117.1393
  1382.0000     30.2995     47.9892     26.6827    120.8854
  1382.2500     30.0389     47.9052     26.2908    122.5119
  1382.5000     29.8727     47.8843     26.0363    122.0843
  1382.7500     29.7533     47.9241     25.8555    119.2405
  1383.0000     29.6450     48.0190     25.7038    111.5223
  1383.2500     29.5420     48.1615     25.5646    105.2343
  1383.5000     29.4744     48.3410     25.4464     96.9175
  1383.7500     29.4951     48.5431     25.3719     93.6745
  1384.0000     29.6423     48.7486     25.3659     93.9136
  1384.2500     29.8940     48.9334     25.4403     97.5979
  1384.5000     30.1504     49.0713     25.5799    107.1332
  1384.7500     30.2659     49.1365     25.7325    114.6509
  1385.0000     30.1132     49.1096     25.8171    124.3448
  1385.2500     29.6420     48.9837     25.7530    128.0294
  1385.5000     28.9075     48.7691     25.4978    128.1375
  1385.7500     28.0616     48.4959     25.0727    125.1434
  1386.0000     27.3160     48.2101     24.5599    118.3567
  1386.2500     26.8842     47.9660     24.0766    113.6229
  1386.5000     26.9170     47.8132     23.7418    107.4966
  1386.7500     27.4547     47.7827     23.6513    104.3198
  1387.0000     28.4259     47.8768     23.8630    100.8968
  1387.2500     29.7033     48.0660     24.3891     99.1012
  1387.5000     31.1803     48.2958     25.1926     95.4389
  1387.7500     32.8236     48.4998     26.1964     91.1888
  1388.0000     34.6863     48.6174     27.3088     81.4072
  1388.2500     36.8870     48.6075     28.4555     73.4359
  1388.5000     39.5372     48.4557     29.5807     61.9746
  1388.7500     42.6157     48.1732     30.5919     56.0894
  1389.0000     45.8440     47.7891     31.2725     51.3080
  1389.2500     48.6735     47.3397     31.2498     51.2161
  1389.5000     50.4653     46.8596     30.1366     56.0298
  1389.7500     50.7931     46.3763     27.8485     62.2587
  1390.0000     49.6575     45.9086     24.7952     74.3268
  1390.2500     47.4582     45.4682     21.6523     82.6777
  1390.5000     44.7786     45.0620     18.9635     93.7693
  1390.7500     42.1504     44.6936     16.9998     99.9877
  1391.0000     39.9067     44.3641     15.8912    108.1202
  1391.2500     38.1466     44.0728     15.8882    112.9968
  1391.5000     36.7957     43.8161     17.9070    119.2675
  1391.7500     35.7101     43.5879     26.4008    122.3877
  1392.0000     34.7598     43.3804    162.8235    124.7927
  1392.2500     33.8665     43.1845 100000.0000    124.5113
  1392.5000     33.0072     42.9914 100000.0000    121.0141
  1392.7500     32.2004     42.7928 100000.0000    116.9832
  1393.0000     31.4812     42.5828 100000.0000    109.7973
  1393.2500     30.8749     42.3572 100000.0000    105.1462
  1393.5000     30.3806     42.1139 100000.0000     99.5028
  1393.7500     29.9721     41.8517 100000.0000     97.1289
  1394.0000     29.6127     41.5690 100000.0000     96.4143
  1394.2500     29.2673     41.2620 100000.0000     97.9851
  1394.5000     28.9032     40.9228 100000.0000    102.7307
  1394.7500     28.4839     40.5368 100000.0000    106.7730
  1395.0000     27.9692     40.0825 100000.0000    113.1850
  1395.2500     27.3258     39.5308 100000.0000    117.3485
  1395.5000     26.5410     38.8462     59.3901    122.6964
  1395.7500     25.6291     37.9894     13.0660    124.9552
