~Version Information
VERS.                      2.0: CWLS Log ASCII Standard - VERSION 2.0
WRAP.                       NO: One line per depth step
~Well Information Block
STRT.FT               625.0000: 
STOP.FT              2053.7000: 
STEP.FT                 0.1000: 
NULL.                -999.2500: 
COMP.          Pioneer Natural Resources: COMPANY
WELL.            Zink 44-10 Tr: WELL
FLD.           Purgatoire River: FIELD
LOC.           486' FSL & 554' FEL--: LOCATION
PROV.                 Colorado: PROVINCE
CNTY.               Las Animas: COUNTRY
SRVC.                Patterson: SERVICE COMPANY
DATE.          Sun Jul 24 08:46:57 2005: LOG DATE
UWI.           05 071 08446 00: UNIQUE WELL ID
~Curve Information Block
DEPT.FT            0 000 00 00: Depth
DCAL.in                       : CDL Caliper
RHOB.g/cc                     : CDL Bulk Density
RHOC.g/cc                     : CDL Density Correction
DPOR.pu                       : CDL Density Porosity
NPOR.pu                       : Neutron Porosity
GR.GAPI                       : Gamma Ray
~Parameter Information Block
~A  Depth       DCAL        RHOB        RHOC        DPOR        NPOR         GR     
# ...
  1844.2000      7.8843      2.4759      0.2318     10.5533     26.9159    125.0247
  1844.3000      7.8563      2.5298      0.2061      7.2836     26.5761    129.7131
  1844.4000      7.8563      2.5597      0.1614      5.4745     26.6041    132.7854
  1844.5000      7.8501      2.5718      0.1346      4.7419     26.4271    134.7981
  1844.6000      7.8501      2.5787      0.1050      4.3216     26.3553    137.2634
  1844.7000      7.8501      2.5850      0.1123      3.9407     26.7381    139.2393
  1844.8000      7.8501      2.5847      0.1341      3.9589     27.2753    138.4719
  1844.9000      7.8501      2.5731      0.0817      4.6603     27.7771    136.2049
  1845.0000      7.8506      2.5548      0.0757      5.7723     28.3075    133.6953
  1845.1000      7.8506      2.5350      0.0667      6.9668     28.8849    129.4951
  1845.2000      7.8506      2.5193      0.0321      7.9208     29.2514    125.3324
  1845.3000      7.8507      2.5170      0.0467      8.0614     29.0212    125.9815
  1845.4000      7.8507      2.5320      0.0380      7.1530     28.3930    129.8316
  1845.5000      7.8509      2.5484      0.0874      6.1547     27.9399    129.7810
  1845.6000      7.8509      2.5445      0.0863      6.3930     27.8548    127.1947
  1845.7000      7.8509      2.5238      0.0608      7.6512     28.0556    128.2613
  1845.8000      7.8501      2.5122      0.0398      8.3544     28.3989    132.0539
  1845.9000      7.8501      2.5240      0.0741      7.6345     28.5420    137.1902
  1846.0000      7.8464      2.5423      0.0815      6.5244     28.3381    144.1453
  1846.1000      7.8464      2.5448      0.0745      6.3747     28.0100    147.8348
  1846.2000      7.8464      2.5367      0.0646      6.8690     27.4702    145.8777
  1846.3000      7.8388      2.5354      0.0715      6.9477     26.6859    141.1976
  1846.4000      7.8388      2.5445      0.0772      6.3920     26.1193    136.9441
  1846.5000      7.8312      2.5593      0.0837      5.4965     25.6857    135.8308
  1846.6000      7.8312      2.5788      0.1024      4.3154     25.0096    134.8873
  1846.7000      7.8312      2.6056      0.1008      2.6912     24.4918    131.2280
  1846.8000      7.8287      2.6312      0.1177      1.1384     24.5005    125.5509
  1846.9000      7.8287      2.6366      0.1366      0.8140     24.8102    116.6252
  1847.0000      7.8242      2.6227      0.0876      1.6517     25.0584    104.9863
  1847.1000      7.8242      2.6082      0.1238      2.5357     25.0132     94.9239
  1847.2000      7.8242      2.5967      0.0772      3.2284     25.0957     89.1987
  1847.3000      7.8070      2.5897      0.0433      3.6519     25.7395     85.3814
  1847.4000      7.8070      2.5919      0.0764      3.5183     26.2784     82.9274
  1847.5000      7.7905      2.6040      0.0640      2.7892     26.2792     82.9920
  1847.6000      7.7905      2.6243      0.0954      1.5550     26.3665     86.5295
  1847.7000      7.7905      2.6366      0.1223      0.8092     26.8761     98.4730
  1847.8000      7.7953      2.6228      0.0790      1.6466     27.2905    119.0311
  1847.9000      7.7953      2.5949      0.0608      3.3408     27.1493    137.7923
  1848.0000      7.8126      2.5744      0.0593      4.5811     26.7940    145.2190
  1848.1000      7.8126      2.5622      0.0638      5.3229     26.7169    142.6634
  1848.2000      7.8126      2.5524      0.0362      5.9179     26.7300    136.4774
  1848.3000      7.8233      2.5501      0.0170      6.0545     26.5146    129.9182
  1848.4000      7.8233      2.5601      0.0470      5.4512     26.4269    126.6754
  1848.5000      7.8257      2.5713      0.0281      4.7698     26.7227    128.8430
  1848.6000      7.8257      2.5663      0.0352      5.0719     26.7873    133.4863
  1848.7000      7.8257      2.5407     -0.0117      6.6233     26.2503    138.1510
  1848.8000      7.8245      2.5181     -0.0302      7.9950     25.5206    143.4745
  1848.9000      7.8245      2.5176      0.0542      8.0262     25.0839    147.9212
  1849.0000      7.8229      2.5271      0.0375      7.4464     24.9446    146.9784
  1849.1000      7.8229      2.5372      0.0096      6.8360     24.9748    141.0009
  1849.2000      7.8229      2.5524      0.0227      5.9145     24.9921    133.8976
  1849.3000      7.8211      2.5738      0.0544      4.6211     24.9312    126.0698
  1849.4000      7.8211      2.5908      0.0767      3.5876     24.9607    115.8591
  1849.5000      7.8206      2.5908      0.0802      3.5862     25.1278    104.0221
  1849.6000      7.8206      2.5783      0.0574      4.3478     25.2396     94.4741
  1849.7000      7.8206      2.5687      0.0182      4.9264     24.9115     88.6120
  1849.8000      7.8175      2.5655      0.0578      5.1229     24.3233     85.7814
  1849.9000      7.8175      2.5622      0.0377      5.3184     24.0033     87.4007
  1850.0000      7.8095      2.5578      0.0678      5.5879     23.8089     90.0380
  1850.1000      7.8095      2.5472      0.0501      6.2297     23.2305     88.7714
  1850.2000      7.8095      2.5290     -0.0221      7.3334     22.2041     84.6589
  1850.3000      7.8035      2.5134      0.0171      8.2815     21.0526     79.3560
  1850.4000      7.8035      2.5070      0.0055      8.6653     20.3334     70.8179
  1850.5000      7.8002      2.5089      0.0238      8.5497     20.4145     61.6912
  1850.6000      7.8002      2.5159      0.0374      8.1291     20.7954     57.4568
  1850.7000      7.8002      2.5307      0.0147      7.2322     20.8069     53.7534
  1850.8000      7.7976      2.5528      0.0789      5.8892     20.3624     46.9595
  1850.9000      7.7976      2.5659      0.0985      5.0957     19.6684     43.2642
  1851.0000      7.7954      2.5556      0.0657      5.7207     19.1603     45.5123
  1851.1000      7.7954      2.5236      0.0856      7.6578     19.2985     48.8306
  1851.2000      7.7954      2.4829      0.0386     10.1287     20.1029     50.2731
  1851.3000      7.7867      2.4535      0.0321     11.9113     20.9627     51.5317
  1851.4000      7.7867      2.4480      0.0275     12.2436     21.2827     51.9422
  1851.5000      7.7687      2.4635      0.0457     11.3051     20.9119     47.6787
  1851.6000      7.7687      2.4935      0.0664      9.4823     19.9936     41.4990
  1851.7000      7.7687      2.5335      0.0784      7.0581     19.1283     38.4202
  1851.8000      7.7517      2.5738      0.1110      4.6170     18.7124     37.8615
  1851.9000      7.7517      2.6064      0.1202      2.6437     18.6030     39.7387
  1852.0000      7.7445      2.6290      0.1737      1.2747     18.7414     44.5056
  1852.1000      7.7445      2.6354      0.1316      0.8860     18.9206     48.4220
  1852.2000      7.7445      2.6242      0.1444      1.5663     18.8876     49.8580
  1852.3000      7.7469      2.6061      0.1004      2.6623     18.6708     51.2383
  1852.4000      7.7469      2.5965      0.1098      3.2449     18.4620     52.9289
  1852.5000      7.7618      2.6036      0.0633      2.8099     18.6431     52.7466
  1852.6000      7.7618      2.6182      0.1181      1.9253     19.2868     49.9650
  1852.7000      7.7618      2.6201      0.0901      1.8117     19.8240     47.1606
  1852.8000      7.7884      2.6035      0.0795      2.8199     19.7597     46.0444
  1852.9000      7.7884      2.5820      0.0306      4.1187     19.3404     45.6854
  1853.0000      7.8090      2.5684      0.0441      4.9437     19.1291     46.2627
  1853.1000      7.8090      2.5634      0.0275      5.2484     19.2891     49.1594
  1853.2000      7.8090      2.5707      0.0440      4.8050     19.3547     51.4477
  1853.3000      7.8140      2.5891      0.0790      3.6909     18.8613     50.8841
  1853.4000      7.8140      2.6025      0.0980      2.8795     18.2440     52.0776
  1853.5000      7.8150      2.6031      0.0943      2.8396     18.2697     54.9392
  1853.6000      7.8150      2.6007      0.0489      2.9863     18.9637     55.2733
  1853.7000      7.8150      2.6013      0.0713      2.9538     19.4677     54.2225
