~Version Information
VERS.                      2.0: CWLS Log ASCII Standard - VERSION 2.0
WRAP.                       NO: One line per depth step
~Well Information Block
STRT.FT               620.0000: 
STOP.FT              3067.2000: 
STEP.FT                 0.1000: 
NULL.                -999.2500: 
COMP.          Pioneer Natural Resources: COMPANY
WELL.          Interceptor 43-13 Kv: WELL
FLD.           Purgatoire River: FIELD
LOC.           2073' FSL & 519' FEL--: LOCATION
PROV.                 Colorado: PROVINCE
CNTY.               Las Animas: COUNTRY
SRVC.                Patterson: SERVICE COMPANY
DATE.          Sat Jan 14 20:27:27 2006: LOG DATE
UWI.           05 071 08655 00: UNIQUE WELL ID
~Curve Information Block
DEPT.FT            0 000 00 00: Depth
DCAL.in                       : CDL Caliper
RHOB.g/cc                     : CDL Bulk Density
RHOC.g/cc                     : CDL Density Correction
DPOR.pu                       : CDL Density Porosity
NPOR.pu                       : Neutron Porosity
GR.GAPI                       : Gamma Ray
~Parameter Information Block
~A  Depth       DCAL        RHOB        RHOC        DPOR        NPOR         GR     
# ...
  2559.2000      7.9551      2.4392      0.0520     12.7783     13.2443     47.6591
  2559.3000      7.9543      2.4298      0.0851     13.3461     13.0348     47.5339
  2559.4000      7.9543      2.4208      0.0624     13.8927     12.6574     44.5492
  2559.5000      7.9532      2.4107      0.0433     14.5038     12.1298     39.7727
  2559.6000      7.9532      2.4003      0.0651     15.1308     11.8810     35.7515
  2559.7000      7.9532      2.3922      0.0614     15.6213     12.0212     33.8144
  2559.8000      7.9530      2.3941      0.0403     15.5096     12.3023     33.9712
  2559.9000      7.9530      2.4065      0.0609     14.7551     12.9109     35.1129
  2560.0000      7.9531      2.4160      0.0495     14.1843     13.9675     36.0941
  2560.1000      7.9531      2.4117      0.0515     14.4409     14.9234     38.7108
  2560.2000      7.9531      2.4041     -0.0137     14.9018     15.3439     43.6513
  2560.3000      7.9552      2.4137      0.0175     14.3216     15.4450     47.0257
  2560.4000      7.9552      2.4433      0.0656     12.5247     15.7294     47.7175
  2560.5000      7.9638      2.4800      0.0823     10.3043     16.2688     49.0281
  2560.6000      7.9638      2.5090      0.1076      8.5479     16.7363     52.1815
  2560.7000      7.9638      2.5213      0.0791      7.8028     16.9630     53.3678
  2560.8000      7.9741      2.5244      0.0503      7.6131     16.8576     51.1287
  2560.9000      7.9741      2.5318      0.0825      7.1642     16.4237     51.1160
  2561.0000      7.9796      2.5417      0.0897      6.5620     16.0213     56.4565
  2561.1000      7.9796      2.5420      0.0724      6.5454     16.0889     62.9032
  2561.2000      7.9796      2.5300      0.0697      7.2725     16.4049     66.0127
  2561.3000      7.9837      2.5165      0.0599      8.0923     16.3333     65.5063
  2561.4000      7.9837      2.5092      0.0562      8.5360     15.9199     63.8083
  2561.5000      7.9910      2.5090      0.0448      8.5448     15.8747     64.7311
  2561.6000      7.9910      2.5139      0.0746      8.2460     16.1565     69.5533
  2561.7000      7.9910      2.5214      0.0629      7.7935     16.1588     74.8827
  2561.8000      8.0013      2.5293      0.0772      7.3159     16.0187     76.1894
  2561.9000      8.0013      2.5302      0.0600      7.2616     15.9903     74.8827
  2562.0000      8.0085      2.5275      0.0356      7.4264     15.9519     73.3127
  2562.1000      8.0085      2.5304      0.0521      7.2485     15.8797     69.0805
  2562.2000      8.0085      2.5328      0.0411      7.1058     15.8422     61.3412
  2562.3000      8.0119      2.5295      0.0533      7.3059     15.9132     52.3519
  2562.4000      8.0119      2.5323      0.0398      7.1349     16.0524     45.3861
  2562.5000      8.0118      2.5529      0.0740      5.8870     16.3310     43.8226
  2562.6000      8.0118      2.5804      0.0887      4.2156     17.1174     48.3416
  2562.7000      8.0118      2.5935      0.1113      3.4249     18.4975     56.4843
  2562.8000      8.0109      2.5886      0.0439      3.7231     19.6833     65.5369
  2562.9000      8.0109      2.5817      0.0489      4.1367     20.2412     74.4423
  2563.0000      8.0100      2.5803      0.0458      4.2234     20.5854     84.8347
  2563.1000      8.0100      2.5783      0.0552      4.3461     21.1999     95.0787
  2563.2000      8.0100      2.5774      0.0399      4.4011     22.2087    100.5884
  2563.3000      8.0053      2.5862      0.0471      3.8671     23.1315     99.5540
  2563.4000      8.0053      2.6035      0.0682      2.8200     23.4956     95.9896
  2563.5000      7.9975      2.6172      0.0705      1.9886     23.2705     99.0236
  2563.6000      7.9975      2.6169      0.0609      2.0038     22.6672    109.3118
  2563.7000      7.9975      2.6094      0.0352      2.4595     22.1395    118.1799
  2563.8000      7.9845      2.6149      0.0016      2.1247     21.8363    123.0686
  2563.9000      7.9845      2.6314      0.0860      1.1300     21.6116    124.8986
  2564.0000      7.9697      2.6350      0.0559      0.9076     21.4285    122.2792
  2564.1000      7.9697      2.6208      0.0702      1.7695     21.3233    116.6808
  2564.2000      7.9697      2.6007      0.0363      2.9857     21.3327    111.1443
  2564.3000      7.9614      2.5840      0.0351      3.9992     21.4604    106.5332
  2564.4000      7.9614      2.5729      0.0385      4.6756     21.4923    105.0326
  2564.5000      7.9603      2.5739      0.0180      4.6108     21.1725    108.6539
  2564.6000      7.9603      2.5917      0.0303      3.5323     20.9783    114.3448
  2564.7000      7.9603      2.6074      0.0630      2.5813     21.2959    119.3043
  2564.8000      7.9630      2.5949      0.0903      3.3395     21.4497    119.1197
  2564.9000      7.9630      2.5598      0.0567      5.4686     20.9582    110.7007
  2565.0000      7.9620      2.5344      0.0113      7.0051     20.4088    104.9077
  2565.1000      7.9620      2.5309      0.0224      7.2169     20.3568    109.2296
  2565.2000      7.9620      2.5329      0.0268      7.0971     20.5369    117.0082
  2565.3000      7.9570      2.5323      0.0419      7.1337     20.5120    120.3416
  2565.4000      7.9570      2.5371      0.0046      6.8446     20.1697    115.2106
  2565.5000      7.9543      2.5471      0.0817      6.2355     19.7064    103.8091
  2565.6000      7.9543      2.5523      0.0405      5.9194     19.3752     93.9578
  2565.7000      7.9543      2.5516      0.0593      5.9641     19.1154     93.1432
  2565.8000      7.9538      2.5487      0.0358      6.1394     18.7504     97.5212
  2565.9000      7.9538      2.5389      0.0823      6.7361     18.2412     93.1106
  2566.0000      7.9520      2.5167      0.0289      8.0791     17.6598     77.7693
  2566.1000      7.9520      2.4888      0.0518      9.7706     17.1485     61.7890
  2566.2000      7.9520      2.4639      0.0378     11.2781     16.5915     50.1897
  2566.3000      7.9485      2.4528      0.0040     11.9500     15.8362     43.5980
  2566.4000      7.9485      2.4624      0.0206     11.3709     15.3489     43.4996
  2566.5000      7.9445      2.4807      0.0707     10.2598     15.3533     46.3884
  2566.6000      7.9445      2.4884      0.1073      9.7943     15.2971     47.3003
  2566.7000      7.9445      2.4814      0.0828     10.2164     14.9373     46.0346
  2566.8000      7.9415      2.4686      0.0720     10.9949     14.6349     42.6649
  2566.9000      7.9415      2.4573      0.0639     11.6778     14.6099     37.1035
  2567.0000      7.9402      2.4510      0.0434     12.0594     14.8700     32.4642
  2567.1000      7.9402      2.4435      0.0716     12.5154     15.4226     32.6333
  2567.2000      7.9402      2.4301      0.0185     13.3244     15.8913     38.1927
  2567.3000      7.9410      2.4240     -0.0067     13.6983     15.8239     45.3456
  2567.4000      7.9410      2.4277      0.0466     13.4757     15.5166     48.4865
  2567.5000      7.9441      2.4223      0.0531     13.7984     15.4582     46.4833
  2567.6000      7.9441      2.4058      0.0096     14.7976     16.0602     43.4969
  2567.7000      7.9441      2.3937      0.0233     15.5331     17.0497     41.5456
  2567.8000      7.9495      2.3917      0.0180     15.6543     17.3628     40.0403
  2567.9000      7.9495      2.3986      0.0518     15.2370     16.9840     39.5770
  2568.0000      7.9539      2.4141      0.0349     14.2955     16.7547     40.3367
  2568.1000      7.9539      2.4326      0.0634     13.1746     16.8281     40.5995
  2568.2000      7.9539      2.4406      0.0742     12.6896     16.7466     39.8817
  2568.3000      7.9563      2.4299      0.0774     13.3420     16.3989     41.2267
  2568.4000      7.9563      2.4130      0.0105     14.3661     16.1360     46.5729
  2568.5000      7.9584      2.4163      0.0444     14.1665     15.9346     52.3404
  2568.6000      7.9584      2.4400      0.0881     12.7297     15.6059     55.5520
  2568.7000      7.9584      2.4567      0.1080     11.7140     15.3987     57.8196
