~Version Information
VERS.                      2.0: CWLS Log ASCII Standard - VERSION 2.0
WRAP.                       NO: One line per depth step
~Well Information Block
STRT.FT                -6.7500: 
STOP.FT              2027.0000: 
STEP.FT                 0.2500: 
NULL.                -999.2500: 
COMP.          Pioneer Natural Resources: COMPANY
WELL.             Fleming 11-2: WELL
FLD.           Purgatorie River: FIELD
LOC.           534' FNL & 160' FWL--: LOCATION
CNTY.               Las Animas: COUNTY
SRVC.          Patterson Wireline: SERVICE COMPANY
DATE.          Thu Jul 13 10:28:00 2006: LOG DATE
UWI.           05 071 08491 00: UNIQUE WELL ID
STAT.                       CO: STATE
~Curve Information Block
DEPT.FT            0 000 00 00: Depth
CCL.                          : Casing Collar Locator
TT3.usec                      : CBL 3' Travel Time
AMP3.mV                       : CBL 3' Amplitude
GR.GAPI                       : Gamma Ray
~Parameter Information Block
~A  Depth       CCL         TT3         AMP3         GR     
# ...
   931.2500      0.0000    685.5485      3.3311    129.3853
   931.5000      0.0000    692.4382      3.3697    131.3722
   931.7500      0.0000    697.2796      3.4726    133.3236
   932.0000      0.0000    699.7967      3.6017    134.8278
   932.2500      0.0000    700.6521      3.7225    135.4954
   932.5000      0.0000    700.6660      3.8183    135.1109
   932.7500      0.0000    700.4355      3.8873    134.2602
   933.0000      0.0000    700.2719      3.9324    134.2508
   933.2500      0.0000    700.2616      3.9555    135.9194
   933.5000      0.0000    700.3745      3.9590    138.8550
   933.7500      0.0000    700.5615      3.9489    142.1082
   934.0000      0.0000    700.7949      3.9340    145.0460
   934.2500      0.0000    701.0534      3.9241    146.9543
   934.5000      0.0000    701.2711      3.9275    146.6073
   934.7500      0.0000    701.2657      3.9488    143.2338
   935.0000      0.0000    700.6871      3.9863    137.6078
   935.2500      0.0000    699.1053      4.0334    131.4617
   935.5000      0.0000    696.3856      4.0826    125.9795
   935.7500      0.0000    693.1980      4.1261    121.3460
   936.0000      0.0000    691.0040      4.1564    117.5921
   936.2500      0.0000    691.0819      4.1680    115.2872
   936.5000      0.0000    693.3835      4.1597    115.0448
   936.7500      0.0000    696.5493      4.1334    116.4554
   937.0000      0.0000    698.9793      4.0942    117.9183
   937.2500      0.0000    699.5010      4.0513    117.9772
   937.5000      0.0000    696.8727      4.0177    117.0504
   937.7500      0.0000    689.0217      4.0025    117.3526
   938.0000      0.0000    673.5667      4.0043    120.5850
   938.2500      0.0000    649.8295      4.0140    125.9760
   938.5000      0.0000    620.5883      4.0232    131.0970
   938.7500      0.0000    591.7695      4.0290    134.2964
   939.0000      0.0000    570.3580      4.0333    135.7571
   939.2500      0.0000    561.8302      4.0397    136.4416
   939.5000      0.0000    567.9862      4.0504    136.5641
   939.7500      0.0000    586.3024      4.0650    135.2251
   940.0000      0.0000    611.4128      4.0840    131.6502
   940.2500      0.0000    637.4089      4.1109    126.8035
   940.5000      0.0000    659.6098      4.1501    123.1736
   940.7500      0.0000    675.5363      4.2015    122.4780
   941.0000      0.0000    684.7336      4.2574    123.8487
   941.2500      0.0000    687.6870      4.3064    124.6138
   941.5000      0.0000    685.1274      4.3408    122.8543
   941.7500      0.0000    678.1973      4.3606    119.1287
   942.0000      0.0000    668.7709      4.3721    115.7527
   942.2500      0.0000    659.4952      4.3815    114.5387
   942.5000      0.0000    653.3499      4.3914    115.4657
   942.7500      0.0000    652.2391      4.4012    117.4038
   943.0000      0.0000    655.4212      4.4105    119.5754
   943.2500      0.0000    659.6645      4.4202    122.0700
   943.5000      0.0000    661.2994      4.4318    125.2688
   943.7500      0.0000    658.2679      4.4439    129.2393
   944.0000      0.0000    650.8829      4.4500    133.7035
   944.2500      0.0000    641.3656      4.4399    138.2041
   944.5000      0.0000    632.5151      4.4073    142.0669
   944.7500      0.0000    626.1833      4.3552    144.4793
   945.0000      0.0000    622.6390      4.2938    145.1283
   945.2500      0.0000    621.1215      4.2353    144.9711
   945.5000      0.0000    620.7324      4.1931    145.8353
   945.7500      0.0000    620.8740      4.1817    148.6883
   946.0000      0.0000    621.2253      4.2113    152.6484
   946.2500      0.0000    621.6014      4.2768    156.1461
   946.5000      0.0000    621.8934      4.3525    158.3042
   946.7500      0.0000    622.0582      4.4021    158.4647
   947.0000      0.0000    622.0818      4.3989    155.3501
   947.2500      0.0000    621.9305      4.3409    148.0177
   947.5000      0.0000    621.5724      4.2490    137.4867
   947.7500      0.0000    621.0475      4.1511    126.4669
   948.0000      0.0000    620.4796      4.0689    117.1302
   948.2500      0.0000    620.0019      4.0164    109.4794
   948.5000      0.0000    619.6832      4.0026    102.1245
   948.7500      0.0000    619.5131      4.0285     94.3880
   949.0000      0.0000    619.4241      4.0831     87.4709
   949.2500      0.0000    619.3311      4.1466     83.9293
   949.5000      0.0000    619.1852      4.1962     86.2774
   949.7500      0.0000    619.0103      4.2123     95.5188
   950.0000      0.0000    618.9096      4.1875    110.1605
   950.2500      0.0000    619.0837      4.1347    126.5935
   950.5000      0.0000    619.9156      4.0814    140.9492
   950.7500      0.0000    622.0484      4.0540    150.9601
   951.0000      0.0000    626.2370      4.0666    156.3385
   951.2500      0.0000    632.8702      4.1185    158.0878
   951.5000      0.0000    641.4773      4.1967    157.9348
   951.7500      0.0000    650.7222      4.2811    157.9005
   952.0000      0.0000    658.9754      4.3530    159.4109
   952.2500      0.0000    665.0131      4.4037    162.1750
   952.5000      0.0000    668.3123      4.4349    164.2102
   952.7500      0.0000    668.8399      4.4540    163.8042
   953.0000      0.0000    666.7914      4.4678    161.5057
   953.2500      0.0000    662.7191      4.4798    159.2068
   953.5000      0.0000    657.7789      4.4892    157.2351
   953.7500      0.0000    653.4776      4.4940    153.6341
   954.0000      0.0000    651.0195      4.4946    146.8931
   954.2500      0.0000    650.9391      4.4941    138.5230
   954.5000      0.0000    653.1712      4.4954    132.0519
   954.7500      0.0000    657.0990      4.5008    129.6825
   955.0000      0.0000    661.4177      4.5142    130.5188
   955.2500      0.0000    664.1859      4.5386    131.9877
   955.5000      0.0000    663.1168      4.5711    132.1745
   955.7500      0.0000    656.1870      4.6016    130.4380
   956.0000      0.0000    643.0986      4.6203    126.7535
   956.2500      0.0000    627.0029      4.6248    121.8339
   956.5000      0.0000    613.7589      4.6204    117.7758
   956.7500      0.0000    607.6760      4.6150    117.2917
   957.0000      0.0000    607.8765      4.6147    121.6705
   957.2500      0.0000    609.4514      4.6200    129.5368
   957.5000      0.0000    607.6899      4.6277    137.5002
   957.7500      0.0000    601.0507      4.6334    142.0148
   958.0000      0.0000    591.2369      4.6332    141.3012
   958.2500      0.0000    580.9905      4.6238    136.2254
   958.5000      0.0000    571.8015      4.6035    129.4799
   958.7500      0.0000    564.5121      4.5743    123.7240
   959.0000      0.0000    561.6870      4.5435    120.2524
   959.2500      0.0000    566.5266      4.5216    119.0398
   959.5000      0.0000    578.1820      4.5178    119.5565
   959.7500      0.0000    590.0999      4.5342    121.3593
   960.0000      0.0000    594.0909      4.5651    124.0569
   960.2500      0.0000    585.5528      4.6007    127.0879
   960.5000      0.0000    565.7317      4.6325    129.8178
   960.7500      0.0000    540.6655      4.6556    131.8477
   961.0000      0.0000    517.6585      4.6682    133.0336
   961.2500      0.0000    501.2167      4.6712    133.2201
   961.5000      0.0000    491.4663      4.6673    131.9977
   961.7500      0.0000    485.6854      4.6583    128.7709
   962.0000      0.0000    480.6736      4.6431    123.3772
   962.2500      0.0000    474.2045      4.6184    116.8842
   962.5000      0.0000    465.6650      4.5811    111.5208
   962.7500      0.0000    456.0913      4.5313    109.2957
   963.0000      0.0000    447.3435      4.4732    110.3337
   963.2500      0.0000    440.8107      4.4138    112.7244
   963.5000      0.0000    436.7482      4.3601    114.3798
   963.7500      0.0000    434.5983      4.3158    114.9448
   964.0000      0.0000    433.6359      4.2825    115.4949
   964.2500      0.0000    433.3040      4.2609    116.7215
   964.5000      0.0000    433.2405      4.2512    118.0384
