~Version Information
 VERS.                                  2.0 : CWLS LAS VERSION
 WRAP.                                   NO : WRAPING MODE
 SWARE .                 MController 2.5.0J : SOFTWARE VERSION
~Well Information
 WELL.                     Montoya 18-11V B : WELL
 COMP.                 Petrogulf Corporation: COMPANY
 FLD.                      Purgatoire River : FIELD
 LOC.                NW/NW Sec 18 T33S R67W : LOCATION
 DATE.                            10/3-4/05 : DATE(S) LOGGED
 SRVC.       BLANCO Geological Services LLC : SERVICE COMPANY
 STAT.                                   CO : STATE
 CNTY.                           Las Animas : COUNTY
 CTRY.                                  USA : COUNTRY
 API.                       05-071-08539-00 : API NUMBER
 STRT.FT                              86.00 : START DEPTH
 STOP.FT                            2495.00 : STOP DEPTH
 STEP.FT                               1.00 : DEPTH INCREMENT
 NULL.                                9999 : NULL VALUE
~Curve information
 DEPTH.FT                                   :
 ROP.MIN/FT                                 :
 GAS.UNITS                                  :
~ASCII Log data 
# ...
      1286.0         0.32          8.4 
      1287.0         0.30          8.3 
      1288.0         0.37          8.1 
      1289.0         0.47          8.0 
      1290.0         5.17         11.0 
      1291.0         0.43          8.8 
      1292.0         0.27          8.7 
      1293.0         0.27          8.6 
      1294.0         0.30          9.0 
      1295.0         0.40          9.0 
      1296.0         0.40          8.9 
      1297.0         0.32          8.9 
      1298.0         0.27          8.6 
      1299.0         0.17          8.5 
      1300.0         0.43          8.8 
      1301.0         0.47          8.9 
      1302.0         0.40          8.2 
      1303.0         0.33          7.9 
      1304.0         0.17          8.2 
      1305.0         0.23          8.2 
      1306.0         0.23          8.1 
      1307.0         0.23          8.2 
      1308.0         0.35          8.2 
      1309.0         0.53          8.4 
      1310.0         0.23          8.2 
      1311.0         0.27          8.4 
      1312.0         0.27          8.4 
      1313.0         0.40          8.6 
      1314.0         0.40          8.2 
      1315.0         0.27          8.0 
      1316.0         0.23          8.6 
      1317.0         0.25          8.7 
      1318.0         0.20          9.6 
      1319.0         0.13         10.5 
      1320.0         2.73         14.3 
      1321.0         0.25          9.3 
      1322.0         0.33          9.4 
      1323.0         0.40          9.1 
      1324.0         0.40          9.2 
      1325.0         0.43          8.9 
      1326.0         0.33          8.2 
      1327.0         0.43          8.4 
      1328.0         0.30          8.3 
      1329.0         0.30          8.4 
      1330.0         0.28          8.5 
      1331.0         0.27          7.9 
      1332.0         0.27          8.1 
      1333.0         0.27          8.7 
      1334.0         0.23          8.3 
      1335.0         0.23          8.5 
      1336.0         0.47          8.7 
      1337.0         0.47          8.5 
      1338.0         0.30          8.1 
      1339.0         0.23          8.1 
      1340.0         0.23          8.5 
      1341.0         0.25          9.2 
      1342.0         0.23          9.2 
      1343.0         0.27          8.9 
      1344.0         0.23          8.7 
      1345.0         0.37          8.8 
      1346.0         0.23          9.0 
      1347.0         0.17          9.8 
      1348.0         0.23         11.0 
      1349.0         0.30         13.1 
      1350.0         2.72         13.0 
      1351.0         0.40          9.1 
      1352.0         0.30          9.0 
      1353.0         0.30          8.9 
      1354.0         0.40          8.6 
      1355.0         0.38          8.5 
      1356.0         0.40          8.7 
      1357.0         0.33          8.8 
      1358.0         0.27          8.6 
      1359.0         0.27          8.6 
      1360.0         0.30          9.1 
      1361.0         0.27          8.9 
      1362.0         0.43          8.3 
      1363.0         0.27          8.8 
      1364.0         0.33          8.9 
      1365.0         0.20          8.1 
      1366.0         0.25          8.6 
      1367.0         0.30          8.3 
      1368.0         0.30          8.3 
      1369.0         0.33          8.6 
      1370.0         0.30          8.1 
      1371.0         0.30          8.5 
      1372.0         0.63          8.6 
      1373.0         0.30          8.5 
      1374.0         0.20          8.5 
      1375.0         0.27          8.0 
      1376.0         0.45          8.5 
      1377.0         0.37          9.4 
      1378.0         0.33         11.4 
      1379.0         0.30         13.5 
      1380.0         2.15         15.6 
      1381.0         0.30          9.5 
      1382.0         0.30          9.8 
      1383.0         0.33          9.2 
      1384.0         0.43          9.3 
      1385.0         0.43          9.9 
      1386.0         0.30          9.9 
      1387.0         0.37          9.7 
      1388.0         0.30          9.7 
      1389.0         0.27         10.3 
      1390.0         0.22         10.2 
      1391.0         0.17         10.0 
      1392.0         0.23          9.7 
      1393.0         0.23         10.3 
      1394.0         0.27         10.6 
      1395.0         0.23         10.2 
      1396.0         0.23          9.2 
      1397.0         0.20          9.4 
      1398.0         0.23          9.6 
      1399.0         0.20          9.3 
      1400.0         0.23          9.4 
      1401.0         0.20          9.5 
      1402.0         0.23          9.2 
      1403.0         0.23          8.8 
      1404.0         0.25          8.4 
      1405.0         0.23          8.4 
      1406.0         0.20          8.4 
      1407.0         0.23          9.4 
      1408.0         0.23          9.6 
      1409.0         0.27         11.8 
      1410.0         2.18         13.6 
      1411.0         0.43          8.9 
      1412.0         0.40          9.3 
      1413.0         0.40          9.3 
      1414.0         0.37          9.0 
      1415.0         0.27          8.6 
      1416.0         0.40          8.8 
      1417.0         0.37          8.2 
      1418.0         0.27          7.6 
      1419.0         0.32          7.3 
      1420.0         0.27          7.4 
      1421.0         0.27          7.6 
      1422.0         0.37          7.6 
      1423.0         0.27          6.9 
      1424.0         0.27          7.5 
      1425.0         0.23          7.2 
      1426.0         0.27          7.0 
      1427.0         0.33          6.6 
      1428.0         0.30          6.9 
      1429.0         0.30          6.5 
      1430.0         0.35          6.9 
      1431.0         0.30          6.9 
      1432.0         0.33          6.8 
      1433.0         0.33          6.9 
      1434.0         0.33          6.9 
      1435.0         0.33          7.1 
      1436.0         0.40          6.8 
      1437.0         0.33          7.2 
      1438.0         0.37          8.5 
      1439.0         0.42         11.1 
      1440.0         3.12         15.6 
      1441.0         0.33          8.7 
      1442.0         0.37          8.4 
      1443.0         0.43          8.0 
      1444.0         0.43          8.0 
      1445.0         0.43          8.0 
      1446.0         0.33          8.0 
      1447.0         0.38          7.6 
      1448.0         0.30          7.6 
      1449.0         0.37          7.7 
      1450.0         0.43          7.8 
      1451.0         0.30          7.9 
      1452.0         0.30          8.1 
      1453.0         0.27          8.5 
      1454.0         0.23          8.1 
      1455.0         0.20          7.9 
      1456.0         0.27          8.3 
      1457.0         0.28          7.9 
      1458.0         0.33          8.4 
      1459.0         0.30          7.5 
      1460.0         0.30          8.2 
      1461.0         0.33          8.0 
      1462.0         0.27          8.3 
      1463.0         0.27          7.8 
      1464.0         0.30          7.9 
      1465.0         0.38          7.8 
      1466.0         0.37          8.5 
      1467.0         0.17          8.6 
      1468.0         0.27          9.6 
      1469.0         0.27         11.4 
      1470.0         2.48         11.6 
      1471.0         0.30          9.6 
      1472.0         0.27          9.7 
      1473.0         0.23          9.3 
      1474.0         0.30          9.0 
      1475.0         0.40          8.9 
      1476.0         0.37          8.4 
      1477.0         0.37          8.4 
      1478.0         0.40          8.4 
      1479.0         0.45          8.3 
      1480.0         0.40          8.2 
      1481.0         0.33          8.3 
      1482.0         0.33          8.4 
      1483.0         0.30          8.5 
      1484.0         0.33          8.4 
      1485.0         0.30          8.2 
