~Version Information
VERS.                      2.0: CWLS Log ASCII Standard - VERSION 2.0
WRAP.                       NO: One line per depth step
~Well Information Block
STRT.FT                 0.0000: 
STOP.FT              1538.0000: 
STEP.FT                 0.2500: 
NULL.                -999.2500: 
COMP.          Pioneer Natural Resources: COMPANY
WELL.           Butch 33-10 TR: WELL
FLD.           Purgatorie River: FIELD
LOC.           2309' FSL & 1337' FEL: LOCATION
PROV.                 Colorado: PROVINCE
CNTY.               Las Animas: COUNTRY
SRVC.                Patterson: SERVICE COMPANY
DATE.          Thu Jan 19 12:40:27 2006: LOG DATE
UWI.                          : UNIQUE WELL ID
~Curve Information Block
DEPT.FT            0 000 00 00: Depth
CCL.                          : Casing Collar Locator
TT3.usec                      : CBL 3' Travel Time
AMP3.mV                       : CBL 3' Amplitude
GR.GAPI                       : Gamma Ray
~Parameter Information Block
~A  Depth       CCL         TT3         AMP3         GR     
# ...
  1407.0000      0.0000    303.9723     19.2082     87.1813
  1407.2500      0.0000    304.7073     19.1191     88.5460
  1407.5000      0.0000    307.8902     19.0375     90.3958
  1407.7500      0.0000    318.6509     18.9715     91.8600
  1408.0000      0.0000    346.4386     18.9092     92.4080
  1408.2500      0.0000    402.2968     18.7897     91.7620
  1408.5000      0.0000    487.2100     18.5539     89.4862
  1408.7500      0.0000    577.2321     18.2449     85.2147
  1409.0000      0.0000    636.4697     17.9686     79.4697
  1409.2500      0.0000    654.3167     17.7596     73.7740
  1409.5000      0.0000    649.1480     17.5795     69.5726
  1409.7500      0.0000    637.2098     17.4230     67.1030
  1410.0000      0.0000    619.6411     17.3361     65.4919
  1410.2500      0.0000    598.9113     17.3369     63.9407
  1410.5000      0.0000    592.1572     17.3833     62.6507
  1410.7500      0.0000    614.2986     17.4341     62.3964
  1411.0000      0.0000    655.7919     17.5011     63.2918
  1411.2500      0.0000    691.9301     17.6246     64.4035
  1411.5000      0.0000    706.6178     17.8214     64.7501
  1411.7500      0.0000    703.5750     18.0632     64.3695
  1412.0000      0.0000    698.7748     18.2903     64.2190
  1412.2500      0.0000    701.9950     18.4504     65.1844
  1412.5000      0.0000    704.0856     18.5440     67.1049
  1412.7500      0.0000    679.2565     18.6159     68.6166
  1413.0000      0.0000    608.8995     18.6838     68.2597
  1413.2500      0.0000    510.4571     18.7182     66.0420
  1413.5000      0.0000    424.1851     18.7078     63.6728
  1413.7500      0.0000    370.6898     18.6833     63.0885
  1414.0000      0.0000    345.9997     18.6580     64.9992
  1414.2500      0.0000    342.9984     18.6121     68.7459
  1414.5000      0.0000    353.5841     18.5518     72.9409
  1414.7500      0.0000    366.0254     18.5262     76.0969
  1415.0000      0.0000    372.8329     18.5828     77.3272
  1415.2500      0.0000    372.9415     18.7307     77.0175
  1415.5000      0.0000    365.8567     18.9379     76.5874
  1415.7500      0.0000    350.8528     19.1531     77.0763
  1416.0000      0.0000    331.8808     19.3430     78.0670
  1416.2500      0.0000    316.5065     19.5125     78.3875
  1416.5000      0.0000    308.3815     19.6769     77.4985
  1416.7500      0.0000    305.7544     19.8080     75.7079
  1417.0000      0.0000    307.4586     19.8049     73.4506
  1417.2500      0.0000    319.1800     19.4695     71.0557
  1417.5000      0.0000    354.2184     18.5404     69.0805
  1417.7500      0.0000    416.4106     17.0399     68.2997
  1418.0000      0.0000    475.3772     15.6331     69.2014
  1418.2500      0.0000    489.6766     14.9792     71.6681
  1418.5000      0.0000    468.5157     14.7208     75.1502
  1418.7500      0.0000    463.7474     14.1974     78.9391
  1419.0000      0.0000    497.4535     13.6297     82.4577
  1419.2500      0.0000    546.0037     13.4609     85.7736
  1419.5000     -2.0000    578.0674     13.5798     89.8521
  1419.7500      2.0000    576.7764     13.7237     95.9055
  1420.0000      0.0000    546.7546     13.8059    104.3361
  1420.2500      0.0000    505.8089     13.8451    114.3375
  1420.5000      0.0000    463.4604     14.0702    124.2380
  1420.7500      0.0000    418.8780     15.1006    132.0715
  1421.0000      0.0000    375.8141     17.2723    136.4202
  1421.2500      0.0000    343.3881     19.5608    137.2310
  1421.5000      0.0000    324.2296     20.6819    135.6197
  1421.7500      0.0000    313.4463     20.9755    132.9240
  1422.0000      0.0000    307.0620     21.3610    130.2011
  1422.2500      0.0000    303.9397     21.8047    128.2686
  1422.5000      0.0000    302.9676     21.9237    127.7170
  1422.7500      0.0000    302.8659     21.7058    128.8787
  1423.0000      0.0000    302.9995     21.3272    131.7579
  1423.2500      0.0000    303.1949     20.9210    135.8186
  1423.5000      0.0000    303.3763     20.5567    140.0245
  1423.7500      0.0000    303.5001     20.2527    143.2968
  1424.0000      0.0000    303.5725     20.0136    144.7121
  1424.2500      0.0000    303.6233     19.8652    143.3041
  1424.5000      0.0000    303.6900     19.8076    138.3904
  1424.7500      0.0000    303.7809     19.7790    130.5723
  1425.0000      0.0000    303.8450     19.7209    121.9326
  1425.2500      0.0000    303.8224     19.6450    114.6867
  1425.5000      0.0000    303.7242     19.6095    109.8465
  1425.7500      0.0000    303.6313     19.6511    107.4663
  1426.0000      0.0000    303.5914     19.7609    107.6188
  1426.2500      0.0000    303.5578     19.9069    110.3493
  1426.5000      0.0000    303.4612     20.0542    114.7951
  1426.7500      0.0000    303.2919     20.1742    119.2018
  1427.0000      0.0000    303.0970     20.2593    122.1579
  1427.2500      0.0000    302.9505     20.3129    123.6363
  1427.5000      0.0000    302.9088     20.3293    124.7210
  1427.7500      0.0000    302.9463     20.3246    126.2844
  1428.0000      0.0000    302.9628     20.3589    127.7665
  1428.2500      0.0000    302.9068     20.4811    127.1323
  1428.5000      0.0000    302.8404     20.6841    122.2272
  1428.7500      0.0000    302.8328     20.9367    112.6304
  1429.0000      0.0000    302.8639     21.2223    100.5281
  1429.2500      0.0000    302.8614     21.5306     89.7444
  1429.5000      0.0000    302.7744     21.8371     83.6828
  1429.7500      0.0000    302.5959     22.1248     83.8690
  1430.0000      0.0000    302.3606     22.4045     89.8337
  1430.2500      0.0000    302.1427     22.6834     99.6903
  1430.5000      0.0000    302.0144     22.9285    110.7008
  1430.7500      0.0000    301.9892     23.0715    120.0891
  1431.0000      0.0000    302.0452     23.0531    126.2374
  1431.2500      0.0000    302.1767     22.8641    129.2908
  1431.5000      0.0000    302.3792     22.5504    130.3709
  1431.7500      0.0000    302.6251     22.1889    130.2631
  1432.0000      0.0000    302.8833     21.8568    129.0587
  1432.2500      0.0000    303.1051     21.6226    126.8862
  1432.5000      0.0000    303.1967     21.5409    124.5618
  1432.7500      0.0000    303.1039     21.6206    123.2560
  1433.0000      0.0000    302.9025     21.8232    123.5802
  1433.2500      0.0000    302.7144     22.1021    125.2358
  1433.5000      0.0000    302.5938     22.4141    127.6637
  1433.7500      0.0000    302.5320     22.7249    130.8487
  1434.0000      0.0000    302.4914     23.0471    135.3224
  1434.2500      0.0000    302.4441     23.4237    141.4025
  1434.5000      0.0000    302.4094     23.8481    148.4261
  1434.7500      0.0000    302.4178     24.2537    154.8685
  1435.0000      0.0000    302.4468     24.5779    159.2378
  1435.2500      0.0000    302.4372     24.7842    160.6812
  1435.5000      0.0000    302.3616     24.8339    158.9176
  1435.7500      0.0000    302.2627     24.6810    154.3221
  1436.0000      0.0000    302.2355     24.2981    148.2825
  1436.2500      0.0000    302.3436     23.7274    142.6375
  1436.5000      0.0000    302.5376     23.1190    138.2222
  1436.7500      0.0000    302.6972     22.6610    134.4632
  1437.0000      0.0000    302.7487     22.4582    130.7076
  1437.2500      0.0000    302.7142     22.4735    127.3675
  1437.5000      0.0000    302.6688     22.5699    125.2380
  1437.7500      0.0000    302.6405     22.6527    124.0560
  1438.0000      0.0000    302.5827     22.7478    122.4093
  1438.2500      0.0000    302.4681     22.9036    119.2314
  1438.5000      0.0000    302.3392     23.1009    114.9611
  1438.7500      0.0000    302.2411     23.2931    110.8994
  1439.0000      0.0000    302.1707     23.4511    107.5476
  1439.2500      0.0000    302.1100     23.5335    103.9214
  1439.5000      0.0000    302.0681     23.4823     98.6383
  1439.7500      0.0000    302.0648     23.2766     91.6452
  1440.0000      0.0000    302.1039     22.9517     84.8230
  1440.2500      0.0000    302.1815     22.5628     80.7687
