~Version Information
VERS.                      2.0: CWLS Log ASCII Standard - VERSION 2.0
WRAP.                       NO: One line per depth step
~Well Information Block
STRT.FT               742.7000: 
STOP.FT              1614.5000: 
STEP.FT                 0.1000: 
NULL.                -999.2500: 
COMP.          Pioneer Natural Resources: COMPANY
WELL.           Kermit 32-7 Tr: WELL
FLD.           Purgatoire River: FIELD
LOC.           2009' FNL & 2196' FEL: LOCATION
PROV.                 Colorado: PROVINCE
CNTY.               Las Animas: COUNTRY
SRVC.                Patterson: SERVICE COMPANY
DATE.          Mon Jan 16 13:19:56 2006: LOG DATE
UWI.           05 071 08664 00: UNIQUE WELL ID
~Curve Information Block
DEPT.FT            0 000 00 00: Depth
DCAL.in                       : CDL Caliper
RHOB.g/cc                     : CDL Bulk Density
RHOC.g/cc                     : CDL Density Correction
DPOR.pu                       : CDL Density Porosity
GR.GAPI                       : Gamma Ray
~Parameter Information Block
~A  Depth       DCAL        RHOB        RHOC        DPOR         GR     
# ...
   944.3000      7.8955      2.5739      0.0865      4.6104    135.0530
   944.4000      7.8955      2.5539      0.0854      5.8233    144.0172
   944.5000      7.9124      2.5443      0.0442      6.4086    154.0468
   944.6000      7.9124      2.5354      0.0629      6.9461    155.2575
   944.7000      7.9124      2.5095      0.0206      8.5150    149.4209
   944.8000      7.9375      2.4674      0.0133     11.0670    142.9708
   944.9000      7.9375      2.4175      0.0442     14.0882    136.2037
   945.0000      7.9421      2.3694      0.0190     17.0075    128.9956
   945.1000      7.9421      2.3364      0.0082     19.0042    125.5068
   945.2000      7.9421      2.3103      0.0873     20.5853    127.8863
   945.3000      7.9202      2.2645      0.0176     23.3650    132.5308
   945.4000      7.9202      2.2013      0.0076     27.1969    135.7457
   945.5000      7.9387      2.1455      0.0267     30.5778    136.7116
   945.6000      7.9387      2.1116      0.0500     32.6333    133.1110
   945.7000      7.9387      2.0976      0.0861     33.4768    123.2567
   945.8000      7.9791      2.0829      0.1849     34.3688    111.2277
   945.9000      7.9791      2.0365      0.1729     37.1814    104.1789
   946.0000      7.9750      1.9565      0.0584     42.0329    102.7315
   946.1000      7.9750      1.8887     -0.0739     46.1412    100.1225
   946.2000      7.9750      1.8884     -0.0653     46.1559     95.4182
   946.3000      8.0131      1.9551      0.1105     42.1157     94.8447
   946.4000      8.0131      2.0452      0.0906     36.6521    100.1642
   946.5000      8.0238      2.1447      0.0838     30.6247    106.8188
   946.6000      8.0238      2.2597      0.1744     23.6528    111.2788
   946.7000      8.0238      2.3810      0.2711     16.3041    113.4033
   946.8000      8.0669      2.4916      0.3609      9.6004    110.4341
   946.9000      8.0669      2.5738      0.4126      4.6155    101.8959
   947.0000      8.0315      2.6190      0.3636      1.8775     95.9588
   947.1000      8.0315      2.6355      0.3030      0.8770     96.3709
   947.2000      8.0315      2.6376      0.1348      0.7519     97.1792
   947.3000      8.0189      2.6383      0.1445      0.7084     95.8998
   947.4000      8.0189      2.6406      0.1146      0.5726     94.3557
   947.5000      7.8684      2.6419      0.1097      0.4924     95.0447
   947.6000      7.8684      2.6410      0.1239      0.5467    100.2178
   947.7000      7.8684      2.6314      0.1324      1.1278    104.3912
   947.8000      7.8642      2.6067      0.1015      2.6261    102.8649
   947.9000      7.8642      2.5770      0.0348      4.4242     99.5602
   948.0000      7.8779      2.5645      0.0431      5.1842     99.9441
   948.1000      7.8779      2.5700      0.0577      4.8509    106.6458
   948.2000      7.8779      2.5807      0.0663      4.2015    112.7683
   948.3000      7.8754      2.5971      0.0542      3.2080    109.2338
   948.4000      7.8754      2.6215      0.0631      1.7300    102.5114
   948.5000      7.8821      2.6397      0.1438      0.6272    102.3042
   948.6000      7.8821      2.6363      0.0875      0.8329    104.6619
   948.7000      7.8821      2.6125      0.0904      2.2709    105.5689
   948.8000      7.8780      2.5813      0.0099      4.1611    107.7577
   948.9000      7.8780      2.5539      0.0130      5.8224    108.4909
   949.0000      7.8914      2.5316     -0.0293      7.1771    104.6987
   949.1000      7.8914      2.5130     -0.0319      8.3033    102.7914
   949.2000      7.8914      2.4980      0.0274      9.2139    108.4249
   949.3000      7.8942      2.4860     -0.0154      9.9403    115.9286
   949.4000      7.8942      2.4793      0.0036     10.3455    119.3360
   949.5000      7.8691      2.4799      0.0391     10.3080    121.1251
   949.6000      7.8691      2.4900      0.0210      9.6943    122.2908
   949.7000      7.8691      2.5160      0.0433      8.1214    120.1226
   949.8000      7.8608      2.5602      0.0773      5.4438    118.6415
   949.9000      7.8608      2.6058      0.1512      2.6810    122.5844
   950.0000      7.8507      2.6275      0.1921      1.3645    129.5197
   950.1000      7.8507      2.6243      0.1543      1.5593    135.8177
   950.2000      7.8507      2.6193      0.1442      1.8631    139.3769
   950.3000      7.8535      2.6270      0.1008      1.3963    137.7181
   950.4000      7.8535      2.6345      0.1538      0.9396    132.4908
   950.5000      7.8553      2.6215      0.1189      1.7294    131.2611
   950.6000      7.8553      2.6000      0.0568      3.0283    137.7186
   950.7000      7.8553      2.5988      0.0282      3.1007    143.0226
   950.8000      7.8786      2.6201      0.0718      1.8138    139.2043
   950.9000      7.8786      2.6502      0.0617     -0.0124    131.5118
   951.0000      7.9004      2.6842      0.0964     -2.0718    126.4256
   951.1000      7.9004      2.7140      0.1240     -3.8767    125.0055
   951.2000      7.9004      2.7305      0.0877     -4.8769    125.6218
   951.3000      7.9184      2.7322      0.0796     -4.9848    125.1888
   951.4000      7.9184      2.7158      0.1043     -3.9886    121.7594
   951.5000      7.9428      2.6866      0.0114     -2.2162    118.5726
   951.6000      7.9428      2.6648      0.0293     -0.8986    119.0962
   951.7000      7.9428      2.6589      0.0289     -0.5377    120.3495
   951.8000      7.9143      2.6584      0.0174     -0.5098    120.7034
   951.9000      7.9143      2.6500      0.0531     -0.0023    122.3622
   952.0000      7.9228      2.6242      0.0752      1.5638    124.4721
   952.1000      7.9228      2.5875      0.0811      3.7867    123.5457
   952.2000      7.9228      2.5707      0.0738      4.8039    118.8178
   952.3000      7.8966      2.5887      0.1239      3.7136    113.3394
   952.4000      7.8966      2.6226      0.0890      1.6618    113.8005
   952.5000      7.8992      2.6647      0.0852     -0.8936    123.0230
   952.6000      7.8992      2.7250      0.1025     -4.5430    135.0796
   952.7000      7.8992      2.7907      0.2224     -8.5259    142.5519
   952.8000      7.8713      2.8294      0.2536    -10.8727    143.4032
   952.9000      7.8713      2.8222      0.2854    -10.4334    138.8728
   953.0000      7.9295      2.7753      0.2310     -7.5967    130.1311
   953.1000      7.9295      2.7130      0.1696     -3.8205    122.9271
   953.2000      7.9295      2.6551      0.1035     -0.3095    122.2730
   953.3000      7.8626      2.6045      0.0260      2.7564    122.3532
   953.4000      7.8626      2.5557     -0.0198      5.7175    120.0802
   953.5000      7.8192      2.5123     -0.0374      8.3467    119.6495
   953.6000      7.8192      2.4919     -0.0073      9.5800    123.0677
   953.7000      7.8192      2.5009      0.0647      9.0368    126.2308
   953.8000      7.9094      2.5195      0.0712      7.9121    125.4803
   953.9000      7.9094      2.5228      0.1133      7.7109    124.1665
   954.0000      7.9047      2.5077      0.0092      8.6218    125.6383
   954.1000      7.9047      2.4933     -0.0073      9.4990    130.3438
   954.2000      7.9047      2.4861      0.0184      9.9357    136.0361
   954.3000      7.9316      2.4729      0.0519     10.7363    138.0814
   954.4000      7.9316      2.4516      0.0150     12.0228    138.2287
   954.5000      7.9363      2.4432     -0.0116     12.5351    140.1285
   954.6000      7.9363      2.4626      0.0248     11.3561    140.6917
   954.7000      7.9363      2.5075     -0.0106      8.6347    139.5827
   954.8000      7.9294      2.5726      0.0811      4.6893    139.3495
   954.9000      7.9294      2.6429      0.1728      0.4328    137.8122
   955.0000      7.9057      2.6955      0.2109     -2.7599    134.5388
   955.1000      7.9057      2.7171      0.2248     -4.0636    132.6809
   955.2000      7.9057      2.7039      0.2218     -3.2685    129.9989
   955.3000      7.8710      2.6680      0.1981     -1.0897    123.3832
   955.4000      7.8710      2.6364      0.1162      0.8229    117.0509
