~Version Information
VERS.                      2.0: CWLS Log ASCII Standard - VERSION 2.0
WRAP.                       NO: One line per depth step
~Well Information Block
STRT.FT               880.0000: 
STOP.FT              1996.5000: 
STEP.FT                 0.1000: 
NULL.                -999.2500: 
COMP.          Petrogulf Corporation: COMPANY
WELL.          Collister 17-31R: WELL
FLD.           Purgatorie River: FIELD
LOC.           962' FNL & 1520' FEL: LOCATION
PROV.                 Colorado: PROVINCE
CNTY.               Las Animas: COUNTRY
SRVC.                Patterson: SERVICE COMPANY
DATE.          Mon Sep 26 09:28:52 2005: LOG DATE
UWI.                          : UNIQUE WELL ID
~Curve Information Block
DEPT.FT            0 000 00 00: Depth
DCAL.in                       : CDL Caliper
RHOB.g/cc                     : CDL Bulk Density
RHOC.g/cc                     : CDL Density Correction
DPOR.pu                       : CDL Density Porosity
GR.GAPI                       : Gamma Ray
NPOR.pu                       : Neutron Porosity
~Parameter Information Block
~A  Depth       DCAL        RHOB        RHOC        DPOR         GR         NPOR    
# ...
  1840.0000      7.8487      2.5824      0.1555      4.0948    133.0977     28.7661
  1840.1000      7.8487      2.6309      0.1786      1.1598    131.6824     29.1563
  1840.2000      7.8487      2.6519      0.1941     -0.1131    134.0727     29.8806
  1840.3000      7.8950      2.6405      0.1846      0.5737    137.1788     30.5958
  1840.4000      7.8950      2.6171      0.1142      1.9954    140.1925     30.9994
  1840.5000      7.8672      2.6001      0.1320      3.0219    139.7542     30.7698
  1840.6000      7.8672      2.5908      0.1372      3.5859    134.4770     30.0404
  1840.7000      7.8672      2.5859      0.1295      3.8864    131.8654     29.3616
  1840.8000      7.8745      2.5886      0.0894      3.7223    134.5204     28.7064
  1840.9000      7.8745      2.6045      0.1088      2.7601    136.6805     27.7618
  1841.0000      7.9177      2.6269      0.1292      1.3974    137.9112     27.0375
  1841.1000      7.9177      2.6381      0.1572      0.7219    138.2566     27.0753
  1841.2000      7.9177      2.6334      0.1338      1.0050    136.3897     27.4419
  1841.3000      7.9119      2.6268      0.1226      1.4061    134.8757     27.6832
  1841.4000      7.9119      2.6215      0.1617      1.7283    134.0424     27.8614
  1841.5000      7.8801      2.6057      0.1766      2.6876    131.4784     27.9870
  1841.6000      7.8801      2.5784      0.1287      4.3377    129.3961     27.9280
  1841.7000      7.8801      2.5564      0.0733      5.6716    130.8128     27.8716
  1841.8000      7.8313      2.5509      0.1033      6.0080    133.8030     28.1214
  1841.9000      7.8313      2.5592      0.0913      5.5058    135.5774     28.5584
  1842.0000      7.8108      2.5794      0.1282      4.2795    134.9684     28.6965
  1842.1000      7.8108      2.6065      0.1771      2.6381    132.9135     28.3368
  1842.2000      7.8108      2.6209      0.1955      1.7647    131.8482     27.7277
  1842.3000      7.8076      2.6081      0.1796      2.5402    130.8314     27.1016
  1842.4000      7.8076      2.5848      0.1167      3.9495    127.0132     26.5201
  1842.5000      7.8102      2.5784      0.1340      4.3393    121.8056     26.0628
  1842.6000      7.8102      2.5873      0.1345      3.8029    119.3301     25.8726
  1842.7000      7.8102      2.5932      0.1035      3.4431    119.8705     25.7615
  1842.8000      7.8375      2.5948      0.1065      3.3434    120.6146     25.4909
  1842.9000      7.8375      2.6009      0.1149      2.9752    119.8117     25.1390
  1843.0000      7.8441      2.6035      0.1049      2.8192    117.8103     24.7625
  1843.1000      7.8441      2.5884      0.0701      3.7323    114.8103     24.5855
  1843.2000      7.8441      2.5638      0.0238      5.2227    110.2609     24.6677
  1843.3000      7.8910      2.5502      0.0637      6.0486    105.3067     24.5466
  1843.4000      7.8910      2.5507      0.0255      6.0183    101.9499     24.1924
  1843.5000      7.8646      2.5581      0.0392      5.5725     99.8129     24.1469
  1843.6000      7.8646      2.5676      0.0091      4.9927     97.4221     24.3910
  1843.7000      7.8646      2.5800      0.0223      4.2403     95.5043     24.4324
  1843.8000      7.8520      2.5952      0.0386      3.3209     96.2111     24.2721
  1843.9000      7.8520      2.6045      0.0458      2.7558     99.3949     24.1933
  1844.0000      7.8553      2.5980      0.0830      3.1500    103.4046     24.1161
  1844.1000      7.8553      2.5812      0.0086      4.1700    106.2695     23.9765
  1844.2000      7.8553      2.5742      0.0142      4.5912    106.4377     23.9798
  1844.3000      7.8380      2.5762      0.1163      4.4704    106.1930     24.1157
  1844.4000      7.8380      2.5712      0.0554      4.7749    109.5507     24.2296
  1844.5000      7.8432      2.5651      0.0220      5.1448    116.8621     24.4708
  1844.6000      7.8432      2.5668      0.0868      5.0440    124.7522     24.9996
  1844.7000      7.8432      2.5727      0.0455      4.6849    128.4388     25.4902
  1844.8000      7.8257      2.5792      0.0878      4.2904    125.3029     25.5440
  1844.9000      7.8257      2.5805      0.0701      4.2127    118.7676     25.4162
  1845.0000      7.8218      2.5795      0.0708      4.2721    116.5064     25.4624
  1845.1000      7.8218      2.5861      0.1012      3.8722    118.7488     25.4932
  1845.2000      7.8218      2.5972      0.1100      3.2014    121.2627     25.5584
  1845.3000      7.8272      2.6030      0.0783      2.8485    123.5446     25.8164
  1845.4000      7.8272      2.6049      0.0944      2.7324    123.9774     25.9615
  1845.5000      7.8339      2.6058      0.0945      2.6791    121.9752     25.9995
  1845.6000      7.8339      2.6023      0.0852      2.8909    120.5600     26.3005
  1845.7000      7.8339      2.5968      0.0594      3.2246    121.4159     26.6172
  1845.8000      7.8525      2.5961      0.0796      3.2655    125.1567     26.3089
  1845.9000      7.8525      2.5954      0.1060      3.3121    130.2704     25.6530
  1846.0000      7.8865      2.5830      0.0538      4.0601    132.2323     25.4652
  1846.1000      7.8865      2.5583      0.0324      5.5588    129.5461     25.7953
  1846.2000      7.8865      2.5306      0.0228      7.2345    124.0187     26.0124
  1846.3000      7.8703      2.5102      0.0120      8.4725    117.9254     25.9705
  1846.4000      7.8703      2.4997      0.0475      9.1098    114.1028     26.0745
  1846.5000      7.8166      2.4941      0.0533      9.4506    111.9732     26.2631
  1846.6000      7.8166      2.4914      0.0642      9.6123    108.8710     26.1159
  1846.7000      7.8166      2.5008     -0.0050      9.0405    105.6206     25.6081
  1846.8000      7.7714      2.5317      0.0526      7.1716    104.6307     25.2904
  1846.9000      7.7714      2.5726      0.0568      4.6896    106.3214     25.6029
  1847.0000      7.7597      2.6008      0.1180      2.9848    108.4845     26.2324
  1847.1000      7.7597      2.6073      0.1255      2.5857    108.8370     26.8327
  1847.2000      7.7597      2.6075      0.1209      2.5737    106.8575     27.2767
  1847.3000      7.7487      2.6166      0.1578      2.0225    106.0262     27.2485
  1847.4000      7.7487      2.6251      0.1697      1.5092    108.6796     26.6735
  1847.5000      7.7405      2.6226      0.0851      1.6621    111.1899     26.0343
  1847.6000      7.7405      2.6244      0.0797      1.5499    111.2482     25.5542
  1847.7000      7.7405      2.6452      0.0955      0.2926    110.5616     25.1982
  1847.8000      7.7422      2.6609      0.1834     -0.6627    110.4017     25.0695
  1847.9000      7.7422      2.6384      0.1358      0.7054    111.3046     25.0417
  1848.0000      7.7483      2.5968      0.0173      3.2214    111.3051     24.9981
  1848.1000      7.7483      2.5758      0.0833      4.4962    108.8723     25.0249
  1848.2000      7.7483      2.5668      0.0748      5.0398    106.8982     24.9775
  1848.3000      7.7629      2.5540      0.0430      5.8193    108.2373     24.6963
  1848.4000      7.7629      2.5524      0.0274      5.9167    112.0027     24.6070
  1848.5000      7.7774      2.5647      0.0873      5.1672    114.8104     25.0806
  1848.6000      7.7774      2.5739      0.0801      4.6123    113.2490     25.8864
  1848.7000      7.7774      2.5744      0.0931      4.5819    108.5813     26.6353
  1848.8000      7.7846      2.5667      0.1007      5.0474    106.9394     27.0577
  1848.9000      7.7846      2.5568      0.0187      5.6459    109.2860     26.9249
  1849.0000      7.8043      2.5559      0.0745      5.7046    113.1522     26.3730
  1849.1000      7.8043      2.5587      0.0553      5.5333    118.6304     26.0102
  1849.2000      7.8043      2.5523      0.0821      5.9187    122.1560     26.1792
  1849.3000      7.8261      2.5359      0.0515      6.9152    119.6018     26.5787
  1849.4000      7.8261      2.5213      0.0235      7.7998    115.7796     26.7124
  1849.5000      7.8745      2.5223     -0.0158      7.7371    116.7642     26.6079
