~Version Information
 VERS.                                  2.0 : CWLS LAS VERSION
 WRAP.                                   NO : WRAPING MODE
 SWARE .                 MController 2.5.0N : SOFTWARE VERSION
~Well Information
 WELL.                   Old Faithful 21-02 : WELL
 COMP.    Pioneer Natural Resouces USA Inc. : COMPANY
 FLD.                      Purgatoire River : FIELD
 LOC.              NE/NW Sec 2 , T35S, R65W : LOCATION
 DATE.                             12/06/05 : DATE(S) LOGGED
 SRVC.       BLANCO Geological Services LLC : SERVICE COMPANY
 STAT.                                   CO : STATE
 CNTY.                           Las Animas : COUNTY
 CTRY.                                  USA : COUNTRY
 API.                          05-071-08617 : API NUMBER
 STRT.FT                             182.00 : START DEPTH
 STOP.FT                            1470.00 : STOP DEPTH
 STEP.FT                               1.00 : DEPTH INCREMENT
 NULL.                                -9999 : NULL VALUE
~Curve information
 DEPTH.FT                                   :
 ROP.MIN/FT                                 :
 GAS.UNITS                                  :
~ASCII Log data
# ...
      1182.0         1.02         23.6 
      1183.0         0.97         23.2 
      1184.0         0.93         22.9 
      1185.0         0.92         23.4 
      1186.0         0.83         23.9 
      1187.0         0.83         23.5 
      1188.0         0.83         23.7 
      1189.0         1.02         24.4 
      1190.0         0.10         21.3 
      1191.0         3.28        116.7 
      1192.0         0.53         38.9 
      1193.0         0.50         35.4 
      1194.0         0.60         37.1 
      1195.0         0.50         36.9 
      1196.0         0.47         32.2 
      1197.0         0.48         28.5 
      1198.0         0.50         26.2 
      1199.0         0.40         23.9 
      1200.0         0.47         22.0 
      1201.0         0.43         21.3 
      1202.0         0.43         22.0 
      1203.0         0.43         21.9 
      1204.0         0.47         21.1 
      1205.0         0.45         22.1 
      1206.0         0.43         22.1 
      1207.0         0.47         21.8 
      1208.0         0.43         21.4 
      1209.0         0.47         22.1 
      1210.0         0.47         22.0 
      1211.0         0.43         22.1 
      1212.0         0.45         21.4 
      1213.0         0.43         22.0 
      1214.0         0.43         22.6 
      1215.0         0.43         22.4 
      1216.0         0.37         20.3 
      1217.0         0.43         20.8 
      1218.0         0.53         23.1 
      1219.0         0.43         23.4 
      1220.0         0.78         21.3 
      1221.0         4.05        129.8 
      1222.0         0.33         41.1 
      1223.0         0.43         50.9 
      1224.0         0.30         49.4 
      1225.0         0.17         48.0 
      1226.0         0.17         49.0 
      1227.0         0.17         49.0 
      1228.0         0.48         61.3 
      1229.0         0.43         65.7 
      1230.0         0.47         64.1 
      1231.0         0.43         57.7 
      1232.0         0.33         41.8 
      1233.0         0.40         37.5 
      1234.0         0.33         34.0 
      1235.0         0.33         31.4 
      1236.0         0.37         29.9 
      1237.0         0.35         28.1 
      1238.0         0.30         26.8 
      1239.0         0.20         28.2 
      1240.0         0.37         33.6 
      1241.0         0.40         33.7 
      1242.0         0.37         31.4 
      1243.0         0.27         30.1 
      1244.0         0.30         27.7 
      1245.0         0.27         27.5 
      1246.0         0.30         30.0 
      1247.0         0.37         36.7 
      1248.0         0.28         39.2 
      1249.0         0.50         39.5 
      1250.0         0.30         35.0 
      1251.0         5.08        128.9 
      1252.0         0.40         63.8 
      1253.0         0.48         71.7 
      1254.0         0.37         63.9 
      1255.0         0.37         57.3 
      1256.0         0.37         49.1 
      1257.0         0.47         40.4 
      1258.0         0.40         36.1 
      1259.0         0.33         32.4 
      1260.0         0.20         32.7 
      1261.0         0.27         43.4 
      1262.0         0.45         46.6 
      1263.0         0.43         47.0 
      1264.0         0.47         40.2 
      1265.0         0.57         36.9 
      1266.0         0.47         43.5 
      1267.0         0.47         41.9 
      1268.0         0.53         29.7 
      1269.0         0.20         22.2 
      1270.0         0.32         22.7 
      1271.0         0.47         26.8 
      1272.0         0.37         28.4 
      1273.0         0.33         29.9 
      1274.0         0.47         33.3 
      1275.0         0.37         34.9 
      1276.0         0.37         32.8 
      1277.0         0.37         32.5 
      1278.0         0.42         31.2 
      1279.0         0.43         29.2 
      1280.0         0.73         27.8 
      1281.0         4.55        136.3 
      1282.0         0.60         41.0 
      1283.0         0.62         47.1 
      1284.0         0.47         43.3 
      1285.0         0.60         37.3 
      1286.0         0.53         33.8 
      1287.0         0.47         29.8 
      1288.0         0.40         29.6 
      1289.0         0.58         27.6 
      1290.0         0.30         27.0 
      1291.0         0.33         29.7 
      1292.0         0.70         27.5 
      1293.0         0.47         23.3 
      1294.0         0.43         23.5 
      1295.0         0.40         23.7 
      1296.0         0.43         23.2 
      1297.0         0.58         28.0 
      1298.0         0.30         29.2 
      1299.0         0.23         31.6 
      1300.0         0.23         39.9 
      1301.0         0.20         51.1 
      1302.0         0.43         59.8 
      1303.0         0.50         60.8 
      1304.0         0.47         52.8 
      1305.0         0.43         42.5 
      1306.0         0.38         37.9 
      1307.0         0.33         36.1 
      1308.0         0.23         34.7 
      1309.0         0.47         39.6 
      1310.0         0.10         37.0 
      1311.0         3.88        163.0 
      1312.0         0.40         49.6 
      1313.0         0.23         54.9 
      1314.0         0.40         76.0 
      1315.0         0.85         87.7 
      1316.0         0.63         67.8 
      1317.0         0.57         49.8 
      1318.0         0.53         38.1 
      1319.0         0.43         34.2 
      1320.0         0.43         32.0 
      1321.0         0.37         57.9 
      1322.0         0.38         95.4 
      1323.0         0.33        137.1 
      1324.0         0.40        154.8 
      1325.0         0.43        154.5 
      1326.0         0.43        165.3 
      1327.0         0.50        854.2 
      1328.0         0.57       2078.4 
      1329.0         0.58       2291.8 
      1330.0         0.57       2222.2 
      1331.0         0.60       2158.4 
      1332.0         0.60       2058.1 
      1333.0         0.57       1837.4 
      1334.0         0.57       1517.7 
      1335.0         0.58       1319.2 
      1336.0         0.60       1108.4 
      1337.0         0.60       1025.9 
      1338.0         0.63        947.6 
      1339.0         0.83        901.5 
      1340.0         0.13        722.0 
      1341.0        13.88       1592.5 
      1342.0         0.20        132.4 
      1343.0         0.20        123.3 
      1344.0         0.20        119.8 
      1345.0         0.20        120.1 
      1346.0         0.40        124.3 
      1347.0         0.30        138.5 
      1348.0         0.73        190.0 
      1349.0         0.70        213.4 
      1350.0         0.95        191.3 
      1351.0         0.80        140.0 
      1352.0         0.93        127.4 
      1353.0         0.92        100.2 
      1354.0         0.93         90.8 
      1355.0         0.90         85.6 
      1356.0         0.93         84.2 
      1357.0         0.82         85.3 
      1358.0         0.80         85.0 
      1359.0         0.77         86.7 
      1360.0         0.77         92.0 
      1361.0         0.72         93.7 
      1362.0         0.73         91.2 
      1363.0         0.77         86.9 
      1364.0         0.80         84.8 
      1365.0         0.77         81.9 
      1366.0         0.78         81.5 
      1367.0         0.80         80.1 
      1368.0         0.83         78.7 
      1369.0         1.00         80.4 
      1370.0         0.78         69.6 
      1371.0         3.65        426.1 
      1372.0         0.63        187.2 
      1373.0         0.50        184.4 
      1374.0         0.53        162.1 
      1375.0         1.12        154.6 
      1376.0         0.57         91.7 
      1377.0         0.57        104.2 
      1378.0         0.57        108.6 
      1379.0         0.63         97.6 
      1380.0         0.53         85.6 
      1381.0         0.58         78.4 
