~Version Information
VERS.                      2.0: CWLS Log ASCII Standard - VERSION 2.0
WRAP.                       NO: One line per depth step
~Well Information Block
STRT.FT               370.0000: 
STOP.FT              1259.0000: 
STEP.FT                 0.1000: 
NULL.                -999.2500: 
COMP.          Pioneer Natural Resources: COMPANY
WELL.           Tennis 7-12 Tr: WELL
FLD.           Purgatoire River: FIELD
LOC.           1794' FNL & 1563' FEL: LOCATION
PROV.                 Colorado: PROVINCE
CNTY.               Las Animas: COUNTRY
SRVC.                Patterson: SERVICE COMPANY
DATE.          Tue Dec 20 13:35:40 2005: LOG DATE
UWI.           05 071 08635 00: UNIQUE WELL ID
~Curve Information Block
DEPT.FT            0 000 00 00: Depth
DCAL.in                       : CDL Caliper
RHOB.g/cc                     : CDL Bulk Density
RHOC.g/cc                     : CDL Density Correction
DPOR.pu                       : CDL Density Porosity
GR.GAPI                       : Gamma Ray
~Parameter Information Block
~A  Depth       DCAL        RHOB        RHOC        DPOR         GR     
# ...
   605.2000      7.9434      2.5004      0.0100      9.0638    123.7766
   605.3000      7.9437      2.5239      0.0307      7.6444    127.3223
   605.4000      7.9437      2.5498      0.0937      6.0719    132.3579
   605.5000      7.9432      2.5602      0.0798      5.4416    133.8921
   605.6000      7.9432      2.5587      0.0580      5.5351    133.8767
   605.7000      7.9432      2.5581      0.0843      5.5726    134.5874
   605.8000      7.9424      2.5555      0.1071      5.7284    134.8036
   605.9000      7.9424      2.5438      0.0564      6.4393    136.7277
   606.0000      7.9417      2.5293     -0.0129      7.3157    140.5893
   606.1000      7.9417      2.5230      0.0317      7.6966    140.6672
   606.2000      7.9417      2.5233      0.0207      7.6775    136.9636
   606.3000      7.9405      2.5248      0.0360      7.5864    137.3359
   606.4000      7.9405      2.5265      0.0442      7.4825    143.1569
   606.5000      7.9396      2.5255      0.0602      7.5432    146.9446
   606.6000      7.9396      2.5157      0.0457      8.1413    144.0843
   606.7000      7.9396      2.4995      0.0006      9.1224    140.2856
   606.8000      7.9412      2.4889      0.0305      9.7667    142.7774
   606.9000      7.9412      2.4867      0.0391      9.8976    150.2770
   607.0000      7.9434      2.4905     -0.0033      9.6677    158.0241
   607.1000      7.9434      2.5007      0.0244      9.0464    162.0480
   607.2000      7.9434      2.5067      0.0260      8.6873    161.0140
   607.3000      7.9452      2.4941      0.0290      9.4464    158.5591
   607.4000      7.9452      2.4714     -0.0192     10.8236    157.2998
   607.5000      7.9458      2.4584      0.0088     11.6151    154.1898
   607.6000      7.9458      2.4612     -0.0027     11.4450    147.4008
   607.7000      7.9458      2.4725      0.0346     10.7547    142.1367
   607.8000      7.9457      2.4829     -0.0020     10.1264    144.1081
   607.9000      7.9457      2.4908      0.0226      9.6484    152.5923
   608.0000      7.9459      2.4997      0.0357      9.1090    162.4688
   608.1000      7.9459      2.5114      0.0299      8.4016    168.1314
   608.2000      7.9459      2.5234      0.0814      7.6702    169.5050
   608.3000      7.9451      2.5306      0.0867      7.2372    170.7505
   608.4000      7.9451      2.5244      0.0935      7.6115    172.1954
   608.5000      7.9439      2.4986      0.0599      9.1732    170.6330
   608.6000      7.9439      2.4646     -0.0257     11.2372    165.6763
   608.7000      7.9439      2.4406      0.0186     12.6932    157.3761
   608.8000      7.9431      2.4307      0.0089     13.2893    149.2511
   608.9000      7.9431      2.4337     -0.0171     13.1088    146.1980
   609.0000      7.9426      2.4470      0.0064     12.3007    146.6080
   609.1000      7.9426      2.4661     -0.0009     11.1427    149.6642
   609.2000      7.9426      2.4922      0.0129      9.5642    155.2021
   609.3000      7.9433      2.5177      0.0567      8.0212    158.8064
   609.4000      7.9433      2.5221      0.0530      7.7518    159.5762
   609.5000      7.9451      2.5047      0.0332      8.8069    161.9789
   609.6000      7.9451      2.4883      0.0287      9.8023    165.3239
   609.7000      7.9451      2.4836      0.0493     10.0820    164.8601
   609.8000      7.9485      2.4816      0.0755     10.2070    159.3541
   609.9000      7.9485      2.4770     -0.0100     10.4861    152.9136
   610.0000      7.9507      2.4776      0.0396     10.4501    150.5062
   610.1000      7.9507      2.4846      0.0509     10.0252    148.4423
   610.2000      7.9507      2.4907      0.0717      9.6540    143.4956
   610.3000      7.9479      2.4938      0.0554      9.4669    142.3035
   610.4000      7.9479      2.4967      0.0567      9.2902    145.1638
   610.5000      7.9459      2.4997      0.0698      9.1069    143.5654
   610.6000      7.9459      2.4951      0.1022      9.3851    139.1974
   610.7000      7.9459      2.4780      0.0646     10.4264    140.5640
   610.8000      7.9460      2.4576      0.0456     11.6614    144.1299
   610.9000      7.9460      2.4435     -0.0027     12.5176    139.2016
   611.0000      7.9449      2.4309      0.0533     13.2769    128.8754
   611.1000      7.9449      2.4060      0.0591     14.7853    129.5935
   611.2000      7.9449      2.3704      0.0342     16.9462    145.7184
   611.3000      7.9437      2.3375      0.0436     18.9379    161.7944
   611.4000      7.9437      2.3130      0.0058     20.4250    165.6057
   611.5000      7.9438      2.2989      0.0123     21.2794    160.8981
   611.6000      7.9438      2.2910      0.0243     21.7556    157.6901
   611.7000      7.9438      2.2791      0.0367     22.4778    157.6369
   611.8000      7.9446      2.2563      0.0221     23.8624    154.9753
   611.9000      7.9446      2.2188      0.0369     26.1329    148.1456
   612.0000      7.9458      2.1684      0.0558     29.1871    142.2835
   612.1000      7.9458      2.1169      0.1057     32.3115    141.6687
   612.2000      7.9458      2.0756      0.0981     34.8124    143.6540
   612.3000      7.9477      2.0443      0.0653     36.7105    145.8507
   612.4000      7.9477      2.0121      0.0409     38.6593    147.1557
   612.5000      7.9471      1.9744     -0.0053     40.9448    143.0690
   612.6000      7.9471      1.9433     -0.0139     42.8277    132.8827
   612.7000      7.9471      1.9372      0.0249     43.2015    125.7014
   612.8000      7.9319      1.9661      0.0701     41.4463    127.1065
   612.9000      7.9319      2.0222      0.1252     38.0484    132.1620
   613.0000      7.9017      2.0814      0.1027     34.4618    136.5484
   613.1000      7.9017      2.1314      0.0352     31.4320    136.4536
   613.2000      7.9017      2.1839      0.0400     28.2496    131.5553
   613.3000      7.8824      2.2538      0.0644     24.0128    128.6683
   613.4000      7.8824      2.3326      0.1902     19.2377    130.7980
   613.5000      7.8782      2.3877      0.2046     15.8968    133.9084
   613.6000      7.8782      2.4020      0.2151     15.0328    137.3945
   613.7000      7.8782      2.3942      0.0844     15.5057    143.2875
   613.8000      7.8788      2.3908      0.1273     15.7119    146.9204
   613.9000      7.8788      2.3911      0.1178     15.6934    142.9653
   614.0000      7.8794      2.3891      0.0299     15.8130    136.5347
   614.1000      7.8794      2.3905      0.0443     15.7252    137.9324
   614.2000      7.8794      2.3956      0.0501     15.4172    147.2875
   614.3000      7.8780      2.4055      0.0297     14.8182    155.0496
   614.4000      7.8780      2.4212      0.0872     13.8691    157.4773
   614.5000      7.8756      2.4361      0.0486     12.9617    155.7901
   614.6000      7.8756      2.4484      0.0579     12.2182    149.8835
   614.7000      7.8756      2.4637      0.0436     11.2879    142.2471
   614.8000      7.8735      2.4839      0.0448     10.0658    133.0612
   614.9000      7.8735      2.4961      0.0793      9.3259    122.8326
   615.0000      7.8722      2.4940     -0.0107      9.4527    118.3924
   615.1000      7.8722      2.4894      0.0272      9.7349    122.7849
   615.2000      7.8722      2.4873      0.0092      9.8590    129.9166
   615.3000      7.8716      2.4888      0.0227      9.7702    133.2385
   615.4000      7.8716      2.5022     -0.0087      8.9548    132.9722
   615.5000      7.8714      2.5280      0.0133      7.3919    131.4084
   615.6000      7.8714      2.5479      0.0398      6.1885    127.1745
   615.7000      7.8714      2.5418      0.0506      6.5593    119.1014
   615.8000      7.8715      2.5154     -0.0269      8.1552    114.9658
   615.9000      7.8715      2.4997     -0.0190      9.1110    120.4026
   616.0000      7.8718      2.5069      0.0086      8.6736    123.9092
   616.1000      7.8718      2.5155      0.0187      8.1487    117.1770
   616.2000      7.8718      2.5060      0.0267      8.7260    110.0761
   616.3000      7.8722      2.4864      0.0412      9.9171    112.8459
