~Version Information
VERS.                      2.0: CWLS Log ASCII Standard - VERSION 2.0
WRAP.                       NO: One line per depth step
~Well Information Block
STRT.FT                15.0000: 
STOP.FT              1532.0000: 
STEP.FT                 0.2500: 
NULL.                -999.2500: 
COMP.          Pioneer Natural Resources: COMPANY
WELL.           Bobsy 34-11 Tr: WELL
FLD.           Purgatoire River: FIELD
LOC.           514' FSL & 1784' FEL: LOCATION
PROV.                 Colorado: PROVINCE
CNTY.               Las Animas: COUNTRY
SRVC.                Patterson: SERVICE COMPANY
DATE.          Fri Jul 22 12:22:14 2005: LOG DATE
UWI.           05 071 08438 00: UNIQUE WELL ID
~Curve Information Block
DEPT.FT            0 000 00 00: Depth
GR.GAPI                       : Gamma Ray
CCL.                          : Casing Collar Locator
TT3.usec                      : CBL 3' Travel Time
AMP3.mV                       : CBL 3' Amplitude
~Parameter Information Block
~A  Depth        GR         CCL         TT3         AMP3    
# ...
   115.5000     68.9500      0.0000    743.0629     14.1857
   115.7500     67.7313      0.0000    743.1830     14.1459
   116.0000     66.2049      0.0000    743.3492     14.1058
   116.2500     64.2135      0.0000    743.5850     14.0669
   116.5000     62.3988      0.0000    744.0214     14.0224
   116.7500     61.4955      0.0000    744.9473     13.9745
   117.0000     61.5453      0.0000    746.7070     13.9426
   117.2500     61.9976      0.0000    749.3890     13.9506
   117.5000     62.3668      0.0000    752.5830     14.0078
   117.7500     62.4583      0.0000    755.6722     14.1045
   118.0000     62.1582      0.0000    758.3763     14.2219
   118.2500     61.4317      0.0000    760.5769     14.3384
   118.5000     60.4579      0.0000    761.6135     14.4312
   118.7500     59.4999      0.0000    760.6299     14.4750
   119.0000     58.7741      0.0000    757.9807     14.4458
   119.2500     58.5870      0.0000    755.6427     14.3367
   119.5000     59.3693      0.0000    755.6581     14.1718
   119.7500     61.3427      0.0000    759.0436     13.9774
   120.0000     64.1556      0.0000    768.0544     13.7052
   120.2500     66.8712      0.0000    790.5532     13.2086
   120.5000     68.3817      0.0000    839.3396     12.3669
   120.7500     67.9562      0.0000    921.1580     11.2666
   121.0000     65.4658      0.0000   1023.2058     10.2059
   121.2500     61.2682      0.0000   1114.4865      9.4666
   121.5000     56.1530      0.0000   1166.6960      9.1002
   121.7500     51.3384      0.0000   1175.8475      8.9497
   122.0000     48.1195     -3.0000   1162.3844      8.8332
   122.2500     47.2424     -3.0000   1149.7565      8.6921
   122.5000     48.5945      0.0000   1142.4200      8.6400
   122.7500     51.5359      0.0000   1123.7870      8.9134
   123.0000     55.4012      0.0000   1075.7878      9.7019
   123.2500     59.5786      0.0000    999.4867     10.9319
   123.5000     63.3295      0.0000    914.8611     12.2396
   123.7500     65.8687      0.0000    843.3856     13.2270
   124.0000     66.7627      0.0000    794.6544     13.7419
   124.2500     66.3130      0.0000    766.7773     13.8951
   124.5000     65.5662      0.0000    753.1392     13.8830
   124.7500     65.7840      0.0000    747.4141     13.8482
   125.0000     67.7906      0.0000    745.3467     13.8546
   125.2500     71.8204      0.0000    744.7150     13.9082
   125.5000     77.6145      0.0000    744.5671     13.9833
   125.7500     84.2114      0.0000    744.5418     14.0561
   126.0000     89.9295      0.0000    744.5269     14.1311
   126.2500     93.3266      0.0000    744.5215     14.2328
   126.5000     94.3911      0.0000    744.5740     14.3703
   126.7500     94.3799      0.0000    744.7139     14.5168
   127.0000     94.2650      0.0000    744.9238     14.6312
   127.2500     93.6751      0.0000    745.1563     14.6945
   127.5000     91.5701      0.0000    745.3578     14.7201
   127.7500     87.7223      0.0000    745.4725     14.7346
   128.0000     83.3687      0.0000    745.4578     14.7507
   128.2500     80.5891      0.0000    745.3381     14.7564
   128.5000     81.0914      0.0000    745.3670     14.7321
   128.7500     85.2614      0.0000    746.2913     14.6828
   129.0000     92.0194      0.0000    749.6642     14.6490
   129.2500     99.5377      0.0000    757.9543     14.6738
   129.5000    106.1770      0.0000    773.8550     14.7579
   129.7500    110.9693      0.0000    799.1797     14.8544
   130.0000    113.6038      0.0000    833.9628     14.9085
   130.2500    114.1578      0.0000    875.1228     14.8990
   130.5000    112.8095      0.0000    915.3895     14.8466
   130.7500    109.9193      0.0000    946.4949     14.7896
   131.0000    106.3034      0.0000    965.6279     14.7542
   131.2500    102.9064      0.0000    975.8959     14.7385
   131.5000     99.8747      0.0000    979.5212     14.7206
   131.7500     96.2666      0.0000    975.0937     14.6768
   132.0000     91.0664      0.0000    961.9066     14.5942
   132.2500     84.4613      0.0000    942.3971     14.4759
   132.5000     77.9604      0.0000    920.1582     14.3423
   132.7500     73.3125      0.0000    900.4070     14.2233
   133.0000     71.4136      0.0000    893.0510     14.1375
   133.2500     72.1370      0.0000    909.9427     14.0773
   133.5000     74.8691      0.0000    953.7659     14.0169
   133.7500     79.0056      0.0000   1010.0757     13.9361
   134.0000     84.1529      0.0000   1053.9478     13.8337
   134.2500     89.9752      0.0000   1066.8044     13.7232
   134.5000     95.6274      0.0000   1048.2523     13.6228
   134.7500     99.5698      0.0000   1013.4090     13.5488
   135.0000    100.6845      0.0000    979.6998     13.5104
   135.2500     99.6436      0.0000    956.0163     13.5046
   135.5000     98.5429      0.0000    942.4919     13.5156
   135.7500     99.0340      0.0000    936.4186     13.5217
   136.0000    101.1246      0.0000    935.7279     13.5100
   136.2500    103.5382      0.0000    938.5339     13.4837
   136.5000    104.6693      0.0000    942.4459     13.4584
   136.7500    103.4774      0.0000    945.4918     13.4491
   137.0000    100.2762      0.0000    946.7711     13.4572
   137.2500     96.6847      0.0000    945.9245     13.4683
   137.5000     94.2842      0.0000    942.3519     13.4641
   137.7500     93.3759      0.0000    935.6912     13.4384
   138.0000     93.2748      0.0000    927.2467     13.4023
   138.2500     93.4597      0.0000    920.1572     13.3737
   138.5000     94.0849      0.0000    917.0370     13.3631
   138.7500     95.5113      0.0000    917.4388     13.3682
   139.0000     97.6490      0.0000    918.6271     13.3779
   139.2500     99.8631      0.0000    918.7645     13.3799
   139.5000    101.4583      0.0000    918.4650     13.3693
   139.7500    102.2670      0.0000    919.4504     13.3560
   140.0000    102.8751      0.0000    922.3370     13.3598
   140.2500    104.0906      0.0000    925.3495     13.3937
   140.5000    105.8922      0.0000    924.9292     13.4485
   140.7500    107.0629      0.0000    918.4919     13.4984
   141.0000    106.2407      0.0000    907.1158     13.5257
   141.2500    103.2549      0.0000    894.9754     13.5422
   141.5000     99.2660      0.0000    886.0084     13.5863
   141.7500     95.7850      0.0000    881.6080     13.6958
   142.0000     93.6537      0.0000    880.9292     13.8754
   142.2500     92.5792      0.0000    881.9921     14.0863
   142.5000     91.2977      0.0000    882.3538     14.2708
   142.7500     88.3916      0.0000    880.0602     14.3921
   143.0000     83.2713      0.0000    874.9949     14.4549
   143.2500     76.4267      0.0000    869.0261     14.4898
   143.5000     68.8628      0.0000    864.5283     14.5211
   143.7500     61.5710      0.0000    862.7883     14.5474
   144.0000     55.4430      0.0000    863.3608     14.5510
   144.2500     51.2674      0.0000    864.5201     14.5211
   144.5000     49.6160      0.0000    864.7325     14.4647
   144.7500     50.7694      0.0000    864.0775     14.3974
   145.0000     54.6764      0.0000    864.0040     14.3313
   145.2500     60.8468      0.0000    865.6035     14.2716
   145.5000     68.3125      0.0000    868.4779     14.2172
   145.7500     75.8550      0.0000    871.3888     14.1597
   146.0000     82.3633      0.0000    873.4968     14.0906
   146.2500     87.0364      0.0000    874.7544     14.0144
   146.5000     89.4693      0.0000    875.4938     13.9508
   146.7500     89.7895      0.0000    875.9894     13.9187
   147.0000     88.8007      0.0000    876.3011     13.9179
   147.2500     87.8215      0.0000    876.2261     13.9259
   147.5000     87.9529      0.0000    875.2415     13.9130
   147.7500     89.2712      0.0000    872.6002     13.8613
   148.0000     90.8910      0.0000    867.8441     13.7744
   148.2500     91.9941      0.0000    861.5525     13.6729
   148.5000     92.7073      0.0000    855.4249     13.5804
   148.7500     93.8472      0.0000    851.2634     13.5138
