~Version Information
 VERS.                                  2.0 : CWLS LAS VERSION
 WRAP.                                   NO : WRAPING MODE
 SWARE .                 MController 2.5.0J : SOFTWARE VERSION
~Well Information
 WELL.                     Razor Clam 23-27 : WELL
 COMP.  Pioneer Natural Resources USA, Inc. : COMPANY
 FLD.                      Purgatoire River : FIELD
 LOC.               NE/SW Sec 27 T33S  R65W : LOCATION
 DATE.                              2/12/06 : DATE(S) LOGGED
 SRVC.       BLANCO Geological Services LLC : SERVICE COMPANY
 STAT.                                   CO : STATE
 CNTY.                           Las Animas : COUNTY
 CTRY.                                  USA : COUNTRY
 API.                       05-071-08667-00 : API NUMBER
 STRT.FT                             260.00 : START DEPTH
 STOP.FT                             700.00 : STOP DEPTH
 STEP.FT                               1.00 : DEPTH INCREMENT
 NULL.                                -9999 : NULL VALUE
~Curve information
 DEPTH.FT                                   :
 ROP.MIN/FT                                 :
 GAS.UNITS                                  :
~ASCII Log data
# ...
       460.0         0.17         58.1 
       461.0         0.20         50.2 
       462.0         0.20         57.4 
       463.0         0.17         59.0 
       464.0         0.17         63.0 
       465.0         0.17         61.8 
       466.0         0.17         51.6 
       467.0         0.22         51.2 
       468.0         0.20         47.8 
       469.0         0.20         47.9 
       470.0         0.20         52.5 
       471.0         0.20         52.2 
       472.0         3.18        190.3 
       473.0         0.47        183.6 
       474.0         0.30        105.0 
       475.0         0.27         87.8 
       476.0         0.23         84.5 
       477.0         0.23         79.7 
       478.0         0.20         81.7 
       479.0         0.23         70.7 
       480.0         0.27         57.8 
       481.0         0.27         53.2 
       482.0         0.25         52.6 
       483.0         0.27         52.9 
       484.0         0.27         50.2 
       485.0         0.27         47.0 
       486.0         0.30         45.1 
       487.0         0.27         48.9 
       488.0         0.30         49.0 
       489.0         0.30         44.9 
       490.0         0.23         48.0 
       491.0         0.17         41.9 
       492.0         0.20         41.7 
       493.0         0.23         43.0 
       494.0         0.30         64.4 
       495.0         0.28         80.6 
       496.0         0.27         77.5 
       497.0         0.27         77.8 
       498.0         0.27         72.2 
       499.0         0.30         68.9 
       500.0         0.30         66.8 
       501.0         0.37         67.8 
       502.0         0.47         71.0 
       503.0         1.82         67.5 
       504.0         1.07        170.2 
       505.0         0.30        114.4 
       506.0         0.30        105.0 
       507.0         0.23         94.7 
       508.0         0.27         86.1 
       509.0         0.20         75.0 
       510.0         0.22         69.7 
       511.0         0.17         67.2 
       512.0         0.13         62.1 
       513.0         0.13         58.3 
       514.0         0.17         53.1 
       515.0         0.27         73.2 
       516.0         0.20        102.0 
       517.0         0.17        114.3 
       518.0         0.13        110.8 
       519.0         0.13        102.1 
       520.0         0.17         98.2 
       521.0         0.17         84.9 
       522.0         0.30         85.7 
       523.0         0.20         86.8 
       524.0         0.17         86.1 
       525.0         0.27         85.2 
       526.0         0.17         77.9 
       527.0         0.17         80.9 
       528.0         0.18         78.4 
       529.0         0.13         72.9 
       530.0         0.17         65.7 
       531.0         0.17         64.8 
       532.0         4.42        639.4 
       533.0         0.43        478.4 
       534.0         0.30        400.0 
       535.0         0.30        126.1 
       536.0         0.20        111.3 
       537.0         0.23        101.1 
       538.0         0.28         94.3 
       539.0         0.27         81.5 
       540.0         0.27         73.9 
       541.0         0.30         69.9 
       542.0         0.20         59.3 
       543.0         0.27         57.3 
       544.0         0.23         50.0 
       545.0         0.23         54.4 
       546.0         0.23         51.7 
       547.0         0.27         56.8 
       548.0         0.27         54.7 
       549.0         0.23         57.3 
       550.0         0.27         54.5 
       551.0         0.23         59.2 
       552.0         0.28         55.7 
       553.0         0.27         56.4 
       554.0         0.30         54.4 
       555.0         0.27         54.8 
       556.0         0.23         51.7 
       557.0         0.33         52.6 
       558.0         0.40         60.2 
       559.0         0.27         63.6 
       560.0         0.27         61.0 
       561.0         0.63         61.9 
       562.0         3.42        360.7 
       563.0         0.55        374.7 
       564.0         0.30        167.0 
       565.0         0.30        112.9 
       566.0         0.27        100.8 
       567.0         0.30        102.7 
       568.0         0.27         93.3 
       569.0         0.30         79.2 
       570.0         0.27         65.6 
       571.0         0.33         55.7 
       572.0         0.27         51.4 
       573.0         0.27         51.4 
       574.0         0.28         53.5 
       575.0         0.30         50.8 
       576.0         0.30         47.5 
       577.0         0.27         48.6 
       578.0         0.27         49.0 
       579.0         0.30         56.6 
       580.0         0.27         51.8 
       581.0         0.40         58.7 
       582.0         0.37         60.6 
       583.0         0.33         61.6 
       584.0         0.27         59.6 
       585.0         0.25         60.5 
       586.0         0.27         52.6 
       587.0         0.37         53.7 
       588.0         0.37         54.9 
       589.0         0.40         45.7 
       590.0         0.60         65.0 
       591.0         0.73         71.3 
       592.0        24.07       3343.1 
       593.0         0.53         17.0 
       594.0         0.40          8.7 
       595.0         0.33          2.7 
       596.0         0.37          6.7 
       597.0         0.37          5.9 
       598.0         0.37          4.1 
       599.0         0.37          5.3 
       600.0         0.42          6.9 
       601.0         0.33          6.7 
       602.0         0.37          7.1 
       603.0         0.33          7.6 
       604.0         0.33         12.8 
       605.0         0.33         13.7 
       606.0         0.43         13.8 
       607.0         0.57         10.2 
       608.0         0.47         11.9 
       609.0         0.42          9.2 
       610.0         0.43          9.8 
       611.0         0.40         10.8 
       612.0         0.43         12.1 
       613.0         0.43         11.1 
       614.0         0.43         14.8 
       615.0         0.50         15.9 
       616.0         0.13         12.7 
       617.0         0.17         13.1 
       618.0         0.18         12.0 
       619.0         0.13          8.5 
       620.0         0.50          6.1 
       621.0         0.57          6.5 
       622.0         5.40       1040.5 
       623.0         0.67        400.0 
       624.0         0.57         34.0 
       625.0         0.43         29.1 
       626.0         0.43         21.5 
       627.0         0.47         16.0 
       628.0         0.47         17.4 
       629.0         0.38         15.1 
       630.0         0.47         16.1 
       631.0         0.53         15.4 
       632.0         0.40         12.0 
       633.0         0.47         13.1 
       634.0         0.50         13.8 
       635.0         0.57         12.9 
       636.0         0.45         13.8 
       637.0         0.47         13.0 
       638.0         0.47         12.9 
       639.0         0.50         15.3 
       640.0         0.37         15.5 
       641.0         0.37         14.3 
       642.0         0.40         11.7 
       643.0         0.43         12.8 
       644.0         0.52         13.9 
       645.0         0.40         12.3 
       646.0         0.43         12.3 
       647.0         0.43         14.5 
       648.0         0.40         12.7 
       649.0         0.40         10.8 
       650.0         0.47         13.2 
       651.0         2.68         15.5 
       652.0         2.58        184.6 
       653.0         1.10        283.6 
       654.0         0.63        200.1 
       655.0         0.58         58.9 
       656.0         0.53         18.4 
       657.0         0.43         24.1 
       658.0         0.50         25.0 
       659.0         0.37         15.3 
