~Version Information
VERS.                      2.0: CWLS Log ASCII Standard - VERSION 2.0
WRAP.                       NO: One line per depth step
~Well Information Block
STRT.FT               890.0000: 
STOP.FT              2097.0000: 
STEP.FT                 0.2500: 
NULL.                -999.2500: 
COMP.          Pioneer Natural Resources: COMPANY
WELL.          Greenwood 43-29 Tr: WELL
FLD.           Purgatoire River: FIELD
LOC.           1478' FSL & 744' FEL: LOCATION
STAT.                 Colorado: State
CNTY.               Las Animas: COUNTY
CTRY. USA : Country
SECT. 29 : Section
TOWN. 32S : Township
RANG. 67W : Range
SRVC.                Patterson: SERVICE COMPANY
DATE.          Wed Aug 31 08:07:28 2005: LOG DATE
API.           05 071 08478 00: UNIQUE WELL ID
~Curve Information Block
DEPT.FT            0 000 00 00: Depth
SN.Ohm-m                      : IEL Short Normal
SP.mV                         : IEL Spontaneous Potential
DIR.Ohm-m                     : IEL Induction Resistivity
GR.GAPI                       : Gamma Ray
~Parameter Information Block
~A  Depth        SN          SP         DIR          GR     
# ...
   957.0000   2000.0000   2000.0000     14.4484    172.7708
   957.2500   2000.0000   2000.0000     14.6625    172.0454
   957.5000   2000.0000   2000.0000     14.8817    167.6534
   957.7500   2000.0000   2000.0000     15.1120    163.3584
   958.0000   2000.0000   2000.0000     15.3610    156.7766
   958.2500   2000.0000   2000.0000     15.6407    153.1104
   958.5000   2000.0000   2000.0000     15.9686    149.1326
   958.7500   2000.0000   2000.0000     16.3616    147.2017
   959.0000   2000.0000   2000.0000     16.8254    144.5050
   959.2500   2000.0000   2000.0000     17.3463    142.5591
   959.5000   2000.0000   2000.0000     17.8982    139.5493
   959.7500   2000.0000   2000.0000     18.4587    137.6311
   960.0000   2000.0000   2000.0000     19.0192    134.9416
   960.2500   2000.0000   2000.0000     19.5773    133.3219
   960.5000   2000.0000   2000.0000     20.1169    131.3595
   960.7500   2000.0000   2000.0000     20.5978    130.4094
   961.0000   2000.0000   2000.0000     20.9673    129.3471
   961.2500   2000.0000   2000.0000     21.1872    128.8175
   961.5000   2000.0000   2000.0000     21.2559    128.5451
   961.7500   2000.0000   2000.0000     21.2064    128.9387
   962.0000   2000.0000   2000.0000     21.0846    130.4284
   962.2500   2000.0000   2000.0000     20.9237    131.7959
   962.5000   2000.0000   2000.0000     20.7303    134.0227
   962.7500   2000.0000   2000.0000     20.4904    135.5835
   963.0000   2000.0000   2000.0000     20.1895    138.1127
   963.2500   2000.0000   2000.0000     19.8327    139.8244
   963.5000   2000.0000   2000.0000     19.4491    142.0536
   963.7500   2000.0000   2000.0000     19.0762    143.2364
   964.0000   2000.0000   2000.0000     18.7399    144.7762
   964.2500   2000.0000   2000.0000     18.4439    145.7213
   964.5000   2000.0000   2000.0000     18.1758    146.8676
   964.7500   2000.0000   2000.0000     17.9218    147.4699
   965.0000   2000.0000   2000.0000     17.6777    148.6318
   965.2500   2000.0000   2000.0000     17.4506    149.7705
   965.5000   2000.0000   2000.0000     17.2548    151.3677
   965.7500   2000.0000   2000.0000     17.1052    151.5876
   966.0000   2000.0000   2000.0000     17.0091    149.8335
   966.2500   2000.0000   2000.0000     16.9607    147.4010
   966.5000   2000.0000   2000.0000     16.9470    142.6443
   966.7500   2000.0000   2000.0000     16.9634    139.2780
   967.0000   2000.0000   2000.0000     17.0262    135.0752
   967.2500   2000.0000   2000.0000     17.1651    133.5242
   967.5000   2000.0000   2000.0000     17.3988    133.5438
   967.7500   2000.0000   2000.0000     17.7143    134.7226
   968.0000   2000.0000   2000.0000     18.0676    136.7883
   968.2500   2000.0000   2000.0000     18.4103    137.5172
   968.5000   2000.0000   2000.0000     18.7233    137.0340
   968.7500   2000.0000   2000.0000     19.0308    136.0752
   969.0000   2000.0000   2000.0000     19.3871    135.1185
   969.2500   2000.0000   2000.0000     19.8522    135.1906
   969.5000   2000.0000   2000.0000     20.4728    135.4467
   969.7500   2000.0000   2000.0000     21.2661    134.8219
   970.0000   2000.0000   2000.0000     22.2052    132.0645
   970.2500   2000.0000   2000.0000     23.2172    129.2558
   970.5000   2000.0000   2000.0000     24.2133    124.0578
   970.7500   2000.0000   2000.0000     25.1375    119.9427
   971.0000   2000.0000   2000.0000     25.9925    112.8152
   971.2500   2000.0000   2000.0000     26.8261    107.7107
   971.5000   2000.0000   2000.0000     27.7068    100.1519
   971.7500   2000.0000   2000.0000     28.7156     95.3092
   972.0000   2000.0000   2000.0000     29.9443     88.1739
   972.2500   2000.0000   2000.0000     31.4833     83.3618
   972.5000   2000.0000   2000.0000     33.3980     75.9347
   972.7500   2000.0000   2000.0000     35.6994     70.9420
   973.0000   2000.0000   2000.0000     38.3035     63.9800
   973.2500   2000.0000   2000.0000     41.0008     60.1064
   973.5000   2000.0000   2000.0000     43.4906     55.7196
   973.7500   2000.0000   2000.0000     45.5256     53.5756
   974.0000   2000.0000   2000.0000     47.0644     51.0683
   974.2500   2000.0000   2000.0000     48.2692     49.6729
   974.5000   2000.0000   2000.0000     49.3538     47.7500
   974.7500   2000.0000   2000.0000     50.4565     46.4662
   975.0000   2000.0000   2000.0000     51.6371     44.5842
   975.2500   2000.0000   2000.0000     52.9435     43.6071
   975.5000   2000.0000   2000.0000     54.4072     43.1237
   975.7500   2000.0000   2000.0000     55.9219     43.6008
   976.0000   2000.0000   2000.0000     57.1079     45.0891
   976.2500   2000.0000   2000.0000     57.3562     46.0223
   976.5000   2000.0000   2000.0000     56.1635     46.4690
   976.7500   2000.0000   2000.0000     53.4961     46.0914
   977.0000   2000.0000   2000.0000     49.7821     45.3421
   977.2500   2000.0000   2000.0000     45.5844     45.3954
   977.5000   2000.0000   2000.0000     41.3475     46.9873
   977.7500   2000.0000   2000.0000     37.3668     49.0562
   978.0000   2000.0000   2000.0000     33.8355     53.6591
   978.2500   2000.0000   2000.0000     30.8598     58.1806
   978.5000   2000.0000   2000.0000     28.4498     68.6264
   978.7500   2000.0000   2000.0000     26.5227     78.6649
   979.0000   2000.0000   2000.0000     24.9373     97.6926
   979.2500   2000.0000   2000.0000     23.5498    111.5128
   979.5000   2000.0000   2000.0000     22.2638    130.6246
   979.7500   2000.0000   2000.0000     21.0446    140.8739
   980.0000   2000.0000   2000.0000     19.8911    151.6401
   980.2500   2000.0000   2000.0000     18.8054    155.7931
   980.5000   2000.0000   2000.0000     17.7869    157.9620
   980.7500   2000.0000   2000.0000     16.8476    157.2386
   981.0000   2000.0000   2000.0000     16.0173    154.1932
   981.2500   2000.0000   2000.0000     15.3308    151.5688
   981.5000   2000.0000   2000.0000     14.8076    147.6598
   981.7500   2000.0000   2000.0000     14.4420    145.4492
   982.0000   2000.0000   2000.0000     14.2063    142.9723
   982.2500   2000.0000   2000.0000     14.0637    141.8036
   982.5000   2000.0000   2000.0000     13.9859    140.6255
   982.7500   2000.0000   2000.0000     13.9606    140.2566
   983.0000   2000.0000   2000.0000     13.9862    140.5040
   983.2500   2000.0000   2000.0000     14.0569    141.2945
   983.5000   2000.0000   2000.0000     14.1560    143.3841
   983.7500   2000.0000   2000.0000     14.2627    145.1308
   984.0000   2000.0000   2000.0000     14.3685    147.5005
   984.2500   2000.0000   2000.0000     14.4868    148.3488
   984.5000   2000.0000   2000.0000     14.6462    147.5538
   984.7500   2000.0000   2000.0000     14.8734    145.4286
   985.0000   2000.0000   2000.0000     15.1776    140.9700
   985.2500   2000.0000   2000.0000     15.5490    138.5463
   985.5000   2000.0000   2000.0000     15.9671    137.6475
   985.7500   2000.0000   2000.0000     16.4073    138.8757
   986.0000   2000.0000   2000.0000     16.8388    141.7151
   986.2500   2000.0000   2000.0000     17.2199    142.9571
   986.5000   2000.0000   2000.0000     17.5098    142.2331
   986.7500   2000.0000   2000.0000     17.6944    139.7530
   987.0000   2000.0000   2000.0000     17.7982    134.0185
   987.2500   2000.0000   2000.0000     17.8666    130.2000
   987.5000   2000.0000   2000.0000     17.9327    126.9562
   987.7500   2000.0000   2000.0000     18.0008    127.0726
   988.0000   2000.0000   2000.0000     18.0546    129.6311
   988.2500   2000.0000   2000.0000     18.0772    131.5858
   988.5000   2000.0000   2000.0000     18.0642    132.9482
   988.7500   2000.0000   2000.0000     18.0244    132.4585
   989.0000   2000.0000   2000.0000     17.9714    130.2663
   989.2500   2000.0000   2000.0000     17.9152    128.4782
   989.5000   2000.0000   2000.0000     17.8576    126.2410
   989.7500   2000.0000   2000.0000     17.7875    125.4091
   990.0000   2000.0000   2000.0000     17.6802    125.5123
   990.2500   2000.0000   2000.0000     17.5043    126.5278
