~Version Information
VERS.                      2.0: CWLS Log ASCII Standard - VERSION 2.0
WRAP.                       NO: One line per depth step
~Well Information Block
STRT.FT               505.0000: 
STOP.FT               770.5000: 
STEP.FT                 0.1000: 
NULL.                -999.2500: 
COMP.          Pioneer Natural Resources: COMPANY
WELL.                Zed 11-23: WELL
FLD.           Purgatoire River: FIELD
LOC.           641' FNL & 952' FWL: LOCATION
CNTY.               Las Animas: COUNTY
SRVC.                Patterson: SERVICE COMPANY
DATE.          Mon Feb 27 07:12:43 2006: LOG DATE
UWI.           05 071 08702 00: UNIQUE WELL ID
STAT.                 Colorado: STATE
~Curve Information Block
DEPT.FT            0 000 00 00: Depth
DCAL.in                       : CDL Caliper
RHOB.g/cc                     : CDL Bulk Density
RHOC.g/cc                     : CDL Density Correction
DPOR.pu                       : CDL Density Porosity
GR.GAPI                       : Gamma Ray
NPOR.pu                       : Neutron Porosity
~Parameter Information Block
~A  Depth       DCAL        RHOB        RHOC        DPOR         GR         NPOR    
# ...
   735.4000      7.8767      2.4057      0.0724     14.8080     87.9771     24.7651
   735.5000      7.8833      2.4011      0.0621     15.0874     80.1319     24.2029
   735.6000      7.8833      2.4036      0.0566     14.9339     78.5595     23.9120
   735.7000      7.8833      2.4078      0.0843     14.6773     80.1970     24.0125
   735.8000      7.8782      2.4059      0.0694     14.7931     82.5939     24.1900
   735.9000      7.8782      2.4054      0.0341     14.8233     85.7443     24.1635
   736.0000      7.8818      2.4158      0.0821     14.1948     89.8607     23.9255
   736.1000      7.8818      2.4299      0.0571     13.3385     92.7312     23.2822
   736.2000      7.8818      2.4418      0.0353     12.6164     93.0053     22.2383
   736.3000      7.8841      2.4540      0.0805     11.8792     92.4539     22.0249
   736.4000      7.8841      2.4700      0.0630     10.9113     92.8008     23.2937
   736.5000      7.8838      2.4868      0.1127      9.8933     94.0551     24.6200
   736.6000      7.8838      2.4901      0.1371      9.6921     94.7989     24.3847
   736.7000      7.8838      2.4806      0.0707     10.2689     94.8467     23.4577
   736.8000      7.8865      2.4750      0.0805     10.6088     98.0260     23.6671
   736.9000      7.8865      2.4767      0.0770     10.5014    105.9529     24.6328
   737.0000      7.8593      2.4774      0.0132     10.4597    115.1386     25.2125
   737.1000      7.8593      2.4730      0.0489     10.7290    121.4230     25.3517
   737.2000      7.8593      2.4715      0.0525     10.8165    122.7045     25.4429
   737.3000      7.8288      2.4869      0.0700      9.8852    119.4402     25.3360
   737.4000      7.8288      2.5112      0.1396      8.4104    113.4605     24.2161
   737.5000      7.8243      2.5223      0.1204      7.7373    107.7917     22.3909
   737.6000      7.8243      2.5175      0.0912      8.0296    105.3251     21.5725
   737.7000      7.8243      2.5118      0.0848      8.3747    106.8186     22.1078
   737.8000      7.8177      2.5129      0.0872      8.3093    109.5905     22.5416
   737.9000      7.8177      2.5120      0.1010      8.3607    110.7834     22.4077
   738.0000      7.7938      2.5056      0.0632      8.7513    108.3321     22.5051
   738.1000      7.7938      2.5067      0.0529      8.6868    102.2910     22.7274
   738.2000      7.7938      2.5228      0.0449      7.7095     97.1725     22.5589
   738.3000      7.8248      2.5485      0.0615      6.1487     96.9597     22.2783
   738.4000      7.8248      2.5708      0.0881      4.7993     98.8926     22.2998
   738.5000      7.8900      2.5791      0.0414      4.2951     96.2123     22.4491
   738.6000      7.8900      2.5815      0.0361      4.1500     87.9037     22.1946
   738.7000      7.8900      2.5836      0.0730      4.0238     81.3296     21.4633
   738.8000      7.9413      2.5712      0.0830      4.7767     82.7353     20.7066
   738.9000      7.9413      2.5427      0.0219      6.5053     89.0486     20.5148
   739.0000      7.9235      2.5261      0.0019      7.5097     89.9916     21.4632
   739.1000      7.9235      2.5390      0.0572      6.7262     84.2886     23.0631
   739.2000      7.9235      2.5613      0.0582      5.3756     81.8377     24.1314
   739.3000      7.8720      2.5699      0.0306      4.8546     86.8823     24.7310
   739.4000      7.8720      2.5660      0.0486      5.0924     95.4139     25.1354
   739.5000      7.8546      2.5614      0.0274      5.3702    100.4937     24.6611
   739.6000      7.8546      2.5631     -0.0079      5.2670     98.0064     23.2568
   739.7000      7.8546      2.5672      0.0895      5.0176     92.2614     21.9412
   739.8000      7.8528      2.5669      0.0446      5.0382     89.7067     21.0959
   739.9000      7.8528      2.5629      0.0880      5.2804     92.1689     20.7691
   740.0000      7.8431      2.5510      0.1059      5.9987     99.1078     21.5742
   740.1000      7.8431      2.5330      0.0600      7.0914    109.2827     23.4195
   740.2000      7.8431      2.5234      0.0518      7.6739    117.4645     24.9162
   740.3000      7.8188      2.5272      0.0536      7.4430    119.5638     25.1811
   740.4000      7.8188      2.5428      0.0476      6.4951    118.6340     24.9459
   740.5000      7.8312      2.5698      0.0935      4.8623    116.9942     25.0715
   740.6000      7.8312      2.6005      0.1164      2.9988    116.0794     25.6110
   740.7000      7.8312      2.6242      0.1434      1.5653    120.5371     26.3659
   740.8000      7.8284      2.6331      0.1702      1.0271    128.1683     27.0109
   740.9000      7.8284      2.6239      0.1696      1.5807    131.7713     27.3069
   741.0000      7.8349      2.6046      0.0978      2.7509    129.0070     27.4394
   741.1000      7.8349      2.5890      0.0889      3.6945    126.4427     27.2636
   741.2000      7.8349      2.5803      0.0882      4.2246    131.3164     26.9583
   741.3000      7.8319      2.5716      0.0724      4.7503    136.9700     26.9658
   741.4000      7.8319      2.5571      0.0271      5.6284    134.8033     27.0785
   741.5000      7.8721      2.5417      0.0293      6.5638    129.2223     27.0883
   741.6000      7.8721      2.5382      0.0598      6.7769    126.7908     26.9283
   741.7000      7.8721      2.5462      0.0929      6.2925    128.2087     26.4997
   741.8000      7.8869      2.5543      0.0848      5.8020    131.4009     26.4122
   741.9000      7.8869      2.5563      0.0658      5.6800    132.6594     27.0753
   742.0000      7.8790      2.5451      0.0874      6.3554    131.2122     27.5819
   742.1000      7.8790      2.5275      0.0020      7.4266    129.5211     27.4425
   742.2000      7.8790      2.5260      0.0150      7.5164    129.6081     26.9249
   742.3000      7.8620      2.5391      0.0900      6.7185    131.5638     25.9829
   742.4000      7.8620      2.5563      0.0244      5.6776    134.5401     25.0968
   742.5000      7.8344      2.5786      0.1353      4.3251    136.0026     24.8088
   742.6000      7.8344      2.5910      0.1437      3.5728    135.6321     24.8696
   742.7000      7.8344      2.5821      0.1115      4.1155    135.6524     25.1528
   742.8000      7.8093      2.5677      0.0787      4.9851    133.8173     25.9406
   742.9000      7.8093      2.5623      0.1167      5.3125    129.6700     27.1009
   743.0000      7.8040      2.5686      0.0529      4.9325    127.8117     28.0654
   743.1000      7.8040      2.5908      0.0965      3.5853    127.2398     28.2243
   743.2000      7.8040      2.6196      0.1270      1.8438    125.7984     27.3777
   743.3000      7.7948      2.6325      0.1554      1.0608    124.5167     26.3193
   743.4000      7.7948      2.6302      0.1199      1.1973    122.3406     25.6768
   743.5000      7.8274      2.6267      0.1453      1.4110    120.2266     25.3523
   743.6000      7.8274      2.6169      0.1230      2.0054    120.1965     25.5574
   743.7000      7.8274      2.5998      0.0729      3.0415    119.5286     26.1078
   743.8000      7.8283      2.5841      0.0736      3.9956    116.6273     26.0635
   743.9000      7.8283      2.5721      0.0481      4.7220    114.3335     25.4059
   744.0000      7.8208      2.5707      0.0425      4.8046    113.1384     25.1680
   744.1000      7.8208      2.5792      0.0766      4.2888    111.6873     25.5892
   744.2000      7.8208      2.5849      0.0371      3.9472    110.9306     25.8196
   744.3000      7.8458      2.5895      0.0683      3.6657    112.2490     25.4836
   744.4000      7.8458      2.6023      0.0782      2.8920    114.6490     25.0257
   744.5000      7.8628      2.6188      0.0957      1.8936    115.1040     24.8505
   744.6000      7.8628      2.6235      0.1155      1.6060    111.3667     24.9015
   744.7000      7.8628      2.6026      0.1389      2.8740    106.1187     24.7475
   744.8000      7.8537      2.5693      0.0518      4.8919    103.9699     24.5301
   744.9000      7.8537      2.5604      0.0476      5.4313    104.7482     24.3221
