~Version Information
VERS.                      2.0: CWLS Log ASCII Standard - VERSION 2.0
WRAP.                       NO: One line per depth step
~Well Information Block
STRT.FT               370.0000: 
STOP.FT              1259.0000: 
STEP.FT                 0.1000: 
NULL.                -999.2500: 
COMP.          Pioneer Natural Resources: COMPANY
WELL.           Tennis 7-12 Tr: WELL
FLD.           Purgatoire River: FIELD
LOC.           1794' FNL & 1563' FEL: LOCATION
PROV.                 Colorado: PROVINCE
CNTY.               Las Animas: COUNTRY
SRVC.                Patterson: SERVICE COMPANY
DATE.          Tue Dec 20 13:35:40 2005: LOG DATE
UWI.           05 071 08635 00: UNIQUE WELL ID
~Curve Information Block
DEPT.FT            0 000 00 00: Depth
DCAL.in                       : CDL Caliper
RHOB.g/cc                     : CDL Bulk Density
RHOC.g/cc                     : CDL Density Correction
DPOR.pu                       : CDL Density Porosity
GR.GAPI                       : Gamma Ray
~Parameter Information Block
~A  Depth       DCAL        RHOB        RHOC        DPOR         GR     
# ...
   896.4000      7.8514      2.6683      0.0978     -1.1068    130.8155
   896.5000      7.8511      2.6639      0.0837     -0.8452    125.1987
   896.6000      7.8511      2.6422      0.0478      0.4757    112.3250
   896.7000      7.8511      2.6194      0.0466      1.8546    100.6017
   896.8000      7.8506      2.6030      0.0233      2.8477     93.8340
   896.9000      7.8506      2.5987      0.0278      3.1084     90.3076
   897.0000      7.8501      2.6088      0.0930      2.4971     87.9743
   897.1000      7.8501      2.6138      0.0695      2.1940     85.8661
   897.2000      7.8501      2.6056      0.0009      2.6892     85.0823
   897.3000      7.8500      2.5987      0.0255      3.1118     84.7359
   897.4000      7.8500      2.5949      0.0266      3.3377     84.9327
   897.5000      7.8503      2.5886      0.0084      3.7232     88.3554
   897.6000      7.8503      2.5786      0.0161      4.3279     93.0249
   897.7000      7.8503      2.5602     -0.0153      5.4421     93.7078
   897.8000      7.8497      2.5374     -0.0324      6.8216     91.2956
   897.9000      7.8497      2.5267     -0.0620      7.4719     92.7725
   898.0000      7.8479      2.5304      0.0024      7.2468    101.3400
   898.1000      7.8479      2.5343     -0.0096      7.0115    110.2471
   898.2000      7.8479      2.5334     -0.0188      7.0647    112.0135
   898.3000      7.8460      2.5312      0.0022      7.2017    107.4421
   898.4000      7.8460      2.5279      0.0373      7.4013     99.7690
   898.5000      7.8445      2.5209      0.0224      7.8234     93.2599
   898.6000      7.8445      2.5062      0.0408      8.7123     92.9688
   898.7000      7.8445      2.4874      0.0037      9.8568     96.5015
   898.8000      7.8399      2.4734      0.0318     10.7046     97.3615
   898.9000      7.8399      2.4615      0.0487     11.4246     96.5790
   899.0000      7.8317      2.4449      0.0485     12.4302    100.6544
   899.1000      7.8317      2.4377     -0.0061     12.8661    111.8412
   899.2000      7.8317      2.4693      0.0151     10.9501    123.1801
   899.3000      7.8235      2.5355      0.1573      6.9416    125.8581
   899.4000      7.8235      2.5899      0.2214      3.6447    120.4536
   899.5000      7.8237      2.6063      0.1676      2.6493    113.6653
   899.6000      7.8237      2.5978      0.2092      3.1613    106.9185
   899.7000      7.8237      2.5816      0.1242      4.1440     99.1691
   899.8000      7.8396      2.5645      0.1640      5.1820     96.1423
   899.9000      7.8396      2.5470      0.1219      6.2414    100.7882
   900.0000      7.8531      2.5408      0.0287      6.6201    106.1840
   900.1000      7.8531      2.5594      0.0460      5.4910    107.3934
   900.2000      7.8531      2.5966      0.0321      3.2364    106.8108
   900.3000      7.8551      2.6321      0.1181      1.0862    105.0218
   900.4000      7.8551      2.6477      0.1257      0.1396    101.1048
   900.5000      7.8522      2.6367      0.1291      0.8064     99.2865
   900.6000      7.8522      2.6048      0.0434      2.7408    102.7005
   900.7000      7.8522      2.5675      0.0739      4.9998    108.6860
   900.8000      7.8514      2.5296      0.0672      7.2982    114.1539
   900.9000      7.8514      2.4906     -0.0312      9.6604    116.4194
   901.0000      7.8523      2.4650     -0.0275     11.2114    113.6808
   901.1000      7.8523      2.4684     -0.0518     11.0064    108.8937
   901.2000      7.8523      2.5060     -0.0228      8.7277    107.6486
   901.3000      7.8494      2.5645      0.0856      5.1803    111.8028
   901.4000      7.8494      2.6128      0.1657      2.2520    117.6636
   901.5000      7.8470      2.6304      0.1278      1.1902    119.6939
   901.6000      7.8470      2.6250      0.1274      1.5154    115.5742
   901.7000      7.8470      2.6121      0.1353      2.2960    107.4590
   901.8000      7.8505      2.5978      0.1310      3.1656     99.0000
   901.9000      7.8505      2.5881      0.0847      3.7525     92.3665
   902.0000      7.8502      2.5812      0.1067      4.1669     89.5108
   902.1000      7.8502      2.5652      0.0754      5.1402     92.5667
   902.2000      7.8502      2.5489      0.0359      6.1284     99.9262
   902.3000      7.8465      2.5485      0.0587      6.1542    107.9794
   902.4000      7.8465      2.5519      0.0558      5.9458    114.5917
   902.5000      7.8513      2.5343      0.1001      7.0104    120.4940
   902.6000      7.8513      2.4816      0.0612     10.2067    128.7165
   902.7000      7.8513      2.3993      0.0180     15.1909    135.6411
   902.8000      7.8773      2.3066      0.0055     20.8142    134.8119
   902.9000      7.8773      2.2243     -0.0347     25.8009    128.8922
   903.0000      7.9274      2.1686     -0.0450     29.1773    125.2262
   903.1000      7.9274      2.1307     -0.0559     31.4740    125.3617
   903.2000      7.9274      2.0799     -0.0319     34.5510    124.5621
   903.3000      7.9627      2.0031     -0.0611     39.2046    120.2676
   903.4000      7.9627      1.9174     -0.0444     44.3981    116.0984
   903.5000      7.9728      1.8345      0.0148     49.4225    114.7543
   903.6000      7.9728      1.7543      0.0034     54.2835    115.0936
   903.7000      7.9728      1.6894     -0.0341     58.2161    115.6928
   903.8000      7.9781      1.6647     -0.0952     59.7134    117.0470
   903.9000      7.9781      1.6974     -0.0594     57.7356    120.3541
   904.0000      7.9892      1.7816      0.0169     52.6290    124.0180
   904.1000      7.9892      1.9018      0.0833     45.3457    123.8882
   904.2000      7.9892      2.0428      0.2630     36.8003    120.4306
   904.3000      7.9790      2.1809      0.3989     28.4282    121.4314
   904.4000      7.9790      2.2897      0.4776     21.8335    128.3440
   904.5000      7.9205      2.3563      0.4130     17.8014    133.7575
   904.6000      7.9205      2.3904      0.2428     15.7323    133.3103
   904.7000      7.9205      2.4167      0.1360     14.1416    130.8145
   904.8000      7.8698      2.4456      0.0681     12.3890    131.7614
   904.9000      7.8698      2.4580      0.1033     11.6391    137.1968
   905.0000      7.8541      2.4471     -0.0177     12.2953    142.7366
   905.1000      7.8541      2.4540     -0.0269     11.8778    144.5060
   905.2000      7.8541      2.4996      0.1423      9.1123    144.8922
   905.3000      7.8524      2.5444      0.1994      6.4010    145.5861
   905.4000      7.8524      2.5566      0.1309      5.6586    143.1684
   905.5000      7.8525      2.5457      0.1780      6.3241    137.8789
   905.6000      7.8525      2.5298      0.1200      7.2847    135.4634
   905.7000      7.8525      2.5197      0.1264      7.8964    135.4168
   905.8000      7.8523      2.5123      0.0781      8.3463    132.5976
   905.9000      7.8523      2.5053      0.0404      8.7671    127.8064
   906.0000      7.8513      2.4983      0.0731      9.1965    124.1317
   906.1000      7.8513      2.4785      0.0540     10.3945    122.0101
   906.2000      7.8513      2.4472     -0.0044     12.2918    123.4035
   906.3000      7.8482      2.4270     -0.0069     13.5136    126.7196
   906.4000      7.8482      2.4280     -0.0021     13.4516    126.9678
   906.5000      7.8452      2.4444      0.0008     12.4631    125.4303
   906.6000      7.8452      2.4767      0.0187     10.5005    123.5167
   906.7000      7.8452      2.5263      0.0717      7.4953    121.7707
   906.8000      7.8467      2.5725      0.1435      4.6993    123.4955
   906.9000      7.8467      2.5902      0.1495      3.6240    128.9826
   907.0000      7.8499      2.5842      0.1009      3.9860    133.1042
   907.1000      7.8499      2.5803      0.0640      4.2250    131.4314
   907.2000      7.8499      2.5872      0.1400      3.8041    128.2017
   907.3000      7.8510      2.5950      0.0655      3.3340    129.4040
   907.4000      7.8510      2.6012      0.0819      2.9602    135.6279
   907.5000      7.8506      2.6066      0.0679      2.6315    143.3429
