~Version Information
VERS.                      2.0: CWLS Log ASCII Standard - VERSION 2.0
WRAP.                       NO: One line per depth step
~Well Information Block
STRT.FT                 0.0000: 
STOP.FT              1877.2500: 
STEP.FT                 0.2500: 
NULL.                -999.2500: 
COMP.          Pioneer Natural Resources: COMPANY
WELL.            Corazon 13-10: WELL
FLD.           Purgatoire River: FIELD
LOC.           2510' FSL & 439' FWL--------: LOCATION
PROV.                 Colorado: PROVINCE
CNTY.               Las Animas: COUNTRY
SRVC.                         : SERVICE COMPANY
DATE.          Mon Dec 19 14:34:49 2005: LOG DATE
UWI.                          : UNIQUE WELL ID
~Curve Information Block
DEPT.FT            0 000 00 00: Depth
CCL.                          : Casing Collar Locator
TT3.usec                      : CBL 3' Travel Time
AMP3.mV                       : CBL 3' Amplitude
AMP5.mV                       : CBL 5' Amplitude
GR.GAPI                       : Gamma Ray
~Parameter Information Block
~A  Depth       CCL         TT3         AMP3        AMP5         GR     
# ...
   980.0000      0.0000    792.2996      7.9901      0.7173    125.8425
   980.2500      0.0000    760.5016      7.8977      0.7379    123.5553
   980.5000      0.0000    726.9946      7.7942      0.7016    122.7328
   980.7500      0.0000    695.5462      7.7138      0.6586    123.1563
   981.0000      0.0000    665.8436      7.6610      0.6709    124.5853
   981.2500      0.0000    636.3942      7.6154      0.7524    126.6228
   981.5000      0.0000    607.9144      7.5575      0.8579    128.8827
   981.7500      0.0000    583.3550      7.4896      0.9322    131.2253
   982.0000      0.0000    565.1277      7.4294      0.9625    133.5660
   982.2500      0.0000    553.4178      7.3900      0.9713    135.5768
   982.5000      0.0000    547.2538      7.3696      0.9672    136.9564
   982.7500      0.0000    546.2554      7.3587      0.9279    137.9239
   983.0000      0.0000    551.2030      7.3514      0.8370    139.0502
   983.2500      0.0000    563.7158      7.3491      0.7165    140.5797
   983.5000      0.0000    585.2100      7.3547      0.6076    142.0763
   983.7500      0.0000    614.3027      7.3508      0.5309    142.5848
   984.0000      0.0000    644.3132      7.2704      0.4780    141.0075
   984.2500      0.0000    665.2879      7.0152      0.4368    136.7264
   984.5000      0.0000    671.2876      6.5523      0.4129    130.1981
   984.7500      0.0000    666.1594      5.9905      0.4194    122.6353
   985.0000      0.0000    660.1505      5.5119      0.4515    114.9382
   985.2500      0.0000    659.6725      5.2191      0.4807    107.4444
   985.5000      0.0000    661.7315      5.0799      0.4803    100.7183
   985.7500      0.0000    659.6442      5.0055      0.4514     95.8156
   986.0000      0.0000    651.8912      4.9352      0.4153     93.6091
   986.2500      0.0000    642.3972      4.8530      0.3853     94.5153
   986.5000      0.0000    633.5177      4.7837      0.3569     98.7182
   986.7500      0.0000    622.9614      4.8046      0.3228    105.6642
   987.0000      0.0000    609.4095      5.0255      0.2881    113.3668
   987.2500      0.0000    598.3309      5.5033      0.2687    119.2964
   987.5000      0.0000    598.1747      6.1665      0.2822    122.2755
   987.7500      0.0000    610.4728      6.8454      0.3358    123.0254
   988.0000      0.0000    627.1866      7.3863      0.4143    122.8472
   988.2500      0.0000    639.9691      7.7377      0.4815    122.2476
   988.5000      0.0000    649.5130      7.9384      0.5127    120.9411
   988.7500      0.0000    663.0757      8.0476      0.5268    118.8921
   989.0000      0.0000    684.4810      8.0921      0.5727    116.9395
   989.2500      0.0000    709.3259      8.0669      0.6726    116.3472
   989.5000      0.0000    729.3264      7.9703      0.7918    117.9969
   989.7500      0.0000    739.4210      7.8272      0.8758    121.9379
   990.0000      0.0000    740.5890      7.6765      0.9072    127.2511
   990.2500      0.0000    737.3136      7.5458      0.9119    132.4707
   990.5000      0.0000    733.3182      7.4448      0.9179    136.7316
   990.7500      0.0000    729.7163      7.3754      0.9278    140.4496
   991.0000      0.0000    726.5065      7.3351      0.9287    144.3642
   991.2500      0.0000    724.5011      7.3098      0.9122    148.0911
   991.5000      0.0000    725.0615      7.2764      0.8782    150.2523
   991.7500      0.0000    728.5943      7.2204      0.8264    149.9907
   992.0000      0.0000    734.3806      7.1496      0.7548    147.9115
   992.2500      0.0000    741.8087      7.0884      0.6673    145.4351
   992.5000      0.0000    750.5550      7.0660      0.5812    143.3523
   992.7500      0.0000    759.0228      7.1037      0.5258    141.1019
   993.0000      0.0000    763.6679      7.2012      0.5284    137.4012
   993.2500      0.0000    761.1985      7.3276      0.5968    131.4647
   993.5000      0.0000    751.3738      7.4370      0.7074    123.6498
   993.7500      0.0000    736.9545      7.5010      0.8093    115.2458
   994.0000      0.0000    721.3102      7.5227      0.8481    107.9101
   994.2500      0.0000    706.5745      7.5171      0.8006    102.9613
   994.5000      0.0000    693.2806      7.4851      0.6908    100.6920
   994.7500      0.0000    680.8693      7.4140      0.5739    100.4315
   995.0000      0.0000    668.9392      7.3030      0.4999    101.4338
   995.2500      0.0000    658.6089      7.1826      0.4945    103.4340
   995.5000      0.0000    652.4081      7.1046      0.5631    106.2881
   995.7500      0.0000    652.3862      7.1026      0.6911    109.5069
   996.0000      0.0000    658.2368      7.1604      0.8364    112.3304
   996.2500      0.0000    667.2438      7.2218      0.9450    114.1012
   996.5000      0.0000    676.0938      7.2379      0.9898    114.6463
   996.7500      0.0000    682.9152      7.2069      0.9844    114.3825
   997.0000      0.0000    687.7560      7.1714      0.9576    113.8513
   997.2500      0.0000    691.1293      7.1805      0.9295    113.0792
   997.5000      0.0000    692.0854      7.2503      0.9115    111.4859
   997.7500      0.0000    687.9971      7.3524      0.9141    108.4426
   998.0000      0.0000    676.8120      7.4389      0.9448    104.0114
   998.2500      0.0000    659.5646      7.4803      0.9941     99.2262
   998.5000      0.0000    640.2166      7.4821      1.0260     95.5616
   998.7500      0.0000    623.0303      7.4681      0.9985     93.9267
   999.0000      0.0000    609.9874      7.4496      0.9085     94.2665
   999.2500      0.0000    599.6200      7.4157      0.8051     96.2942
   999.5000      0.0000    587.8566      7.3494      0.7459    100.2695
   999.7500      0.0000    571.5810      7.2497      0.7447    106.4438
  1000.0000      0.0000    552.8762      7.1344      0.7746    113.6644
  1000.2500      0.0000    539.2164      7.0213      0.8079    119.1974
  1000.5000      0.0000    538.4710      6.9144      0.8376    120.6051
  1000.7500      0.0000    553.3040      6.8136      0.8668    117.7693
  1001.0000      0.0000    579.4484      6.7291      0.8930    112.7099
  1001.2500      0.0000    608.0899      6.6750      0.9076    107.6417
  1001.5000      0.0000    630.6887      6.6527      0.9085    103.6311
  1001.7500      0.0000    644.2083      6.6495      0.9049    100.7988
  1002.0000      0.0000    653.1105      6.6541      0.9070     99.1325
  1002.2500      0.0000    665.5582      6.6641      0.9138     98.9608
  1002.5000      0.0000    686.6790      6.6778      0.9156    100.6789
  1002.7500      0.0000    714.8539      6.6831      0.9023    104.0065
  1003.0000      0.0000    743.7051      6.6594      0.8668    107.8697
  1003.2500      0.0000    766.9412      6.5939      0.8079    111.2110
  1003.5000      0.0000    781.3719      6.4971      0.7403    113.6186
  1003.7500      0.0000    786.6292      6.3946      0.6883    115.2742
  1004.0000      0.0000    783.8462      6.3047      0.6616    116.8235
  1004.2500      0.0000    775.2366      6.2263      0.6436    119.0087
  1004.5000      0.0000    764.0444      6.1410      0.6124    121.5662
  1004.7500      0.0000    753.5197      6.0226      0.5687    122.6289
  1005.0000      0.0000    745.1578      5.8557      0.5333    120.0982
  1005.2500      0.0000    738.1121      5.6497      0.5216    113.8401
  1005.5000      0.0000    730.7960      5.4259      0.5296    106.2529
  1005.7500      0.0000    722.9239      5.1896      0.5459    100.6386
  1006.0000      0.0000    715.9136      4.9241      0.5697     98.8312
  1006.2500      0.0000    711.8129      4.6173      0.6084     99.9266
  1006.5000      0.0000    711.9250      4.2850      0.6559    101.1826
  1006.7500      0.0000    715.8851      3.9657      0.6841    100.3510
  1007.0000      0.0000    721.6969      3.6953      0.6666     97.3500
  1007.2500      0.0000    726.8349      3.4936      0.6083     94.0257
  1007.5000      0.0000    729.3521      3.3717      0.5462     92.6594
  1007.7500      0.0000    727.9936      3.3428      0.5182     94.5994
