~Version Information
VERS.                      2.0: CWLS Log ASCII Standard - VERSION 2.0
WRAP.                       NO: One line per depth step
~Well Information Block
STRT.FT               892.0000: 
STOP.FT              2094.0000: 
STEP.FT                 0.1000: 
NULL.                -999.2500: 
COMP.          Pioneer Natural Resources: COMPANY
WELL.          Greenwood 43-29 Tr: WELL
FLD.           Purgatoire River: FIELD
LOC.           1478' FSL & 744' FEL: LOCATION
STAT.                 Colorado: State
CNTY.               Las Animas: COUNTY
CTRY. USA : Country
SECT. 29 : Section
TOWN. 32S : Township
RANG. 67W : Range
SRVC.                Patterson: SERVICE COMPANY
DATE.          Wed Aug 31 10:39:20 2005: LOG DATE
API.           05 071 08478 00: UNIQUE WELL ID
~Curve Information Block
DEPT.FT            0 000 00 00: Depth
DCAL.in                       : CDL Caliper
RHOB.g/cc                     : CDL Bulk Density
RHOC.g/cc                     : CDL Density Correction
DPOR.pu                       : CDL Density Porosity
GR.GAPI                       : Gamma Ray
NPOR.pu                       : Neutron Porosity
~Parameter Information Block
~A  Depth       DCAL        RHOB        RHOC        DPOR         GR         NPOR    
# ...
  1372.0000      8.0864      2.5511     -0.0241      5.9954     48.3813     16.4142
  1372.1000      8.0864      2.5701      0.0029      4.8433     55.1644     18.3362
  1372.2000      8.0864      2.6049      0.0712      2.7319     63.3866     20.2305
  1372.3000      8.0826      2.6258      0.0976      1.4645     73.6610     21.5870
  1372.4000      8.0826      2.6284      0.0297      1.3070     81.8460     21.9491
  1372.5000      8.0729      2.6199      0.0950      1.8213     83.9886     21.5601
  1372.6000      8.0729      2.5992      0.0778      3.0799     84.1982     21.5088
  1372.7000      8.0729      2.5712      0.0700      4.7775     90.2430     22.4144
  1372.8000      8.1385      2.5457      0.0543      6.3236    103.2388     24.1255
  1372.9000      8.1385      2.5310      0.0786      7.2145    114.0976     25.8984
  1373.0000      8.1476      2.5229      0.0742      7.7018    115.9418     26.9163
  1373.1000      8.1476      2.5070      0.0404      8.6667    112.6853     26.7164
  1373.2000      8.1476      2.4895     -0.0398      9.7288    110.9413     25.6141
  1373.3000      8.1418      2.4905     -0.0088      9.6642    115.7847     24.9484
  1373.4000      8.1418      2.5134      0.0019      8.2803    127.4732     25.3947
  1373.5000      8.1266      2.5464      0.0651      6.2758    136.0703     25.9342
  1373.6000      8.1266      2.5692      0.0726      4.8955    133.7947     25.9596
  1373.7000      8.1266      2.5603      0.1090      5.4335    125.9159     25.8005
  1373.8000      8.1109      2.5306      0.0103      7.2391    121.9766     26.0429
  1373.9000      8.1109      2.5239      0.0003      7.6396    124.5361     26.9130
  1374.0000      8.1063      2.5520      0.0641      5.9370    129.5533     27.4342
  1374.1000      8.1063      2.5778      0.0691      4.3773    133.8231     26.8490
  1374.2000      8.1063      2.5812      0.0226      4.1670    137.8354     25.7025
  1374.3000      8.0806      2.5800      0.0623      4.2448    140.4450     25.1183
  1374.4000      8.0806      2.5888      0.0800      3.7117    139.2923     25.7501
  1374.5000      8.0841      2.6055      0.0928      2.6990    137.5572     26.8827
  1374.6000      8.0841      2.6200      0.1034      1.8168    135.8635     27.4707
  1374.7000      8.0841      2.6222      0.1023      1.6818    130.9606     27.3573
  1374.8000      8.0916      2.6143      0.0677      2.1659    128.3800     26.4443
  1374.9000      8.0916      2.6078      0.0831      2.5548    133.3501     25.2915
  1375.0000      8.0875      2.6091      0.0559      2.4773    139.9655     24.9322
  1375.1000      8.0875      2.6113      0.0925      2.3476    141.3748     25.5729
  1375.2000      8.0875      2.5990      0.0906      3.0884    139.6234     26.9012
  1375.3000      8.1132      2.5741     -0.0062      4.6020    141.3210     27.6290
  1375.4000      8.1132      2.5589      0.0138      5.5212    145.7090     26.8737
  1375.5000      8.0875      2.5685     -0.0067      4.9396    148.8575     25.7155
  1375.6000      8.0875      2.5877      0.0417      3.7743    149.8756     25.0442
  1375.7000      8.0875      2.5876      0.0752      3.7797    147.5849     24.9805
  1375.8000      8.0864      2.5739     -0.0117      4.6128    143.3537     25.4971
  1375.9000      8.0864      2.5687      0.0194      4.9285    141.8657     25.9439
  1376.0000      8.1054      2.5636      0.0199      5.2365    143.7558     26.0168
  1376.1000      8.1054      2.5427      0.0395      6.5017    145.9586     25.9018
  1376.2000      8.1054      2.5139     -0.0102      8.2491    145.6285     25.9402
  1376.3000      8.1358      2.5009     -0.0429      9.0390    141.5160     26.6231
  1376.4000      8.1358      2.5133     -0.0316      8.2866    134.2800     27.6459
  1376.5000      8.1376      2.5324      0.0621      7.1249    128.3038     28.4567
  1376.6000      8.1376      2.5459     -0.0190      6.3090    125.6632     28.8580
  1376.7000      8.1376      2.5644      0.0347      5.1889    122.5676     28.4364
  1376.8000      8.1361      2.5822      0.0496      4.1106    118.2662     27.4651
  1376.9000      8.1361      2.5858      0.0502      3.8932    117.4962     26.3956
  1377.0000      8.1382      2.5797     -0.0022      4.2617    124.1324     25.2749
  1377.1000      8.1382      2.5714      0.0303      4.7623    135.4196     24.8335
  1377.2000      8.1382      2.5647     -0.0007      5.1703    139.2627     25.4108
  1377.3000      8.1448      2.5579      0.0759      5.5821    127.6343     25.9304
  1377.4000      8.1448      2.5430      0.0357      6.4862    112.7083     25.9094
  1377.5000      8.1435      2.5273     -0.0182      7.4372    108.8171     26.3493
  1377.6000      8.1435      2.5278      0.0431      7.4071    114.6835     27.1695
  1377.7000      8.1435      2.5453     -0.0016      6.3481    124.3680     26.8701
  1377.8000      8.1385      2.5692      0.0567      4.8952    134.2431     25.4184
  1377.9000      8.1385      2.5845      0.0520      3.9677    139.8616     24.4619
  1378.0000      8.1436      2.5846      0.0206      3.9654    140.4651     24.5282
  1378.1000      8.1436      2.5799      0.0487      4.2497    141.3772     24.8812
  1378.2000      8.1436      2.5753      0.0906      4.5249    146.1378     25.4836
  1378.3000      8.1417      2.5637      0.0307      5.2304    154.5740     26.3424
  1378.4000      8.1417      2.5418      0.0353      6.5568    162.8277     27.2405
  1378.5000      8.1351      2.5251     -0.0295      7.5683    163.2504     27.9522
  1378.6000      8.1351      2.5352      0.0224      6.9578    153.4963     28.1632
  1378.7000      8.1351      2.5593      0.0651      5.4952    142.0432     27.9374
  1378.8000      8.1263      2.5662      0.0970      5.0783    135.3569     27.5074
  1378.9000      8.1263      2.5500      0.0727      6.0580    130.9764     27.0442
  1379.0000      8.0789      2.5267      0.0915      7.4740    127.8271     26.7046
  1379.1000      8.0789      2.5178      0.0389      8.0150    126.8389     26.3730
  1379.2000      8.0789      2.5441      0.0093      6.4189    124.9778     26.2738
  1379.3000      8.0605      2.5971      0.0962      3.2036    123.5077     26.8510
  1379.4000      8.0605      2.6383      0.1298      0.7070    127.1835     27.5805
  1379.5000      8.0829      2.6440      0.1143      0.3652    132.4638     27.5987
  1379.6000      8.0829      2.6222      0.1043      1.6833    133.0660     27.0627
  1379.7000      8.0829      2.5884      0.0925      3.7342    131.5717     26.6918
  1379.8000      8.0948      2.5485      0.1169      6.1544    135.7414     26.8582
  1379.9000      8.0948      2.5087      0.0563      8.5617    148.0322     27.6996
  1380.0000      8.1099      2.4805     -0.0013     10.2739    157.9859     28.9829
  1380.1000      8.1099      2.4726     -0.0040     10.7499    151.4855     30.0271
  1380.2000      8.1099      2.4835      0.0431     10.0935    136.3276     29.9927
  1380.3000      8.1484      2.4997      0.0410      9.1093    130.3967     28.5738
  1380.4000      8.1484      2.5111      0.0504      8.4156    134.9224     27.0803
  1380.5000      8.1490      2.5172      0.0226      8.0463    139.4755     27.0160
  1380.6000      8.1490      2.5210      0.0123      7.8153    136.5399     27.8669
  1380.7000      8.1490      2.5250      0.0624      7.5742    129.9044     28.3953
  1380.8000      8.1550      2.5341      0.0800      7.0249    127.3292     28.3217
  1380.9000      8.1550      2.5508      0.1156      6.0140    129.4388     27.9345
  1381.0000      8.1755      2.5664      0.0768      5.0675    134.1756     27.3263
  1381.1000      8.1755      2.5676      0.0816      4.9954    140.8838     26.5216
  1381.2000      8.1755      2.5551      0.0434      5.7531    147.0644     26.0952
  1381.3000      8.2157      2.5490      0.0446      6.1190    151.2199     26.7306
  1381.4000      8.2157      2.5579      0.0664      5.5792    154.0555     28.0213
  1381.5000      8.2100      2.5689      0.0844      4.9139    156.9531     28.5499
