~Version Information
VERS.                      2.0: CWLS Log ASCII Standard - VERSION 2.0
WRAP.                       NO: One line per depth step
~Well Information Block
STRT.FT               440.0000: 
STOP.FT              1702.7500: 
STEP.FT                 0.2500: 
NULL.                -999.2500: 
COMP.          Pioneer Natural Resources: COMPANY
WELL.          Culver 14-12 Tr: WELL
FLD.           Purgatoire River: FIELD
LOC.           915' FSL & 1048' FWL--: LOCATION
STAT.                 Colorado: State
CNTY.               Las Animas: COUNTY
CTRY. USA : Country
SECT. 12 : Section
TOWN. 32S : Township
RANG. 66W : Range
SRVC.                Patterson: SERVICE COMPANY
DATE.          Tue Sep 27 23:38:23 2005: LOG DATE
API.           05 071 08520 00: UNIQUE WELL ID
~Curve Information Block
DEPT.FT            0 000 00 00: Depth
SN.Ohm-m                      : IEL Short Normal
SP.mV                         : IEL Spontaneous Potential
DIR.Ohm-m                     : IEL Induction Resistivity
GR.GAPI                       : Gamma Ray
~Parameter Information Block
~A  Depth        SN          SP         DIR          GR     
# ...
  1177.0000     13.4877     -0.5897     12.5911    136.5262
  1177.2500     13.9408     -0.3346     12.5055    137.5111
  1177.5000     14.4579     -0.1227     12.5007    136.7191
  1177.7500     14.9295      0.0462     12.5861    135.9736
  1178.0000     15.2899      0.1702     12.7557    135.9025
  1178.2500     15.5253      0.2479     12.9891    136.1490
  1178.5000     15.6438      0.2809     13.2531    134.9908
  1178.7500     15.6438      0.2756     13.5030    132.3287
  1179.0000     15.5090      0.2442     13.6891    125.8338
  1179.2500     15.2311      0.2032     13.7698    120.9642
  1179.5000     14.8389      0.1716     13.7259    114.9426
  1179.7500     14.4104      0.1671     13.5683    112.4389
  1180.0000     14.0479      0.2026     13.3319    111.1682
  1180.2500     13.8256      0.2824     13.0603    112.0637
  1180.5000     13.7455      0.4006     12.7897    116.4027
  1180.7500     13.7350      0.5401     12.5403    121.1241
  1181.0000     13.6941      0.6761     12.3157    128.9531
  1181.2500     13.5553      0.7797     12.1100    132.9221
  1181.5000     13.3164      0.8245     11.9180    135.2299
  1181.7500     13.0293      0.7912     11.7432    134.6525
  1182.0000     12.7673      0.6716     11.5991    132.1160
  1182.2500     12.5961      0.4697     11.5054    129.6424
  1182.5000     12.5614      0.1995     11.4822    124.3033
  1182.7500     12.6853     -0.1179     11.5444    119.7490
  1183.0000     12.9611     -0.4584     11.6984    113.3228
  1183.2500     13.3484     -0.7989     11.9403    110.8964
  1183.5000     13.7756     -1.1197     12.2535    111.4043
  1183.7500     14.1564     -1.4071     12.6093    113.8195
  1184.0000     14.4140     -1.6547     12.9694    117.6746
  1184.2500     14.5050     -1.8641     13.2915    119.0206
  1184.5000     14.4384     -2.0454     13.5383    119.2683
  1184.7500     14.2727     -2.2160     13.6887    119.5565
  1185.0000     14.0904     -2.3975     13.7455    122.3897
  1185.2500     13.9599     -2.6111     13.7334    126.0721
  1185.5000     13.9104     -2.8723     13.6854    132.5856
  1185.7500     13.9270     -3.1846     13.6283    136.1623
  1186.0000     13.9658     -3.5362     13.5752    138.4742
  1186.2500     13.9808     -3.8987     13.5284    137.4897
  1186.5000     13.9479     -4.2308     13.4861    132.8519
  1186.7500     13.8740     -4.4852     13.4471    129.0046
  1187.0000     13.7875     -4.6201     13.4129    125.2478
  1187.2500     13.7207     -4.6094     13.3874    125.3440
  1187.5000     13.6950     -4.4521     13.3760    129.1770
  1187.7500     13.7155     -4.1764     13.3829    132.9714
  1188.0000     13.7792     -3.8370     13.4080    138.3472
  1188.2500     13.8861     -3.5071     13.4460    141.0638
  1188.5000     14.0470     -3.2659     13.4888    143.5037
  1188.7500     14.2812     -3.1859     13.5342    143.8742
  1189.0000     14.6108     -3.3214     13.5940    142.3110
  1189.2500     15.0552     -3.7013     13.6975    140.0793
  1189.5000     15.6260     -4.3263     13.8845    136.0774
  1189.7500     16.3188     -5.1689     14.1946    133.5870
  1190.0000     17.1066     -6.1759     14.6538    129.8706
  1190.2500     17.9404     -7.2722     15.2657    126.3903
  1190.5000     18.7534     -8.3662     16.0028    117.7794
  1190.7500     19.4656     -9.3573     16.8002    109.5856
  1191.0000     19.9984    -10.1460     17.5565     95.5704
  1191.2500     20.3061    -10.6463     18.1497     87.0713
  1191.5000     20.4056    -10.7986     18.4706     78.7071
  1191.7500     20.3646    -10.5799     18.4608     76.9386
  1192.0000     20.2460    -10.0093     18.1364     79.7026
  1192.2500     20.0540     -9.1450     17.5788     84.3982
  1192.5000     19.7317     -8.0754     16.8990     94.5326
  1192.7500     19.2186     -6.9040     16.1982    102.9385
  1193.0000     18.5193     -5.7322     15.5463    117.1151
  1193.2500     17.7256     -4.6453     14.9825    126.5136
  1193.5000     16.9776     -3.7023     14.5264    137.9526
  1193.7500     16.4010     -2.9333     14.1911    142.6901
  1194.0000     16.0664     -2.3427     13.9895    145.5240
  1194.2500     15.9890     -1.9159     13.9348    145.6202
  1194.5000     16.1605     -1.6288     14.0342    144.9894
  1194.7500     16.5896     -1.4558     14.2774    144.4943
  1195.0000     17.3201     -1.3753     14.6205    143.4133
  1195.2500     18.4087     -1.3723     14.9723    142.3570
  1195.5000     19.8792     -1.4374     15.1992    140.7991
  1195.7500     21.6861     -1.5641     15.1745    140.2335
  1196.0000     23.7141     -1.7447     14.8623    139.9326
  1196.2500     25.8028     -1.9672     14.3676    139.1754
  1196.5000     27.7839     -2.2139     13.8909    135.3144
  1196.7500     29.5197     -2.4623     13.6362    130.6525
  1197.0000     30.9383     -2.6883     13.7504    122.1395
  1197.2500     32.0455     -2.8708     14.3047    116.9553
  1197.5000     32.8962     -2.9955     15.2615    111.8610
  1197.7500     33.5395     -3.0572     16.3840    110.6665
  1198.0000     33.9805     -3.0599     17.1685    111.7354
  1198.2500     34.1849     -3.0147     17.0750    113.5302
  1198.5000     34.1141     -2.9360     16.0603    116.0275
  1198.7500     33.7590     -2.8385     14.6555    116.8609
  1199.0000     33.1470     -2.7338     13.4259    116.9073
  1199.2500     32.3262     -2.6298     12.6227    116.6053
  1199.5000     31.3391     -2.5313     12.2246    116.3673
  1199.7500     30.2040     -2.4420     12.0571    116.6035
  1200.0000     28.9137     -2.3682     11.8761    117.8040
  1200.2500     27.4592     -2.3235     11.4691    119.1021
  1200.5000     25.8653     -2.3332     10.7815    121.3240
  1200.7500     24.2080     -2.4380      9.9636    122.8053
  1201.0000     22.5912     -2.6957      9.2913    125.2735
  1201.2500     21.0947     -3.1801      9.0980    127.3985
  1201.5000     19.7345     -3.9766      9.9340    131.5773
  1201.7500     18.4692     -5.1756     13.7139    134.7917
  1202.0000     17.2442     -6.8645     44.1251    139.1731
  1202.2500     16.0372     -9.1234 100000.0000    141.1382
  1202.5000     14.8730    -12.0266 100000.0000    142.3580
  1202.7500     13.7939    -15.6509 100000.0000    142.3631
  1203.0000     12.8032    -20.0887 100000.0000    141.8342
  1203.2500     11.8256    -25.4599 100000.0000    141.2688
  1203.5000     10.7328    -31.9116 100000.0000    140.0903
  1203.7500      9.4328    -39.5987 100000.0000    139.0931
  1204.0000      7.9540    -48.6367 100000.0000    137.1612
  1204.2500      6.4411    -59.0361 100000.0000    135.2402
  1204.5000      5.0617    -70.6359 100000.0000    130.2357
  1204.7500      3.9094    -83.0600 100000.0000    124.6130
  1205.0000      2.9865    -95.7220 100000.0000    111.6580
  1205.2500      2.2572   -107.8904 100000.0000    100.1870
  1205.5000      1.7000   -118.8063 100000.0000     81.1137
  1205.7500      1.3106   -127.8288 100000.0000     69.3051
  1206.0000      1.0740   -134.5687 100000.0000     55.8223
  1206.2500      0.9504   -138.9733 100000.0000     50.0476
  1206.5000      0.8906   -141.3416 100000.0000     45.1221
  1206.7500      0.8612   -142.2709 100000.0000     43.4598
  1207.0000      0.8505   -142.5514 100000.0000     42.4420
  1207.2500      0.8574   -143.0343 100000.0000     42.5447
  1207.5000      0.8778   -144.5011 100000.0000     43.9519
  1207.7500      0.9027   -147.5518 100000.0000     45.9838
  1208.0000      0.9229   -152.5222 100000.0000     51.5012
  1208.2500      0.9323   -159.4360 100000.0000     57.4262
  1208.5000      0.9293   -167.9957 100000.0000     70.1228
  1208.7500      0.9158   -177.6126 100000.0000     80.5174
  1209.0000      0.8967   -187.4753 100000.0000     96.3055
  1209.2500      0.8783   -196.6496 100000.0000    104.8967
  1209.5000      0.8660   -204.1969 100000.0000    111.6952
  1209.7500      0.8620   -209.2954 100000.0000    111.0837
  1210.0000      0.8639   -211.3457 100000.0000    102.7642
  1210.2500      0.8676   -210.0450 100000.0000     93.7929
