~Version Information
VERS.                      2.0: CWLS Log ASCII Standard - VERSION 2.0
WRAP.                       NO: One line per depth step
~Well Information Block
STRT.FT               970.0000: 
STOP.FT              1881.0000: 
STEP.FT                 0.1000: 
NULL.                -999.2500: 
COMP.          Petrogulf Corporation: COMPANY
WELL.             Norton 9-14R: WELL
FLD.           Purgatorie River: FIELD
LOC.           725' FSL & 1103' FWL: LOCATION
PROV.                 Colorado: PROVINCE
CNTY.               Las Animas: COUNTRY
SRVC.                Patterson: SERVICE COMPANY
DATE.          Fri Oct 07 07:52:23 2005: LOG DATE
UWI.                          : UNIQUE WELL ID
~Curve Information Block
DEPT.FT            0 000 00 00: Depth
DCAL.in                       : CDL Caliper
RHOB.g/cc                     : CDL Bulk Density
RHOC.g/cc                     : CDL Density Correction
DPOR.pu                       : CDL Density Porosity
GR.GAPI                       : Gamma Ray
NPOR.pu                       : Neutron Porosity
~Parameter Information Block
~A  Depth       DCAL        RHOB        RHOC        DPOR         GR         NPOR    
# ...
  1450.0000      7.9733      2.0921     -0.0110     33.8141    131.1260     27.3446
  1450.1000      7.9733      1.9865     -0.0388     40.2091    126.0436     26.9303
  1450.2000      7.9733      1.8835     -0.0954     46.4565    121.7827     27.2619
  1450.3000      7.9790      1.8339     -0.1196     49.4608    121.4831     28.3046
  1450.4000      7.9790      1.8620      0.0276     47.7604    121.5387     29.6341
  1450.5000      7.9961      1.9347      0.1124     43.3486    117.2526     30.7644
  1450.6000      7.9961      2.0184      0.1639     38.2814    110.9978     31.5208
  1450.7000      7.9961      2.1048      0.2338     33.0422    108.5221     32.0693
  1450.8000      8.1114      2.2017      0.2601     27.1710    111.9797     32.4421
  1450.9000      8.1114      2.3272      0.2552     19.5630    119.2770     32.4005
  1451.0000      8.1609      2.4715      0.2900     10.8180    125.4695     31.8238
  1451.1000      8.1609      2.5756      0.2660      4.5078    128.4073     31.0093
  1451.2000      8.1609      2.6042      0.1407      2.7783    130.3345     30.3170
  1451.3000      8.1572      2.5878      0.1270      3.7698    132.6125     29.7437
  1451.4000      8.1572      2.5737      0.0169      4.6216    134.1861     29.1291
  1451.5000      8.0134      2.5837      0.0826      4.0175    133.4271     28.4184
  1451.6000      8.0134      2.6065      0.1024      2.6351    130.5726     27.5674
  1451.7000      8.0134      2.6231      0.0770      1.6309    129.1322     26.7219
  1451.8000      7.9297      2.6316      0.0531      1.1179    129.9858     26.0435
  1451.9000      7.9297      2.6391      0.0729      0.6585    128.5041     25.3874
  1452.0000      7.9131      2.6462      0.0763      0.2329    124.1631     24.7281
  1452.1000      7.9131      2.6433      0.1002      0.4041    121.3032     24.1556
  1452.2000      7.9131      2.6203      0.0784      1.7981    119.6033     23.8032
  1452.3000      7.9096      2.5847      0.0080      3.9554    116.3252     23.9799
  1452.4000      7.9096      2.5515      0.0433      5.9668    114.3234     24.2440
  1452.5000      7.8754      2.5282      0.0270      7.3840    117.3318     23.8994
  1452.6000      7.8754      2.5191      0.0214      7.9345    122.7708     23.3577
  1452.7000      7.8754      2.5215     -0.0036      7.7881    126.3201     23.0386
  1452.8000      7.9077      2.5247      0.0307      7.5923    127.8941     22.7822
  1452.9000      7.9077      2.5258      0.0235      7.5245    129.3053     22.6060
  1453.0000      7.8759      2.5354      0.0634      6.9453    130.6262     22.5269
  1453.1000      7.8759      2.5596      0.0955      5.4811    131.8959     22.3931
  1453.2000      7.8759      2.5882      0.1584      3.7440    132.4065     22.2487
  1453.3000      7.8433      2.6032      0.1987      2.8339    131.0911     22.2770
  1453.4000      7.8433      2.5980      0.2091      3.1485    128.8577     22.4792
  1453.5000      7.8198      2.5828      0.1561      4.0731    125.1744     22.5038
  1453.6000      7.8198      2.5687      0.1072      4.9263    118.1124     22.1770
  1453.7000      7.8198      2.5596      0.1339      5.4802    111.9376     21.7961
  1453.8000      7.8527      2.5554      0.1077      5.7336    111.6713     21.5752
  1453.9000      7.8527      2.5569      0.1000      5.6430    113.2659     21.6870
  1454.0000      7.9274      2.5563      0.1009      5.6782    109.9885     22.1376
  1454.1000      7.9274      2.5384      0.1220      6.7645    102.2564     22.5107
  1454.2000      7.9274      2.5051      0.0588      8.7806     94.3746     22.3765
  1454.3000      7.9569      2.4758      0.0652     10.5599     89.4030     21.8113
  1454.4000      7.9569      2.4572      0.0252     11.6867     88.1126     21.3704
  1454.5000      7.9571      2.4455     -0.0104     12.3913     89.1901     21.2345
  1454.6000      7.9571      2.4368      0.0428     12.9205     91.0565     21.2598
  1454.7000      7.9571      2.4296     -0.0004     13.3600     93.4489     21.3910
  1454.8000      7.9596      2.4297      0.0261     13.3516     95.3217     21.5507
  1454.9000      7.9596      2.4321      0.0610     13.2048     92.7931     21.6593
  1455.0000      7.9591      2.4249      0.0358     13.6454     85.8737     21.7582
  1455.1000      7.9591      2.4130      0.0115     14.3653     80.8916     21.7909
  1455.2000      7.9591      2.4059      0.0334     14.7965     81.1162     21.4923
  1455.3000      7.9592      2.4031      0.0097     14.9663     84.4309     20.9934
  1455.4000      7.9592      2.4022      0.0188     15.0187     88.4331     20.7895
  1455.5000      7.9544      2.4005      0.0284     15.1214     91.4670     20.8943
  1455.6000      7.9544      2.3946      0.0203     15.4801     92.8934     20.7860
  1455.7000      7.9544      2.3866      0.0199     15.9664     92.8251     20.2229
  1455.8000      7.9623      2.3855      0.0353     16.0321     92.1761     19.7492
  1455.9000      7.9623      2.3941      0.0648     15.5080     90.4251     19.9299
  1456.0000      7.9593      2.4054      0.0699     14.8255     84.8710     20.5598
  1456.1000      7.9593      2.4191      0.0554     13.9924     77.2677     21.0141
  1456.2000      7.9593      2.4382      0.1000     12.8379     73.2025     20.8587
  1456.3000      7.9573      2.4576      0.0982     11.6624     73.5012     20.2829
  1456.4000      7.9573      2.4782      0.0992     10.4112     75.6318     19.9214
  1456.5000      7.9538      2.5018      0.1423      8.9826     78.0377     20.0793
  1456.6000      7.9538      2.5193      0.1412      7.9191     78.6925     20.5370
  1456.7000      7.9538      2.5275      0.1160      7.4264     77.4572     20.7232
  1456.8000      7.9515      2.5352      0.1070      6.9569     76.3966     20.5059
  1456.9000      7.9515      2.5501      0.0877      6.0572     75.7365     20.6303
  1457.0000      7.9532      2.5625      0.1132      5.3041     74.6339     21.3850
  1457.1000      7.9532      2.5560      0.0887      5.6958     74.1038     22.0398
  1457.2000      7.9532      2.5364      0.0511      6.8856     75.5472     22.2201
  1457.3000      7.9531      2.5201      0.0811      7.8751     76.1774     22.2908
  1457.4000      7.9531      2.5122      0.0110      8.3507     72.9323     22.5437
  1457.5000      7.9597      2.5127      0.0567      8.3203     69.8972     22.8602
  1457.6000      7.9597      2.5201      0.0440      7.8757     70.9136     23.0245
  1457.7000      7.9597      2.5304      0.0256      7.2455     73.2707     23.0098
  1457.8000      7.9738      2.5290      0.1116      7.3351     73.7333     22.9656
  1457.9000      7.9738      2.5037      0.0344      8.8666     73.0752     22.8427
  1458.0000      7.9902      2.4729      0.0193     10.7335     74.4312     22.4401
  1458.1000      7.9902      2.4568      0.0229     11.7095     77.2445     22.1312
  1458.2000      7.9902      2.4508      0.0404     12.0753     78.2751     22.3580
  1458.3000      7.9947      2.4477      0.0273     12.2597     77.7817     22.8008
  1458.4000      7.9947      2.4538      0.0132     11.8922     78.7896     23.0378
  1458.5000      7.9917      2.4685      0.0360     11.0027     81.9161     23.1593
  1458.6000      7.9917      2.4764      0.0555     10.5188     84.2656     23.1286
  1458.7000      7.9917      2.4700      0.0398     10.9062     83.3046     22.6175
  1458.8000      7.9952      2.4613      0.0085     11.4359     79.5673     21.7464
  1458.9000      7.9952      2.4605      0.0227     11.4824     76.6920     20.9865
  1459.0000      7.9883      2.4648     -0.0108     11.2233     76.3838     20.5586
  1459.1000      7.9883      2.4734      0.0265     10.7052     76.8300     20.5810
  1459.2000      7.9883      2.4872      0.0099      9.8695     77.2805     21.1168
  1459.3000      7.9924      2.4999      0.0512      9.0966     78.4285     21.9410
  1459.4000      7.9924      2.5060      0.0347      8.7299     79.7340     22.6922
  1459.5000      7.9936      2.5068      0.0486      8.6761     79.4604     23.1264
