~Version Information
VERS.                      2.0: CWLS Log ASCII Standard - VERSION 2.0
WRAP.                       NO: One line per depth step
~Well Information Block
STRT.FT               695.5000: 
STOP.FT              1499.5000: 
STEP.FT                 0.2500: 
NULL.                -999.2500: 
COMP.          Pioneer Natural Resources: COMPANY
WELL.          Pallet Ranch 34-25 Tr: WELL
FLD.           Purgatoire River: FIELD
LOC.           465' FSL & 2138' FEL: LOCATION
PROV.                 Colorado: PROVINCE
CNTY.               Las Animas: COUNTRY
SRVC.                Patterson: SERVICE COMPANY
DATE.          Wed Jan 18 18:58:46 2006: LOG DATE
UWI.           05 071 08657 00: UNIQUE WELL ID
~Curve Information Block
DEPT.FT            0 000 00 00: Depth
SN.Ohm-m                      : IEL Short Normal
SP.mV                         : IEL Spontaneous Potential
DIR.Ohm-m                     : IEL Induction Resistivity
GR.GAPI                       : Gamma Ray
~Parameter Information Block
~A  Depth        SN          SP         DIR          GR     
# ...
  1399.0000     13.3916     55.6351     10.0044    139.3761
  1399.2500     13.7322     55.6147     10.4182    133.7865
  1399.5000     13.8803     55.6474     10.8731    125.6381
  1399.7500     13.9712     55.7260     11.3430    121.7777
  1400.0000     14.1082     55.8330     11.8007    119.8328
  1400.2500     14.3435     55.9478     12.2240    120.7805
  1400.5000     14.6588     56.0530     12.5902    123.9285
  1400.7500     14.9738     56.1404     12.8664    126.3875
  1401.0000     15.2317     56.2129     13.0090    129.9098
  1401.2500     15.4391     56.2844     12.9811    131.8533
  1401.5000     15.5797     56.3760     12.7758    133.6479
  1401.7500     15.5850     56.5046     12.4263    133.9759
  1402.0000     15.3469     56.6697     11.9938    133.6608
  1402.2500     14.7635     56.8506     11.5423    133.5334
  1402.5000     13.9211     57.0205     11.1177    134.2968
  1402.7500     13.0510     57.1602     10.7409    135.4227
  1403.0000     12.2956     57.2586     10.4142    137.4566
  1403.2500     11.7183     57.3083     10.1325    138.8894
  1403.5000     11.3297     57.3089      9.8915    141.2818
  1403.7500     11.0505     57.2740      9.6896    142.8568
  1404.0000     10.8626     57.2284      9.5266    144.1806
  1404.2500     10.8668     57.1960      9.4037    144.0936
  1404.5000     11.0531     57.1905      9.3240    143.6594
  1404.7500     11.2437     57.2139      9.2918    144.1223
  1405.0000     11.3859     57.2610      9.3115    145.8006
  1405.2500     11.6449     57.3233      9.3874    146.2610
  1405.5000     12.1182     57.3900      9.5252    143.5698
  1405.7500     12.6622     57.4463      9.7340    139.1186
  1406.0000     13.1095     57.4758     10.0258    129.6158
  1406.2500     13.5555     57.4696     10.4136    122.4963
  1406.5000     14.2162     57.4311     10.9067    112.1682
  1406.7500     15.1176     57.3736     11.5059    106.0443
  1407.0000     16.1625     57.3106     12.1992     98.4645
  1407.2500     17.3040     57.2469     12.9637     94.5831
  1407.5000     18.4746     57.1796     13.7720     90.4848
  1407.7500     19.5201     57.1095     14.5985     88.7870
  1408.0000     20.3132     57.0516     15.4174     87.6671
  1408.2500     20.8749     57.0304     16.1907     87.9918
  1408.5000     21.3460     57.0633     16.8588     90.4427
  1408.7500     21.8299     57.1468     17.3476     93.2918
  1409.0000     22.2411     57.2565     17.5927     98.2735
  1409.2500     22.3454     57.3593     17.5641    101.1680
  1409.5000     21.9755     57.4295     17.2735    104.1251
  1409.7500     21.2070     57.4604     16.7662    105.6757
  1410.0000     20.2745     57.4660     16.1080    109.4097
  1410.2500     19.2461     57.4749     15.3743    113.8438
  1410.5000     18.0303     57.5176     14.6385    123.5471
  1410.7500     16.7373     57.6132     13.9568    131.2733
  1411.0000     15.6274     57.7612     13.3577    142.7576
  1411.2500     14.7523     57.9434     12.8397    149.0637
  1411.5000     13.9633     58.1330     12.3778    154.5333
  1411.7500     13.1492     58.3044     11.9383    155.0472
  1412.0000     12.3393     58.4409     11.4939    152.2947
  1412.2500     11.6787     58.5382     11.0335    149.7635
  1412.5000     11.2767     58.6045     10.5626    147.7751
  1412.7500     11.1122     58.6555     10.0962    148.4916
  1413.0000     11.0609     58.7057      9.6506    152.3329
  1413.2500     10.9327     58.7603      9.2381    155.8641
  1413.5000     10.6454     58.8136      8.8660    160.6236
  1413.7500     10.3472     58.8550      8.5384    162.5490
  1414.0000     10.1640     58.8781      8.2593    163.5288
  1414.2500     10.0192     58.8833      8.0329    163.6232
  1414.5000      9.8237     58.8736      7.8619    163.9390
  1414.7500      9.5961     58.8484      7.7441    164.2637
  1415.0000      9.3766     58.8022      7.6709    164.4617
  1415.2500      9.1733     58.7279      7.6295    164.3527
  1415.5000      9.0085     58.6192      7.6073    164.2413
  1415.7500      8.9412     58.4746      7.5941    164.4707
  1416.0000      8.9884     58.3020      7.5833    165.3103
  1416.2500      9.0840     58.1215      7.5716    165.8443
  1416.5000      9.1316     57.9610      7.5577    165.4106
  1416.7500      9.0675     57.8454      7.5428    163.6535
  1417.0000      8.9475     57.7859      7.5299    159.0610
  1417.2500      8.9099     57.7778      7.5226    155.8256
  1417.5000      8.9909     57.8074      7.5239    152.8608
  1417.7500      9.1498     57.8598      7.5361    152.5410
  1418.0000      9.3869     57.9227      7.5605    153.6447
  1418.2500      9.6604     57.9870      7.5980    154.6027
  1418.5000      9.8665     58.0484      7.6483    155.2517
  1418.7500      9.9629     58.1110      7.7079    154.8698
  1419.0000      9.9761     58.1876      7.7698    153.5069
  1419.2500      9.9403     58.2910      7.8242    152.7877
  1419.5000      9.8431     58.4257      7.8611    153.0434
  1419.7500      9.6128     58.5855      7.8726    154.1127
  1420.0000      9.2860     58.7596      7.8563    156.2331
  1420.2500      9.0856     58.9343      7.8166    157.5399
  1420.5000      9.1563     59.0907      7.7647    159.1094
  1420.7500      9.3745     59.2040      7.7158    159.8498
  1421.0000      9.5281     59.2540      7.6856    160.1109
  1421.2500      9.5778     59.2385      7.6885    159.4806
  1421.5000      9.6068     59.1761      7.7353    157.6131
  1421.7500      9.6447     59.0930      7.8332    156.3336
  1422.0000      9.6856     59.0053      7.9828    155.1493
  1422.2500      9.7386     58.9150      8.1760    154.7207
  1422.5000      9.8115     58.8226      8.3967    153.3251
  1422.7500      9.9092     58.7369      8.6247    150.8571
  1423.0000     10.0352     58.6707      8.8429    143.6297
  1423.2500     10.1661     58.6293      9.0419    136.6929
  1423.5000     10.3033     58.6069      9.2201    125.3884
  1423.7500     10.5765     58.5922      9.3793    118.9692
  1424.0000     11.1272     58.5739      9.5218    112.8759
  1424.2500     11.8955     58.5425      9.6498    111.3965
  1424.5000     12.6341     58.4905      9.7668    112.7635
  1424.7500     13.0668     58.4161      9.8800    115.7687
  1425.0000     13.1115     58.3269      9.9994    122.4705
  1425.2500     12.9822     58.2418     10.1354    127.6956
  1425.5000     12.8953     58.1859     10.2968    136.1134
  1425.7500     12.8243     58.1810     10.4901    142.2442
  1426.0000     12.6657     58.2367     10.7187    151.8010
  1426.2500     12.3937     58.3446     10.9805    157.1458
  1426.5000     12.0772     58.4796     11.2640    160.8421
  1426.7500     11.9081     58.6097     11.5465    159.6977
  1427.0000     12.0691     58.7089     11.7977    153.5421
  1427.2500     12.5210     58.7667     11.9882    147.5426
  1427.5000     13.1048     58.7910     12.0973    136.6781
  1427.7500     13.8379     58.8060     12.1193    128.1919
  1428.0000     14.8740     58.8446     12.0639    113.8236
  1428.2500     16.2047     58.9359     11.9525    103.9399
  1428.5000     17.5760     59.0918     11.8119     90.8672
  1428.7500     18.6690     59.3022     11.6671     84.6529
  1429.0000     19.2736     59.5393     11.5346     80.9998
  1429.2500     19.2813     59.7679     11.4160     83.1574
  1429.5000     18.6486     59.9591     11.2971     93.6365
  1429.7500     17.5459     60.1015     11.1521    104.5978
  1430.0000     16.3510     60.2039     10.9534    123.5765
  1430.2500     15.2518     60.2862     10.6823    135.4794
  1430.5000     14.1105     60.3670     10.3371    149.2571
  1430.7500     12.8675     60.4542      9.9343    155.2866
  1431.0000     11.7861     60.5449      9.5026    160.6543
  1431.2500     11.1700     60.6302      9.0739    162.8837
  1431.5000     10.9801     60.7018      8.6748    165.9042
  1431.7500     10.8425     60.7549      8.3245    168.1402
  1432.0000     10.4538     60.7871      8.0348    171.4442
  1432.2500      9.8609     60.7963      7.8122    173.0162
