~Version Information
VERS.                      2.0: CWLS Log ASCII Standard - VERSION 2.0
WRAP.                       NO: One line per depth step
~Well Information Block
STRT.FT               615.0000: 
STOP.FT              1607.0000: 
STEP.FT                 0.1000: 
NULL.                -999.2500: 
COMP.          Pioneer Natural Resources: COMPANY
WELL.          Galloway 32-13 Tr: WELL
FLD.           Purgatoire River: FIELD
LOC.           1910' FNL & 2002' FEL: LOCATION
PROV.                 Colorado: PROVINCE
CNTY.               Las Animas: COUNTRY
SRVC.                Patterson: SERVICE COMPANY
DATE.          Mon Nov 14 07:13:22 2005: LOG DATE
UWI.           05 071 08608 00: UNIQUE WELL ID
~Curve Information Block
DEPT.FT            0 000 00 00: Depth
DCAL.in                       : CDL Caliper
RHOB.g/cc                     : CDL Bulk Density
RHOC.g/cc                     : CDL Density Correction
DPOR.pu                       : CDL Density Porosity
GR.GAPI                       : Gamma Ray
NPOR.pu                       : Neutron Porosity
~Parameter Information Block
~A  Depth       DCAL        RHOB        RHOC        DPOR         GR         NPOR    
# ...
  1459.8000      7.8408      2.6422      0.1244      0.4712     73.1932     22.0557
  1459.9000      7.8408      2.6248      0.1300      1.5269     87.9972     22.6674
  1460.0000      7.8612      2.5923      0.0718      3.4946     95.5415     23.1895
  1460.1000      7.8612      2.5641      0.0113      5.2048     99.3921     23.4257
  1460.2000      7.8612      2.5580      0.0596      5.5736    106.9560     23.4854
  1460.3000      7.8726      2.5640      0.0382      5.2149    117.2050     23.4604
  1460.4000      7.8726      2.5624      0.0334      5.3114    125.7337     23.8550
  1460.5000      7.8705      2.5519      0.0385      5.9443    130.8041     25.0564
  1460.6000      7.8705      2.5523     -0.0032      5.9218    137.7521     26.7847
  1460.7000      7.8705      2.5708      0.0943      4.8020    150.9302     28.0014
  1460.8000      7.8732      2.5829      0.1345      4.0641    160.7996     28.0004
  1460.9000      7.8732      2.5702      0.1398      4.8359    160.6992     27.7670
  1461.0000      7.9012      2.5419      0.0794      6.5496    158.9815     28.1555
  1461.1000      7.9012      2.5212      0.0834      7.8075    162.4250     28.6789
  1461.2000      7.9012      2.5213      0.1087      7.8001    170.4257     28.8160
  1461.3000      7.9390      2.5301      0.1282      7.2654    180.5533     28.7133
  1461.4000      7.9390      2.5264      0.1453      7.4891    187.4311     28.5863
  1461.5000      7.9489      2.5142      0.0556      8.2295    186.9611     28.5901
  1461.6000      7.9489      2.5171      0.0612      8.0568    181.4300     28.7201
  1461.7000      7.9489      2.5405      0.1292      6.6359    176.3373     28.4529
  1461.8000      7.9743      2.5693      0.1216      4.8880    174.8454     27.8219
  1461.9000      7.9743      2.5923      0.1491      3.4980    175.2866     27.4747
  1462.0000      8.0008      2.6051      0.1740      2.7218    173.3727     27.3041
  1462.1000      8.0008      2.6068      0.1256      2.6211    167.9550     27.2087
  1462.2000      8.0008      2.6078      0.1285      2.5559    162.3342     27.5044
  1462.3000      7.9620      2.6084      0.1841      2.5231    159.3108     27.5714
  1462.4000      7.9620      2.5916      0.1221      3.5388    160.6692     27.1340
  1462.5000      8.0016      2.5635      0.0387      5.2413    166.5719     27.0879
  1462.6000      8.0016      2.5500      0.0800      6.0578    173.1864     27.6102
  1462.7000      8.0016      2.5577      0.0764      5.5968    177.1269     27.9219
  1462.8000      7.9388      2.5669      0.1170      5.0339    177.4856     27.7074
  1462.9000      7.9388      2.5603      0.0773      5.4372    175.2233     27.5671
  1463.0000      7.9496      2.5402      0.0776      6.6565    175.0211     27.8683
  1463.1000      7.9496      2.5126      0.1179      8.3253    179.6052     28.2647
  1463.2000      7.9496      2.4870      0.0835      9.8784    188.2330     28.7554
  1463.3000      7.9592      2.4810      0.0421     10.2436    192.0900     29.4038
  1463.4000      7.9592      2.4864      0.1255      9.9122    182.9445     29.7562
  1463.5000      7.9220      2.4799      0.0513     10.3065    171.3696     29.5984
  1463.6000      7.9220      2.4771     -0.0106     10.4811    166.9842     29.0821
  1463.7000      7.9220      2.4976      0.0705      9.2357    166.5023     28.4595
  1463.8000      7.9021      2.5249      0.0959      7.5792    168.1609     28.2272
  1463.9000      7.9021      2.5475      0.0461      6.2139    171.7796     28.3077
  1464.0000      7.9387      2.5710      0.1107      4.7881    174.4928     28.3165
  1464.1000      7.9387      2.5908      0.1532      3.5873    175.4423     28.3578
  1464.2000      7.9387      2.6031      0.1032      2.8400    175.2039     28.5501
  1464.3000      7.9828      2.6166      0.1084      2.0235    173.2797     28.7856
  1464.4000      7.9828      2.6320      0.1108      1.0907    170.3710     28.9810
  1464.5000      7.9578      2.6424      0.1258      0.4583    166.7027     29.0051
  1464.6000      7.9578      2.6420      0.1412      0.4838    163.0248     28.2299
  1464.7000      7.9578      2.6275      0.1062      1.3653    162.2598     26.7823
  1464.8000      7.9569      2.6099      0.0538      2.4328    161.1132     25.6896
  1464.9000      7.9569      2.6002      0.0715      3.0186    155.3877     25.2641
  1465.0000      7.9834      2.5882      0.0606      3.7437    150.7988     25.1361
  1465.1000      7.9834      2.5705      0.0380      4.8155    150.4550     25.1760
  1465.2000      7.9834      2.5648     -0.0155      5.1621    151.6581     25.7620
  1465.3000      7.9909      2.5760     -0.0046      4.4864    154.8103     26.8899
  1465.4000      7.9909      2.5921      0.0319      3.5114    159.7578     27.3332
  1465.5000      7.9083      2.6077      0.0987      2.5645    164.5132     26.6716
  1465.6000      7.9083      2.6205      0.1047      1.7855    168.8260     26.2083
  1465.7000      7.9083      2.6310      0.0800      1.1496    172.1953     26.4670
  1465.8000      7.9264      2.6426      0.1189      0.4460    170.5909     27.0197
  1465.9000      7.9264      2.6441      0.1979      0.3605    164.4213     27.2638
  1466.0000      7.9462      2.6261      0.1042      1.4475    158.3001     26.7924
  1466.1000      7.9462      2.6085      0.0606      2.5168    152.5272     26.0953
  1466.2000      7.9462      2.6096      0.0973      2.4509    148.6194     26.2024
  1466.3000      7.9576      2.6187      0.0961      1.8992    148.8569     27.0680
  1466.4000      7.9576      2.6174      0.0457      1.9788    149.7630     27.3240
  1466.5000      7.9528      2.6041      0.0414      2.7806    148.1916     26.5682
  1466.6000      7.9528      2.5900      0.0669      3.6372    145.3888     25.9457
  1466.7000      7.9528      2.5890      0.0367      3.6960    141.2202     26.1407
  1466.8000      7.9157      2.6042      0.0695      2.7782    136.7686     26.5182
  1466.9000      7.9157      2.6156      0.0978      2.0850    138.3148     26.0519
  1467.0000      7.9223      2.6096      0.0245      2.4458    143.5133     24.8567
  1467.1000      7.9223      2.5972      0.0422      3.1980    144.1893     24.0603
  1467.2000      7.9223      2.5887      0.0320      3.7164    139.9867     24.2666
  1467.3000      7.9216      2.5858      0.0530      3.8896    134.1729     25.2142
  1467.4000      7.9216      2.5856      0.0444      3.9017    131.9244     26.3670
  1467.5000      7.9041      2.5859      0.0210      3.8822    135.4765     27.0734
  1467.6000      7.9041      2.5923      0.0445      3.4995    140.1721     26.7102
  1467.7000      7.9041      2.6062      0.0527      2.6534    139.5756     25.4642
  1467.8000      7.8680      2.6197      0.0901      1.8387    131.3462     24.0310
  1467.9000      7.8680      2.6315      0.0596      1.1230    120.8727     22.6720
  1468.0000      7.8548      2.6476      0.0984      0.1455    115.6827     21.7575
  1468.1000      7.8548      2.6582      0.1002     -0.4975    117.0141     21.8031
  1468.2000      7.8548      2.6568      0.1228     -0.4100    122.2434     22.6911
  1468.3000      7.8213      2.6560      0.1174     -0.3663    125.0282     23.4702
  1468.4000      7.8213      2.6619      0.1070     -0.7183    119.6010     23.1719
  1468.5000      7.8154      2.6647      0.0782     -0.8937    108.7325     22.2079
  1468.6000      7.8154      2.6635      0.0190     -0.8155     99.8179     21.6707
  1468.7000      7.8154      2.6661      0.0501     -0.9781     96.1609     21.7197
  1468.8000      7.8557      2.6651      0.0519     -0.9160     97.6541     21.9476
  1468.9000      7.8557      2.6497      0.0457      0.0154    105.1237     21.9562
  1469.0000      7.8584      2.6282      0.0527      1.3234    115.2982     21.7403
  1469.1000      7.8584      2.6152      0.0287      2.1075    122.0850     21.5715
  1469.2000      7.8584      2.6153      0.0663      2.1017    123.4660     21.0642
  1469.3000      7.8476      2.6189      0.0384      1.8821    118.6113     19.8686
