~Version Information
VERS.                      2.0: CWLS Log ASCII Standard - VERSION 2.0
WRAP.                       NO: One line per depth step
~Well Information Block
STRT.FT               840.0000: 
STOP.FT              1913.5000: 
STEP.FT                 0.2500: 
NULL.                -999.2500: 
COMP.          Petrogulf Corporation: COMPANY
WELL.             Kraft 17-23R: WELL
FLD.           Purgatorie River: FIELD
LOC.           1509' FSL & 1673' FWL: LOCATION
PROV.                 Colorado: PROVINCE
CNTY.               Las Animas: COUNTRY
SRVC.                Patterson: SERVICE COMPANY
DATE.          Tue Oct 11 13:03:25 2005: LOG DATE
UWI.                          : UNIQUE WELL ID
~Curve Information Block
DEPT.FT            0 000 00 00: Depth
SP.mV                         : DIL Spontaneous Potential
RILD.Ohm-m                    : DIL Deep Resistivity
RILM.Ohm-m                    : DIL Medium Resistivity
RLL3.Ohm-m                    : DIL Shallow Resistivity
GR.GAPI                       : Gamma Ray
~Parameter Information Block
~A  Depth        SP         RILD        RILM        RLL3         GR     
# ...
  1596.0000    246.3844      6.0828      5.7388      7.0091    156.0936
  1596.2500    246.7265      6.0945      5.6689      6.8739    156.9687
  1596.5000    246.9574      6.1473      5.6354      6.7688    159.9027
  1596.7500    247.0550      6.2370      5.6428      6.6819    161.8312
  1597.0000    247.0165      6.3593      5.6962      6.6314    162.4217
  1597.2500    246.8550      6.5096      5.8014      6.7064    160.6732
  1597.5000    246.5893      6.6828      5.9646      7.0759    155.6361
  1597.7500    246.2339      6.8743      6.1917      7.9213    151.6888
  1598.0000    245.7956      7.0818      6.4879      9.2987    146.0878
  1598.2500    245.2780      7.3058      6.8564     11.0313    142.5921
  1598.5000    244.6908      7.5496      7.2974     12.7645    137.1002
  1598.7500    244.0568      7.8178      7.8069     14.1922    133.0475
  1599.0000    243.4135      8.1140      8.3756     15.2657    126.4898
  1599.2500    242.8072      8.4398      8.9884     16.1946    121.8569
  1599.5000    242.2814      8.7942      9.6233     17.2544    114.4757
  1599.7500    241.8641      9.1726     10.2517     18.5610    109.5347
  1600.0000    241.5592      9.5653     10.8388     19.9335    103.1461
  1600.2500    241.3480      9.9564     11.3465     20.9257    100.0145
  1600.5000    241.1950     10.3250     11.7393     21.0581     96.8781
  1600.7500    241.0557     10.6508     11.9926     20.1229     95.6064
  1601.0000    240.8827     10.9208     12.1007     18.3147     95.1095
  1601.2500    240.6341     11.1332     12.0799     16.0896     96.0396
  1601.5000    240.2800     11.2954     11.9651     13.9221     99.5440
  1601.7500    239.8043     11.4184     11.8009     12.1468    103.0886
  1602.0000    239.2017     11.5136     11.6316     10.9153    109.4058
  1602.2500    238.4760     11.5917     11.4951     10.2173    113.5532
  1602.5000    237.6440     11.6650     11.4187      9.9458    118.3050
  1602.7500    236.7397     11.7485     11.4203      9.9777    119.9794
  1603.0000    235.8097     11.8584     11.5097     10.2284    120.1710
  1603.2500    234.9022     12.0102     11.6912     10.6622    119.0267
  1603.5000    234.0583     12.2151     11.9661     11.2527    116.0714
  1603.7500    233.3104     12.4778     12.3343     11.9136    113.7549
  1604.0000    232.6854     12.7937     12.7945     12.4897    110.6567
  1604.2500    232.2043     13.1447     13.3420     12.8605    109.1699
  1604.5000    231.8779     13.4954     13.9632     13.0409    107.6363
  1604.7500    231.7045     13.7910     14.6254     13.1262    106.6602
  1605.0000    231.6714     13.9628     15.2652     13.1362    104.6219
  1605.2500    231.7580     13.9474     15.7817     12.9645    102.7398
  1605.5000    231.9367     13.7128     16.0463     12.5040     99.2034
  1605.7500    232.1764     13.2772     15.9422     11.7804     96.5017
  1606.0000    232.4492     12.7009     15.4200     10.9357     92.4884
  1606.2500    232.7366     12.0602     14.5340     10.1049     90.4637
  1606.5000    233.0294     11.4198     13.4216      9.3389     89.6804
  1606.7500    233.3177     10.8209     12.2425      8.6305     91.0860
  1607.0000    233.5848     10.2820     11.1245      7.9765     95.6757
  1607.2500    233.8085      9.8060     10.1420      7.4012     99.5421
  1607.5000    233.9692      9.3872      9.3230      6.9382    104.7793
  1607.7500    234.0571      9.0160      8.6658      6.6137    107.2054
  1608.0000    234.0755      8.6823      8.1530      6.4474    109.3426
  1608.2500    234.0441      8.3785      7.7619      6.4536    110.4402
  1608.5000    233.9957      8.1018      7.4694      6.6251    112.6569
  1608.7500    233.9660      7.8554      7.2553      6.9133    114.4737
  1609.0000    233.9797      7.6475      7.1034      7.2296    116.5320
  1609.2500    234.0437      7.4889      7.0025      7.4789    116.7898
  1609.5000    234.1486      7.3892      6.9464      7.6025    115.6259
  1609.7500    234.2715      7.3554      6.9336      7.6019    114.5904
  1610.0000    234.3761      7.3903      6.9662      7.5342    114.0462
  1610.2500    234.4155      7.4933      7.0489      7.4978    114.8359
  1610.5000    234.3426      7.6604      7.1876      7.6233    118.1438
  1610.7500    234.1195      7.8860      7.3886      8.0650    121.5840
  1611.0000    233.7189      8.1638      7.6578      8.9797    126.6525
  1611.2500    233.1180      8.4884      8.0001     10.4734    128.0238
  1611.5000    232.2962      8.8576      8.4194     12.5179    124.5522
  1611.7500    231.2395      9.2739      8.9185     14.8933    118.7263
  1612.0000    229.9500      9.7449      9.4999     17.2448    107.6713
  1612.2500    228.4508     10.2800     10.1662     19.2752    100.8314
  1612.5000    226.7846     10.8863     10.9205     20.9414     93.3454
  1612.7500    225.0071     11.5648     11.7670     22.4698     90.1942
  1613.0000    223.1817     12.3073     12.7088     24.1624     87.3415
  1613.2500    221.3780     13.0962     13.7461     26.1718     86.3029
  1613.5000    219.6686     13.9027     14.8708     28.4410     85.6284
  1613.7500    218.1214     14.6859     16.0611     30.8204     85.4105
  1614.0000    216.7881     15.3956     17.2748     33.2063     84.6304
  1614.2500    215.6954     15.9800     18.4448     35.5640     83.4948
  1614.5000    214.8428     16.3977     19.4795     37.8475     80.9110
  1614.7500    214.2077     16.6264     20.2737     39.9123     78.9252
  1615.0000    213.7563     16.6689     20.7316     41.4574     76.2894
  1615.2500    213.4562     16.5526     20.7979     41.9980     75.1696
  1615.5000    213.2827     16.3246     20.4821     40.9471     74.8141
  1615.7500    213.2157     16.0401     19.8609     37.8940     75.3167
  1616.0000    213.2285     15.7503     19.0556     32.9687     76.7102
  1616.2500    213.2782     15.4937     18.1971     26.9993     78.2274
  1616.5000    213.3054     15.2917     17.3978     21.2595     82.6245
  1616.7500    213.2471     15.1498     16.7373     16.9347     87.5371
  1617.0000    213.0590     15.0622     16.2626     14.6653     97.1907
  1617.2500    212.7343     15.0188     15.9951     14.4414    103.7785
  1617.5000    212.3071     15.0105     15.9378     15.8207    111.1829
  1617.7500    211.8343     15.0320     16.0817     18.2391    113.5023
  1618.0000    211.3707     15.0833     16.4104     21.2429    113.0619
  1618.2500    210.9514     15.1717     16.9028     24.6129    110.7784
  1618.5000    210.5906     15.3136     17.5359     28.3505    105.4419
  1618.7500    210.2908     15.5329     18.2885     32.4684    101.1356
  1619.0000    210.0554     15.8554     19.1433     36.6963     94.7964
  1619.2500    209.8957     16.3014     20.0892     40.4250     91.4130
  1619.5000    209.8289     16.8814     21.1211     43.0482     87.6637
  1619.7500    209.8682     17.5965     22.2378     44.3898     85.1526
  1620.0000    210.0115     18.4418     23.4390     44.7455     79.7871
  1620.2500    210.2391     19.4081     24.7223     44.4867     75.1454
  1620.5000    210.5193     20.4800     26.0825     43.6911     68.1785
  1620.7500    210.8148     21.6306     27.5128     42.2295     64.6252
  1621.0000    211.0824     22.8187     29.0074     40.2001     61.9441
  1621.2500    211.2717     23.9929     30.5649     38.2251     61.9440
  1621.5000    211.3318     25.1025     32.1877     37.2990     63.9246
  1621.7500    211.2271     26.1128     33.8793     38.2805     65.7847
  1622.0000    210.9570     27.0162     35.6386     41.3622     67.7407
  1622.2500    210.5690     27.8340     37.4542     45.8736     67.8258
  1622.5000    210.1577     28.6064     39.3033     50.6070     66.3062
  1622.7500    209.8462     29.3745     41.1564     54.4277     65.0086
  1623.0000    209.7503     30.1609     42.9860     56.7039     64.0265
  1623.2500    209.9445     30.9518     44.7725     57.4645     64.1407
  1623.5000    210.4481     31.6820     46.4948     57.5349     64.5560
  1623.7500    211.2398     32.2261     48.0988     58.5397     64.4480
