~Version Information
VERS.                      2.0: CWLS Log ASCII Standard - VERSION 2.0
WRAP.                       NO: One line per depth step
~Well Information Block
STRT.FT                -7.0000: 
STOP.FT              2328.5000: 
STEP.FT                 0.2500: 
NULL.                -999.2500: 
COMP.          Pioneer Natural Resources: COMPANY
WELL.              Rolls 14-14: WELL
FLD.           Purgatorie River: FIELD
LOC.           572' FSL & 856' FWL--: LOCATION
PROV.                       CO: PROVINCE
CNTY.               Las Animas: COUNTRY
SRVC.          Patterson Wireline: SERVICE COMPANY
DATE.          Mon Aug 08 10:10:54 2005: LOG DATE
UWI.           05 071 08455 00: UNIQUE WELL ID
~Curve Information Block
DEPT.FT            0 000 00 00: Depth
CCL.                          : Casing Collar Locator
TT3.usec                      : CBL 3' Travel Time
AMP3.mV                       : CBL 3' Amplitude
GR.GAPI                       : Gamma Ray
~Parameter Information Block
~A  Depth       CCL         TT3         AMP3         GR     
# ...
   596.0000      0.0000    880.9818      4.4409     81.6750
   596.2500      0.0000    852.2783      4.7437     82.4045
   596.5000      0.0000    823.8231      5.1192     85.1353
   596.7500      0.0000    802.3338      5.5075     90.4550
   597.0000      0.0000    789.1656      5.8424     97.3456
   597.2500      0.0000    784.4850      6.0878    103.6084
   597.5000      0.0000    789.2762      6.2328    106.9207
   597.7500      0.0000    802.1781      6.2801    105.7711
   598.0000      0.0000    818.5115      6.2503    100.2423
   598.2500      0.0000    833.4031      6.1793     92.3459
   598.5000      0.0000    843.9828      6.1007     85.1953
   598.7500      0.0000    849.2476      6.0300     81.1318
   599.0000      0.0000    849.8520      5.9666     80.3021
   599.2500      0.0000    847.5942      5.9072     81.0339
   599.5000      0.0000    843.6955      5.8549     81.5897
   599.7500      0.0000    837.7981      5.8143     81.5256
   600.0000      0.0000    829.3032      5.7844     81.7229
   600.2500      0.0000    819.4144      5.7563     83.5049
   600.5000      0.0000    811.5076      5.7197     87.5020
   600.7500      0.0000    809.3292      5.6710     92.9643
   601.0000      0.0000    813.9916      5.6122     98.1260
   601.2500      0.0000    822.0891      5.5468    101.2177
   601.5000      0.0000    827.4951      5.4802    101.2337
   601.7500      0.0000    826.1407      5.4243     98.2524
   602.0000      0.0000    819.2345      5.3928     93.4365
   602.2500      0.0000    811.8829      5.3879     88.5025
   602.5000      0.0000    809.0386      5.3919     84.8240
   602.7500      0.0000    812.4109      5.3758     82.9575
   603.0000      0.0000    819.8292      5.3184     82.8329
   603.2500      0.0000    826.6478      5.2198     84.0746
   603.5000      0.0000    828.1121      5.0993     86.0979
   603.7500      0.0000    821.4086      4.9819     88.1854
   604.0000      0.0000    806.8573      4.8848     89.7020
   604.2500      0.0000    788.1282      4.8119     90.2354
   604.5000      0.0000    770.5623      4.7598     89.6524
   604.7500      0.0000    758.0090      4.7253     88.2857
   605.0000      0.0000    750.9085      4.7059     86.8758
   605.2500      0.0000    747.0660      4.6920     85.7493
   605.5000      0.0000    743.4436      4.6667     84.1145
   605.7500      0.0000    737.3945      4.6159     80.8488
   606.0000      0.0000    727.8745      4.5393     76.2409
   606.2500      0.0000    716.9565      4.4523     72.4912
   606.5000      0.0000    709.3847      4.3750     72.0266
   606.7500      0.0000    708.9588      4.3190     75.2767
   607.0000      0.0000    715.5452      4.2875     80.1724
   607.2500      0.0000    726.8001      4.2852     83.8083
   607.5000      0.0000    741.3794      4.3231     84.5755
   607.7500      0.0000    758.1307      4.4074     82.7915
   608.0000      0.0000    773.8093      4.5249     79.6151
   608.2500      0.0000    785.0081      4.6437     75.7900
   608.5000      0.0000    792.2159      4.7343     71.5145
   608.7500      0.0000    799.5384      4.7926     67.2113
   609.0000      0.0000    809.7946      4.8420     64.1728
   609.2500      0.0000    820.7182      4.9114     64.2199
   609.5000      0.0000    826.3466      5.0071     68.3184
   609.7500      0.0000    822.6153      5.1073     75.3263
   610.0000      0.0000    811.7642      5.1852     82.3979
   610.2500      0.0000    800.0679      5.2374     87.0000
   610.5000      0.0000    791.1146      5.2890     88.6873
   610.7500      0.0000    783.2670      5.3701     88.9365
   611.0000      0.0000    773.8307      5.4858     89.4336
   611.2500      0.0000    763.3585      5.6108     90.6362
   611.5000      0.0000    754.9590      5.7116     91.8843
   611.7500      0.0000    751.0521      5.7676     92.5316
   612.0000      0.0000    751.9662      5.7714     92.5731
   612.2500      0.0000    757.1570      5.7189     92.1797
   612.5000      0.0000    766.6770      5.6077     91.1237
   612.7500      0.0000    780.6985      5.4459     88.8730
   613.0000      0.0000    797.8528      5.2595     85.1005
   613.2500      0.0000    815.1949      5.0941     80.1187
   613.5000      0.0000    829.4618      5.0051     74.9475
   613.7500      0.0000    836.6317      5.0341     70.6721
   614.0000      0.0000    831.0081      5.1811     67.3495
   614.2500      0.0000    808.6512      5.3975     63.8566
   614.5000      0.0000    773.6708      5.6128     59.2695
   614.7500      0.0000    739.0099      5.7704     54.2608
   615.0000      0.0000    718.1835      5.8476     50.7455
   615.2500      0.0000    715.3018      5.8567     50.1299
   615.5000      0.0000    723.4642      5.8356     52.1302
   615.7500      0.0000    732.3141      5.8301     55.3193
   616.0000      0.0000    735.5409      5.8796     58.4418
   616.2500      0.0000    731.3401      6.0106     60.9275
   616.5000      0.0000    718.7959      6.2306     62.6312
   616.7500      0.0000    697.0348      6.5169     63.6812
   617.0000      0.0000    668.1816      6.8168     64.3893
   617.2500      0.0000    638.8500      7.0685     64.8389
   617.5000      0.0000    616.8098      7.2293     64.7187
   617.7500      0.0000    607.0567      7.2874     63.9268
   618.0000      0.0000    611.7233      7.2564     63.2556
   618.2500      0.0000    630.5911      7.1646     64.0821
   618.5000      0.0000    658.7067      7.0469     67.1792
   618.7500      0.0000    685.9727      6.9388     72.0811
   619.0000      0.0000    702.4991      6.8660     77.5234
   619.2500      0.0000    704.7090      6.8305     82.0637
   619.5000      0.0000    696.7513      6.8074     84.5316
   619.7500      0.0000    687.6617      6.7636     84.6869
   620.0000      0.0000    686.2709      6.6798     83.5392
   620.2500      0.0000    696.0067      6.5569     82.6154
   620.5000      0.0000    713.4464      6.4116     82.8437
   620.7500      0.0000    731.8358      6.2687     84.0394
   621.0000      0.0000    745.2373      6.1503     85.1879
   621.2500      0.0000    749.9135      6.0681     85.2418
   621.5000      0.0000    744.0210      6.0253     83.8445
   621.7500      0.0000    727.1992      6.0217     81.4060
   622.0000      0.0000    700.9003      6.0483     78.6461
   622.2500      0.0000    670.6179      6.0776     75.9563
   622.5000      0.0000    647.6151      6.0650     72.9751
   622.7500      0.0000    644.4000      5.9725     68.9316
   623.0000      0.0000    664.4194      5.7986     63.5951
   623.2500      0.0000    696.4433      5.5851     57.8067
   623.5000      0.0000    721.5867      5.3904     53.0943
   623.7500      0.0000    727.7982      5.2518     50.8482
   624.0000      0.0000    718.8998      5.1678     51.6151
   624.2500      0.0000    710.3348      5.1105     54.8603
   624.5000      0.0000    714.5734      5.0508     59.4072
   624.7500      0.0000    729.6024      4.9754     64.0836
   625.0000      0.0000    743.3240      4.8866     67.8613
   625.2500      0.0000    748.8981      4.7930     69.7656
   625.5000      0.0000    751.5148      4.7012     69.2458
   625.7500      0.0000    758.6988      4.6141     66.6444
   626.0000      0.0000    769.0051      4.5353     63.0534
   626.2500      0.0000    774.5623      4.4725     59.7065
   626.5000      0.0000    772.4186      4.4321     57.4237
   626.7500      0.0000    768.3695      4.4087     56.3437
   627.0000      0.0000    768.8521      4.3884     56.1283
   627.2500      0.0000    772.8912      4.3650     56.4879
   627.5000      0.0000    774.2695      4.3460     57.3947
   627.7500      0.0000    769.1288      4.3408     58.7158
   628.0000      0.0000    758.8503      4.3526     59.8631
   628.2500      0.0000    747.0313      4.3864     60.0930
   628.5000      0.0000    736.4296      4.4557     59.2147
   628.7500      0.0000    729.3192      4.5702     57.8814
   629.0000      0.0000    728.8870      4.7159     57.0351
   629.2500      0.0000    738.0687      4.8558     57.0376
