~Version Information
VERS.                      2.0: CWLS Log ASCII Standard - VERSION 2.0
WRAP.                       NO: One line per depth step
~Well Information Block
STRT.FT               -12.0000: 
STOP.FT              1728.0000: 
STEP.FT                 0.2500: 
NULL.                -999.2500: 
COMP.          XTO Energy Inc.: COMPANY
WELL.          Apache Canyon 35-06: WELL
FLD.              Vermejo Coal: FIELD
LOC.           2422' FNL & 1889' FWL--: LOCATION
STAT.                       CO: State
CNTY.               Las Animas: COUNTY
CTRY. USA : Country
SECT.  : Section
TOWN.  : Township
RANG.  : Range
SRVC.          Patterson Wireline: SERVICE COMPANY
DATE.          Fri Jan 06 08:11:44 2006: LOG DATE
API.              05 071 08540: UNIQUE WELL ID
~Curve Information Block
DEPT.FT            0 000 00 00: Depth
CCL.                          : Casing Collar Locator
TT3.usec                      : CBL 3' Travel Time
AMP3.mV                       : CBL 3' Amplitude
GR.GAPI                       : Gamma Ray
~Parameter Information Block
~A  Depth       CCL         TT3         AMP3         GR     
# ...
  1227.5000      0.0000    694.3679      5.0750    115.2825
  1227.7500      0.0000    662.7806      5.0802    117.0086
  1228.0000      0.0000    632.9677      5.0667    118.2093
  1228.2500      0.0000    613.4177      5.0348    118.5967
  1228.5000      0.0000    610.9178      4.9950    117.8891
  1228.7500      0.0000    627.1246      4.9585    115.8310
  1229.0000      0.0000    657.8677      4.9335    112.7879
  1229.2500      0.0000    694.2855      4.9256    109.6949
  1229.5000      0.0000    725.6219      4.9405    107.3658
  1229.7500      0.0000    743.8312      4.9817    106.2781
  1230.0000      0.0000    747.5541      5.0414    106.7705
  1230.2500      0.0000    741.9744      5.0955    108.8521
  1230.5000      0.0000    734.4293      5.1180    111.7331
  1230.7500      0.0000    729.2266      5.1124    113.8362
  1231.0000      0.0000    725.7408      5.1203    113.5981
  1231.2500      0.0000    720.7488      5.1811    110.6584
  1231.5000      0.0000    712.3621      5.2883    106.4193
  1231.7500      0.0000    702.0068      5.3982    103.1013
  1232.0000      0.0000    693.6281      5.4766    101.9830
  1232.2500      0.0000    691.4723      5.5212    102.7098
  1232.5000      0.0000    697.6310      5.5484    104.3145
  1232.7500     -2.0000    711.0806      5.5714    106.3959
  1233.0000      0.0000    728.9811      5.5849    109.0506
  1233.2500      0.0000    747.9717      5.5676    112.2763
  1233.5000      0.0000    764.1464      5.5066    116.0094
  1233.7500      0.0000    773.4513      5.4204    120.2267
  1234.0000      0.0000    772.1364      5.3480    124.3254
  1234.2500      0.0000    755.5596      5.3150    126.7342
  1234.5000      0.0000    718.4738      5.3208    125.8516
  1234.7500      0.0000    660.8945      5.3494    121.6935
  1235.0000      0.0000    594.3593      5.3819    116.5771
  1235.2500      0.0000    537.8051      5.4044    113.7922
  1235.5000      0.0000    504.0881      5.4135    115.0296
  1235.7500      0.0000    491.0403      5.4147    118.7406
  1236.0000      0.0000    486.3592      5.4152    121.0285
  1236.2500      0.0000    480.3042      5.4187    118.5968
  1236.5000      0.0000    474.0188      5.4228    111.5133
  1236.7500      0.0000    477.5467      5.4195    103.2579
  1237.0000      0.0000    500.0680      5.4012     97.8120
  1237.2500      0.0000    539.0359      5.3686     96.7098
  1237.5000      0.0000    576.7784      5.3317     98.7772
  1237.7500      0.0000    590.8042      5.3054    101.8252
  1238.0000      0.0000    571.9059      5.3014    103.9265
  1238.2500      0.0000    533.5262      5.3228    103.8099
  1238.5000      0.0000    502.7910      5.3626    101.2955
  1238.7500      0.0000    501.6539      5.4066     97.5612
  1239.0000      0.0000    533.8445      5.4388     94.3272
  1239.2500      0.0000    585.4535      5.4466     92.4033
  1239.5000      0.0000    636.2573      5.4244     91.2495
  1239.7500      0.0000    672.3555      5.3742     89.9514
  1240.0000      0.0000    690.8470      5.3055     88.1513
  1240.2500      0.0000    695.7418      5.2348     85.9786
  1240.5000      0.0000    692.6354      5.1828     83.7331
  1240.7500      0.0000    687.1747      5.1662     81.8286
  1241.0000      0.0000    684.7001      5.1884     80.5284
  1241.2500      0.0000    687.8939      5.2370     79.5620
  1241.5000      0.0000    695.0909      5.2931     78.2971
  1241.7500      0.0000    702.4032      5.3416     76.2688
  1242.0000      0.0000    707.2902      5.3734     73.4210
  1242.2500      0.0000    709.6843      5.3851     70.0993
  1242.5000      0.0000    710.6824      5.3792     67.0486
  1242.7500      0.0000    711.1984      5.3619     65.2029
  1243.0000      0.0000    711.6104      5.3366     65.0685
  1243.2500      0.0000    711.9713      5.3026     66.0980
  1243.5000      0.0000    712.2469      5.2618     66.8961
  1243.7500      0.0000    712.4416      5.2236     66.4564
  1244.0000      0.0000    712.5801      5.1990     65.2686
  1244.2500      0.0000    712.6643      5.1900     64.8763
  1244.5000      0.0000    712.6732      5.1891     66.2637
  1244.7500      0.0000    712.6023      5.1859     69.0260
  1245.0000      0.0000    712.4775      5.1739     72.1375
  1245.2500      0.0000    712.3377      5.1531     74.9528
  1245.5000      0.0000    712.2198      5.1260     77.2934
  1245.7500      0.0000    712.1501      5.0920     79.2600
  1246.0000      0.0000    712.1387      5.0488     81.5486
  1246.2500      0.0000    712.1943      4.9985     85.4694
  1246.5000      0.0000    712.3795      4.9505     91.8910
  1246.7500      0.0000    712.8519      4.9148    100.1726
  1247.0000      0.0000    713.8490      4.8927    108.6135
  1247.2500      0.0000    715.5628      4.8724    115.8706
  1247.5000      0.0000    717.8371      4.8371    121.5571
  1247.7500      0.0000    719.8923      4.7825    125.8340
  1248.0000      0.0000    720.6332      4.7246    128.8969
  1248.2500      0.0000    719.5806      4.6864    130.5536
  1248.5000      0.0000    717.4033      4.6760    129.9843
  1248.7500      0.0000    715.2994      4.6818    126.2413
  1249.0000      0.0000    713.9885      4.6839    119.3485
  1249.2500      0.0000    713.4235      4.6642    110.9289
  1249.5000      0.0000    713.1955      4.6086    103.6138
  1249.7500      0.0000    712.9540      4.5083     99.5506
  1250.0000      0.0000    712.6195      4.3652     99.0584
  1250.2500      0.0000    712.6932      4.1951    100.3902
  1250.5000      0.0000    714.8829      4.0206    100.8674
  1250.7500      0.0000    722.5526      3.8616     98.4993
  1251.0000      0.0000    739.7830      3.7334     92.8356
  1251.2500      0.0000    768.2531      3.6491     84.6641
  1251.5000      0.0000    803.8953      3.6136     75.3464
  1251.7500      0.0000    837.1268      3.6183     66.7044
  1252.0000      0.0000    857.4327      3.6458     61.1999
  1252.2500      0.0000    858.3970      3.6821     61.2114
  1252.5000      0.0000    840.0132      3.7230     67.2355
  1252.7500      0.0000    808.8149      3.7733     76.9629
  1253.0000      0.0000    775.8219      3.8434     86.9096
  1253.2500      0.0000    751.2650      3.9447     95.0633
  1253.5000      0.0000    738.7654      4.0861    101.4323
  1253.7500      0.0000    733.8969      4.2716    106.3632
  1254.0000      0.0000    727.7083      4.4945    109.5773
  1254.2500      0.0000    711.7379      4.7323    111.1133
  1254.5000      0.0000    682.2497      4.9520    111.9529
  1254.7500      0.0000    643.4828      5.1246    113.0075
  1255.0000      0.0000    607.7473      5.2366    114.1871
  1255.2500      0.0000    588.4764      5.2899    114.8649
  1255.5000      0.0000    589.0084      5.2956    114.7706
  1255.7500      0.0000    599.2669      5.2689    114.1857
  1256.0000      0.0000    606.9208      5.2231    113.6134
  1256.2500      0.0000    610.3884      5.1674    113.4327
  1256.5000      0.0000    616.5154      5.1092    113.5877
  1256.7500      0.0000    627.7000      5.0547    113.3619
  1257.0000      0.0000    638.4058      5.0059    111.6932
  1257.2500      0.0000    644.8201      4.9590    108.0003
  1257.5000      0.0000    651.0348      4.9071    102.7902
  1257.7500      0.0000    662.7189      4.8455     97.5237
  1258.0000      0.0000    679.1125      4.7746     93.7927
  1258.2500      0.0000    694.4399      4.6960     92.2383
  1258.5000      0.0000    704.5015      4.6090     92.1262
  1258.7500      0.0000    709.4266      4.5100     92.1530
  1259.0000      0.0000    711.8339      4.3972     91.6254
  1259.2500      0.0000    714.6625      4.2766     90.5830
  1259.5000      0.0000    720.4141      4.1623     88.9321
  1259.7500      0.0000    730.8422      4.0668     86.0836
  1260.0000      0.0000    746.3004      3.9909     81.8215
  1260.2500      0.0000    764.7134      3.9272     77.2234
  1260.5000      0.0000    780.7111      3.8737     74.1830
  1260.7500      0.0000    787.0491      3.8395     73.9050
