~Version Information
VERS.                      2.0: CWLS Log ASCII Standard - VERSION 2.0
WRAP.                       NO: One line per depth step
~Well Information Block
STRT.FT                -8.5000: 
STOP.FT              1945.2500: 
STEP.FT                 0.2500: 
NULL.                -999.2500: 
COMP.          Pioneer Natural Resources: COMPANY
WELL.          Flying Horse 12-11 Tr: WELL
FLD.           Purgatorie River: FIELD
LOC.           2459' FNL & 410' FWL: LOCATION
STAT.                       CO: PROVINCE
CNTY.               Las Animas: COUNTY
CTRY.        USA : Country
SECT. 11 : Section
TOWN. 32S : Township
RANG. 66W : Range
SRVC.          Patterson Wireline: SERVICE COMPANY
DATE.          Thu Sep 08 15:44:22 2005: LOG DATE
API.           05 071 08485 00: UNIQUE WELL ID
~Curve Information Block
DEPT.FT            0 000 00 00: Depth
CCL.                          : Casing Collar Locator
TT3.usec                      : CBL 3' Travel Time
AMP3.mV                       : CBL 3' Amplitude
GR.GAPI                       : Gamma Ray
~Parameter Information Block
~A  Depth       CCL         TT3         AMP3         GR     
# ...
   125.5000      0.0000    342.7681     20.6570     48.4344
   125.7500      0.0000    342.7470     20.6830     52.4309
   126.0000      0.0000    343.0931     20.6878     55.6552
   126.2500      0.0000    344.9473     20.6474     58.6253
   126.5000      0.0000    351.5233     20.5544     62.8116
   126.7500      0.0000    369.7748     20.4195     68.9024
   127.0000      0.0000    409.7443     20.2666     75.9190
   127.2500      0.0000    479.0886     20.1225     82.1082
   127.5000      0.0000    576.2568     20.0026     86.3164
   127.7500      0.0000    689.9462     19.9039     88.4559
   128.0000      0.0000    803.9088     19.8107     89.1634
   128.2500      0.0000    897.2855     19.7067     89.2506
   128.5000      0.0000    942.7285     19.5835     89.1338
   128.7500      0.0000    916.6936     19.4461     88.5311
   129.0000      0.0000    820.5228     19.3148     86.8089
   129.2500      0.0000    689.2406     19.2168     83.6420
   129.5000      0.0000    574.0356     19.1685     79.3022
   129.7500      0.0000    511.7620     19.1625     74.4460
   130.0000      0.0000    505.4384     19.1759     69.6774
   130.2500      0.0000    526.8378     19.1912     65.2422
   130.5000      0.0000    537.9084     19.2099     61.1036
   130.7500      0.0000    518.0496     19.2452     57.3193
   131.0000      0.0000    475.1519     19.3066     54.2628
   131.2500      0.0000    431.0383     19.3911     52.4922
   131.5000      0.0000    399.9336     19.4900     52.3790
   131.7500      0.0000    382.3372     19.5952     53.5873
   132.0000      0.0000    373.0135     19.6986     54.8445
   132.2500      0.0000    368.4699     19.7878     54.6782
   132.5000      0.0000    367.5576     19.8540     52.8621
   132.7500      0.0000    368.9345     19.9025     51.0574
   133.0000      0.0000    370.3751     19.9493     51.5228
   133.2500      0.0000    370.3262     20.0037     54.9547
   133.5000      0.0000    369.2096     20.0577     59.7998
   133.7500      0.0000    368.6257     20.0955     63.6510
   134.0000      0.0000    369.6115     20.1096     64.9906
   134.2500      0.0000    371.6388     20.1054     63.7161
   134.5000      0.0000    373.0035     20.0932     60.6105
   134.7500      0.0000    372.2402     20.0821     56.6484
   135.0000      0.0000    369.4751     20.0805     52.7867
   135.2500      0.0000    366.3286     20.0989     50.1405
   135.5000      0.0000    364.1549     20.1479     49.8209
   135.7500      0.0000    362.5020     20.2321     52.0739
   136.0000      0.0000    359.7912     20.3459     55.5075
   136.2500      0.0000    355.3943     20.4749     57.5473
   136.5000      0.0000    350.3828     20.6056     56.1826
   136.7500      0.0000    346.2784     20.7344     51.5670
   137.0000      0.0000    343.7130     20.8667     45.8927
   137.2500      0.0000    342.3842     21.0058     41.6146
   137.5000      0.0000    341.7354     21.1459     39.8498
   137.7500      0.0000    341.3937     21.2753     40.3040
   138.0000      0.0000    341.1976     21.3832     42.1632
   138.2500      0.0000    341.0852     21.4673     44.7010
   138.5000      0.0000    341.0183     21.5363     47.3383
   138.7500      0.0000    340.9657     21.6010     49.6325
   139.0000      0.0000    340.9188     21.6601     51.3657
   139.2500      0.0000    340.8930     21.6970     52.4459
   139.5000      0.0000    340.9022     21.6969     52.7399
   139.7500      0.0000    340.9337     21.6640     52.2709
   140.0000      0.0000    340.9560     21.6189     51.5331
   140.2500      0.0000    340.9475     21.5804     51.1212
   140.5000      0.0000    340.9152     21.5523     50.9829
   140.7500      0.0000    340.8864     21.5264     50.4947
   141.0000      0.0000    340.8843     21.4958     49.3157
   141.2500      0.0000    340.9083     21.4652     47.8434
   141.5000      0.0000    340.9381     21.4511     46.9377
   141.7500      0.0000    340.9547     21.4701     47.3431
   142.0000      0.0000    340.9558     21.5246     49.0912
   142.2500      0.0000    340.9547     21.5998     51.3402
   142.5000      0.0000    340.9719     21.6733     52.9806
   142.7500      0.0000    341.0370     21.7317     53.3643
   143.0000      0.0000    341.2178     21.7774     52.4179
   143.2500      0.0000    341.7018     21.8217     50.3741
   143.5000      0.0000    342.9388     21.8709     47.5703
   143.7500      0.0000    345.6931     21.9211     44.2901
   144.0000      0.0000    350.7015     21.9611     40.6688
   144.2500      0.0000    357.9278     21.9762     36.9631
   144.5000      0.0000    366.1556     21.9500     33.9281
   144.7500      0.0000    373.6754     21.8707     32.5175
   145.0000      0.0000    379.9461     21.7418     33.0203
   145.2500      0.0000    387.3488     21.5864     34.9711
   145.5000      0.0000    402.5623     21.4404     38.2288
   145.7500      0.0000    436.2351     21.3351     43.6409
   146.0000      0.0000    497.8763     21.2813     52.0736
   146.2500      0.0000    585.8911     21.2651     63.0190
   146.5000      0.0000    681.3183     21.2590     74.6484
   146.7500      0.0000    754.4125     21.2413     85.0368
   147.0000      0.0000    780.0298     21.2067     92.8463
   147.2500      0.0000    749.3157     21.1624     97.1131
   147.5000      0.0000    672.6600     21.1173     97.3532
   147.7500      0.0000    575.2761     21.0764     94.3525
   148.0000      0.0000    485.6412     21.0444     90.3139
   148.2500      0.0000    421.8337     21.0297     87.6194
   148.5000      0.0000    386.1690     21.0431     87.2739
   148.7500      0.0000    370.5224     21.0908     88.3679
   149.0000      0.0000    364.6053     21.1704     88.9130
   149.2500      0.0000    361.0045     21.2721     87.5035
   149.5000      0.0000    356.6841     21.3862     84.4997
   149.7500      0.0000    351.9531     21.5115     81.5378
   150.0000      0.0000    348.1320     21.6565     79.9119
   150.2500      0.0000    345.8163     21.8273     79.6713
   150.5000      0.0000    344.7257     22.0174     80.0873
   150.7500      0.0000    344.3133     22.2115     80.5496
   151.0000      0.0000    344.1924     22.3994     81.0495
   151.2500      0.0000    344.2133     22.5844     82.0001
   151.5000      0.0000    344.4626     22.7804     83.6263
   151.7500      0.0000    345.3429     23.0019     85.7238
   152.0000      0.0000    347.5670     23.2554     88.0607
   152.2500      0.0000    351.6857     23.5334     90.6581
   152.5000      0.0000    357.1189     23.8176     93.4761
   152.7500      0.0000    361.5605     24.0911     96.0364
   153.0000      0.0000    361.9251     24.3493     97.5073
   153.2500      0.0000    356.5619     24.5974     97.2851
   153.5000      0.0000    346.6602     24.8417     95.6701
   153.7500      0.0000    335.2864     25.0872     93.7201
   154.0000      0.0000    325.1362     25.3371     92.1114
   154.2500      0.0000    317.3901     25.5841     90.3983
   154.5000      0.0000    312.2463     25.8035     87.7471
   154.7500      0.0000    309.7516     25.9639     84.1318
   155.0000      0.0000    309.9592     26.0496     80.4438
   155.2500      0.0000    312.5332     26.0700     77.7441
   155.5000      0.0000    316.2349     26.0507     76.8906
   155.7500      0.0000    319.0206     26.0151     78.5038
   156.0000      0.0000    319.3006     25.9681     82.3185
   156.2500      0.0000    317.4584     25.8889     86.5338
   156.5000      0.0000    315.8749     25.7433     88.7196
   156.7500      0.0000    317.2012     25.5089     87.6284
   157.0000      0.0000    322.9301     25.1955     83.5527
   157.2500      0.0000    333.9012     24.8438     77.2544
   157.5000      0.0000    352.2236     24.5057     69.5862
   157.7500      0.0000    381.0187     24.2174     61.9924
   158.0000      0.0000    419.5364     23.9683     56.3363
   158.2500      0.0000    458.4391     23.6690     53.9816
   158.5000      0.0000    485.5775     23.1363     55.1678
   158.7500      0.0000    499.4644     22.1815     58.7709
