~Version Information
VERS.                      2.0: CWLS Log ASCII Standard - VERSION 2.0
WRAP.                       NO: One line per depth step
~Well Information Block
STRT.FT               460.0000: 
STOP.FT              1498.0000: 
STEP.FT                 0.1000: 
NULL.                -999.2500: 
COMP.          Pioneer Natural Resources: COMPANY
WELL.           Amore 32-09 Tr: WELL
FLD.           Purgatoire River: FIELD
LOC.           1941' FNL & 2297' FEL: LOCATION
PROV.                 Colorado: PROVINCE
CNTY.               Las Animas: COUNTRY
SRVC.                Patterson: SERVICE COMPANY
DATE.          Mon Nov 14 13:24:57 2005: LOG DATE
UWI.           05 071 08584 00: UNIQUE WELL ID
~Curve Information Block
DEPT.FT            0 000 00 00: Depth
DCAL.in                       : CDL Caliper
RHOB.g/cc                     : CDL Bulk Density
RHOC.g/cc                     : CDL Density Correction
DPOR.pu                       : CDL Density Porosity
GR.GAPI                       : Gamma Ray
NPOR.pu                       : Neutron Porosity
~Parameter Information Block
~A  Depth       DCAL        RHOB        RHOC        DPOR         GR         NPOR    
# ...
  1352.8000      8.1336      2.1743      0.0361     28.8295    113.2553     31.3049
  1352.9000      8.1336      2.2013      0.1526     27.1916    113.0744     31.7792
  1353.0000      8.1460      2.2024      0.1525     27.1302    112.6011     31.5406
  1353.1000      8.1460      2.1808      0.1412     28.4347    115.6400     31.0193
  1353.2000      8.1460      2.1636      0.0894     29.4778    121.4928     30.4936
  1353.3000      8.1384      2.1563      0.0902     29.9236    121.9402     30.4337
  1353.4000      8.1384      2.1426      0.0793     30.7539    111.7261     30.9142
  1353.5000      8.1103      2.1215      0.0359     32.0276     97.6700     31.3375
  1353.6000      8.1103      2.1063      0.0883     32.9535     89.5522     31.1392
  1353.7000      8.1103      2.0954      0.1154     33.6146     91.3605     30.7102
  1353.8000      8.0562      2.0778      0.1184     34.6797    102.1400     30.8057
  1353.9000      8.0562      2.0533      0.1070     36.1628    112.4987     31.2900
  1354.0000      8.0350      2.0317      0.0942     37.4752    113.9213     31.8468
  1354.1000      8.0350      2.0220      0.0524     38.0618    113.6417     32.4702
  1354.2000      8.0350      2.0302      0.0354     37.5655    118.8700     33.0010
  1354.3000      8.0478      2.0567      0.0641     35.9590    123.2375     33.1159
  1354.4000      8.0478      2.0923      0.0889     33.7993    121.7932     32.6310
  1354.5000      8.0555      2.1214      0.0652     32.0340    119.6127     31.7547
  1354.6000      8.0555      2.1380      0.0603     31.0285    121.3361     31.0508
  1354.7000      8.0555      2.1545      0.0661     30.0326    125.9555     30.6289
  1354.8000      8.0522      2.1831      0.0970     28.2987    127.9475     30.1922
  1354.9000      8.0522      2.2160      0.1383     26.3060    124.3806     29.6589
  1355.0000      8.0466      2.2362      0.1079     25.0808    122.7383     28.8085
  1355.1000      8.0466      2.2445      0.0494     24.5731    129.4495     27.7281
  1355.2000      8.0466      2.2602      0.0560     23.6262    136.5193     27.3145
  1355.3000      8.0417      2.2915      0.0980     21.7263    134.9878     27.7929
  1355.4000      8.0417      2.3230      0.1510     19.8156    130.5000     28.0890
  1355.5000      8.0349      2.3441      0.1397     18.5391    132.7773     27.9164
  1355.6000      8.0349      2.3642      0.1869     17.3215    140.2353     28.2843
  1355.7000      8.0349      2.3884      0.1989     15.8554    142.7831     29.2489
  1355.8000      8.0281      2.4124      0.1610     14.3988    136.6926     29.5087
  1355.9000      8.0281      2.4272      0.1691     13.5004    129.0392     28.7087
  1356.0000      8.0253      2.4264      0.0908     13.5525    126.0516     27.8564
  1356.1000      8.0253      2.4269      0.0287     13.5218    126.8624     27.3713
  1356.2000      8.0253      2.4496      0.0356     12.1473    129.2948     27.1892
  1356.3000      8.0179      2.4844      0.0746     10.0388    130.6257     27.4215
  1356.4000      8.0179      2.5081      0.0765      8.6011    130.3598     27.8952
  1356.5000      8.0070      2.5193      0.0620      7.9233    131.6618     28.5853
  1356.6000      8.0070      2.5268      0.1044      7.4660    134.5208     29.9230
  1356.7000      8.0070      2.5285      0.0787      7.3620    139.6713     31.2376
  1356.8000      8.0036      2.5208      0.1050      7.8281    151.1009     31.1904
  1356.9000      8.0036      2.5066      0.0462      8.6879    164.8708     30.0746
  1357.0000      8.0090      2.4934      0.0729      9.4932    170.2775     29.1254
  1357.1000      8.0090      2.4853      0.0701      9.9819    167.9584     28.7172
  1357.2000      8.0090      2.4845      0.0480     10.0325    165.5775     28.7917
  1357.3000      8.0152      2.4887      0.0431      9.7731    163.7272     28.8897
  1357.4000      8.0152      2.4883      0.0322      9.8002    159.7259     28.4529
  1357.5000      8.0105      2.4769      0.0606     10.4889    157.1823     28.0026
  1357.6000      8.0105      2.4549      0.0181     11.8231    159.2944     27.9067
  1357.7000      8.0105      2.4275      0.0226     13.4871    160.4628     27.7750
  1357.8000      7.9925      2.4089     -0.0149     14.6144    153.8660     27.6585
  1357.9000      7.9925      2.4053      0.0944     14.8328    141.0827     28.1396
  1358.0000      7.9665      2.3914      0.1646     15.6743    130.6653     29.0648
  1358.1000      7.9665      2.3485      0.0786     18.2732    128.5104     29.8097
  1358.2000      7.9665      2.2988      0.0557     21.2852    133.7882     30.2824
  1358.3000      7.9608      2.2669      0.0913     23.2202    139.0117     30.2184
  1358.4000      7.9608      2.2538      0.0512     24.0120    140.3863     29.5689
  1358.5000      7.9972      2.2520      0.0704     24.1182    143.6046     29.1710
  1358.6000      7.9972      2.2552      0.0401     23.9245    147.9307     28.9605
  1358.7000      7.9972      2.2723      0.0557     22.8937    148.7240     28.2988
  1358.8000      8.0440      2.3218      0.1006     19.8922    148.2750     27.7500
  1358.9000      8.0440      2.3998      0.1495     15.1630    149.8834     27.7075
  1359.0000      8.0669      2.4733      0.1676     10.7102    152.8234     27.7735
  1359.1000      8.0669      2.5195      0.1207      7.9089    153.3336     27.7785
  1359.2000      8.0669      2.5483      0.0919      6.1608    149.4309     27.9261
  1359.3000      8.0608      2.5665      0.1031      5.0631    142.9267     28.0915
  1359.4000      8.0608      2.5682      0.0835      4.9592    137.8884     27.7512
  1359.5000      8.0477      2.5689      0.0617      4.9178    139.6929     26.9366
  1359.6000      8.0477      2.5908      0.0668      3.5880    143.1260     26.0239
  1359.7000      8.0477      2.6175      0.1484      1.9718    139.6992     25.6768
  1359.8000      8.0499      2.6137      0.1108      2.1990    135.2158     26.1569
  1359.9000      8.0499      2.5891     -0.0105      3.6925    137.0102     26.8950
  1360.0000      8.0579      2.5762      0.0358      4.4711    140.5792     27.6684
  1360.1000      8.0579      2.5742      0.0310      4.5960    142.7372     27.9341
  1360.2000      8.0579      2.5749     -0.0216      4.5509    146.3252     27.0943
  1360.3000      8.0521      2.5813      0.0345      4.1662    148.1513     26.2174
  1360.4000      8.0521      2.5854      0.0498      3.9182    142.8711     26.1774
  1360.5000      8.0384      2.5830      0.0630      4.0617    133.4229     26.4517
  1360.6000      8.0384      2.5811      0.0469      4.1735    127.3982     26.5660
  1360.7000      8.0384      2.5831      0.0119      4.0566    128.6717     26.8892
  1360.8000      8.0280      2.5842      0.0493      3.9860    133.6751     27.9825
  1360.9000      8.0280      2.5830      0.0075      4.0596    136.3943     28.9739
  1361.0000      8.0217      2.5803      0.0353      4.2240    138.7737     28.9532
  1361.1000      8.0217      2.5720      0.0160      4.7261    143.2720     28.3396
  1361.2000      8.0217      2.5622      0.0153      5.3234    145.1003     27.7964
  1361.3000      8.0202      2.5605      0.0586      5.4262    142.0613     27.4955
  1361.4000      8.0202      2.5668      0.0454      5.0399    136.6056     26.9157
  1361.5000      8.0240      2.5748      0.0565      4.5549    131.1000     26.2523
  1361.6000      8.0240      2.5780      0.0635      4.3612    127.3486     26.2767
  1361.7000      8.0240      2.5784      0.0488      4.3389    125.6840     27.0324
  1361.8000      8.0287      2.5877      0.0600      3.7730    125.4483     28.0319
  1361.9000      8.0287      2.6069      0.0863      2.6132    123.3665     28.6629
  1362.0000      8.0262      2.6243      0.0954      1.5596    119.7446     28.5373
  1362.1000      8.0262      2.6392      0.0705      0.6558    120.1462     27.4628
  1362.2000      8.0262      2.6541      0.0957     -0.2498    124.5961     25.9593
  1362.3000      8.0034      2.6595      0.0875     -0.5777    128.9954     25.3589
