~Version Information
VERS.                      2.0: CWLS Log ASCII Standard - VERSION 2.0
WRAP.                       NO: One line per depth step
~Well Information Block
STRT.FT                -5.0000: 
STOP.FT              1761.2500: 
STEP.FT                 0.2500: 
NULL.                -999.2500: 
COMP.          Pioneer Natural Resources: COMPANY
WELL.          Manville 42-14 Tr: WELL
FLD.           Purgatoire River: FIELD
LOC.           2018'FNL & 562' FEL: LOCATION
STAT.                 Colorado: State
CNTY.               Las Animas: COUNTY
CTRY. USA : Country
SECT. 14 : Section
TOWN. 32S : Township
RANG. 66W : Range
SRVC.                Patterson: SERVICE COMPANY
DATE.          Fri Sep 23 10:37:02 2005: LOG DATE
API. 05-071-08522             : UNIQUE WELL ID
~Curve Information Block
DEPT.FT            0 000 00 00: Depth
CCL.                          : Casing Collar Locator
TT3.usec                      : CBL 3' Travel Time
AMP3.mV                       : CBL 3' Amplitude
AMP5.mV                       : CBL 5' Amplitude
GR.GAPI                       : Gamma Ray
~Parameter Information Block
~A  Depth       CCL         TT3         AMP3        AMP5         GR     
# ...
  1395.0000      0.0000    303.3619     21.6747     11.5290    143.8698
  1395.2500      0.0000    303.4806     21.1676     11.5290    137.0924
  1395.5000      0.0000    303.6100     20.6402     11.1808    132.2580
  1395.7500      0.0000    303.7312     20.1529     10.9197    129.8049
  1396.0000      0.0000    303.8239     19.7530     10.6586    128.6561
  1396.2500      0.0000    303.8722     19.4664     10.0492    127.7287
  1396.5000      0.0000    303.8642     19.3035     10.2233    126.9033
  1396.7500      0.0000    303.8000     19.2645     10.4845    126.7070
  1397.0000      0.0000    303.7027     19.3358     10.5715    127.4491
  1397.2500      0.0000    303.6136     19.4908     10.5715    128.9452
  1397.5000      0.0000    303.5643     19.7039     10.5715    130.8000
  1397.7500      0.0000    303.5517     19.9663     10.4845    132.6066
  1398.0000      0.0000    303.5430     20.2850     10.3104    133.8156
  1398.2500      0.0000    303.5068     20.6596     10.7456    133.6701
  1398.5000      0.0000    303.4350     21.0619     11.0067    131.6629
  1398.7500      0.0000    303.3365     21.4455     10.9197    128.2394
  1399.0000      0.0000    303.2174     21.7823     11.1808    124.8605
  1399.2500      0.0000    303.0727     22.0807     11.0938    123.0741
  1399.5000      0.0000    302.9014     22.3624     11.4420    123.4774
  1399.7500      0.0000    302.7252     22.6205     11.5290    125.6417
  1400.0000      0.0000    302.5852     22.8196     12.1384    128.7541
  1400.2500      0.0000    302.5129     22.9500     13.0088    131.9588
  1400.5000      0.0000    302.5032     23.0744     12.9218    134.4566
  1400.7500      0.0000    302.5148     23.2981     13.7922    135.9742
  1401.0000      0.0000    302.4996     23.6854     14.1404    137.1012
  1401.2500      0.0000    302.4391     24.2106     14.2275    138.6810
  1401.5000      0.0000    302.3561     24.7818     13.3570    140.8804
  1401.7500      0.0000    302.2921     25.2992     13.7052    143.0739
  1402.0000      0.0000    302.2707     25.6973     13.5311    144.3776
  1402.2500      0.0000    302.2811     25.9547     13.8793    144.1206
  1402.5000      0.0000    302.2941     26.0785     13.9663    142.1748
  1402.7500      0.0000    302.2910     26.0825     13.8793    139.1558
  1403.0000      0.0000    302.2750     25.9807     13.7922    136.1237
  1403.2500      0.0000    302.2586     25.7890     13.8793    133.8380
  1403.5000      0.0000    302.2487     25.5222     13.5311    132.2050
  1403.7500      0.0000    302.2467     25.1854     14.0534    130.4434
  1404.0000      0.0000    302.2553     24.7749     14.0534    127.8521
  1404.2500      0.0000    302.2798     24.2959     13.4441    124.3484
  1404.5000      0.0000    302.3198     23.7852     13.6182    120.2225
  1404.7500      0.0000    302.3608     23.3142     13.0088    115.6473
  1405.0000      0.0000    302.3784     22.9584     12.7477    110.5644
  1405.2500      0.0000    302.3578     22.7537     12.3995    104.7085
  1405.5000      0.0000    302.3086     22.6756     11.5290     97.7996
  1405.7500      0.0000    302.2566     22.6613     11.4420     90.2898
  1406.0000      0.0000    302.2206     22.6511     11.0938     83.9224
  1406.2500      0.0000    302.2018     22.6112     10.3974     80.9660
  1406.5000      0.0000    302.1921     22.5280     10.1363     82.7333
  1406.7500      0.0000    302.1873     22.3907      9.7881     88.7800
  1407.0000      0.0000    302.1938     22.1835     10.3104     96.8749
  1407.2500      0.0000    302.2264     21.8913      9.9622    103.4848
  1407.5000      0.0000    302.2989     21.5140     10.3974    105.2656
  1407.7500      0.0000    302.4112     21.0801     10.2233    101.0472
  1408.0000      0.0000    302.5436     20.6481      9.7881     92.4562
  1408.2500      0.0000    302.6593     20.2850      9.7881     82.6357
  1408.5000      0.0000    302.7145     20.0340      9.6140     74.6233
  1408.7500      0.0000    302.6761     19.8964      9.7010     70.5279
  1409.0000      0.0000    302.5401     19.8415      9.7010     71.0741
  1409.2500      0.0000    302.3404     19.8282      9.4399     75.1378
  1409.5000      0.0000    302.1359     19.8189      8.9176     79.9681
  1409.7500      0.0000    301.9843     19.7769      8.3953     82.5876
  1410.0000      0.0000    301.9513     19.6569      8.3083     81.4665
  1410.2500      0.0000    302.1935     19.4008      8.0472     77.1793
  1410.5000      0.0000    303.3638     18.9435      6.6544     71.9027
  1410.7500      0.0000    307.6463     18.2263      6.6544     68.2823
  1411.0000      0.0000    320.3341     17.2126      5.0876     68.1100
  1411.2500      0.0000    350.2143     15.9102      4.4782     71.4107
  1411.5000      0.0000    405.2756     14.3972      4.9135     76.5823
  1411.7500      0.0000    483.6019     12.8327      4.9135     81.4716
  1412.0000      0.0000    567.3517     11.4255      5.5228     84.4972
  1412.2500      0.0000    629.1691     10.3619      5.3487     85.1022
  1412.5000      0.0000    648.0450      9.7296      5.6098     83.6985
  1412.7500      0.0000    621.1738      9.4982      5.9580     81.4522
  1413.0000      0.0000    563.9753      9.5677      5.7839     79.7574
  1413.2500      0.0000    501.6843      9.8369      5.3487     79.6170
  1413.5000      0.0000    458.6857     10.2521      5.6098     81.6757
  1413.7500      0.0000    448.0466     10.8480      5.5228     86.4907
  1414.0000      0.0000    463.3695     11.7841      5.3487     93.9025
  1414.2500      0.0000    480.2870     13.3042      5.4358    102.2674
  1414.5000      0.0000    473.2251     15.5637      5.9580    109.3494
  1414.7500      0.0000    435.7946     18.4341      5.7839    114.0852
  1415.0000      0.0000    383.4181     21.4977      7.1767    116.9271
  1415.2500      0.0000    336.3492     24.2702      7.5249    118.7084
  1415.5000      0.0000    304.1284     26.4434      9.9622    119.8908
  1415.7500      0.0000    285.2708     27.9524     12.8347    120.8795
  1416.0000      0.0000    274.9057     28.8900     15.6202    122.4221
  1416.2500      0.0000    269.4614     29.3991     17.7964    125.3647
  1416.5000      0.0000    266.9124     29.6102     17.7093    130.0616
  1416.7500      0.0000    266.0206     29.6195     19.9726    135.9721
  1417.0000      0.0000    266.1158     29.4882     19.3632    141.7468
  1417.2500      0.0000    267.1426     29.2507     18.7539    145.8160
  1417.5000      0.0000    269.5861     28.9196     17.2741    147.0557
  1417.7500      0.0000    274.0138     28.4877     17.0130    145.1884
  1418.0000      0.0000    280.3599     27.9542     18.9280    141.1201
  1418.2500      0.0000    287.5137     27.3750     18.2316    137.0209
  1418.5000      0.0000    293.8237     26.8708     17.1871    135.2279
  1418.7500      0.0000    298.1565     26.5307     15.8814    136.2887
  1419.0000      0.0000    300.4527     26.2852     14.7498    138.3230
  1419.2500      0.0000    301.3872     25.9044     13.7922    138.6022
  1419.5000      0.0000    301.7204     25.1564     13.7922    135.6564
  1419.7500      0.0000    301.9299     23.9888     12.9218    130.0873
  1420.0000      0.0000    302.1731     22.5831     12.4865    123.9145
  1420.2500      0.0000    302.4007     21.2499     12.7477    119.0367
  1420.5000      0.0000    302.5177     20.2366     12.6606    115.8380
  1420.7500      0.0000    302.5132     19.5903     11.7902    113.3156
  1421.0000      0.0000    302.4801     19.1834     12.2254    110.6084
  1421.2500      0.0000    302.5361     18.8701     11.7902    108.0068
  1421.5000      0.0000    302.8755     18.6130     11.2679    106.5433
  1421.7500      0.0000    304.0536     18.4657     10.2233    107.1334
  1422.0000      0.0000    307.3269     18.4499     10.3974    110.0211
  1422.2500      0.0000    314.2575     18.4768     10.6586    114.4028
  1422.5000      0.0000    324.9238     18.4089      5.8710    118.5818
  1422.7500      0.0000    336.4136     18.1851     11.0067    121.2018
