~Version Information
VERS.                      2.0: CWLS Log ASCII Standard - VERSION 2.0
WRAP.                       NO: One line per depth step
~Well Information Block
STRT.FT                 0.0000: 
STOP.FT              1674.7500: 
STEP.FT                 0.2500: 
NULL.                -999.2500: 
COMP.          Pioneer Natural Resources: COMPANY
WELL.          Culver 14-12 Tr: WELL
FLD.           Purgatorie River: FIELD
LOC.           915' FSL & 1048' FWL: LOCATION
STAT.                 Colorado: Colorado
CNTY.               Las Animas: COUNTY
CTRY. USA : Country
SECT. 12 : Section
TOWN. 32S : Township
RANG. 66W : Range
SRVC.                Patterson: SERVICE COMPANY
DATE.          Mon Oct 03 12:52:29 2005: LOG DATE
API. 05-071-08520                         : UNIQUE WELL ID
~Curve Information Block
DEPT.FT            0 000 00 00: Depth
CCL.                          : Casing Collar Locator
TT3.usec                      : CBL 3' Travel Time
AMP3.mV                       : CBL 3' Amplitude
GR.GAPI                       : Gamma Ray
~Parameter Information Block
~A  Depth       CCL         TT3         AMP3         GR     
# ...
   335.0000      0.0000    844.7551     12.1195     61.1317
   335.2500      0.0000    895.2281     12.0643     63.0441
   335.5000      0.0000    955.3403     12.0354     65.6136
   335.7500      0.0000    994.4103     12.0162     67.8535
   336.0000      0.0000    997.2433     12.0049     68.8916
   336.2500      0.0000    984.5767     12.0285     68.2984
   336.5000      0.0000    986.4543     12.0930     66.1927
   336.7500      0.0000   1005.4603     12.1589     63.0838
   337.0000      0.0000   1016.3556     12.1993     59.5588
   337.2500      0.0000   1000.7836     12.2246     55.9684
   337.5000      0.0000    969.6860     12.2505     52.3701
   337.7500      0.0000    941.6620     12.2928     48.8347
   338.0000      0.0000    922.4366     12.3764     45.7398
   338.2500      0.0000    910.9059     12.5052     43.6599
   338.5000      0.0000    904.9382     12.6313     43.0468
   338.7500      0.0000    902.1724     12.6964     44.0387
   339.0000      0.0000    905.3615     12.6948     46.4510
   339.2500      0.0000    923.1287     12.6522     49.8798
   339.5000      0.0000    951.5773     12.5717     53.8993
   339.7500      0.0000    961.8298     12.4511     58.2069
   340.0000      0.0000    934.6528     12.3119     62.5796
   340.2500      0.0000    891.4968     12.1740     66.6809
   340.5000      0.0000    858.5795     12.0437     69.9540
   340.7500      0.0000    833.6577     11.9303     71.8037
   341.0000      0.0000    808.1306     11.8409     72.0359
   341.2500      0.0000    784.3671     11.7657     71.1628
   341.5000      0.0000    765.3274     11.6777     70.0971
   341.7500      0.0000    750.6216     11.5476     69.4246
   342.0000      0.0000    740.9735     11.3817     68.9947
   342.2500      0.0000    737.3658     11.2419     68.2397
   342.5000      0.0000    739.2562     11.1916     66.9479
   342.7500      0.0000    744.8673     11.2256     65.7555
   343.0000      0.0000    751.4586     11.2826     65.7564
   343.2500      0.0000    757.0863     11.3176     67.5147
   343.5000      0.0000    761.0266     11.3256     70.4738
   343.7500      0.0000    762.8295     11.3129     73.3379
   344.0000      0.0000    764.3810     11.2796     75.0717
   344.2500      0.0000    768.3491     11.2254     75.5905
   344.5000      0.0000    773.5222     11.1540     75.4187
   344.7500      0.0000    776.9208     11.0722     74.7249
   345.0000      0.0000    777.7144     10.9923     73.0303
   345.2500      0.0000    776.1465     10.9340     70.0136
   345.5000      0.0000    771.5111     10.9323     66.2553
   345.7500      0.0000    763.7710     11.0360     62.8709
   346.0000      0.0000    757.0308     11.2525     60.5037
   346.2500      0.0000    757.1450     11.4988     58.8979
   346.5000      0.0000    764.1385     11.6754     57.3759
   346.7500      0.0000    772.4183     11.7669     55.4816
   347.0000      0.0000    780.1516     11.8224     53.2581
   347.2500      0.0000    796.6256     11.8963     51.2728
   347.5000      0.0000    840.5827     12.0176     50.3582
   347.7500      0.0000    918.3495     12.1928     50.9916
   348.0000      0.0000    993.9991     12.4200     52.8057
   348.2500      0.0000   1013.6061     12.6850     54.7717
   348.5000      0.0000    973.0771     12.9647     55.8107
   348.7500      0.0000    915.9500     13.2237     55.2712
   349.0000      0.0000    868.7335     13.4142     53.1450
   349.2500      0.0000    829.7772     13.5160     50.0635
   349.5000      0.0000    800.0134     13.5557     47.0365
   349.7500      0.0000    783.9103     13.5572     45.0051
   350.0000      0.0000    778.4830     13.5074     44.4220
   350.2500      0.0000    777.8129     13.4088     45.0705
   350.5000      0.0000    779.6066     13.3164     46.3064
   350.7500      0.0000    786.9229     13.2656     47.5811
   351.0000      0.0000    808.6424     13.2261     48.7845
   351.2500      0.0000    855.0767     13.1539     50.2219
   351.5000      0.0000    928.3305     13.0391     52.3505
   351.7500      0.0000   1017.6221     12.9132     55.3091
   352.0000      0.0000   1101.9543     12.8224     58.5777
   352.2500      0.0000   1160.5774     12.7817     61.4564
   352.5000      0.0000   1188.8013     12.7747     63.9256
   352.7500      0.0000   1197.8019     12.7861     66.5721
   353.0000      0.0000   1199.2570     12.8062     69.6494
   353.2500      0.0000   1196.3658     12.8272     72.6635
   353.5000      0.0000   1181.7039     12.8418     74.9673
   353.7500      0.0000   1138.6790     12.8440     76.4306
   354.0000      0.0000   1061.7025     12.8365     77.4470
   354.2500      0.0000    983.7053     12.8113     78.5198
   354.5000      0.0000    950.1692     12.7468     79.8506
   354.7500      0.0000    960.5554     12.6541     80.9884
   355.0000      0.0000    981.9710     12.5872     80.9085
   355.2500      0.0000   1003.6005     12.5830     78.9643
   355.5000      0.0000   1039.5522     12.6179     75.9409
   355.7500      0.0000   1095.5337     12.6480     73.6949
   356.0000      0.0000   1150.9597     12.6764     73.5337
   356.2500      0.0000   1183.1648     12.7238     75.1890
   356.5000      0.0000   1189.5554     12.7564     77.1810
   356.7500      0.0000   1173.7538     12.7148     77.8630
   357.0000      0.0000   1135.3306     12.5873     76.5221
   357.2500      0.0000   1081.1829     12.4023     74.0586
   357.5000      0.0000   1029.5841     12.1815     72.3839
   357.7500      0.0000    994.1461     11.9417     72.6744
   358.0000      0.0000    971.0294     11.7327     74.3529
   358.2500      0.0000    946.3278     11.6124     76.0145
   358.5000      0.0000    912.9516     11.5220     76.8731
   358.7500      0.0000    877.1758     11.2388     76.8684
   359.0000      0.0000    852.0759     10.5767     75.8871
   359.2500      0.0000    850.5497      9.6179     73.7262
   359.5000      0.0000    872.6052      8.6543     70.8173
   359.7500      0.0000    900.2203      7.9871     68.3350
   360.0000      0.0000    928.6298      7.7621     67.4232
   360.2500      0.0000    975.9323      7.8643     68.5377
   360.5000     -2.0000   1034.4507      8.0586     71.2770
   360.7500     -2.0000   1061.7703      8.2041     74.4015
   361.0000      2.0000   1048.8339      8.2685     76.3357
   361.2500      0.0000   1038.3600      8.3236     76.3763
   361.5000      0.0000   1047.1672      8.6063     75.5659
   361.7500      0.0000   1034.3474      9.3416     75.9295
   362.0000      0.0000    975.4373     10.4003     78.5589
   362.2500      0.0000    905.5533     11.4546     82.5621
   362.5000      0.0000    868.7804     12.3430     86.0390
   362.7500      0.0000    869.1180     12.9620     87.8353
   363.0000      0.0000    881.0022     13.2407     88.0953
   363.2500      0.0000    882.4653     13.2807     87.5942
   363.5000      0.0000    869.4185     13.2239     87.1546
   363.7500      0.0000    853.5117     13.1220     87.4035
   364.0000      0.0000    850.6921     12.9905     88.2516
   364.2500      0.0000    861.3665     12.8597     88.5107
   364.5000      0.0000    866.8006     12.7588     86.7012
   364.7500      0.0000    851.9840     12.7134     82.6124
   365.0000      0.0000    823.1316     12.7536     77.8664
   365.2500      0.0000    798.1705     12.8688     74.6422
   365.5000      0.0000    788.6092     12.9855     73.8567
   365.7500      0.0000    796.4967     13.0456     74.7063
   366.0000      0.0000    817.4827     13.0792     75.8016
   366.2500      0.0000    837.5970     13.1551     76.2827
   366.5000      0.0000    841.8973     13.2715     75.8563
   366.7500      0.0000    835.4335     13.3458     74.4370
   367.0000      0.0000    837.3899     13.3145     72.3785
   367.2500      0.0000    850.9156     13.1929     70.7668
   367.5000      0.0000    861.9116     13.0400     70.7109
   367.7500      0.0000    866.0179     12.9087     72.2508
   368.0000      0.0000    872.0380     12.8229     74.4368
   368.2500      0.0000    882.6797     12.7803     76.4697
