~Version Information
VERS.                      2.0: CWLS Log ASCII Standard - VERSION 2.0
WRAP.                       NO: One line per depth step
~Well Information Block
STRT.FT               340.0000: 
STOP.FT              2342.7000: 
STEP.FT                 0.1000: 
NULL.                -999.2500: 
COMP.          Pioneer Natural Resources: COMPANY
WELL.          Pinkerton 41-12: WELL
FLD.           Purgatoire River: FIELD
LOC.           1222' FNL & 670' FEL--: LOCATION
CNTY.               Las Animas: COUNTY
SRVC.                Patterson: SERVICE COMPANY
DATE.          Thu Mar 16 06:39:17 2006: LOG DATE
UWI.           05 071 08500 00: UNIQUE WELL ID
STAT.                 Colorado: STATE
~Curve Information Block
DEPT.FT            0 000 00 00: Depth
DCAL.in                       : CDL Caliper
RHOB.g/cc                     : CDL Bulk Density
RHOC.g/cc                     : CDL Density Correction
DPOR.pu                       : CDL Density Porosity
NPOR.pu                       : Neutron Porosity
GR.GAPI                       : Gamma Ray
~Parameter Information Block
~A  Depth       DCAL        RHOB        RHOC        DPOR        NPOR         GR     
# ...
   868.0000      7.9613      2.5936     -0.0228      3.4198     24.6227     79.5058
   868.1000      7.9613      2.5951     -0.0114      3.3248     24.9046     81.6343
   868.2000      7.9613      2.6059      0.0210      2.6727     25.1815     86.4745
   868.3000      7.9775      2.6063      0.0089      2.6455     25.5021     90.2345
   868.4000      7.9775      2.6002     -0.0123      3.0207     25.8079     92.7038
   868.5000      7.9843      2.6038     -0.0103      2.7982     26.0679     95.3907
   868.6000      7.9843      2.6066      0.0383      2.6291     26.3616     97.5080
   868.7000      7.9843      2.5832      0.0185      4.0498     26.6403     97.9031
   868.8000      7.9943      2.5457     -0.0341      6.3192     26.7310     97.4387
   868.9000      7.9943      2.5305      0.0230      7.2404     26.6010     97.2099
   869.0000      8.0070      2.5343      0.0242      7.0119     26.4142    101.0999
   869.1000      8.0070      2.5339     -0.0149      7.0337     26.4395    111.7913
   869.2000      8.0070      2.5342     -0.0553      7.0194     26.6941    123.5154
   869.3000      8.0149      2.5436      0.0035      6.4503     26.8024    131.0499
   869.4000      8.0149      2.5511     -0.0129      5.9966     26.5794    134.9204
   869.5000      8.0122      2.5433      0.0152      6.4690     26.4136    136.5633
   869.6000      8.0122      2.5223     -0.0120      7.7379     26.5216    136.1047
   869.7000      8.0122      2.5098     -0.0314      8.4977     26.6962    134.4957
   869.8000      8.0045      2.5196      0.0248      7.9056     26.8196    133.8737
   869.9000      8.0045      2.5391      0.0348      6.7215     26.8106    134.4677
   870.0000      7.9959      2.5512      0.0291      5.9887     26.7112    134.5555
   870.1000      7.9959      2.5505      0.0528      6.0276     26.5816    133.3901
   870.2000      7.9959      2.5384      0.0325      6.7633     26.3746    133.2487
   870.3000      7.9859      2.5248     -0.0097      7.5891     26.3380    134.1641
   870.4000      7.9859      2.5191      0.0457      7.9338     26.5103    134.9391
   870.5000      7.9837      2.5160      0.0203      8.1231     26.2881    137.3069
   870.6000      7.9837      2.5103      0.0002      8.4659     25.4000    139.8323
   870.7000      7.9837      2.5062     -0.0047      8.7168     24.6102    138.9456
   870.8000      7.9913      2.5123      0.0096      8.3463     24.4845    137.7183
   870.9000      7.9913      2.5349      0.0245      6.9769     24.3308    139.7290
   871.0000      7.9973      2.5660      0.0674      5.0914     23.6981    140.2484
   871.1000      7.9973      2.5824      0.1062      4.0969     23.1890    136.8985
   871.2000      7.9973      2.5747      0.0568      4.5629     23.0920    133.2756
   871.3000      7.9963      2.5607      0.0291      5.4109     22.9052    130.6311
   871.4000      7.9963      2.5576      0.0603      5.6006     22.3252    128.6976
   871.5000      7.9958      2.5704      0.0237      4.8256     21.5857    129.3019
   871.6000      7.9958      2.5883      0.0625      3.7412     20.8799    129.5878
   871.7000      7.9958      2.5884      0.0757      3.7326     20.3456    126.0301
   871.8000      8.0003      2.5669      0.0187      5.0390     20.2382    123.9044
   871.9000      8.0003      2.5406      0.0443      6.6297     20.5582    126.9901
   872.0000      8.0010      2.5218      0.0447      7.7669     20.9573    129.3103
   872.1000      8.0010      2.5113      0.0303      8.4060     21.3032    127.6366
   872.2000      8.0010      2.5060      0.0197      8.7293     21.6153    123.7114
   872.3000      8.0005      2.4984      0.0783      9.1895     21.7552    117.6369
   872.4000      8.0005      2.4784      0.0512     10.4030     21.7327    113.9437
   872.5000      8.0091      2.4506     -0.0043     12.0822     21.6591    116.6043
   872.6000      8.0091      2.4242      0.0518     13.6877     21.5086    120.0953
   872.7000      8.0091      2.4002      0.0134     15.1365     21.4937    117.9200
   872.8000      8.0274      2.3881     -0.0350     15.8749     21.9668    116.5590
   872.9000      8.0274      2.3937      0.0133     15.5305     22.4673    124.9651
   873.0000      8.0431      2.4121      0.0364     14.4194     22.4559    136.4256
   873.1000      8.0431      2.4389      0.0167     12.7946     22.2068    140.5180
   873.2000      8.0431      2.4629      0.0832     11.3416     22.1217    137.2486
   873.3000      8.0424      2.4702      0.0404     10.8994     22.2909    130.9973
   873.4000      8.0424      2.4664      0.0904     11.1289     22.5038    125.8082
   873.5000      8.0282      2.4702      0.0301     10.8976     22.7669    125.6655
   873.6000      8.0282      2.4891      0.0949      9.7513     23.2450    130.1760
   873.7000      8.0282      2.5019      0.0969      8.9768     23.8507    132.3619
   873.8000      8.0139      2.4898      0.0455      9.7116     24.4834    131.0197
   873.9000      8.0139      2.4582     -0.0125     11.6258     25.0862    132.6862
   874.0000      8.0074      2.4210     -0.0088     13.8817     25.5028    137.7862
   874.1000      8.0074      2.3985     -0.0655     15.2398     25.4903    144.2366
   874.2000      8.0074      2.4115     -0.0444     14.4521     25.1020    152.1460
   874.3000      8.0183      2.4556      0.0180     11.7800     24.7678    156.4876
   874.4000      8.0183      2.5041      0.0226      8.8401     24.5649    156.3182
   874.5000      8.0472      2.5327      0.0858      7.1101     24.4339    158.6476
   874.6000      8.0472      2.5415      0.0332      6.5739     24.5320    163.6329
   874.7000      8.0472      2.5490      0.0645      6.1237     24.7588    166.7036
   874.8000      8.0699      2.5540      0.0934      5.8205     24.9028    166.8386
   874.9000      8.0699      2.5453      0.0509      6.3454     25.1347    160.9819
   875.0000      8.0611      2.5327      0.0386      7.1077     25.7410    149.1228
   875.1000      8.0611      2.5322      0.0321      7.1378     26.6020    140.7506
   875.2000      8.0611      2.5365      0.0470      6.8791     27.2822    139.7417
   875.3000      8.0207      2.5282      0.0512      7.3797     27.5628    139.5724
   875.4000      8.0207      2.5201      0.0052      7.8698     27.6757    135.1480
   875.5000      7.9729      2.5419     -0.0034      6.5541     28.0726    127.9630
   875.6000      7.9729      2.5870      0.0591      3.8176     28.8707    121.8624
   875.7000      7.9729      2.6164      0.1119      2.0364     29.8422    120.4452
   875.8000      7.9467      2.6076      0.1071      2.5722     30.4747    124.1651
   875.9000      7.9467      2.5747      0.0866      4.5619     30.4449    129.2598
   876.0000      7.9255      2.5466      0.0852      6.2641     30.0092    133.4374
   876.1000      7.9255      2.5342      0.1056      7.0206     29.4919    136.8039
   876.2000      7.9255      2.5288      0.1478      7.3475     29.0414    138.7585
   876.3000      7.8983      2.5270      0.1297      7.4524     28.5525    141.8450
   876.4000      7.8983      2.5316      0.1355      7.1731     27.6567    147.5627
   876.5000      7.8936      2.5387      0.1404      6.7461     26.4523    152.7777
   876.6000      7.8936      2.5411      0.1651      6.6019     25.7409    155.3108
   876.7000      7.8936      2.5370      0.1307      6.8496     25.7867    153.7757
   876.8000      7.9092      2.5270      0.1301      7.4541     25.9108    148.3490
   876.9000      7.9092      2.5139      0.0883      8.2486     25.7163    142.7297
   877.0000      7.9210      2.5089      0.0439      8.5511     25.4145    139.7812
   877.1000      7.9210      2.5114      0.1276      8.3986     25.0571    140.1058
   877.2000      7.9210      2.5083      0.0517      8.5896     24.6778    142.7294
   877.3000      7.9224      2.5067      0.0468      8.6863     24.5054    144.7952
   877.4000      7.9224      2.5136      0.1090      8.2689     24.7037    144.8469
   877.5000      7.9210      2.5190      0.0602      7.9366     25.2971    143.1505
