~Version Information
VERS.                      2.0: CWLS Log ASCII Standard - VERSION 2.0
WRAP.                       NO: One line per depth step
~Well Information Block
STRT.FT                -9.5000: 
STOP.FT              1304.7500: 
STEP.FT                 0.2500: 
NULL.                -999.2500: 
COMP.          Pioneer Natural Resources: COMPANY
WELL.            Hamburg 43-35: WELL
FLD.           Purgatorie River: FIELD
LOC.           2444' FSL & 950' FEL--: LOCATION
PROV.                       CO: PROVINCE
CNTY.               Las Animas: COUNTRY
SRVC.          Patterson Wireline: SERVICE COMPANY
DATE.          Thu Dec 08 14:29:45 2005: LOG DATE
UWI.           08 071 08607 00: UNIQUE WELL ID
~Curve Information Block
DEPT.FT            0 000 00 00: Depth
CCL.                          : Casing Collar Locator
TT3.usec                      : CBL 3' Travel Time
AMP3.mV                       : CBL 3' Amplitude
GR.GAPI                       : Gamma Ray
~Parameter Information Block
~A  Depth       CCL         TT3         AMP3         GR     
# ...
   928.5000      0.0000    735.1040     12.0988    129.6608
   928.7500      0.0000    736.6971     11.4938    126.1193
   929.0000      0.0000    741.1209     10.9589    125.9732
   929.2500      0.0000    751.7569     10.4476    127.3553
   929.5000      0.0000    770.7421      9.8964    128.2681
   929.7500      0.0000    795.9487      9.3457    127.5640
   930.0000      0.0000    822.1984      8.9453    124.8654
   930.2500      0.0000    846.5325      8.8106    120.2396
   930.5000      0.0000    870.1713      8.9096    114.4918
   930.7500     -2.0000    894.1442      9.1019    109.3563
   931.0000      2.0000    915.4372      9.2443    106.7365
   931.2500      0.0000    928.2027      9.2570    107.6090
   931.5000      0.0000    926.9369      9.1741    111.7591
   931.7500      0.0000    909.4441      9.1792    118.3622
   932.0000      0.0000    878.9460      9.5171    126.5247
   932.2500      0.0000    842.7095     10.2717    135.2666
   932.5000      0.0000    806.7483     11.2542    143.3862
   932.7500      0.0000    771.6330     12.1682    149.6332
   933.0000      0.0000    733.7403     12.8527    152.8719
   933.2500      0.0000    690.5654     13.3226    152.2143
   933.5000      0.0000    644.9341     13.6416    147.7448
   933.7500      0.0000    605.2101     13.8405    141.4195
   934.0000      0.0000    582.8875     13.9331    136.3729
   934.2500      0.0000    587.9649     13.9430    134.7243
   934.5000      0.0000    621.6633     13.9008    136.2903
   934.7500      0.0000    672.3832     13.8461    139.2852
   935.0000      0.0000    721.9051     13.8315    141.6454
   935.2500      0.0000    757.0893     13.8962    141.8409
   935.5000      0.0000    775.2609     14.0205    139.5723
   935.7500      0.0000    780.2988     14.1199    136.2870
   936.0000      0.0000    776.5718     14.0990    134.3356
   936.2500      0.0000    766.7408     13.9184    134.9455
   936.5000      0.0000    752.6673     13.6181    137.2476
   936.7500      0.0000    736.3494     13.2827    139.5537
   937.0000      0.0000    719.4638     12.9823    141.2622
   937.2500      0.0000    702.9438     12.7416    142.9644
   937.5000      0.0000    688.2460     12.5540    144.8196
   937.7500      0.0000    679.1826     12.4091    145.8746
   938.0000      0.0000    680.3643     12.3024    145.4963
   938.2500      0.0000    692.0295     12.2377    144.4258
   938.5000      0.0000    707.3604     12.2280    143.6031
   938.7500      0.0000    716.8350     12.2850    142.8302
   939.0000      0.0000    715.7957     12.3941    141.2865
   939.2500      0.0000    708.1794     12.5078    138.7706
   939.5000      0.0000    703.1177     12.5779    135.9819
   939.7500      0.0000    707.0773     12.5997    133.9447
   940.0000      0.0000    719.0519     12.6147    133.2450
   940.2500      0.0000    733.4612     12.6653    133.4610
   940.5000      0.0000    745.9158     12.7523    133.4952
   940.7500      0.0000    754.8403     12.8461    132.7223
   941.0000      0.0000    759.2513     12.9389    131.4820
   941.2500      0.0000    757.2877     13.0777    130.3932
   941.5000      0.0000    746.3428     13.3324    129.6992
   941.7500      0.0000    723.1607     13.7239    129.2999
   942.0000      0.0000    684.8832     14.1882    128.8739
   942.2500      0.0000    632.8505     14.6160    127.8890
   942.5000      0.0000    575.5964     14.9341    126.0080
   942.7500      0.0000    525.4323     15.1434    123.6607
   943.0000      0.0000    490.4428     15.2774    121.8079
   943.2500      0.0000    470.2297     15.3311    120.9944
   943.5000      0.0000    458.8032     15.2533    120.8660
   943.7500      0.0000    450.0621     15.0156    120.5627
   944.0000      0.0000    441.0001     14.6652    119.1029
   944.2500      0.0000    431.8232     14.2912    115.4585
   944.5000      0.0000    424.5227     13.9486    109.2614
   944.7500      0.0000    421.7747     13.6305    101.9259
   945.0000      0.0000    427.4089     13.3116     96.3396
   945.2500      0.0000    447.2115     13.0019     94.7101
   945.5000      0.0000    486.6385     12.7434     96.8679
   945.7500      0.0000    544.7460     12.5576    100.6660
   946.0000      0.0000    610.1347     12.4117    103.5165
   946.2500      0.0000    665.1104     12.2503    103.4808
   946.5000      0.0000    695.3613     12.0587     99.4772
   946.7500      0.0000    696.8028     11.8858     91.2948
   947.0000      0.0000    676.9042     11.8032     80.0677
   947.2500      0.0000    652.3254     11.8477     68.6431
   947.5000      0.0000    641.5463     12.0032     60.6746
   947.7500      0.0000    652.7852     12.2230     58.6243
   948.0000      0.0000    675.8657     12.4600     62.1889
   948.2500      0.0000    687.2947     12.6742     68.4170
   948.5000      0.0000    666.3716     12.8234     73.5622
   948.7500      0.0000    610.0873     12.8676     75.4391
   949.0000      0.0000    535.3525     12.7984     74.5713
   949.2500      0.0000    466.6937     12.6600     73.2643
   949.5000      0.0000    420.0528     12.5264     73.4025
   949.7500      0.0000    396.6964     12.4502     74.8953
   950.0000      0.0000    389.4820     12.4354     76.2740
   950.2500      0.0000    391.4712     12.4530     76.7111
   950.5000      0.0000    399.0843     12.4760     77.0601
   950.7500      0.0000    410.4742     12.4998     78.7010
   951.0000      0.0000    422.7284     12.5410     81.5169
   951.2500      0.0000    430.6127     12.6227     83.2224
   951.5000      0.0000    428.9264     12.7573     81.0174
   951.7500      0.0000    416.9869     12.9367     74.4047
   952.0000      0.0000    399.8339     13.1316     66.3440
   952.2500      0.0000    384.2237     13.3040     61.0028
   952.5000      0.0000    373.9473     13.4234     60.1753
   952.7500      0.0000    368.9346     13.4748     62.1028
   953.0000      0.0000    367.4517     13.4506     63.4966
   953.2500      0.0000    368.4008     13.3426     62.2021
   953.5000      0.0000    372.4001     13.1560     58.2243
   953.7500      0.0000    381.8951     12.9288     53.1306
   954.0000      0.0000    400.1078     12.7258     48.8370
   954.2500      0.0000    428.8352     12.6091     46.5137
   954.5000      0.0000    466.1552     12.6144     46.1392
   954.7500      0.0000    505.4160     12.7454     46.8162
   955.0000      0.0000    536.2965     12.9764     47.4014
   955.2500      0.0000    548.9885     13.2617     47.1062
   955.5000      0.0000    540.5363     13.5524     45.9549
   955.7500      0.0000    517.4408     13.8112     44.6674
   956.0000      0.0000    490.5258     14.0193     43.8534
   956.2500      0.0000    467.4630     14.1804     43.5641
   956.5000      0.0000    450.5655     14.3187     43.9518
   956.7500      0.0000    439.4027     14.4689     45.8429
   957.0000      0.0000    432.7079     14.6640     49.8639
   957.2500      0.0000    427.6570     14.9254     55.1614
   957.5000      0.0000    419.6132     15.2563     59.8954
   957.7500      0.0000    404.8677     15.6339     63.3003
   958.0000      0.0000    384.1558     16.0076     66.7844
   958.2500      0.0000    362.7372     16.3112     72.7042
   958.5000      0.0000    346.5798     16.4890     82.1910
   958.7500      0.0000    338.7563     16.5174     94.1631
   959.0000      0.0000    338.9120     16.4072    106.0941
   959.2500      0.0000    344.6351     16.1928    115.4577
   959.5000      0.0000    352.7354     15.9226    120.7855
   959.7500      0.0000    360.2421     15.6482    122.1500
   960.0000      0.0000    365.3806     15.4067    121.0951
   960.2500      0.0000    367.9388     15.2108    119.8495
   960.5000      0.0000    368.6714     15.0609    120.1108
   960.7500      0.0000    368.3819     14.9606    122.2277
   961.0000      0.0000    367.4089     14.9113    125.2849
   961.2500      0.0000    365.7125     14.8948    127.7883
   961.5000      0.0000    363.3968     14.8742    128.3351
   961.7500      0.0000    361.1969     14.8104    126.0346
