~Version Information
VERS.                      2.0: CWLS Log ASCII Standard - VERSION 2.0
WRAP.                       NO: One line per depth step
~Well Information Block
STRT.FT                 0.0000: 
STOP.FT              2062.2500: 
STEP.FT                 0.2500: 
NULL.                -999.2500: 
COMP.          Petrogulf Corporation: COMPANY
WELL.           Montoya 12-44R: WELL
FLD.           Purgatorie River: FIELD
LOC.           713' FSL & 798' FEL: LOCATION
PROV.                 Colorado: PROVINCE
CNTY.               Las Animas: COUNTRY
SRVC.                Patterson: SERVICE COMPANY
DATE.          Wed Nov 09 13:30:24 2005: LOG DATE
UWI.           05-071-08538               : UNIQUE WELL ID
~Curve Information Block
DEPT.FT            0 000 00 00: Depth
CCL.                          : Casing Collar Locator
TT3.usec                      : CBL 3' Travel Time
AMP3.mV                       : CBL 3' Amplitude
GR.GAPI                       : Gamma Ray
~Parameter Information Block
~A  Depth       CCL         TT3         AMP3         GR     
# ...
  2043.5000      0.0000    614.4728      1.3420     56.6953
  2043.7500      0.0000    619.0828      1.3302     59.2574
  2044.0000      0.0000    632.3734      1.3533     65.1840
  2044.2500      0.0000    659.2894      1.4260     73.1614
  2044.5000      0.0000    695.6064      1.5630     81.4111
  2044.7500      0.0000    729.2357      1.7793     88.1432
  2045.0000      0.0000    750.5820      2.1190     91.9707
  2045.2500      0.0000    755.9257      2.6454     92.3178
  2045.5000      0.0000    744.8730      3.3814     89.2467
  2045.7500      0.0000    721.3625      4.2793     82.5228
  2046.0000      0.0000    693.2665      5.2407     71.2490
  2046.2500      0.0000    666.2523      6.1848     55.3191
  2046.5000      0.0000    639.7039      7.1081     37.1503
  2046.7500      0.0000    609.9503      8.0345     20.9106
  2047.0000      0.0000    582.4076      8.9004      9.6473
  2047.2500      0.0000    578.8256      9.5316      3.5940
  2047.5000      0.0000    609.9940      9.7490      1.0702
  2047.7500      0.0000    649.5798      9.4870      0.2526
  2048.0000      0.0000    666.9094      8.8267      0.0468
  2048.2500      0.0000    663.5970      7.9469      0.0061
  2048.5000      0.0000    657.0914      7.0557      0.0000
  2048.7500      0.0000    656.2424      6.3367   -999.2500
  2049.0000      0.0000    661.0315      5.8820   -999.2500
  2049.2500      0.0000    667.8960      5.6863   -999.2500
  2049.5000      0.0000    672.1059      5.7319   -999.2500
  2049.7500      0.0000    670.6891      6.0032   -999.2500
  2050.0000      0.0000    664.3564      6.4310   -999.2500
  2050.2500      0.0000    656.4323      6.9152   -999.2500
  2050.5000      0.0000    649.0608      7.3957   -999.2500
  2050.7500      0.0000    641.9011      7.8495   -999.2500
  2051.0000      0.0000    633.8273      8.1779   -999.2500
  2051.2500      0.0000    614.6228      8.0936   -999.2500
  2051.5000      0.0000    552.2033      7.2000   -999.2500
  2051.7500      0.0000    418.4180      5.3673   -999.2500
  2052.0000      0.0000    243.9647      3.1356   -999.2500
  2052.2500      0.0000    102.3919      1.3906   -999.2500
  2052.5000      0.0000     29.6364      0.5084   -999.2500
  2052.7500      0.0000      5.7581      0.2207   -999.2500
  2053.0000      0.0000      0.7366      0.1604   -999.2500
  2053.2500      0.0000      0.0584      0.1522   -999.2500
  2053.5000      0.0000   -999.2500   -999.2500   -999.2500
  2053.7500      0.0000   -999.2500   -999.2500   -999.2500
  2054.0000      0.0000   -999.2500   -999.2500   -999.2500
  2054.2500      0.0000   -999.2500   -999.2500   -999.2500
  2054.5000      0.0000   -999.2500   -999.2500   -999.2500
  2054.7500      0.0000   -999.2500   -999.2500   -999.2500
  2055.0000      0.0000   -999.2500   -999.2500   -999.2500
  2055.2500      0.0000   -999.2500   -999.2500   -999.2500
  2055.5000      0.0000   -999.2500   -999.2500   -999.2500
  2055.7500      0.0000   -999.2500   -999.2500   -999.2500
  2056.0000      0.0000   -999.2500   -999.2500   -999.2500
  2056.2500      0.0000   -999.2500   -999.2500   -999.2500
  2056.5000      0.0000   -999.2500   -999.2500   -999.2500
  2056.7500      0.0000   -999.2500   -999.2500   -999.2500
  2057.0000      0.0000   -999.2500   -999.2500   -999.2500
  2057.2500      0.0000   -999.2500   -999.2500   -999.2500
  2057.5000      0.0000   -999.2500   -999.2500   -999.2500
  2057.7500      0.0000   -999.2500   -999.2500   -999.2500
  2058.0000      0.0000   -999.2500   -999.2500   -999.2500
  2058.2500      0.0000   -999.2500   -999.2500   -999.2500
  2058.5000      0.0000   -999.2500   -999.2500   -999.2500
  2058.7500     -2.0000   -999.2500   -999.2500   -999.2500
  2059.0000      0.0000   -999.2500   -999.2500   -999.2500
  2059.2500      0.0000   -999.2500   -999.2500   -999.2500
  2059.5000   -999.2500   -999.2500   -999.2500   -999.2500
  2059.7500   -999.2500   -999.2500   -999.2500   -999.2500
  2060.0000   -999.2500   -999.2500   -999.2500   -999.2500
  2060.2500   -999.2500   -999.2500   -999.2500   -999.2500
  2060.5000   -999.2500   -999.2500   -999.2500   -999.2500
  2060.7500   -999.2500   -999.2500   -999.2500   -999.2500
  2061.0000   -999.2500   -999.2500   -999.2500   -999.2500
  2061.2500   -999.2500   -999.2500   -999.2500   -999.2500
  2061.5000   -999.2500   -999.2500   -999.2500   -999.2500
  2061.7500   -999.2500   -999.2500   -999.2500   -999.2500
  2062.0000   -999.2500   -999.2500   -999.2500   -999.2500
  2062.2500   -999.2500   -999.2500   -999.2500   -999.2500
