~Version Information
VERS.                      2.0: CWLS Log ASCII Standard - VERSION 2.0
WRAP.                       NO: One line per depth step
~Well Information Block
STRT.FT               615.0000: 
STOP.FT              2815.0000: 
STEP.FT                 0.2500: 
NULL.                -999.2500: 
COMP.          Pioneer Natural Resources: COMPANY
WELL.              Loews 41-32: WELL
FLD.           Purgatoire River: FIELD
LOC.           751' FNL & 128' FEL: LOCATION
CNTY.               Las Animas: COUNTY
SRVC.                Patterson: SERVICE COMPANY
DATE.          Sun Feb 12 02:27:11 2006: LOG DATE
UWI.           05 071 08693 00: UNIQUE WELL ID
STAT.                 Colorado: STATE
~Curve Information Block
DEPT.FT            0 000 00 00: Depth
SN.Ohm-m                      : IEL Short Normal
SP.mV                         : IEL Spontaneous Potential
DIR.Ohm-m                     : IEL Induction Resistivity
GR.GAPI                       : Gamma Ray
~Parameter Information Block
~A  Depth        SN          SP         DIR          GR     
# ...
  2223.0000     15.9527     56.6164     14.7220    124.4800
  2223.2500     14.2712     57.1569     13.9825    129.8143
  2223.5000     13.0447     57.6633     13.2613    138.9769
  2223.7500     12.2509     58.1093     12.5886    145.4265
  2224.0000     11.7906     58.4923     11.9843    153.7020
  2224.2500     11.5932     58.8243     11.4595    157.3224
  2224.5000     11.5228     59.1140     11.0162    159.3433
  2224.7500     11.3931     59.3592     10.6492    158.6636
  2225.0000     11.1797     59.5550     10.3506    155.8058
  2225.2500     10.9755     59.7067     10.1127    153.6700
  2225.5000     10.8191     59.8324      9.9300    151.3482
  2225.7500     10.7282     59.9521      9.7992    150.3139
  2226.0000     10.7115     60.0758      9.7194    148.4580
  2226.2500     10.6788     60.2031      9.6917    146.5639
  2226.5000     10.5725     60.3317      9.7190    142.7527
  2226.7500     10.5294     60.4600      9.8050    139.7243
  2227.0000     10.7049     60.5814      9.9521    134.5430
  2227.2500     11.0700     60.6820     10.1602    130.8148
  2227.5000     11.4786     60.7463     10.4262    125.6089
  2227.7500     11.8168     60.7681     10.7446    122.9510
  2228.0000     12.0700     60.7518     11.1073    120.4589
  2228.2500     12.3252     60.7062     11.5046    119.3236
  2228.5000     12.6954     60.6373     11.9250    116.7683
  2228.7500     13.1796     60.5474     12.3565    113.5254
  2229.0000     13.6633     60.4388     12.7878    105.8252
  2229.2500     14.0936     60.3179     13.2112     99.4058
  2229.5000     14.5226     60.1953     13.6239     89.4888
  2229.7500     14.9873     60.0819     14.0294     83.1637
  2230.0000     15.4636     59.9840     14.4344     73.8120
  2230.2500     15.8830     59.9011     14.8443     67.4916
  2230.5000     16.1718     59.8257     15.2574     58.6675
  2230.7500     16.3254     59.7458     15.6638     54.1653
  2231.0000     16.3882     59.6494     16.0500     50.5906
  2231.2500     16.3749     59.5304     16.4040     50.1066
  2231.5000     16.3016     59.3945     16.7181     50.6026
  2231.7500     16.2282     59.2616     16.9887     50.7484
  2232.0000     16.2242     59.1606     17.2124     49.9105
  2232.2500     16.3330     59.1162     17.3843     48.7493
  2232.5000     16.5365     59.1357     17.5011     46.5469
  2232.7500     16.7565     59.2019     17.5680     44.8648
  2233.0000     16.9586     59.2794     17.6018     41.9536
  2233.2500     17.2076     59.3326     17.6259     39.8698
  2233.5000     17.5441     59.3421     17.6607     37.3234
  2233.7500     17.9077     59.3076     17.7211     36.7969
  2234.0000     18.2257     59.2407     17.8251     39.5073
  2234.2500     18.4715     59.1552     18.0018     44.6175
  2234.5000     18.6597     59.0604     18.2875     57.5275
  2234.7500     18.8551     58.9594     18.7088     68.3030
  2235.0000     19.1327     58.8508     19.2636     83.0932
  2235.2500     19.4743     58.7319     19.9106     89.1087
  2235.5000     19.8283     58.6000     20.5747     89.6030
  2235.7500     20.2720     58.4501     21.1724     84.6531
  2236.0000     20.8986     58.2725     21.6468     72.4934
  2236.2500     21.6255     58.0520     21.9917     63.3757
  2236.5000     22.3398     57.7689     22.2464     50.8269
  2236.7500     23.1045     57.4056     22.4670     44.0063
  2237.0000     24.0432     56.9552     22.6975     36.6399
  2237.2500     25.1284     56.4326     22.9597     33.7716
  2237.5000     26.1894     55.8745     23.2642     32.4369
  2237.7500     27.0558     55.3275     23.6266     33.0643
  2238.0000     27.6475     54.8276     24.0706     34.9426
  2238.2500     27.9700     54.3892     24.6100     36.1893
  2238.5000     28.1011     54.0061     25.2239     37.7397
  2238.7500     28.1787     53.6619     25.8523     38.5704
  2239.0000     28.2902     53.3401     26.4223     39.2856
  2239.2500     28.4020     53.0315     26.8854     39.2047
  2239.5000     28.4670     52.7379     27.2309     38.2459
  2239.7500     28.5211     52.4709     27.4689     37.2802
  2240.0000     28.6359     52.2461     27.6085     35.7084
  2240.2500     28.8309     52.0768     27.6545     34.6330
  2240.5000     29.0646     51.9711     27.6206     33.0598
  2240.7500     29.3066     51.9327     27.5353     32.1870
  2241.0000     29.5764     51.9621     27.4374     31.3102
  2241.2500     29.8534     52.0539     27.3631     30.9734
  2241.5000     30.0149     52.1960     27.3344     30.8877
  2241.7500     29.9607     52.3729     27.3468     31.3200
  2242.0000     29.6886     52.5727     27.3573     32.8896
  2242.2500     29.2282     52.7938     27.2778     34.2945
  2242.5000     28.5836     53.0437     26.9894     36.1707
  2242.7500     27.7696     53.3295     26.3845     37.0233
  2243.0000     26.9144     53.6474     25.4165     37.8746
  2243.2500     26.1398     53.9826     24.1241     38.3469
  2243.5000     25.3398     54.3175     22.6122     39.0696
  2243.7500     24.3464     54.6415     21.0109     39.7650
  2244.0000     23.1743     54.9520     19.4389     42.2954
  2244.2500     21.8538     55.2499     17.9814     46.0970
  2244.5000     20.2777     55.5359     16.6836     56.7254
  2244.7500     18.4302     55.8068     15.5549     67.4218
  2245.0000     16.5215     56.0508     14.5828     87.7110
  2245.2500     14.7849     56.2460     13.7473    102.4269
  2245.5000     13.3395     56.3709     13.0291    122.4799
  2245.7500     12.2506     56.4194     12.4115    132.4790
  2246.0000     11.5220     56.4081     11.8787    141.1037
  2246.2500     11.0268     56.3698     11.4167    143.3961
  2246.5000     10.6101     56.3346     11.0149    144.1708
  2246.7500     10.2617     56.3149     10.6689    143.9510
  2247.0000     10.0539     56.3060     10.3792    142.7712
  2247.2500      9.9816     56.3013     10.1493    141.0332
  2247.5000      9.9900     56.3031      9.9829    136.6830
  2247.7500     10.0486     56.3169      9.8819    133.2006
  2248.0000     10.1329     56.3437      9.8450    129.0197
  2248.2500     10.1947     56.3808      9.8680    127.5740
  2248.5000     10.1862     56.4285      9.9454    126.4941
  2248.7500     10.1319     56.4915     10.0716    125.4271
  2249.0000     10.1271     56.5768     10.2437    122.8154
  2249.2500     10.2340     56.6884     10.4619    121.1937
  2249.5000     10.4335     56.8221     10.7277    120.3687
  2249.7500     10.6442     56.9666     11.0412    120.7024
  2250.0000     10.7909     57.1113     11.3979    120.6076
  2250.2500     10.9176     57.2549     11.7883    119.0880
  2250.5000     11.1564     57.4039     12.2010    114.0646
  2250.7500     11.5439     57.5625     12.6268    109.0043
  2251.0000     11.9670     57.7229     13.0606     99.0614
  2251.2500     12.3227     57.8656     13.5014     91.1315
  2251.5000     12.6516     57.9700     13.9489     78.5397
  2251.7500     13.1054     58.0273     14.4007     70.7369
  2252.0000     13.7935     58.0454     14.8515     61.3729
  2252.2500     14.6495     58.0424     15.2964     56.9350
  2252.5000     15.4831     58.0363     15.7364     52.3702
  2252.7500     16.1297     58.0400     16.1787     50.0950
  2253.0000     16.5438     58.0574     16.6292     47.0820
  2253.2500     16.8036     58.0816     17.0820     45.2786
  2253.5000     17.0197     58.0970     17.5165     43.0693
  2253.7500     17.2224     58.0909     17.9052     41.8907
  2254.0000     17.3781     58.0662     18.2280     40.2497
  2254.2500     17.4842     58.0426     18.4801     39.2071
  2254.5000     17.5801     58.0428     18.6688     38.1937
  2254.7500     17.6804     58.0728     18.8027     38.2507
  2255.0000     17.7437     58.1141     18.8862     39.5625
  2255.2500     17.7288     58.1358     18.9211     40.9047
  2255.5000     17.6347     58.1164     18.9127     42.6832
  2255.7500     17.4880     58.0582     18.8729     43.3279
  2256.0000     17.3575     57.9849     18.8197     43.4642
  2256.2500     17.3179     57.9246     18.7737     43.2730
