~Version Information
VERS.                      2.0: CWLS Log ASCII Standard - VERSION 2.0
WRAP.                       NO: One line per depth step
~Well Information Block
STRT.FT               -10.2500: 
STOP.FT              2871.7500: 
STEP.FT                 0.2500: 
NULL.                -999.2500: 
COMP.          Pioneer Natural Resources: COMPANY
WELL.          Grey Goose 33-30: WELL
FLD.           Purgatorie River: FIELD
LOC.           2136' FSL & 2065' FEL--: LOCATION
STAT.                       CO: State
CNTY.               Las Animas: COUNTY
CTRY. USA : Country
SECT. 30  : Section
TOWN. 32S : Township
RANG. 67W : Range
SRVC.          Patterson Wireline: SERVICE COMPANY
DATE.          Tue Dec 06 12:24:57 2005: LOG DATE
API.            05 071 0854600: UNIQUE WELL ID
~Curve Information Block
DEPT.FT            0 000 00 00: Depth
CCL.                          : Casing Collar Locator
TT3.usec                      : CBL 3' Travel Time
AMP3.mV                       : CBL 3' Amplitude
GR.GAPI                       : Gamma Ray
~Parameter Information Block
~A  Depth       CCL         TT3         AMP3         GR     
# ...
  2837.2500      0.0000    660.6198      2.5823    114.8680
  2837.5000      0.0000    655.3646      2.6381    117.1309
  2837.7500      0.0000    650.7583      2.7686    118.7668
  2838.0000      0.0000    649.6321      2.9827    118.6430
  2838.2500      0.0000    651.5975      3.2609    116.6297
  2838.5000      0.0000    654.3036      3.5580    113.3292
  2838.7500      0.0000    655.5357      3.8206    109.2816
  2839.0000      0.0000    653.8029      4.0117    104.7718
  2839.2500     -2.0000    647.6746      4.1250    100.1142
  2839.5000      0.0000    636.3564      4.1886     95.6355
  2839.7500      0.0000    622.2882      4.2544     91.5527
  2840.0000      0.0000    611.8314      4.3556     88.2201
  2840.2500      0.0000    610.8159      4.4515     86.2582
  2840.5000      0.0000    619.5652      4.4377     86.0952
  2840.7500      0.0000    633.6110      4.2478     87.6421
  2841.0000      0.0000    648.1563      3.9433     90.6149
  2841.2500      0.0000    660.5435      3.6741     94.8171
  2841.5000      0.0000    669.8419      3.5511     99.8546
  2841.7500      0.0000    675.9734      3.5742    104.8211
  2842.0000      0.0000    679.1674      3.6664    108.5327
  2842.2500      0.0000    679.0361      3.7463    110.2744
  2842.5000      0.0000    673.9432      3.7740    110.4487
  2842.7500      0.0000    662.6536      3.7575    110.3944
  2843.0000      0.0000    647.5206      3.7295    111.4153
  2843.2500      0.0000    634.9089      3.7138    113.8990
  2843.5000      0.0000    630.5183      3.7048    116.9926
  2843.7500      0.0000    634.2331      3.6796    118.8240
  2844.0000      0.0000    640.8380      3.6283    117.5984
  2844.2500      0.0000    645.8026      3.5723    113.2723
  2844.5000      0.0000    649.1255      3.5484    107.9986
  2844.7500      0.0000    653.3915      3.5747    104.4379
  2845.0000      0.0000    659.5336      3.6309    103.7384
  2845.2500      0.0000    665.6814      3.6749    105.1971
  2845.5000      0.0000    669.6494      3.6790    107.4443
  2845.7500      0.0000    671.2922      3.6520    109.7415
  2846.0000      0.0000    672.1758      3.6277    112.2866
  2846.2500      0.0000    673.6641      3.6365    115.4167
  2846.5000      0.0000    675.5867      3.6885    118.6454
  2846.7500      0.0000    676.0577      3.7768    120.6947
  2847.0000      0.0000    672.0053      3.8857    120.6746
  2847.2500      0.0000    659.7979      3.9963    119.1691
  2847.5000      0.0000    635.8001      4.0925    117.7117
  2847.7500      0.0000    597.9119      4.1692    116.9908
  2848.0000      0.0000    549.0125      4.2319    116.1643
  2848.2500      0.0000    499.7594      4.2850    114.3982
  2848.5000      0.0000    464.8271      4.3210    112.4060
  2848.7500      0.0000    452.3358      4.3224    111.6477
  2849.0000      0.0000    456.7715      4.2710    112.3681
  2849.2500      0.0000    465.3086      4.1517    113.3314
  2849.5000      0.0000    472.0436      3.9522    113.5394
  2849.7500      0.0000    482.9072      3.6770    113.4340
  2850.0000      0.0000    505.1206      3.3681    114.0631
  2850.2500      0.0000    536.3542      3.0983    115.4204
  2850.5000      0.0000    568.0251      2.9313    116.1589
  2850.7500      0.0000    595.2022      2.8824    115.0630
  2851.0000      0.0000    618.3221      2.9111    112.3533
  2851.2500      0.0000    637.8330      2.9474    109.2042
  2851.5000      0.0000    652.2153      2.9341    106.5326
  2851.7500      0.0000    660.6530      2.8644    104.9023
  2852.0000      0.0000    664.6492      2.7851    105.2099
  2852.2500      0.0000    666.9518      2.7609    108.4051
  2852.5000      0.0000    669.7395      2.8251    114.1760
  2852.7500      0.0000    673.3503      2.9515    120.4707
  2853.0000      0.0000    676.0572      3.0646    124.7799
  2853.2500      0.0000    675.4453      3.0898    125.7933
  2853.5000      0.0000    670.4468      3.0105    123.6725
  2853.7500      0.0000    661.8062      2.8803    119.1751
  2854.0000      0.0000    650.8713      2.7743    113.3140
  2854.2500      0.0000    639.1902      2.7320    107.8196
  2854.5000      0.0000    629.8188      2.7434    104.8039
  2854.7500      0.0000    627.1207      2.7766    105.2985
  2855.0000      0.0000    633.1655      2.8092    108.4746
  2855.2500      0.0000    645.0379      2.8375    112.5048
  2855.5000      0.0000    657.3002      2.8679    115.9141
  2855.7500      0.0000    666.4924      2.9034    118.1465
  2856.0000      0.0000    672.3094      2.9348    119.1080
  2856.2500      0.0000    675.5731      2.9464    118.4660
  2856.5000      0.0000    676.6082      2.9326    115.8653
  2856.7500      0.0000    675.4765      2.9071    111.7796
  2857.0000      0.0000    672.6187      2.8911    107.2704
  2857.2500      0.0000    668.5616      2.8914    102.4261
  2857.5000      0.0000    663.2321      2.8924     95.3901
  2857.7500      0.0000    655.7404      2.8717     83.4210
  2858.0000      0.0000    644.8750      2.8229     65.5328
  2858.2500      0.0000    630.7119      2.7668     44.4212
  2858.5000      0.0000    617.0200      2.7399     25.1843
  2858.7500      0.0000    611.0154      2.7632     11.6839
  2859.0000      0.0000    617.8200      2.8193      4.3710
  2859.2500      0.0000    634.6156      2.8633      1.3057
  2859.5000      0.0000    652.2545      2.8597      0.3085
  2859.7500      0.0000    663.0478      2.8107      0.0574
  2860.0000      0.0000    666.0126      2.7497      0.0074
  2860.2500      0.0000    665.2399      2.7162      0.0000
  2860.5000      0.0000    664.9841      2.7349   -999.2500
  2860.7500      0.0000    666.8418      2.8133   -999.2500
  2861.0000      0.0000    670.4179      2.9475   -999.2500
  2861.2500      0.0000    674.9338      3.1213   -999.2500
  2861.5000      0.0000    679.4460      3.2981   -999.2500
  2861.7500      0.0000    682.3167      3.4243   -999.2500
  2862.0000      0.0000    681.2466      3.4562   -999.2500
  2862.2500      0.0000    673.0511      3.3852   -999.2500
  2862.5000      0.0000    651.4022      3.2300   -999.2500
  2862.7500      0.0000    604.8994      3.0039   -999.2500
  2863.0000      0.0000    521.8928      2.7034   -999.2500
  2863.2500      0.0000    402.9604      2.3353   -999.2500
  2863.5000      0.0000    268.8147      1.9480   -999.2500
  2863.7500      0.0000    150.5771      1.6159   -999.2500
  2864.0000      0.0000     69.3322      1.3898   -999.2500
  2864.2500      0.0000     25.8434      1.2691   -999.2500
  2864.5000      0.0000      7.7132      1.2187   -999.2500
  2864.7500      0.0000      1.8266      1.2023   -999.2500
  2865.0000      0.0000      0.3381      1.1981   -999.2500
  2865.2500      0.0000      0.0450      1.1973   -999.2500
  2865.5000      0.0000   -999.2500   -999.2500   -999.2500
  2865.7500      0.0000   -999.2500   -999.2500   -999.2500
  2866.0000      0.0000   -999.2500   -999.2500   -999.2500
  2866.2500      0.0000   -999.2500   -999.2500   -999.2500
  2866.5000      0.0000   -999.2500   -999.2500   -999.2500
  2866.7500      0.0000   -999.2500   -999.2500   -999.2500
  2867.0000      0.0000   -999.2500   -999.2500   -999.2500
  2867.2500      0.0000   -999.2500   -999.2500   -999.2500
  2867.5000      0.0000   -999.2500   -999.2500   -999.2500
  2867.7500      0.0000   -999.2500   -999.2500   -999.2500
  2868.0000      0.0000   -999.2500   -999.2500   -999.2500
  2868.2500      0.0000   -999.2500   -999.2500   -999.2500
  2868.5000      0.0000   -999.2500   -999.2500   -999.2500
  2868.7500      0.0000   -999.2500   -999.2500   -999.2500
  2869.0000      0.0000   -999.2500   -999.2500   -999.2500
  2869.2500      0.0000   -999.2500   -999.2500   -999.2500
  2869.5000      0.0000   -999.2500   -999.2500   -999.2500
  2869.7500      0.0000   -999.2500   -999.2500   -999.2500
  2870.0000      0.0000   -999.2500   -999.2500   -999.2500
  2870.2500      0.0000   -999.2500   -999.2500   -999.2500
  2870.5000      0.0000   -999.2500   -999.2500   -999.2500
