~Version Information
VERS.                      2.0: CWLS Log ASCII Standard - VERSION 2.0
WRAP.                       NO: One line per depth step
~Well Information Block
STRT.FT               830.0000: 
STOP.FT              1782.5000: 
STEP.FT                 0.1000: 
NULL.                -999.2500: 
COMP.          Pioneer Natural Resources: COMPANY
WELL.          Manville 42-14 Tr: WELL
FLD.           Purgatoire River: FIELD
LOC.           2018 FNL & 562' FEL: LOCATION
STAT.                 Colorado: State
CNTY.               Las Animas: COUNTY
CTRY. USA : Country
SECT. 14 : Section
TOWN. 32S : Township
RANG. 66W : Range
SRVC.                Patterson: SERVICE COMPANY
DATE.          Mon Sep 19 09:44:06 2005: LOG DATE
API.           05 071 08522 00: UNIQUE WELL ID
~Curve Information Block
DEPT.FT            0 000 00 00: Depth
DCAL.in                       : CDL Caliper
RHOB.g/cc                     : CDL Bulk Density
RHOC.g/cc                     : CDL Density Correction
DPOR.pu                       : CDL Density Porosity
GR.GAPI                       : Gamma Ray
NPOR.pu                       : Neutron Porosity
~Parameter Information Block
~A  Depth       DCAL        RHOB        RHOC        DPOR         GR         NPOR    
# ...
  1703.6000      8.0411      2.5425      0.0552      6.5165    153.5126     26.1201
  1703.7000      8.0411      2.5378      0.0050      6.7989    136.3153     25.3434
  1703.8000      8.0499      2.5366      0.0110      6.8736    132.3135     24.8790
  1703.9000      8.0499      2.5356      0.0723      6.9313    140.5421     24.8347
  1704.0000      8.0479      2.5320      0.0316      7.1523    148.5683     24.4964
  1704.1000      8.0479      2.5318      0.0406      7.1624    154.5145     23.4969
  1704.2000      8.0479      2.5295      0.0856      7.3012    159.9773     22.6250
  1704.3000      8.0423      2.5195      0.0165      7.9062    158.7444     22.6102
  1704.4000      8.0423      2.5142      0.0263      8.2275    151.3040     23.3390
  1704.5000      8.0357      2.5139      0.0540      8.2507    145.6785     24.3362
  1704.6000      8.0357      2.5018      0.0625      8.9837    141.0511     24.8717
  1704.7000      8.0357      2.4806      0.0091     10.2640    134.6788     25.0659
  1704.8000      8.0426      2.4747      0.0312     10.6243    131.3421     25.5519
  1704.9000      8.0426      2.4900      0.0541      9.6983    133.8862     26.0906
  1705.0000      8.0401      2.5081      0.0700      8.6011    138.1672     26.4384
  1705.1000      8.0401      2.5263      0.0502      7.4956    141.7007     26.6080
  1705.2000      8.0401      2.5554      0.1015      5.7364    147.0721     26.5848
  1705.3000      7.9986      2.5848      0.1711      3.9522    152.8568     26.1925
  1705.4000      7.9986      2.6023      0.1673      2.8893    150.9326     25.4061
  1705.5000      8.0062      2.6137      0.1101      2.2027    140.9454     24.4285
  1705.6000      8.0062      2.6152      0.1772      2.1073    131.4442     23.3992
  1705.7000      8.0062      2.5953      0.0811      3.3179    127.3298     22.5924
  1705.8000      8.0391      2.5710     -0.0066      4.7893    125.0777     22.0808
  1705.9000      8.0391      2.5725      0.0150      4.6972    119.3845     21.7406
  1706.0000      8.0706      2.5967      0.0373      3.2323    112.0350     21.6881
  1706.1000      8.0706      2.6142      0.0591      2.1681    106.3299     21.9219
  1706.2000      8.0706      2.6124      0.0502      2.2814     99.1382     21.9833
  1706.3000      8.0151      2.6007      0.0215      2.9863     88.5407     21.3127
  1706.4000      8.0151      2.5947      0.0279      3.3491     79.9052     19.9210
  1706.5000      7.9870      2.6052      0.0466      2.7142     76.2244     18.4995
  1706.6000      7.9870      2.6298      0.0358      1.2260     74.3473     17.5664
  1706.7000      7.9870      2.6511      0.0341     -0.0682     73.1396     16.9071
  1706.8000      7.9770      2.6466      0.0971      0.2084     71.6418     16.0282
  1706.9000      7.9770      2.6225      0.0124      1.6669     68.7862     15.0255
  1707.0000      7.9785      2.6096      0.0193      2.4499     66.2950     14.4057
  1707.1000      7.9785      2.6160      0.0167      2.0611     64.4817     14.2417
  1707.2000      7.9785      2.6254      0.0660      1.4936     61.9649     14.4859
  1707.3000      7.9949      2.6255      0.0493      1.4834     58.7624     15.0800
  1707.4000      7.9949      2.6276      0.0261      1.3584     56.2154     15.3975
  1707.5000      8.0022      2.6385      0.0937      0.6952     54.0703     15.0910
  1707.6000      8.0022      2.6450      0.0653      0.3016     52.6921     14.7295
  1707.7000      8.0022      2.6471      0.0134      0.1777     56.3481     14.6761
  1707.8000      7.9959      2.6471      0.0961      0.1752     63.8772     14.6526
  1707.9000      7.9959      2.6346      0.0370      0.9348     66.6476     14.6956
  1708.0000      7.9912      2.6143      0.0556      2.1654     64.7989     15.2877
  1708.1000      7.9912      2.5953      0.0044      3.3143     65.3047     16.6269
  1708.2000      7.9912      2.5722      0.0437      4.7153     69.1604     18.4095
  1708.3000      7.9954      2.5425      0.0138      6.5152     75.0080     19.6682
  1708.4000      7.9954      2.5206      0.0071      7.8436     85.2499     20.0082
  1708.5000      8.0047      2.5161      0.0389      8.1129     99.0563     20.7131
  1708.6000      8.0047      2.5164      0.0574      8.0978    111.2299     22.5845
  1708.7000      8.0047      2.5031      0.0374      8.9029    121.5238     24.3767
  1708.8000      7.9882      2.4775      0.0175     10.4571    132.1112     25.3686
  1708.9000      7.9882      2.4530      0.0286     11.9393    141.9286     26.2805
  1709.0000      7.9617      2.4361      0.0482     12.9610    148.1138     27.1400
  1709.1000      7.9617      2.4248      0.0645     13.6466    152.9320     27.3123
  1709.2000      7.9617      2.4223      0.0392     13.8015    160.3299     27.0020
  1709.3000      8.0006      2.4387      0.0185     12.8044    165.2026     26.8182
  1709.4000      8.0006      2.4714      0.0421     10.8253    158.5193     26.7817
  1709.5000      8.0977      2.4940      0.0964      9.4547    145.8660     26.9781
  1709.6000      8.0977      2.4872      0.0554      9.8667    141.8872     27.6822
  1709.7000      8.0977      2.4712      0.0032     10.8393    146.3414     28.4253
  1709.8000      8.0534      2.4753      0.0251     10.5860    147.5659     28.4455
  1709.9000      8.0534      2.4957      0.0353      9.3506    142.9886     27.5239
  1710.0000      8.0654      2.5107      0.0777      8.4400    140.3548     25.9710
  1710.1000      8.0654      2.5123      0.0860      8.3469    143.3808     25.0154
  1710.2000      8.0654      2.5045      0.0276      8.8173    147.6261     25.2544
  1710.3000      8.0772      2.4935      0.0387      9.4858    148.9577     25.2991
  1710.4000      8.0772      2.4905     -0.0212      9.6655    148.5190     24.5307
  1710.5000      8.0736      2.4994      0.0235      9.1289    147.8000     23.8719
  1710.6000      8.0736      2.5032      0.0538      8.8954    145.2600     23.6860
  1710.7000      8.0736      2.4935      0.0339      9.4831    139.6550     23.8461
  1710.8000      8.0648      2.4849      0.0201     10.0058    133.5706     24.4726
  1710.9000      8.0648      2.4894      0.0489      9.7317    129.5544     25.4860
  1711.0000      8.0414      2.5062      0.0287      8.7151    127.4060     26.2510
  1711.1000      8.0414      2.5281      0.1177      7.3873    126.9108     26.1407
  1711.2000      8.0414      2.5456      0.1304      6.3271    127.1521     25.1631
  1711.3000      8.0260      2.5632      0.1049      5.2607    124.3689     24.0954
  1711.4000      8.0260      2.5890      0.1419      3.6951    116.8000     23.3285
  1711.5000      7.9338      2.6138      0.1784      2.1917    109.6316     22.9154
  1711.6000      7.9338      2.6270      0.1719      1.3926    108.7810     23.2246
  1711.7000      7.9338      2.6254      0.1416      1.4892    112.4490     24.1038
  1711.8000      7.8614      2.6081      0.0980      2.5382    115.5714     24.7163
  1711.9000      7.8614      2.5781      0.1263      4.3571    116.5603     24.2838
  1712.0000      7.8560      2.5469      0.0485      6.2479    113.8356     23.3894
  1712.1000      7.8560      2.5328      0.0015      7.1040    108.4903     23.1482
  1712.2000      7.8560      2.5392      0.0266      6.7165    107.9841     23.2761
  1712.3000      7.9279      2.5517      0.0503      5.9558    116.8155     23.1605
  1712.4000      7.9279      2.5637      0.0174      5.2308    129.8485     23.0930
  1712.5000      7.9466      2.5776      0.0764      4.3905    136.7937     23.4761
  1712.6000      7.9466      2.5854      0.0844      3.9152    135.3175     24.2372
  1712.7000      7.9466      2.5762      0.0770      4.4725    131.5417     24.7017
  1712.8000      7.9557      2.5539      0.0552      5.8227    130.8659     24.6833
  1712.9000      7.9557      2.5398      0.0180      6.6780    134.7197     24.8658
  1713.0000      7.9569      2.5494      0.0208      6.0958    138.8420     25.3440
  1713.1000      7.9569      2.5698      0.0788      4.8585    140.6774     25.6870
