~Version Information
VERS.                      2.0: CWLS Log ASCII Standard - VERSION 2.0
WRAP.                       NO: One line per depth step
~Well Information Block
STRT.FT                -8.7500: 
STOP.FT              1035.7500: 
STEP.FT                 0.2500: 
NULL.                -999.2500: 
COMP.          Pioneer Natural Resources: COMPANY
WELL.                Mac 22-36: WELL
FLD.           Purgatorie River: FIELD
LOC.           2545' FNL & 1398' FWL--: LOCATION
PROV.                       CO: PROVINCE
CNTY.               Las Animas: COUNTRY
SRVC.          Patterson Wireline: SERVICE COMPANY
DATE.          Thu Dec 08 13:20:05 2005: LOG DATE
UWI.           08 071 08594 00: UNIQUE WELL ID
~Curve Information Block
DEPT.FT            0 000 00 00: Depth
CCL.                          : Casing Collar Locator
TT3.usec                      : CBL 3' Travel Time
AMP3.mV                       : CBL 3' Amplitude
GR.GAPI                       : Gamma Ray
~Parameter Information Block
~A  Depth       CCL         TT3         AMP3         GR     
# ...
   259.2500      0.0000    910.8725      8.5557    113.8875
   259.5000      0.0000    920.2778      8.1213    111.0812
   259.7500      0.0000    920.0560      7.7241    108.1905
   260.0000      0.0000    899.7546      7.5932    105.7735
   260.2500      0.0000    860.7031      7.8538    105.5960
   260.5000      0.0000    816.1323      8.3836    109.0188
   260.7500      0.0000    780.6974      8.9089    115.9001
   261.0000      0.0000    760.6276      9.2405    124.7562
   261.2500      0.0000    753.6122      9.3804    133.7089
   261.5000      0.0000    754.6309      9.4284    141.3195
   261.7500      0.0000    759.4172      9.4562    146.6939
   262.0000      0.0000    763.6915      9.4760    149.1705
   262.2500      0.0000    762.7067      9.4779    148.4026
   262.5000      0.0000    753.8151      9.4643    144.9471
   262.7500      0.0000    739.2349      9.4569    140.4508
   263.0000      0.0000    724.7972      9.4809    136.6446
   263.2500      0.0000    715.6093      9.5473    133.8440
   263.5000      0.0000    713.1972      9.6462    130.6792
   263.7500      0.0000    716.0738      9.7577    125.6571
   264.0000      0.0000    721.8928      9.8701    119.0031
   264.2500      0.0000    728.9540      9.9829    112.9884
   264.5000      0.0000    736.3951     10.0944    110.5831
   264.7500      0.0000    743.7115     10.1938    113.5383
   265.0000      0.0000    750.4316     10.2717    121.0238
   265.2500      0.0000    756.1408     10.3315    129.8213
   265.5000      0.0000    760.7329     10.3804    136.2543
   265.7500      0.0000    764.6319     10.4043    138.4113
   266.0000      0.0000    768.4529     10.3603    137.0739
   266.2500      0.0000    772.3210     10.2081    135.2671
   266.5000      0.0000    775.9730      9.9609    136.6518
   266.7500      0.0000    779.5106      9.7015    142.7040
   267.0000      0.0000    783.4138      9.5371    150.5618
   267.2500      0.0000    787.8436      9.5296    154.4116
   267.5000      0.0000    792.5095      9.6615    149.7821
   267.7500      0.0000    797.0354      9.8557    136.6831
   268.0000      0.0000    801.0294     10.0255    119.1397
   268.2500      0.0000    804.0895     10.1206    102.4468
   268.5000      0.0000    806.1844     10.1512     90.5636
   268.7500      0.0000    807.7317     10.1816     85.0544
   269.0000      0.0000    808.9905     10.2959     85.6449
   269.2500      0.0000    809.7264     10.5679     91.2155
   269.5000      0.0000    809.7325     11.0434     99.9601
   269.7500      0.0000    809.3375     11.7164    109.0290
   270.0000      0.0000    809.1583     12.4962    115.1754
   270.2500      0.0000    809.6132     13.2175    116.7048
   270.5000      0.0000    810.7940     13.7188    114.9614
   270.7500      0.0000    812.2780     13.9326    113.5030
   271.0000      0.0000    812.8145     13.9016    115.3263
   271.2500      0.0000    810.9692     13.7212    120.7118
   271.5000      0.0000    806.6036     13.4722    127.7476
   271.7500      0.0000    801.2513     13.1864    134.5815
   272.0000      0.0000    796.7667     12.8498    140.5575
   272.2500      0.0000    793.9665     12.4353    145.5930
   272.5000      0.0000    792.5959     11.9423    149.7545
   272.7500      0.0000    792.0558     11.4111    153.6890
   273.0000      0.0000    791.9097     10.9048    158.0637
   273.2500      0.0000    791.9449     10.4778    161.8135
   273.5000      0.0000    792.0360     10.1593    161.7804
   273.7500      0.0000    792.0165      9.9635    155.0425
   274.0000      0.0000    791.6257      9.9052    141.6621
   274.2500      0.0000    790.4651      9.9943    124.9516
   274.5000      0.0000    788.0209     10.2196    109.2084
   274.7500      0.0000    783.9107     10.5531     97.3013
   275.0000      0.0000    778.2460     10.9793     89.9840
   275.2500      0.0000    771.6577     11.5173     86.7380
   275.5000      0.0000    764.9255     12.2154     86.7084
   275.7500      0.0000    758.7420     13.1198     88.9658
   276.0000      0.0000    753.7388     14.2207     92.4895
   276.2500      0.0000    750.3375     15.4057     96.4682
   276.5000      0.0000    748.4783     16.4719    100.7671
   276.7500      0.0000    747.6984     17.2139    105.9351
   277.0000      0.0000    747.5013     17.5226    112.4341
   277.2500      0.0000    747.5727     17.4105    119.8273
   277.5000      0.0000    747.7375     16.9639    126.9460
   277.7500      0.0000    747.8734     16.2889    132.9700
   278.0000      0.0000    747.9179     15.4899    138.0500
   278.2500      0.0000    747.8860     14.6594    142.4713
   278.5000      0.0000    747.8315     13.8661    145.5618
   278.7500      0.0000    747.7757     13.1495    146.3275
   279.0000      0.0000    747.6917     12.5245    145.1286
   279.2500      0.0000    747.5498     11.9870    143.7587
   279.5000      0.0000    747.3621     11.5209    143.5859
   279.7500      0.0000    747.1786     11.1094    144.0587
   280.0000      0.0000    747.0501     10.7481    143.2147
   280.2500      0.0000    746.9991     10.4525    139.6597
   280.5000      0.0000    747.0118     10.2575    134.0359
   280.7500      0.0000    747.0461     10.2004    128.4700
   281.0000      0.0000    747.0558     10.2932    124.7573
   281.2500      0.0000    747.0154     10.5117    123.3998
   281.5000      0.0000    746.9305     10.8154    124.0733
   281.7500      0.0000    746.8395     11.1675    126.1310
   282.0000      0.0000    746.8008     11.5351    128.4905
   282.2500      0.0000    746.8507     11.8823    129.7233
   282.5000      0.0000    746.9576     12.1780    128.7936
   282.7500      0.0000    747.0383     12.4024    125.7053
   283.0000      0.0000    747.0336     12.5426    121.3330
   283.2500      0.0000    746.9578     12.5910    116.7149
   283.5000      0.0000    746.8666     12.5534    112.6654
   283.7500      0.0000    746.7994     12.4529    109.9371
   284.0000      0.0000    746.7621     12.3210    109.2816
   284.2500      0.0000    746.7468     12.1881    110.9626
   284.5000      0.0000    746.7472     12.0855    114.4166
   284.7500      0.0000    746.7634     12.0512    118.8624
   285.0000      0.0000    746.8007     12.1177    124.0550
   285.2500      0.0000    746.8574     12.2800    129.9357
   285.5000      0.0000    746.9017     12.4641    135.8608
   285.7500      0.0000    746.8777     12.5403    140.8442
   286.0000      0.0000    746.7430     12.3953    144.7366
   286.2500      0.0000    746.4952     12.0263    148.5987
   286.5000      0.0000    746.1554     11.5706    153.1790
   286.7500      0.0000    745.7477     11.2293    156.8501
   287.0000      0.0000    745.3044     11.1426    155.8052
   287.2500      0.0000    744.8439     11.3164    147.1733
   287.5000      0.0000    744.2906     11.6426    131.9721
   287.7500      0.0000    743.3770     11.9752    114.9190
   288.0000      0.0000    741.6840     12.2022    101.7258
   288.2500      0.0000    738.9633     12.2773     96.1645
   288.5000      0.0000    735.4656     12.2167     98.2340
   288.7500      0.0000    731.6563     12.0819    104.3175
   289.0000      0.0000    727.4847     11.9689    109.6236
   289.2500      0.0000    722.4163     11.9896    111.1028
   289.5000      0.0000    716.4659     12.2259    108.4039
   289.7500      0.0000    710.6830     12.6681    102.7721
   290.0000      0.0000    706.2676     13.1910     95.9090
   290.2500      0.0000    703.5775     13.6123     89.7200
   290.5000      0.0000    702.1638     13.8020     86.0396
   290.7500      0.0000    701.3936     13.7531     85.6865
   291.0000      0.0000    700.8439     13.5541     87.8532
   291.2500      0.0000    700.3510     13.3097     90.8317
   291.5000      0.0000    699.9464     13.0864     93.4175
   291.7500      0.0000    699.8911     12.9083     95.5959
   292.0000      0.0000    700.8737     12.7707     98.2050
   292.2500      0.0000    704.3938     12.6511    102.3389
   292.5000      0.0000    712.7949     12.5238    108.7384
