~Version Information
 VERS.                                  2.0 : CWLS LAS VERSION
 WRAP.                                   NO : WRAPING MODE
 SWARE .                  MController 2.5.1 : SOFTWARE VERSION
~Well Information
 WELL.                           Erin 21-15 : WELL
 COMP.  Pioneer Natural Resources USA, Inc. : COMPANY
 FLD.                      Purgatoire River : FIELD
 LOC.             NE/NW Sec. 15, T33S, R67W : LOCATION
 DATE.                03/01/2006-03/02/2006 : DATE(S) LOGGED
 SRVC.                  Entrada GeoSciences : SERVICE COMPANY
 STAT.                             Colorado : STATE
 CNTY.                           Las Animas : COUNTY
 CTRY.                        United States : COUNTRY
 API.                          05-071-08713 : API NUMBER
 STRT.FT                             553.00 : START DEPTH
 STOP.FT                            2200.00 : STOP DEPTH
 STEP.FT                               1.00 : DEPTH INCREMENT
 NULL.                                -9999 : NULL VALUE
~Curve information
 DEPTH.FT                                   :
 ROP.MIN/FT                                 :
 GAS.UNITS                                  :
~ASCII Log data
# ...
     1553.00         0.33         29.2 
     1554.00         0.30         39.2 
     1555.00         0.27         37.3 
     1556.00         0.37         31.7 
     1557.00         0.33         26.3 
     1558.00         0.17         26.8 
     1559.00         0.13         27.2 
     1560.00         0.13         29.2 
     1561.00         0.20         32.7 
     1562.00         0.20         35.4 
     1563.00         0.17         37.2 
     1564.00         0.23         38.2 
     1565.00         0.28         38.4 
     1566.00         0.23         39.2 
     1567.00         0.27         42.2 
     1568.00         0.23         44.1 
     1569.00         0.23         43.8 
     1570.00         0.23         44.0 
     1571.00         0.27         45.3 
     1572.00         0.27         45.6 
     1573.00         0.27         43.2 
     1574.00         0.33         43.4 
     1575.00         0.27         44.1 
     1576.00         0.27         45.1 
     1577.00         0.38         45.8 
     1578.00         0.30         17.5 
     1579.00         0.37         18.6 
     1580.00         0.30         31.5 
     1581.00         0.35         63.0 
     1582.00         0.23         71.3 
     1583.00         0.13         72.2 
     1584.00         0.20         66.5 
     1585.00         0.30         53.2 
     1586.00         0.40         39.9 
     1587.00         0.33         29.8 
     1588.00         0.23         22.8 
     1589.00         0.23         29.0 
     1590.00         0.30         42.0 
     1591.00         0.27         38.9 
     1592.00         0.23         31.2 
     1593.00         0.20         28.3 
     1594.00         0.32         25.3 
     1595.00         0.47         35.1 
     1596.00         0.30         35.6 
     1597.00         0.43         35.3 
     1598.00         0.20         38.7 
     1599.00         0.23         39.9 
     1600.00         0.27         43.3 
     1601.00         0.23         43.0 
     1602.00         0.23         44.5 
     1603.00         0.23         46.3 
     1604.00         0.23         46.8 
     1605.00         0.23         44.9 
     1606.00         0.28         44.4 
     1607.00         0.23         43.0 
     1608.00         0.48         24.4 
     1609.00         0.30         33.4 
     1610.00         0.27         61.9 
     1611.00         0.27         81.0 
     1612.00         0.30         80.3 
     1613.00         0.30         69.2 
     1614.00         0.23         59.9 
     1615.00         0.20         53.2 
     1616.00         0.23         41.6 
     1617.00         0.17         35.1 
     1618.00         0.20         40.2 
     1619.00         0.20         40.3 
     1620.00         0.20         39.3 
     1621.00         0.23         41.3 
     1622.00         0.32         40.0 
     1623.00         0.23         39.4 
     1624.00         0.23         40.4 
     1625.00         0.27         39.9 
     1626.00         0.23         41.3 
     1627.00         0.23         46.0 
     1628.00         0.23         51.6 
     1629.00         0.23         53.3 
     1630.00         0.23         51.7 
     1631.00         0.17         50.6 
     1632.00         0.23         50.8 
     1633.00         0.17         50.1 
     1634.00         0.23         48.2 
     1635.00         0.20         45.8 
     1636.00         0.20         43.5 
     1637.00         0.22         42.7 
     1638.00         0.37         22.6 
     1639.00         0.30         27.9 
     1640.00         0.27         42.2 
     1641.00         0.28         49.0 
     1642.00         0.27         49.0 
     1643.00         0.27         40.7 
     1644.00         0.33         33.5 
     1645.00         0.23         30.5 
     1646.00         0.30         27.3 
     1647.00         0.37         21.8 
     1648.00         0.23         26.6 
     1649.00         0.23         34.4 
     1650.00         0.30         32.7 
     1651.00         0.50         28.1 
     1652.00         0.55         31.3 
     1653.00         0.43         34.9 
     1654.00         0.33         38.0 
     1655.00         0.30         39.9 
     1656.00         0.33         41.9 
     1657.00         0.37         41.4 
     1658.00         0.27         42.3 
     1659.00         0.30         42.5 
     1660.00         0.30         44.8 
     1661.00         0.28         45.4 
     1662.00         0.33         44.3 
     1663.00         0.30         43.2 
     1664.00         0.30         42.5 
     1665.00         0.30         39.6 
     1666.00         0.37         40.6 
     1667.00         0.47         41.2 
     1668.00         0.27         24.3 
     1669.00         0.33         22.8 
     1670.00         0.43         44.0 
     1671.00         0.40         89.5 
     1672.00         0.43         95.0 
     1673.00         0.33         66.5 
     1674.00         0.48         49.0 
     1675.00         0.50         39.3 
     1676.00         0.17         47.0 
     1677.00         0.20         49.3 
     1678.00         0.17         46.7 
     1679.00         0.13         44.8 
     1680.00         0.13         44.8 
     1681.00         0.20         42.1 
     1682.00         0.17         39.7 
     1683.00         0.17         37.6 
     1684.00         0.17         37.6 
     1685.00         0.13         37.8 
     1686.00         0.17         38.2 
     1687.00         0.17         38.3 
     1688.00         0.33         42.9 
     1689.00         0.13         45.9 
     1690.00         0.25         49.8 
     1691.00         0.20         49.6 
     1692.00         0.27         49.4 
     1693.00         0.23         51.0 
     1694.00         0.17         54.1 
     1695.00         0.30         56.6 
     1696.00         0.27         56.7 
     1697.00         0.20         55.7 
     1698.00         0.27         18.9 
     1699.00         0.53         53.9 
     1700.00         0.70         61.8 
     1701.00         0.60         46.6 
     1702.00         0.45         38.4 
     1703.00         0.27         36.5 
     1704.00         0.27         41.6 
     1705.00         0.17         43.4 
     1706.00         0.27         43.0 
     1707.00         0.27         42.9 
     1708.00         0.27         40.8 
     1709.00         0.47         40.2 
     1710.00         0.37         45.6 
     1711.00         0.47         50.0 
     1712.00         0.33         53.5 
     1713.00         0.42         57.1 
     1714.00         0.40         52.8 
     1715.00         0.37         51.7 
     1716.00         0.37         53.3 
     1717.00         0.33         53.7 
     1718.00         0.40         50.6 
     1719.00         0.43         45.0 
     1720.00         0.37         42.9 
     1721.00         0.30         40.9 
     1722.00         0.42         38.8 
     1723.00         0.37         40.0 
     1724.00         0.43         45.5 
     1725.00         0.33         46.0 
     1726.00         0.23         47.7 
     1727.00         0.17         47.8 
     1728.00         0.20         50.9 
     1729.00         0.40         40.3 
     1730.00         0.17         56.7 
     1731.00         0.27         73.0 
     1732.00         0.23         76.8 
     1733.00         0.20         73.9 
     1734.00         0.28         65.1 
     1735.00         0.20         57.5 
     1736.00         0.23         50.9 
     1737.00         0.33         43.7 
     1738.00         0.20         38.5 
     1739.00         0.27         32.9 
     1740.00         0.20         41.4 
     1741.00         0.20         44.2 
     1742.00         0.13         43.3 
     1743.00         0.13         42.4 
     1744.00         0.13         41.3 
     1745.00         0.17         40.1 
     1746.00         0.20         37.8 
     1747.00         0.20         37.4 
     1748.00         0.20         36.3 
     1749.00         0.20         32.8 
     1750.00         0.17         36.0 
     1751.00         0.13         37.4 
     1752.00         0.12         38.7 
