~Version Information
VERS.                      2.0: CWLS Log ASCII Standard - VERSION 2.0
WRAP.                       NO: One line per depth step
~Well Information Block
STRT.FT               460.0000: 
STOP.FT              1509.0000: 
STEP.FT                 0.2500: 
NULL.                -999.2500: 
COMP.          Pioneer Natural Resources: COMPANY
WELL.           Amore 32-09 Tr: WELL
FLD.           Purgatoire River: FIELD
LOC.           1941' FNL & 2297' FEL: LOCATION
PROV.                 Colorado: PROVINCE
CNTY.               Las Animas: COUNTRY
SRVC.                Patterson: SERVICE COMPANY
DATE.          Mon Nov 14 11:07:52 2005: LOG DATE
UWI.           05 071 08584 00: UNIQUE WELL ID
~Curve Information Block
DEPT.FT            0 000 00 00: Depth
SN.Ohm-m                      : IEL Short Normal
SP.mV                         : IEL Spontaneous Potential
DIR.Ohm-m                     : IEL Induction Resistivity
GR.GAPI                       : Gamma Ray
~Parameter Information Block
~A  Depth        SN          SP         DIR          GR     
# ...
  1197.0000     28.6054    133.4560 100000.0000    112.1974
  1197.2500     28.5843    133.5092 100000.0000    114.6590
  1197.5000     28.2022    133.5475 100000.0000    120.7045
  1197.7500     27.6101    133.5757 100000.0000    125.3349
  1198.0000     26.9902    133.5982 100000.0000    131.5153
  1198.2500     26.4696    133.6226    474.2975    134.7386
  1198.5000     26.0594    133.6574     37.0221    138.8623
  1198.7500     25.7039    133.7068     22.1633    141.6867
  1199.0000     25.4106    133.7661     17.7591    146.0215
  1199.2500     25.2768    133.8235     16.0896    148.3528
  1199.5000     25.3924    133.8674     15.4978    149.8057
  1199.7500     25.7902    133.8987     15.4352    149.0815
  1200.0000     26.4604    133.9347     15.7216    145.7590
  1200.2500     27.3470    134.0006     16.3397    142.6086
  1200.5000     28.3624    134.1110     17.3410    137.5235
  1200.7500     29.4291    134.2568     18.7903    134.2035
  1201.0000     30.5156    134.4083     20.7247    129.2336
  1201.2500     31.6680    134.5298     23.1220    125.8773
  1201.5000     32.9629    134.5949     25.8832    121.2744
  1201.7500     34.3597    134.5938     28.8435    118.8753
  1202.0000     35.6754    134.5300     31.8085    116.1078
  1202.2500     36.7608    134.4119     34.5881    114.1803
  1202.5000     37.5714    134.2442     37.0118    110.3055
  1202.7500     38.0974    134.0268     38.9474    107.2884
  1203.0000     38.3856    133.7609     40.3424    103.3625
  1203.2500     38.5696    133.4546     41.2532    101.6215
  1203.5000     38.7768    133.1211     41.8089     99.8588
  1203.7500     39.0075    132.7688     42.1261     98.5441
  1204.0000     39.1707    132.3955     42.2511     95.5845
  1204.2500     39.2349    131.9937     42.1777     93.0215
  1204.5000     39.2679    131.5607     41.9078     88.8686
  1204.7500     39.3134    131.1029     41.4830     86.2286
  1205.0000     39.3253    130.6294     40.9598     82.9484
  1205.2500     39.2324    130.1427     40.3678     81.4046
  1205.5000     38.9493    129.6343     39.7112     80.0398
  1205.7500     38.4100    129.0901     39.0153     79.6445
  1206.0000     37.6896    128.4970     38.3591     79.7091
  1206.2500     36.9648    127.8490     37.8431     80.0706
  1206.5000     36.3327    127.1503     37.5064     80.4316
  1206.7500     35.7508    126.4176     37.2661     80.0000
  1207.0000     35.1465    125.6815     36.9353     77.6826
  1207.2500     34.5554    124.9795     36.3152     74.9720
  1207.5000     34.1063    124.3452     35.2917     69.6514
  1207.7500     33.8783    123.7957     33.8547     65.8418
  1208.0000     33.8263    123.3270     32.0473     60.9473
  1208.2500     33.8321    122.9177     29.9305     58.7868
  1208.5000     33.7997    122.5416     27.6110     57.3976
  1208.7500     33.7183    122.1816     25.2745     57.3494
  1209.0000     33.6485    121.8381     23.1468     57.7268
  1209.2500     33.6238    121.5266     21.4058     58.0332
  1209.5000     33.5859    121.2643     20.1242     58.8362
  1209.7500     33.4904    121.0553     19.2745     59.8483
  1210.0000     33.3736    120.8854     18.7798     62.0312
  1210.2500     33.2363    120.7270     18.5883     63.6464
  1210.5000     33.0585    120.5539     18.7695     65.9167
  1210.7500     32.8953    120.3517     19.6489     67.3114
  1211.0000     32.7795    120.1183     22.1201     69.3262
  1211.2500     32.6707    119.8551     28.9890     70.5805
  1211.5000     32.5641    119.5591     56.5670     72.1908
  1211.7500     32.4648    119.2250 100000.0000     73.0866
  1212.0000     32.2873    118.8518 100000.0000     74.0559
  1212.2500     31.9552    118.4461 100000.0000     74.0615
  1212.5000     31.5513    118.0183 100000.0000     72.2334
  1212.7500     31.2367    117.5754 100000.0000     69.7785
  1213.0000     31.0737    117.1164 100000.0000     65.4801
  1213.2500     30.9993    116.6339 100000.0000     63.0885
  1213.5000     30.9240    116.1211 100000.0000     60.7411
  1213.7500     30.8178    115.5765 100000.0000     59.7457
  1214.0000     30.7170    115.0003 100000.0000     58.6302
  1214.2500     30.6526    114.3867 100000.0000     58.0770
  1214.5000     30.5911    113.7188 100000.0000     57.4364
  1214.7500     30.4840    112.9689 100000.0000     56.9724
  1215.0000     30.3607    112.1027 100000.0000     56.1246
  1215.2500     30.3158    111.0852 100000.0000     55.6585
  1215.5000     30.3936    109.8866 100000.0000     55.6060
  1215.7500     30.5382    108.4827 100000.0000     56.1604
  1216.0000     30.6699    106.8485 100000.0000     57.8713
  1216.2500     30.7360    104.9483 100000.0000     59.4994
  1216.5000     30.6717    102.7303 100000.0000     62.2935
  1216.7500     30.4354    100.1300 100000.0000     64.1088
  1217.0000     30.1031     97.0822 100000.0000     66.6506
  1217.2500     29.7340     93.5315 100000.0000     68.4867
  1217.5000     29.2253     89.4269 100000.0000     72.0918
  1217.7500     28.4348     84.6887 100000.0000     75.4214
  1218.0000     27.2374     79.1496      6.8256     82.7120
  1218.2500     25.4908     72.4804      1.4729     89.7894
  1218.5000     23.1758     64.1168      0.6948    103.9603
  1218.7500     20.4037     53.2285      0.4242    114.5714
  1219.0000     17.2022     38.8043      0.3126    128.1790
  1219.2500     13.5736     19.9462      0.2777    133.4340
  1219.5000      9.7849     -3.5968      0.2905    133.7997
  1219.7500      6.3857    -30.7803      0.3376    129.2065
  1220.0000      3.8847    -58.8469      0.4059    116.5240
  1220.2500      2.4400    -83.6490      0.4775    105.5671
  1220.5000      1.8261   -101.0321      0.5379     88.5536
  1220.7500      1.6762   -108.8194      0.5873     78.7863
  1221.0000      1.7409   -108.0487      0.6380     68.8532
  1221.2500      1.9125   -102.2859      0.6993     65.8372
  1221.5000      2.1199    -95.3538      0.7655     66.4212
  1221.7500      2.3028    -89.0959      0.8160     69.8871
  1222.0000      2.4387    -82.5464      0.8280     79.1451
  1222.2500      2.5169    -72.7596      0.7928     87.4347
  1222.5000      2.5224    -56.7696      0.7164    101.2069
  1222.7500      2.5562    -33.6761      0.6137    109.9596
  1223.0000      2.9520     -5.5618      0.5053    120.5097
  1223.2500      4.1262     23.5000      0.4125    125.1526
  1223.5000      6.2065     49.5969      0.3499    128.5634
  1223.7500      8.7982     70.6102      0.3261    129.3112
  1224.0000     11.2030     86.3734      0.3500    130.1953
  1224.2500     12.9138     97.8047      0.4429    131.2337
  1224.5000     13.8667    106.0114      0.6664    132.7422
  1224.7500     14.3012    111.8856      1.2498    132.9479
  1225.0000     14.4985    116.0882      3.8714    131.8775
  1225.2500     14.6252    119.1317 100000.0000    130.8838
  1225.5000     14.7303    121.4161 100000.0000    130.1466
  1225.7500     14.8391    123.2295 100000.0000    130.2955
  1226.0000     14.9708    124.7523 100000.0000    130.7753
  1226.2500     15.0308    126.0780 100000.0000    130.7799
  1226.5000     14.8468    127.2460 100000.0000    130.3086
  1226.7500     14.3932    128.2786 100000.0000    130.1641
  1227.0000     13.9077    129.2013 100000.0000    130.8202
  1227.2500     13.7677    130.0373 100000.0000    131.6031
  1227.5000     14.2461    130.7921 100000.0000    132.2735
  1227.7500     15.3824    131.4565 100000.0000    132.0807
  1228.0000     16.9673    132.0278 100000.0000    131.4683
  1228.2500     18.5791    132.5251 100000.0000    131.6091
  1228.5000     19.7851    132.9807 100000.0000    133.5442
  1228.7500     20.3908    133.4175 100000.0000    136.0327
  1229.0000     20.4560    133.8348 100000.0000    141.2096
  1229.2500     20.1298    134.2123 100000.0000    145.3170
  1229.5000     19.5504    134.5270 100000.0000    151.4224
  1229.7500     18.8415    134.7705 100000.0000    154.4911
  1230.0000     18.1399    134.9550 100000.0000    156.1755
  1230.2500     17.6121    135.1064 100000.0000    155.2799
