~Version Information
VERS.                      2.0: CWLS Log ASCII Standard - VERSION 2.0
WRAP.                       NO: One line per depth step
~Well Information Block
STRT.FT               -15.7500: 
STOP.FT              1862.5000: 
STEP.FT                 0.2500: 
NULL.                -999.2500: 
COMP.          XTO Energy Inc.: COMPANY
WELL.          Golden Eagle 19-11: WELL
FLD.           Purgatorie River: FIELD
LOC.           2351' FSL &1926' WL--: LOCATION
CNTY.               Las Animas: COUNTY
SRVC.          Patterson Wireline: SERVICE COMPANY
DATE.          Fri Mar 24 16:29:29 2006: LOG DATE
UWI.           05 071 08696 00: UNIQUE WELL ID
STAT.                       CO: STATE
~Curve Information Block
DEPT.FT            0 000 00 00: Depth
CCL.                          : Casing Collar Locator
TT3.usec                      : CBL 3' Travel Time
AMP3.mV                       : CBL 3' Amplitude
GR.GAPI                       : Gamma Ray
~Parameter Information Block
~A  Depth       CCL         TT3         AMP3         GR     
# ...
  1692.7500      0.0000    508.9151      3.1938     58.7586
  1693.0000      0.0000    507.8374      3.1847     57.7945
  1693.2500      0.0000    510.7667      3.1790     58.4284
  1693.5000      0.0000    522.8913      3.1704     60.0272
  1693.7500      0.0000    547.3258      3.1504     61.3194
  1694.0000      0.0000    575.2631      3.1168     61.7745
  1694.2500      0.0000    589.9358      3.0748     61.9889
  1694.5000      0.0000    582.8881      3.0322     62.8642
  1694.7500      0.0000    563.1563      2.9943     64.6945
  1695.0000      0.0000    546.8795      2.9626     67.1716
  1695.2500      0.0000    539.8187      2.9369     69.9065
  1695.5000      0.0000    533.6373      2.9170     72.5585
  1695.7500      0.0000    517.9258      2.9012     74.7047
  1696.0000      0.0000    491.4636      2.8858     76.0025
  1696.2500      0.0000    461.5824      2.8668     76.4061
  1696.5000      0.0000    436.4325      2.8436     76.1136
  1696.7500      0.0000    419.6938      2.8211     75.5206
  1697.0000      0.0000    410.7043      2.8063     75.2091
  1697.2500      0.0000    407.2784      2.8016     75.5686
  1697.5000      0.0000    408.4602      2.8026     76.3046
  1697.7500      0.0000    416.3125      2.8013     76.5329
  1698.0000      0.0000    435.7765      2.7928     75.4579
  1698.2500      0.0000    470.7710      2.7775     72.9840
  1698.5000      0.0000    517.2972      2.7607     69.7976
  1698.7500      0.0000    560.5946      2.7478     66.9875
  1699.0000      0.0000    583.6414      2.7413     65.3688
  1699.2500      0.0000    581.5761      2.7424     64.8135
  1699.5000      0.0000    566.2005      2.7524     64.3232
  1699.7500      0.0000    554.6024      2.7713     63.1012
  1700.0000      0.0000    554.8832      2.7951     61.5040
  1700.2500      0.0000    563.1481      2.8163     60.6349
  1700.5000      0.0000    570.3663      2.8285     60.9870
  1700.7500      0.0000    569.8139      2.8300     61.8185
  1701.0000      0.0000    560.4805      2.8248     61.9580
  1701.2500      0.0000    546.2449      2.8195     60.9079
  1701.5000      0.0000    532.3085      2.8189     59.0384
  1701.7500      0.0000    521.9885      2.8230     57.1457
  1702.0000      0.0000    515.8719      2.8281     56.1954
  1702.2500      0.0000    512.8510      2.8288     57.0709
  1702.5000      0.0000    511.4870      2.8210     59.8433
  1702.7500      0.0000    510.7724      2.8024     63.2796
  1703.0000      0.0000    510.2765      2.7727     65.6461
  1703.2500      0.0000    509.9571      2.7340     66.1774
  1703.5000      0.0000    510.1712      2.6903     65.4898
  1703.7500      0.0000    512.0573      2.6461     64.6828
  1704.0000      0.0000    518.1268      2.6044     64.3724
  1704.2500      0.0000    531.9996      2.5659     64.3990
  1704.5000      0.0000    555.8531      2.5289     64.1528
  1704.7500      0.0000    586.5248      2.4910     63.2671
  1705.0000      0.0000    614.5885      2.4514     62.1497
  1705.2500      0.0000    629.8629      2.4131     61.7893
  1705.5000      0.0000    629.5260      2.3801     62.9176
  1705.7500      0.0000    620.4260      2.3537     65.3162
  1706.0000      0.0000    613.0771      2.3321     68.0422
  1706.2500      0.0000    614.1302      2.3127     70.4338
  1706.5000      0.0000    624.0082      2.2949     72.7352
  1706.7500      0.0000    638.8016      2.2803     75.6283
  1707.0000      0.0000    653.0344      2.2704     79.3853
  1707.2500      0.0000    662.6948      2.2645     83.5903
  1707.5000      0.0000    667.5025      2.2603     87.3677
  1707.7500      0.0000    670.2383      2.2558     89.6495
  1708.0000      0.0000    673.9002      2.2508     89.5304
  1708.2500      0.0000    679.4308      2.2463     86.8075
  1708.5000      0.0000    685.2876      2.2422     82.3125
  1708.7500      0.0000    688.4120      2.2375     77.5711
  1709.0000      0.0000    685.6267      2.2338     73.9240
  1709.2500      0.0000    674.4827      2.2356     71.7542
  1709.5000      0.0000    653.5655      2.2468     70.4832
  1709.7500      0.0000    624.1543      2.2671     69.2793
  1710.0000      0.0000    593.1627      2.2928     67.7583
  1710.2500      0.0000    572.5056      2.3189     66.1687
  1710.5000      0.0000    570.5583      2.3408     65.0500
  1710.7500      0.0000    582.7892      2.3543     64.7201
  1711.0000      0.0000    594.5833      2.3562     65.1413
  1711.2500      0.0000    595.5852      2.3467     66.3575
  1711.5000      0.0000    588.9457      2.3319     68.8807
  1711.7500      0.0000    585.6760      2.3200     73.4029
  1712.0000      0.0000    592.3300      2.3150     80.0673
  1712.2500      0.0000    605.3071      2.3134     87.9262
  1712.5000      0.0000    616.2714      2.3090     94.9935
  1712.7500      0.0000    622.1813      2.3014     99.2135
  1713.0000      0.0000    628.3201      2.2972     99.9591
  1713.2500      0.0000    640.6759      2.3043     98.5026
  1713.5000      0.0000    658.1923      2.3223     96.7088
  1713.7500      0.0000    674.6032      2.3421     95.5547
  1714.0000      0.0000    685.2598      2.3513     95.0700
  1714.2500      0.0000    689.6832      2.3441     94.9240
  1714.5000      0.0000    688.7624      2.3259     94.5028
  1714.7500      0.0000    681.2798      2.3100     92.9791
  1715.0000      0.0000    662.8949      2.3078     89.9111
  1715.2500      0.0000    628.8921      2.3222     85.6811
  1715.5000      0.0000    579.6468      2.3483     81.1991
  1715.7500      0.0000    523.8450      2.3797     77.3355
  1716.0000      0.0000    474.4150      2.4111     74.6905
  1716.2500      0.0000    440.1602      2.4384     73.6059
  1716.5000      0.0000    421.5398      2.4586     73.9342
  1716.7500      0.0000    413.5917      2.4711     74.8458
  1717.0000      0.0000    411.0731      2.4779     75.3202
  1717.2500      0.0000    411.0432      2.4812     74.9429
  1717.5000      0.0000    412.7721      2.4814     74.0720
  1717.7500      0.0000    416.7585      2.4762     73.3642
  1718.0000      0.0000    423.6713      2.4632     73.2006
  1718.2500      0.0000    433.5112      2.4451     73.3836
  1718.5000      0.0000    445.7817      2.4310     73.3260
  1718.7500      0.0000    460.9478      2.4316     72.7362
  1719.0000      0.0000    481.6012      2.4521     72.2138
  1719.2500      0.0000    510.5289      2.4893     72.9735
  1719.5000      0.0000    546.3314      2.5344     75.6988
  1719.7500      0.0000    582.1831      2.5789     79.6268
  1720.0000      0.0000    610.4755      2.6181     82.9526
  1720.2500      0.0000    627.1490      2.6503     84.2451
  1720.5000      0.0000    631.0555      2.6753     83.4578
  1720.7500      0.0000    623.7872      2.6952     81.8429
  1721.0000      0.0000    612.5669      2.7155     81.1042
  1721.2500      0.0000    608.3840      2.7416     82.2971
  1721.5000      0.0000    618.0735      2.7727     85.2743
  1721.7500      0.0000    640.0579      2.8018     89.2406
  1722.0000      0.0000    667.1578      2.8220     93.4919
  1722.2500      0.0000    691.2119      2.8316     97.2857
  1722.5000      0.0000    706.9034      2.8339     99.5473
  1722.7500      0.0000    714.2294      2.8352     99.4286
  1723.0000      0.0000    717.3583      2.8433     96.9043
  1723.2500      0.0000    720.2575      2.8668     92.4491
  1723.5000      0.0000    723.5217      2.9135     86.6156
  1723.7500      0.0000    725.1556      2.9864     80.3987
  1724.0000      0.0000    723.5933      3.0795     75.6052
  1724.2500      0.0000    719.5662      3.1770     74.0408
  1724.5000      0.0000    715.2966      3.2604     75.9072
  1724.7500      0.0000    712.0277      3.3192     79.2204
  1725.0000      0.0000    707.7542      3.3539     81.2341
  1725.2500      0.0000    696.6592      3.3715     80.5630
  1725.5000      0.0000    671.9693      3.3794     77.9787
  1725.7500      0.0000    632.2493      3.3831     75.4261
  1726.0000      0.0000    586.1875      3.3867     74.2728
