~Version Information
VERS.                      2.0: CWLS Log ASCII Standard - VERSION 2.0
WRAP.                       NO: One line per depth step
~Well Information Block
STRT.FT                10.0000: 
STOP.FT              1063.0000: 
STEP.FT                 0.1000: 
NULL.                -999.2500: 
COMP.          Pioneer Natural Resources: COMPANY
WELL.                Mac 22-36: WELL
FLD.           Purgatorie River: FIELD
LOC.           2545' FNL & 1398' FWL: LOCATION
PROV.                 Colorado: PROVINCE
CNTY.               Las Animas: COUNTRY
SRVC.                Patterson: SERVICE COMPANY
DATE.          Mon Dec 05 10:55:42 2005: LOG DATE
UWI.                          : UNIQUE WELL ID
~Curve Information Block
DEPT.FT            0 000 00 00: Depth
DCAL.in                       : CDL Caliper
RHOB.g/cc                     : CDL Bulk Density
RHOC.g/cc                     : CDL Density Correction
DPOR.pu                       : CDL Density Porosity
GR.GAPI                       : Gamma Ray
NPOR.pu                       : Neutron Porosity
~Parameter Information Block
~A  Depth       DCAL        RHOB        RHOC        DPOR         GR         NPOR    
# ...
   288.4000      8.1788      1.5657     -0.0917     65.7140    101.2313     16.0218
   288.5000      8.1694      1.5464     -0.0646     66.8871     97.3185     16.2003
   288.6000      8.1694      1.5872      0.0330     64.4110     96.2030     16.5614
   288.7000      8.1694      1.6791      0.0972     58.8423     98.1374     17.1468
   288.8000      8.2406      1.7958      0.1091     51.7680     99.7827     18.2264
   288.9000      8.2406      1.9199      0.1612     44.2507    101.9677     19.8102
   289.0000      8.2898      2.0417      0.1599     36.8692    107.1113     21.5917
   289.1000      8.2898      2.1582      0.1781     29.8064    113.1862     23.2750
   289.2000      8.2898      2.2719      0.1808     22.9129    117.3998     24.5313
   289.3000      8.1569      2.3741      0.2694     16.7211    119.7324     25.1819
   289.4000      8.1569      2.4399      0.2424     12.7334    121.4830     25.4923
   289.5000      8.1077      2.4664      0.0528     11.1245    124.4568     25.9729
   289.6000      8.1077      2.4794      0.0061     10.3413    129.2331     26.7192
   289.7000      8.1077      2.4881      0.0393      9.8096    133.1460     27.2158
   289.8000      8.0054      2.4862      0.0052      9.9294    132.3786     27.2323
   289.9000      8.0054      2.4794      0.0032     10.3392    126.2799     26.9487
   290.0000      8.0104      2.4851     -0.0549      9.9946    120.1067     26.4924
   290.1000      8.0104      2.5112      0.0287      8.4134    118.7194     26.1037
   290.2000      8.0104      2.5386      0.0250      6.7540    119.4276     25.8880
   290.3000      8.0161      2.5476     -0.0005      6.2055    117.8667     25.5581
   290.4000      8.0161      2.5380      0.0234      6.7878    113.8356     24.8748
   290.5000      7.9734      2.5177     -0.0137      8.0185    107.6026     24.0531
   290.6000      7.9734      2.4948      0.0039      9.4046    100.1408     23.4526
   290.7000      7.9734      2.4659      0.0129     11.1569     93.4925     23.0886
   290.8000      7.9623      2.4293     -0.0159     13.3781     89.3735     22.7829
   290.9000      7.9623      2.4015     -0.0813     15.0616     88.2964     22.4719
   291.0000      7.9534      2.3966     -0.0260     15.3568     88.5746     22.2418
   291.1000      7.9534      2.4067      0.0021     14.7457     89.9092     22.0150
   291.2000      7.9534      2.4182      0.0182     14.0475     92.8572     21.5134
   291.3000      7.9522      2.4295      0.0188     13.3635     96.1474     20.7080
   291.4000      7.9522      2.4456      0.0317     12.3882     99.3576     19.8900
   291.5000      7.9507      2.4641      0.0707     11.2656    100.4836     19.3106
   291.6000      7.9507      2.4773      0.0938     10.4675     98.1407     19.0290
   291.7000      7.9507      2.4811      0.0798     10.2337     97.1028     18.9724
   291.8000      7.9469      2.4741      0.1050     10.6621     98.6904     18.9144
   291.9000      7.9469      2.4647      0.0336     11.2317     99.2133     18.7350
   292.0000      7.9426      2.4671      0.0743     11.0874     98.5689     18.5966
   292.1000      7.9426      2.4781      0.0599     10.4198     98.0531     18.6117
   292.2000      7.9426      2.4859      0.0894      9.9445     97.4958     18.8494
   292.3000      7.9447      2.4861      0.0505      9.9333     98.9501     19.3120
   292.4000      7.9447      2.4779      0.0935     10.4310    104.9126     19.7945
   292.5000      7.9491      2.4603      0.0431     11.4976    113.9868     20.0334
   292.6000      7.9491      2.4435      0.0131     12.5152    121.4679     20.0000
   292.7000      7.9491      2.4362      0.0400     12.9567    124.3595     20.0668
   292.8000      7.9492      2.4338      0.0209     13.1013    124.3648     20.3185
   292.9000      7.9492      2.4372     -0.0154     12.8991    123.9343     20.4779
   293.0000      7.9459      2.4469      0.0220     12.3087    124.3530     20.7108
   293.1000      7.9459      2.4488      0.0527     12.1925    127.1020     21.2109
   293.2000      7.9459      2.4394      0.0007     12.7633    131.9335     21.6719
   293.3000      7.9445      2.4337     -0.0082     13.1066    137.4220     22.1084
   293.4000      7.9445      2.4379      0.0220     12.8557    142.6449     22.8232
   293.5000      7.9528      2.4477     -0.0040     12.2626    144.2166     23.5409
   293.6000      7.9528      2.4590      0.0130     11.5745    140.9850     23.8785
   293.7000      7.9528      2.4681      0.0206     11.0227    137.2143     23.8537
   293.8000      7.9557      2.4756      0.0180     10.5715    133.7202     23.5482
   293.9000      7.9557      2.4803      0.0422     10.2823    129.6532     23.1080
   294.0000      7.9545      2.4804     -0.0049     10.2816    128.2179     22.7025
   294.1000      7.9545      2.4824      0.0316     10.1602    130.5637     22.3271
   294.2000      7.9545      2.4880      0.0530      9.8179    132.3410     21.9346
   294.3000      7.9578      2.4885      0.0256      9.7853    129.6893     21.5641
   294.4000      7.9578      2.4820      0.0177     10.1838    124.5121     21.3818
   294.5000      7.9547      2.4805      0.0145     10.2750    121.3078     21.4208
   294.6000      7.9547      2.4917      0.0428      9.5921    122.2094     21.4630
   294.7000      7.9547      2.5050      0.0429      8.7867    125.6423     21.4510
   294.8000      7.9580      2.5122      0.0348      8.3509    128.9595     21.6502
   294.9000      7.9580      2.5196      0.0317      7.9058    131.3577     22.0155
   295.0000      7.9568      2.5297      0.0494      7.2916    133.5625     22.2168
   295.1000      7.9568      2.5347      0.0764      6.9855    136.5991     22.2973
   295.2000      7.9568      2.5315      0.0401      7.1802    139.1199     22.4909
   295.3000      7.9587      2.5294      0.0398      7.3084    139.1524     22.8072
   295.4000      7.9587      2.5413      0.0058      6.5881    138.9800     23.2083
   295.5000      7.9603      2.5650      0.0602      5.1537    141.2919     23.5710
   295.6000      7.9603      2.5810      0.0623      4.1799    142.8951     23.7613
   295.7000      7.9603      2.5829      0.0653      4.0654    139.9556     23.7582
   295.8000      7.9624      2.5847      0.0318      3.9552    134.1803     23.4457
   295.9000      7.9624      2.5920      0.0896      3.5168    128.3244     23.0150
   296.0000      7.9614      2.5841      0.1059      3.9925    124.8142     22.7225
   296.1000      7.9614      2.5504      0.0549      6.0334    125.0308     22.5715
   296.2000      7.9614      2.5175     -0.0153      8.0310    124.7723     22.4696
   296.3000      7.9582      2.5106      0.0043      8.4472    122.3946     22.2519
   296.4000      7.9582      2.5201      0.0355      7.8706    120.8512     22.0108
   296.5000      7.9511      2.5288      0.0110      7.3448    121.9870     22.1732
   296.6000      7.9511      2.5319      0.0602      7.1594    125.4029     22.6760
   296.7000      7.9511      2.5275      0.0179      7.4217    129.0300     23.0028
   296.8000      7.9535      2.5234      0.0349      7.6734    130.8873     23.0051
   296.9000      7.9535      2.5274      0.0217      7.4283    130.1103     22.9840
   297.0000      7.9562      2.5316      0.0335      7.1767    128.6413     23.1672
   297.1000      7.9562      2.5222      0.0284      7.7463    128.0423     23.3927
   297.2000      7.9562      2.4991      0.0069      9.1436    126.6000     23.4866
   297.3000      7.9591      2.4807     -0.0746     10.2615    124.9800     23.4710
   297.4000      7.9591      2.4853     -0.0119      9.9794    123.2780     23.3609
   297.5000      7.9624      2.5062      0.0210      8.7125    119.4953     23.2559
   297.6000      7.9624      2.5233      0.0415      7.6793    115.2120     23.3783
   297.7000      7.9624      2.5333     -0.0116      7.0757    112.6422     23.7331
   297.8000      7.9545      2.5375      0.0669      6.8152    112.9560     23.9642
   297.9000      7.9545      2.5295      0.0114      7.3001    116.6544     23.8743
