~Version Information
VERS.                      2.0: CWLS Log ASCII Standard - VERSION 2.0
WRAP.                       NO: One line per depth step
~Well Information Block
STRT.FT               230.0000: 
STOP.FT               706.5000: 
STEP.FT                 0.1000: 
NULL.                -999.2500: 
COMP.          Pioneer Natural Resources: COMPANY
WELL.          Razor Clam 23-27: WELL
FLD.           Purgatoire River: FIELD
LOC.           2499' FSL & 2636' FWL: LOCATION
CNTY.               Las Animas: COUNTY
SRVC.                Patterson: SERVICE COMPANY
DATE.          Mon Feb 13 07:31:47 2006: LOG DATE
UWI.           05 071 08667 00: UNIQUE WELL ID
STAT.                 Colorado: STATE
~Curve Information Block
DEPT.FT            0 000 00 00: Depth
DCAL.in                       : CDL Caliper
RHOB.g/cc                     : CDL Bulk Density
RHOC.g/cc                     : CDL Density Correction
DPOR.pu                       : CDL Density Porosity
GR.GAPI                       : Gamma Ray
NPOR.pu                       : Neutron Porosity
~Parameter Information Block
~A  Depth       DCAL        RHOB        RHOC        DPOR         GR         NPOR    
# ...
   412.4000      8.0231      2.4670      0.0066     11.0886    120.5645      8.3398
   412.5000      8.0208      2.4799      0.0364     10.3085    119.3118      8.6918
   412.6000      8.0208      2.4986      0.0500      9.1785    120.7190      8.9796
   412.7000      8.0208      2.5064      0.0694      8.7000    122.2641      9.2964
   412.8000      8.0190      2.4941      0.0443      9.4478    121.2729      9.4609
   412.9000      8.0190      2.4637      0.0414     11.2938    120.7956      9.3272
   413.0000      8.0211      2.4395     -0.0361     12.7598    124.3850      9.3149
   413.1000      8.0211      2.4406      0.0260     12.6923    127.1030      9.3557
   413.2000      8.0211      2.4489      0.0246     12.1868    123.5324      8.8466
   413.3000      8.0209      2.4488     -0.0011     12.1967    119.1255      8.1727
   413.4000      8.0209      2.4504     -0.0031     12.0960    122.6146      8.0831
   413.5000      8.0214      2.4621      0.0020     11.3895    130.8169      8.4927
   413.6000      8.0214      2.4759      0.0197     10.5492    133.5745      9.1126
   413.7000      8.0214      2.4836     -0.0078     10.0870    131.1775     10.0025
   413.8000      8.0219      2.4838      0.0310     10.0708    128.9221     11.1566
   413.9000      8.0219      2.4825      0.0032     10.1506    127.6967     12.0537
   414.0000      8.0200      2.4917     -0.0039      9.5915    128.3081     12.0849
   414.1000      8.0200      2.5045      0.0601      8.8154    129.8153     11.5890
   414.2000      8.0200      2.5003      0.0457      9.0724    129.5458     11.5402
   414.3000      8.0054      2.4855     -0.0122      9.9676    126.0530     12.0968
   414.4000      8.0054      2.4805      0.0432     10.2703    123.0453     12.5231
   414.5000      8.0190      2.4828      0.0656     10.1335    128.0321     12.5125
   414.6000      8.0190      2.4819      0.0329     10.1881    141.6773     12.2423
   414.7000      8.0190      2.4783      0.0113     10.4039    155.0226     11.7485
   414.8000      8.0215      2.4736      0.0159     10.6936    158.0460     11.6267
   414.9000      8.0215      2.4693     -0.0040     10.9506    150.9283     12.2519
   415.0000      8.0217      2.4612      0.0439     11.4431    141.7329     12.5806
   415.1000      8.0217      2.4411     -0.0024     12.6576    133.9526     12.1104
   415.2000      8.0217      2.4223     -0.0259     13.8011    127.7137     11.8191
   415.3000      8.0210      2.4192     -0.0161     13.9899    126.0483     11.9678
   415.4000      8.0210      2.4236     -0.0258     13.7214    128.0622     11.8319
   415.5000      8.0219      2.4266     -0.0054     13.5408    127.5481     11.2293
   415.6000      8.0219      2.4416     -0.0244     12.6322    120.1549     10.5041
   415.7000      8.0219      2.4825     -0.0394     10.1501    108.0591      9.8750
   415.8000      8.0187      2.5285      0.0671      7.3612     98.5379      9.3164
   415.9000      8.0187      2.5540      0.0277      5.8157     93.8051      8.7272
   416.0000      8.0187      2.5667      0.0256      5.0501     91.0444      8.4077
   416.1000      8.0187      2.5746      0.0562      4.5679     92.4581      8.3937
   416.2000      8.0187      2.5774      0.0355      4.4021     96.6188      8.4193
   416.3000      8.0125      2.5870      0.0307      3.8193     95.8339      8.5360
   416.4000      8.0125      2.6065      0.0558      2.6383     89.6739      8.6813
   416.5000      8.0023      2.6166      0.0317      2.0219     83.2175      8.5315
   416.6000      8.0023      2.6044      0.0662      2.7619     77.9847      8.1666
   416.7000      8.0023      2.5776      0.0060      4.3873     72.6689      8.2513
   416.8000      7.9929      2.5503     -0.0016      6.0419     68.4147      9.0332
   416.9000      7.9929      2.5278     -0.0137      7.4065     66.7615      9.5811
   417.0000      7.9898      2.5123     -0.0176      8.3442     67.2340      9.3990
   417.1000      7.9898      2.5083     -0.0228      8.5850     68.0314      9.2675
   417.2000      7.9898      2.5163     -0.0259      8.1037     69.3632      9.5680
   417.3000      7.9930      2.5278      0.0112      7.4046     72.2541      9.9675
   417.4000      7.9930      2.5340      0.0267      7.0282     76.4002     10.1746
   417.5000      7.9953      2.5374      0.0343      6.8273     81.1110     10.1982
   417.6000      7.9953      2.5400      0.0537      6.6693     84.0282     10.2197
   417.7000      7.9953      2.5396      0.0142      6.6922     86.5111     10.2897
   417.8000      7.9973      2.5416      0.0394      6.5715     91.6367     10.4683
   417.9000      7.9973      2.5518      0.0289      5.9513     96.0908     11.0840
   418.0000      7.9931      2.5690      0.0474      4.9103     94.7785     12.1158
   418.1000      7.9931      2.5808      0.0835      4.1913     88.8786     12.7629
   418.2000      7.9931      2.5723      0.1050      4.7089     83.9740     12.5923
   418.3000      7.9983      2.5489      0.0739      6.1259     81.2314     12.2610
   418.4000      7.9983      2.5352      0.0444      6.9572     77.7232     12.0838
   418.5000      8.0052      2.5423      0.0605      6.5244     76.3517     11.8348
   418.6000      8.0052      2.5570      0.0614      5.6392     82.3890     11.8482
   418.7000      8.0052      2.5609      0.0694      5.4021     95.7697     12.4407
   418.8000      8.0163      2.5500      0.0313      6.0614    107.2563     13.1635
   418.9000      8.0163      2.5360      0.0075      6.9094    108.2468     13.5400
   419.0000      8.0177      2.5334     -0.0029      7.0662    104.2052     13.8058
   419.1000      8.0177      2.5413      0.0099      6.5850    104.2831     14.0409
   419.2000      8.0177      2.5401      0.0421      6.6598    105.9718     14.0414
   419.3000      8.0159      2.5165     -0.0165      8.0922    103.5429     14.3128
   419.4000      8.0159      2.4870     -0.0525      9.8762    102.1720     15.3670
   419.5000      8.0155      2.4786     -0.0256     10.3852    106.1681     16.7653
   419.6000      8.0155      2.4967     -0.0266      9.2899    111.4717     17.7309
   419.7000      8.0155      2.5218      0.0368      7.7669    116.6273     18.1910
   419.8000      8.0144      2.5326      0.0578      7.1164    121.0136     18.5578
   419.9000      8.0144      2.5260      0.0084      7.5157    123.8262     18.8060
   420.0000      8.0167      2.5155      0.0184      8.1486    127.1945     18.9309
   420.1000      8.0167      2.5171      0.0010      8.0543    129.1749     19.3192
   420.2000      8.0167      2.5332      0.0287      7.0775    125.9629     19.7143
   420.3000      8.0106      2.5438      0.0596      6.4355    122.2494     19.2560
   420.4000      8.0106      2.5313      0.0543      7.1931    123.8257     18.5077
   420.5000      8.0064      2.5045      0.0407      8.8166    127.2054     18.8392
   420.6000      8.0064      2.4794      0.0277     10.3385    126.3887     20.0022
   420.7000      8.0064      2.4643     -0.0079     11.2538    122.1283     20.5488
   420.8000      8.0078      2.4613      0.0273     11.4393    118.8643     20.1982
   420.9000      8.0078      2.4646     -0.0077     11.2388    120.0371     19.9970
   421.0000      8.0061      2.4732     -0.0355     10.7152    125.3463     20.5481
   421.1000      8.0061      2.4850      0.0524     10.0026    129.5599     21.1833
   421.2000      8.0061      2.4930      0.0544      9.5137    129.1025     21.2245
   421.3000      8.0013      2.5023      0.0731      8.9506    128.3083     21.0818
   421.4000      8.0013      2.5250      0.0545      7.5754    128.7901     21.1280
   421.5000      7.9797      2.5589      0.1182      5.5182    126.5121     21.2448
   421.6000      7.9797      2.5798      0.1343      4.2561    121.8955     21.5222
   421.7000      7.9797      2.5743      0.1022      4.5909    120.1449     22.2034
   421.8000      7.9812      2.5554      0.0788      5.7320    125.3112     23.1373
   421.9000      7.9812      2.5330      0.0786      7.0936    137.2558     23.7569
