~Version Information
VERS.                      2.0: CWLS Log ASCII Standard - VERSION 2.0
WRAP.                       NO: One line per depth step
~Well Information Block
STRT.FT                -8.5000: 
STOP.FT              2030.0000: 
STEP.FT                 0.2500: 
NULL.                -999.2500: 
COMP.          Pioneer Natural Resources: COMPANY
WELL.           Alabaster 11-8: WELL
FLD.           Purgatorie River: FIELD
LOC.           1249' FNL & 215' FWL--: LOCATION
PROV.                       CO: PROVINCE
CNTY.               Las Animas: COUNTRY
SRVC.          Patterson Wireline: SERVICE COMPANY
DATE.          Mon Jan 30 11:59:01 2006: LOG DATE
UWI.           05 071 08642 00: UNIQUE WELL ID
~Curve Information Block
DEPT.FT            0 000 00 00: Depth
CCL.                          : Casing Collar Locator
TT3.usec                      : CBL 3' Travel Time
AMP3.mV                       : CBL 3' Amplitude
GR.GAPI                       : Gamma Ray
~Parameter Information Block
~A  Depth       CCL         TT3         AMP3         GR     
# ...
  1733.5000      0.0000    434.2441      2.4148     91.5339
  1733.7500      0.0000    425.7563      2.4736     92.8799
  1734.0000      0.0000    422.2713      2.5367     95.3232
  1734.2500      0.0000    420.6983      2.5919     97.8332
  1734.5000      0.0000    419.5176      2.6251     99.2755
  1734.7500      0.0000    417.9838      2.6259     99.3396
  1735.0000      0.0000    415.5645      2.5934     98.7441
  1735.2500      0.0000    411.7405      2.5369     98.2487
  1735.5000      0.0000    405.9857      2.4709     97.5790
  1735.7500      0.0000    397.9971      2.4106     95.6880
  1736.0000      0.0000    388.3030      2.3658     92.0810
  1736.2500      0.0000    378.7174      2.3415     87.4625
  1736.5000      0.0000    371.7946      2.3416     82.9705
  1736.7500      0.0000    369.3106      2.3700     79.1519
  1737.0000      0.0000    371.0174      2.4258     75.8318
  1737.2500      0.0000    374.9516      2.4989     72.5979
  1737.5000      0.0000    379.1421      2.5710     69.1724
  1737.7500      0.0000    382.9572      2.6212     65.5602
  1738.0000      0.0000    386.7157      2.6336     62.1438
  1738.2500      0.0000    390.4768      2.6031     59.6371
  1738.5000      0.0000    393.7066      2.5369     58.7563
  1738.7500      0.0000    395.7939      2.4526     59.8395
  1739.0000      0.0000    396.3213      2.3732     62.6122
  1739.2500      0.0000    394.9396      2.3194     66.0101
  1739.5000      0.0000    391.5696      2.3027     68.3939
  1739.7500      0.0000    386.9970      2.3235     68.5882
  1740.0000      0.0000    382.9736      2.3776     66.9349
  1740.2500      0.0000    381.2732      2.4599     64.9669
  1740.5000      0.0000    382.5509      2.5596     63.9297
  1740.7500      0.0000    386.1544      2.6555     63.8186
  1741.0000      0.0000    390.7441      2.7226     63.7999
  1741.2500      0.0000    394.8689      2.7459     63.2742
  1741.5000      0.0000    397.2443      2.7290     62.3972
  1741.7500      0.0000    396.9050      2.6906     61.7677
  1742.0000      0.0000    393.4233      2.6539     61.9247
  1742.2500      0.0000    387.3468      2.6342     63.1443
  1742.5000      0.0000    380.4937      2.6320     65.2449
  1742.7500      0.0000    375.3338      2.6370     67.3450
  1743.0000      0.0000    373.4258      2.6395     68.2086
  1743.2500      0.0000    374.1199      2.6367     67.2105
  1743.5000      0.0000    374.8815      2.6296     64.8348
  1743.7500      0.0000    373.2623      2.6166     62.0520
  1744.0000      0.0000    368.8336      2.5933     59.3552
  1744.2500      0.0000    363.2179      2.5575     56.6632
  1744.5000      0.0000    358.4306      2.5136     54.0915
  1744.7500      0.0000    355.4943      2.4672     52.3350
  1745.0000      0.0000    354.4238      2.4149     51.9264
  1745.2500      0.0000    355.0077      2.3444     52.3543
  1745.5000      0.0000    357.3570      2.2551     52.3605
  1745.7500      0.0000    361.8434      2.1846     51.2549
  1746.0000      0.0000    368.5753      2.1998     49.7453
  1746.2500      0.0000    376.7990      2.3380     49.3088
  1746.5000      0.0000    384.6177      2.5593     50.8672
  1746.7500      0.0000    389.4529      2.7788     54.2184
  1747.0000      0.0000    389.5017      2.9395     58.4218
  1747.2500      0.0000    385.3815      3.0373     62.2447
  1747.5000      0.0000    380.4417      3.0919     64.3005
  1747.7500      0.0000    379.4009      3.1209     63.4464
  1748.0000      2.0000    386.9196      3.1332     59.5793
  1748.2500      0.0000    406.9708      3.1293     53.9490
  1748.5000      0.0000    441.0289      3.1029     48.4530
  1748.7500      0.0000    483.5638      3.0427     44.6386
  1749.0000      0.0000    519.6699      2.9345     43.2043
  1749.2500      0.0000    532.1165      2.7775     43.9606
  1749.5000      0.0000    514.4422      2.6094     46.0469
  1749.7500      0.0000    476.2094      2.4928     48.3750
  1750.0000      0.0000    434.3638      2.4574     50.0642
  1750.2500      0.0000    400.9691      2.4723     50.6406
  1750.5000      0.0000    379.0513      2.4857     50.0339
  1750.7500      0.0000    366.2777      2.4712     48.4515
  1751.0000      0.0000    359.4784      2.4339     46.2342
  1751.2500      0.0000    356.7389      2.3896     43.8123
  1751.5000      0.0000    358.1813      2.3513     41.6481
  1751.7500      0.0000    366.5370      2.3260     40.0931
  1752.0000      0.0000    386.6917      2.3148     39.3944
  1752.2500      0.0000    422.6980      2.3163     39.9023
  1752.5000      0.0000    473.0999      2.3320     42.1182
  1752.7500      0.0000    529.0361      2.3679     46.5181
  1753.0000      0.0000    578.4269      2.4267     53.4328
  1753.2500      0.0000    612.7672      2.5004     62.9780
  1753.5000      0.0000    630.1942      2.5734     74.7867
  1753.7500      0.0000    633.8591      2.6340     87.6435
  1754.0000      0.0000    629.1560      2.6778     99.4151
  1754.2500      0.0000    621.6354      2.7051    107.6780
  1754.5000      0.0000    615.2814      2.7170    110.8869
  1754.7500      0.0000    611.6384      2.7155    109.0725
  1755.0000      0.0000    610.3259      2.7066    103.4902
  1755.2500      0.0000    609.8798      2.7015     96.0298
  1755.5000      0.0000    607.4662      2.7146     88.9895
  1755.7500      0.0000    598.1047      2.7565     84.5579
  1756.0000      0.0000    575.9794      2.8279     83.7576
  1756.2500      0.0000    539.0001      2.9177     85.8487
  1756.5000      0.0000    492.7740      3.0083     88.8270
  1756.7500      0.0000    448.5713      3.0829     90.4794
  1757.0000      0.0000    416.3036      3.1311     89.2862
  1757.2500      0.0000    399.8781      3.1504     85.0449
  1757.5000      0.0000    398.9117      3.1447     79.1424
  1757.7500      0.0000    412.7406      3.1227     74.0509
  1758.0000      0.0000    440.9792      3.0937     72.0033
  1758.2500      0.0000    480.5740      3.0623     73.8156
  1758.5000      0.0000    524.3766      3.0275     78.7401
  1758.7500      0.0000    564.1011      2.9864     85.1408
  1759.0000      0.0000    594.2674      2.9389     91.3717
  1759.2500      0.0000    613.0378      2.8898     96.4874
  1759.5000      0.0000    621.0627      2.8455    100.4423
  1759.7500      0.0000    620.9965      2.8082    103.6897
  1760.0000      0.0000    616.9598      2.7731    106.5798
  1760.2500      0.0000    612.7528      2.7357    108.9468
  1760.5000      0.0000    610.2960      2.7035    110.0467
  1760.7500      0.0000    609.7878      2.6942    109.1092
  1761.0000      0.0000    610.8620      2.7190    106.3205
  1761.2500      0.0000    613.2891      2.7704    103.0774
  1761.5000      0.0000    616.8000      2.8281    100.8963
  1761.7500      0.0000    620.6601      2.8747    100.1960
  1762.0000      0.0000    623.8292      2.9027    100.3761
  1762.2500      0.0000    625.6537      2.9113    100.6915
  1762.5000      0.0000    626.1524      2.9014    100.6113
  1762.7500      0.0000    625.6800      2.8737     99.6035
  1763.0000      0.0000    624.4586      2.8263     97.2472
  1763.2500      0.0000    621.6157      2.7563     93.8294
  1763.5000      0.0000    613.8508      2.6675     90.5361
  1763.7500      0.0000    596.6948      2.5743     88.7884
  1764.0000      0.0000    569.2844      2.4960     89.3385
  1764.2500      0.0000    536.7473      2.4455     91.7736
  1764.5000      0.0000    505.3283      2.4269     94.4947
  1764.7500      0.0000    476.5287      2.4392     95.4062
  1765.0000      0.0000    448.9149      2.4768     93.2727
  1765.2500      0.0000    423.8124      2.5272     88.4972
  1765.5000      0.0000    405.5929      2.5729     82.3904
  1765.7500      0.0000    397.3525      2.5989     76.1552
  1766.0000      0.0000    398.9334      2.5984     71.0727
  1766.2500      0.0000    408.7113      2.5739     68.9554
  1766.5000      0.0000    425.0763      2.5369     71.1686
  1766.7500      0.0000    445.0316      2.5040     76.9680
