~Version Information
VERS.                      2.0: CWLS Log ASCII Standard - VERSION 2.0
WRAP.                       NO: One line per depth step
~Well Information Block
STRT.FT               480.0000: 
STOP.FT              1946.0000: 
STEP.FT                 0.1000: 
NULL.                -999.2500: 
COMP.          XTO Energy Inc.: COMPANY
WELL.          Golden Eagle 19-15: WELL
FLD.           Purgatoire River: FIELD
LOC.           1121' FSL & 2332' FEL--: LOCATION
CNTY.               Las Animas: COUNTY
SRVC.                Patterson: SERVICE COMPANY
DATE.          Mon Mar 13 10:27:20 2006: LOG DATE
UWI.           05 071 08717 00: UNIQUE WELL ID
STAT.                 Colorado: STATE
~Curve Information Block
DEPT.FT            0 000 00 00: Depth
DCAL.in                       : CDL Caliper
RHOB.g/cc                     : CDL Bulk Density
RHOC.g/cc                     : CDL Density Correction
DPOR.pu                       : CDL Density Porosity
NPOR.pu                       : Neutron Porosity
GR.GAPI                       : Gamma Ray
~Parameter Information Block
~A  Depth       DCAL        RHOB        RHOC        DPOR        NPOR         GR     
# ...
   768.0000      8.0062      2.5816      0.1067      4.1478     21.5418     99.2763
   768.1000      8.0062      2.5686      0.0824      4.9332     22.0137    105.4551
   768.2000      8.0062      2.5712      0.0503      4.7757     22.3655    110.1115
   768.3000      8.0045      2.5895      0.0805      3.6694     22.6997    110.1591
   768.4000      8.0045      2.6180      0.0545      1.9398     23.0826    108.4738
   768.5000      8.0025      2.6461      0.1462      0.2346     23.6046    107.8944
   768.6000      8.0025      2.6587      0.1547     -0.5268     24.2600    106.2244
   768.7000      8.0025      2.6499      0.0920      0.0090     24.6628    102.4809
   768.8000      8.0007      2.6225      0.0838      1.6660     24.7657     99.8393
   768.9000      8.0007      2.5869      0.0580      3.8226     25.0245    101.2382
   769.0000      7.9997      2.5588      0.0210      5.5249     25.4786    105.5742
   769.1000      7.9997      2.5481      0.0231      6.1781     25.6617    109.6321
   769.2000      7.9997      2.5607     -0.0263      5.4139     25.3468    112.9011
   769.3000      7.9999      2.5849      0.0661      3.9479     24.6873    115.6454
   769.4000      7.9999      2.5910      0.0230      3.5755     24.1225    118.0104
   769.5000      7.9991      2.5797      0.0063      4.2615     23.8470    120.5631
   769.6000      7.9991      2.5770      0.0165      4.4217     23.5410    120.7064
   769.7000      7.9991      2.5876      0.0598      3.7843     23.1902    115.9255
   769.8000      7.9979      2.5905      0.0450      3.6040     23.1888    109.8817
   769.9000      7.9979      2.5797      0.0073      4.2617     23.5642    106.7479
   770.0000      7.9978      2.5709      0.0311      4.7955     24.0107    106.4910
   770.1000      7.9978      2.5663      0.0581      5.0741     24.2221    105.7755
   770.2000      7.9978      2.5527      0.0468      5.8992     24.0073    104.4676
   770.3000      7.9979      2.5367     -0.0291      6.8659     23.5530    107.6232
   770.4000      7.9979      2.5383     -0.0153      6.7670     23.5152    114.9916
   770.5000      7.9982      2.5572      0.0051      5.6237     24.1569    120.6377
   770.6000      7.9982      2.5773      0.0254      4.4038     24.9624    121.9044
   770.7000      7.9982      2.5866      0.0223      3.8399     25.2767    121.0077
   770.8000      7.9989      2.5872      0.0076      3.8073     24.8497    119.4523
   770.9000      7.9989      2.5902      0.0292      3.6257     24.1807    117.2170
   771.0000      7.9991      2.5959      0.0099      3.2782     23.9615    116.4283
   771.1000      7.9991      2.5894      0.0534      3.6734     24.2051    119.6814
   771.2000      7.9991      2.5640      0.0309      5.2115     24.4567    123.8058
   771.3000      7.9983      2.5404     -0.0204      6.6418     24.4164    123.8253
   771.4000      7.9983      2.5434     -0.0331      6.4582     24.1768    119.9414
   771.5000      7.9959      2.5642      0.0328      5.2001     23.9906    115.6959
   771.6000      7.9959      2.5764      0.0110      4.4605     23.9047    113.1407
   771.7000      7.9959      2.5789      0.0050      4.3070     24.1183    111.1621
   771.8000      7.9948      2.5806      0.0259      4.2043     25.0779    108.7620
   771.9000      7.9948      2.5738      0.0243      4.6168     26.4275    109.6360
   772.0000      7.9988      2.5605     -0.0229      5.4218     27.3342    115.9059
   772.1000      7.9988      2.5592      0.0279      5.5047     27.6348    122.6521
   772.2000      7.9988      2.5675      0.0479      4.9980     27.3605    125.3125
   772.3000      8.0053      2.5686      0.0717      4.9349     26.4425    124.8698
   772.4000      8.0053      2.5577      0.0661      5.5952     25.2470    123.3414
   772.5000      8.0120      2.5378      0.0970      6.8027     24.2213    124.8072
   772.6000      8.0120      2.5169      0.0640      8.0644     23.4793    128.5859
   772.7000      8.0120      2.5028      0.0623      8.9193     23.0041    126.5173
   772.8000      8.0146      2.4911      0.0416      9.6322     22.7067    120.1531
   772.9000      8.0146      2.4826     -0.0028     10.1426     22.4816    117.7210
   773.0000      8.0144      2.4842      0.0346     10.0475     22.4545    118.0301
   773.1000      8.0144      2.4851      0.0828      9.9917     22.6606    117.1748
   773.2000      8.0144      2.4730      0.0585     10.7291     22.8054    116.0479
   773.3000      8.0160      2.4647     -0.0198     11.2317     22.7289    112.3274
   773.4000      8.0160      2.4849      0.0001     10.0046     22.4708    105.1350
   773.5000      8.0171      2.5236      0.0779      7.6583     22.2007    101.7849
   773.6000      8.0171      2.5575      0.0609      5.6055     22.1424    102.1280
   773.7000      8.0171      2.5848      0.0781      3.9503     22.2017    100.0113
   773.8000      8.0165      2.6108      0.0556      2.3777     22.1225     95.4460
   773.9000      8.0165      2.6335      0.0643      1.0013     22.1057     89.9320
   774.0000      8.0156      2.6437      0.1290      0.3808     22.4257     84.9905
   774.1000      8.0156      2.6380      0.0781      0.7246     22.8943     84.0740
   774.2000      8.0156      2.6364      0.0807      0.8268     23.2722     87.4394
   774.3000      8.0138      2.6526      0.0854     -0.1592     23.5987     90.8642
   774.4000      8.0138      2.6654      0.0964     -0.9322     24.0926     91.4550
   774.5000      8.0119      2.6535      0.1019     -0.2120     24.7066     90.3844
   774.6000      8.0119      2.6354      0.0316      0.8839     25.2674     91.1372
   774.7000      8.0119      2.6344      0.0473      0.9425     25.8246     93.3101
   774.8000      8.0102      2.6385      0.0743      0.6948     26.4512     93.5630
   774.9000      8.0102      2.6331      0.0793      1.0240     26.9764     93.5192
   775.0000      8.0089      2.6246      0.0243      1.5387     27.0377     96.4209
   775.1000      8.0089      2.6123      0.0466      2.2861     26.9167    101.1886
   775.2000      8.0089      2.5891      0.0180      3.6932     27.1671    106.9790
   775.3000      8.0080      2.5720      0.0019      4.7280     27.4740    113.1182
   775.4000      8.0080      2.5820      0.0512      4.1240     27.2876    117.1537
   775.5000      8.0093      2.6038      0.1086      2.8027     26.6413    119.8319
   775.6000      8.0093      2.6070      0.0823      2.6081     25.8407    124.0435
   775.7000      8.0093      2.5901      0.0625      3.6273     25.0213    128.0240
   775.8000      8.0119      2.5723      0.0483      4.7098     24.1051    127.1693
   775.9000      8.0119      2.5688      0.0012      4.9230     23.1318    122.9356
   776.0000      8.0108      2.5780      0.0728      4.3608     22.3671    121.4209
   776.1000      8.0108      2.5750      0.0754      4.5457     21.7634    125.1136
   776.2000      8.0108      2.5492      0.0357      6.1080     21.3930    130.7899
   776.3000      8.0071      2.5254      0.0149      7.5495     21.5675    132.7305
   776.4000      8.0071      2.5231      0.0549      7.6919     22.0258    128.4753
   776.5000      8.0074      2.5366      0.0244      6.8707     22.4041    122.0370
   776.6000      8.0074      2.5585      0.0380      5.5448     22.6755    118.7029
   776.7000      8.0074      2.5846      0.0383      3.9627     22.7714    118.6958
   776.8000      8.0119      2.6045      0.0915      2.7563     22.7578    119.5866
   776.9000      8.0119      2.6118      0.0414      2.3173     23.0218    118.8111
   777.0000      8.0176      2.6151      0.0630      2.1176     23.7652    118.6787
   777.1000      8.0176      2.6222      0.0424      1.6834     24.6725    120.5696
   777.2000      8.0176      2.6262      0.0987      1.4398     25.3076    121.4587
   777.3000      8.0222      2.6125      0.0914      2.2705     25.5611    120.5358
   777.4000      8.0222      2.5901      0.0273      3.6329     25.5955    117.8434
   777.5000      8.0227      2.5794      0.0269      4.2796     25.7261    113.8295
