~Version Information
VERS.                      2.0: CWLS Log ASCII Standard - VERSION 2.0
WRAP.                       NO: One line per depth step
~Well Information Block
STRT.FT               230.2000: 
STOP.FT              1518.7000: 
STEP.FT                 0.1000: 
NULL.                -999.2500: 
COMP.          Pioneer Natural Resources: COMPANY
WELL.          Mow 8-14-33-67 Tr: WELL
FLD.           Purgatoire River: FIELD
LOC.           2258' FNL & 929' FEL: LOCATION
PROV.                 Colorado: PROVINCE
CNTY.               Las Animas: COUNTRY
SRVC.                Patterson: SERVICE COMPANY
DATE.          Mon Jan 30 11:22:55 2006: LOG DATE
UWI.           05 071 08684 00: UNIQUE WELL ID
~Curve Information Block
DEPT.FT            0 000 00 00: Depth
DCAL.in                       : CDL Caliper
DPOR.pu                       : CDL Density Porosity
RHOB.g/cc                     : CDL Bulk Density
RHOC.g/cc                     : CDL Density Correction
GR.GAPI                       : Gamma Ray
~Parameter Information Block
~A  Depth       DCAL        DPOR        RHOB        RHOC         GR     
# ...
  1507.0000      7.7751     12.8946      2.4372      0.0565     81.2198
  1507.1000      7.7751     12.1644      2.4493      0.0477     58.1229
  1507.2000      7.7751     10.8100      2.4716      0.0769     28.5270
  1507.3000      7.7749      9.5916      2.4917      0.0961      8.7467
  1507.4000      7.7749      8.6339      2.5075      0.0709      1.5639
  1507.5000      7.7761      7.5197      2.5259      0.1119      0.1557
  1507.6000      7.7761      6.7274      2.5390      0.1263      0.0081
  1507.7000      7.7761      6.7882      2.5380      0.1497      0.0000
  1507.8000      7.7768      7.1441      2.5321      0.0949   -999.2500
  1507.9000      7.7768      7.3080      2.5294      0.1037   -999.2500
  1508.0000      7.7766      7.8659      2.5202      0.1221   -999.2500
  1508.1000      7.7766      9.1643      2.4988      0.0486   -999.2500
  1508.2000      7.7766     10.4567      2.4775      0.0901   -999.2500
  1508.3000      7.7757     11.3218      2.4632      0.0668   -999.2500
  1508.4000      7.7757     12.0698      2.4508      0.0693   -999.2500
  1508.5000      7.7748     12.6978      2.4405      0.0253   -999.2500
  1508.6000      7.7748     12.7765      2.4392      0.0537   -999.2500
  1508.7000      7.7748     12.7325      2.4399      0.0915   -999.2500
  1508.8000      7.7759     13.0642      2.4344      0.0429   -999.2500
  1508.9000      7.7759     13.3468      2.4298      0.0661   -999.2500
  1509.0000      7.7769     13.6496      2.4248      0.0858   -999.2500
  1509.1000      7.7769     13.6455      2.4248      0.0044   -999.2500
  1509.2000      7.7769     12.4003      2.4454      0.0835   -999.2500
  1509.3000      7.7763     10.8166      2.4715      0.0870   -999.2500
  1509.4000      7.7763     10.6268      2.4747      0.1204   -999.2500
  1509.5000      7.7748     11.8449      2.4546      0.0346   -999.2500
  1509.6000      7.7748     12.8769      2.4375      0.0729   -999.2500
  1509.7000      7.7748     12.6761      2.4408      0.0474   -999.2500
  1509.8000      7.7744     11.7949      2.4554      0.0744   -999.2500
  1509.9000      7.7744     11.5682      2.4591      0.0613   -999.2500
  1510.0000      7.7761     12.4250      2.4450      0.0450   -999.2500
  1510.1000      7.7761     13.6257      2.4252      0.0213   -999.2500
  1510.2000      7.7761     14.4748      2.4112      0.0404   -999.2500
  1510.3000      7.7765     14.8974      2.4042      0.0465   -999.2500
  1510.4000      7.7765     14.8085      2.4057      0.0157   -999.2500
  1510.5000      7.7743     14.3417      2.4134      0.0600   -999.2500
  1510.6000      7.7743     14.4484      2.4116      0.0384   -999.2500
  1510.7000      7.7743     15.1590      2.3999      0.0166   -999.2500
  1510.8000      7.7731     15.5712      2.3931      0.0581   -999.2500
  1510.9000      7.7731     15.7645      2.3899      0.0529   -999.2500
  1511.0000      7.7740     15.7000      2.3909      0.0515   -999.2500
  1511.1000      7.7740     14.8337      2.4052      0.0728   -999.2500
  1511.2000      7.7740     13.6186      2.4253      0.0860   -999.2500
  1511.3000      7.7756     12.9130      2.4369      0.1028   -999.2500
  1511.4000      7.7756     12.8044      2.4387      0.0970   -999.2500
  1511.5000      7.7770     12.7590      2.4395      0.0918   -999.2500
  1511.6000      7.7770     12.2842      2.4473      0.0865   -999.2500
  1511.7000      7.7770     11.4938      2.4604      0.0930   -999.2500
  1511.8000      7.7779     10.7734      2.4722      0.1094   -999.2500
  1511.9000      7.7779     10.2717      2.4805      0.1085   -999.2500
  1512.0000      7.7775     10.3491      2.4792      0.1117   -999.2500
  1512.1000      7.7775     11.3773      2.4623      0.1064   -999.2500
  1512.2000      7.7775     12.5025      2.4437      0.0585   -999.2500
  1512.3000      7.7761     12.4871      2.4440      0.0594   -999.2500
  1512.4000      7.7761     11.6831      2.4572      0.0805   -999.2500
  1512.5000      7.7749     11.5102      2.4601      0.0791   -999.2500
  1512.6000      7.7749     12.6801      2.4408      0.0744   -999.2500
  1512.7000      7.7749     14.3815      2.4127      0.0320   -999.2500
  1512.8000      7.7733     15.2713      2.3980      0.0414   -999.2500
  1512.9000      7.7733     14.9769      2.4029      0.0136   -999.2500
  1513.0000      7.7715     13.7447      2.4232      0.0062   -999.2500
  1513.1000      7.7715     12.3587      2.4461      0.0771   -999.2500
  1513.2000      7.7715     11.6638      2.4575      0.0614   -999.2500
  1513.3000      7.7707     11.5944      2.4587      0.0463   -999.2500
  1513.4000      7.7707     11.8951      2.4537      0.0674   -999.2500
  1513.5000      7.7716     12.2976      2.4471      0.0307   -999.2500
  1513.6000      7.7716     12.4933      2.4439      0.0732   -999.2500
  1513.7000      7.7716     12.5992      2.4421      0.0498   -999.2500
  1513.8000      7.7727     12.4717      2.4442      0.0318   -999.2500
  1513.9000      7.7727     11.9855      2.4522      0.0458   -999.2500
  1514.0000      7.7687     11.5765      2.4590      0.0801   -999.2500
  1514.1000      7.7687     11.2684      2.4641      0.0485   -999.2500
  1514.2000      7.7687     10.6301      2.4746      0.0622   -999.2500
  1514.3000      7.7585     10.0800      2.4837      0.0951   -999.2500
  1514.4000      7.7585     10.5416      2.4761      0.0796   -999.2500
  1514.5000      7.7490     11.7295      2.4565      0.0521   -999.2500
  1514.6000      7.7490     12.3109      2.4469      0.0071   -999.2500
  1514.7000      7.7490     11.8917      2.4538      0.0852   -999.2500
  1514.8000      7.7456     11.5188      2.4599      0.0547   -999.2500
  1514.9000      7.7456     12.1700      2.4492      0.0602   -999.2500
  1515.0000      7.7464     13.5809      2.4259      0.0270   -999.2500
  1515.1000      7.7464     14.6860      2.4077      0.0354   -999.2500
  1515.2000      7.7464     15.0240      2.4021      0.0398   -999.2500
  1515.3000      7.7478     15.0818      2.4012      0.0550   -999.2500
  1515.4000      7.7478     15.4228      2.3955      0.0278   -999.2500
  1515.5000      7.7463     15.8108      2.3891      0.0235   -999.2500
  1515.6000      7.7463     15.4432      2.3952     -0.0200   -999.2500
  1515.7000      7.7463     14.4877      2.4110      0.0694   -999.2500
  1515.8000      7.7372     13.8894      2.4208      0.0346   -999.2500
  1515.9000      7.7372     13.6369      2.4250      0.0503   -999.2500
  1516.0000      7.7189     13.5736      2.4260      0.0418   -999.2500
  1516.1000      7.7189     13.8747      2.4211      0.0325   -999.2500
  1516.2000      7.7189     14.2126      2.4155      0.0458   -999.2500
  1516.3000      7.7011     13.8590      2.4213      0.0249   -999.2500
  1516.4000      7.7011     12.4831      2.4440      0.0452   -999.2500
  1516.5000      7.6929     11.0014      2.4685      0.0922   -999.2500
  1516.6000      7.6929     10.3639      2.4790      0.0769   -999.2500
  1516.7000      7.6929     10.5698      2.4756      0.0920   -999.2500
  1516.8000      7.6871     11.4188      2.4616      0.0681   -999.2500
  1516.9000      7.6871     12.1903      2.4489      0.0502   -999.2500
  1517.0000      7.6674     12.4423      2.4447      0.0703   -999.2500
  1517.1000      7.6674     12.9495      2.4363      0.0770   -999.2500
  1517.2000      7.6674     13.9947      2.4191      0.0332   -999.2500
  1517.3000      7.6114     14.6597      2.4081      0.0324   -999.2500
  1517.4000      7.6114     13.5294      2.4268      0.0420   -999.2500
  1517.5000      7.4746      8.8194      2.5045      0.0556   -999.2500
  1517.6000      7.4746      7.2187      2.5309      0.0616   -999.2500
  1517.7000      7.4746     32.3713      2.1159      0.5746   -999.2500
  1517.8000      6.9443     87.8217      1.2009      0.0900   -999.2500
  1517.9000      6.9443    135.9315      0.4071      0.0900   -999.2500
  1518.0000      5.0734    155.9212      0.0773   -999.2500   -999.2500
  1518.1000      5.0734    160.1232      0.0080   -999.2500   -999.2500
