~Version Information
VERS.                      2.0: CWLS Log ASCII Standard - VERSION 2.0
WRAP.                       NO: One line per depth step
~Well Information Block
STRT.FT                -7.7500: 
STOP.FT              1420.5000: 
STEP.FT                 0.2500: 
NULL.                -999.2500: 
COMP.          Pioneer Natural Resources: COMPANY
WELL.          Parklane 43-34 Tr: WELL
FLD.           Purgatorie River: FIELD
LOC.           1643' FSL & 966' FEL--: LOCATION
PROV.                       CO: PROVINCE
CNTY.               Las Animas: COUNTRY
SRVC.          Patterson Wireline: SERVICE COMPANY
DATE.          Tue Aug 02 11:35:27 2005: LOG DATE
UWI.           05 071 08452 00: UNIQUE WELL ID
~Curve Information Block
DEPT.FT            0 000 00 00: Depth
CCL.                          : Casing Collar Locator
TT3.usec                      : CBL 3' Travel Time
AMP3.mV                       : CBL 3' Amplitude
GR.GAPI                       : Gamma Ray
~Parameter Information Block
~A  Depth       CCL         TT3         AMP3         GR     
# ...
   561.7500      0.0000    854.2073     12.3984     78.3328
   562.0000      0.0000    854.3239     12.6162     78.9883
   562.2500      0.0000    854.5352     12.7819     83.1782
   562.5000      0.0000    854.9648     12.8677     89.6085
   562.7500      0.0000    856.2863     12.8385     95.4252
   563.0000      0.0000    860.0637     12.6436     98.5417
   563.2500      0.0000    868.5533     12.2462     99.2423
   563.5000      0.0000    883.3022     11.6881     99.3310
   563.7500      0.0000    903.4632     11.1033     99.9889
   564.0000      0.0000    926.4479     10.6148    100.7292
   564.2500      0.0000    951.1653     10.2280    100.1025
   564.5000      0.0000    978.8976      9.8826     97.0500
   564.7500      0.0000   1008.9243      9.5783     91.8208
   565.0000      0.0000   1034.7354      9.3805     85.9694
   565.2500     -2.0000   1047.5936      9.3300     81.4484
   565.5000      2.0000   1044.4795      9.4125     79.5848
   565.7500      0.0000   1030.9589      9.6109     80.7200
   566.0000      0.0000   1015.0933      9.9647     84.1948
   566.2500      0.0000    999.4164     10.5707     88.3154
   566.5000      0.0000    981.0383     11.4860     91.1256
   566.7500      0.0000    959.1224     12.5859     92.1885
   567.0000      0.0000    938.6937     13.5596     93.4169
   567.2500      0.0000    926.5455     14.1250     97.4362
   567.5000      0.0000    925.9914     14.2414    105.0646
   567.7500      0.0000    935.0173     14.0882    114.4919
   568.0000      0.0000    946.5660     13.8804    122.5661
   568.2500      0.0000    951.6909     13.7375    126.7131
   568.5000      0.0000    945.8569     13.6720    126.1804
   568.7500      0.0000    932.4630     13.6321    122.1421
   569.0000      0.0000    918.8250     13.5565    116.7857
   569.2500      0.0000    909.5305     13.4193    112.0416
   569.5000      0.0000    904.2933     13.2399    108.8216
   569.7500      0.0000    900.2586     13.0550    107.0834
   570.0000      0.0000    894.8961     12.8905    106.2922
   570.2500      0.0000    887.6071     12.7531    105.8020
   570.5000      0.0000    880.0622     12.6398    105.2315
   570.7500      0.0000    875.2185     12.5495    104.8342
   571.0000      0.0000    875.3539     12.4871    105.3426
   571.2500      0.0000    880.4643     12.4571    107.3126
   571.5000      0.0000    888.1535     12.4548    110.7542
   571.7500      0.0000    895.0798     12.4651    115.2080
   572.0000      0.0000    898.8655     12.4736    119.7766
   572.2500      0.0000    899.2207     12.4783    123.0559
   572.5000      0.0000    897.7808     12.4883    123.6200
   572.7500      0.0000    896.8506     12.5104    121.1678
   573.0000      0.0000    897.7970     12.5421    117.0490
   573.2500      0.0000    900.4561     12.5768    113.2004
   573.5000      0.0000    904.2717     12.6125    110.6372
   573.7500      0.0000    909.9164     12.6531    109.1567
   574.0000      0.0000    919.2705     12.7009    107.9522
   574.2500      0.0000    932.5601     12.7512    106.0328
   574.5000      0.0000    944.4066     12.7938    102.7105
   574.7500      0.0000    944.0942     12.8214     98.3645
   575.0000      0.0000    923.4226     12.8361     94.4146
   575.2500      0.0000    885.6045     12.8476     92.1063
   575.5000      0.0000    844.1401     12.8646     91.3632
   575.7500      0.0000    812.0195     12.8870     90.9350
   576.0000      0.0000    793.4838     12.9086     89.7138
   576.2500      0.0000    785.2776     12.9257     87.7579
   576.5000      0.0000    782.3663     12.9395     85.8560
   576.7500      0.0000    781.3961     12.9523     84.4366
   577.0000      0.0000    780.9183     12.9624     83.5404
   577.2500      0.0000    780.5139     12.9650     83.5295
   577.5000      0.0000    780.1426     12.9561     84.8272
   577.7500      0.0000    779.8494     12.9351     86.8771
   578.0000      0.0000    779.6774     12.9044     88.2972
   578.2500      0.0000    779.6316     12.8659     88.4844
   578.5000      0.0000    779.6810     12.8197     88.5305
   578.7500      0.0000    779.7725     12.7650     90.0978
   579.0000      0.0000    779.8622     12.7055     93.5922
   579.2500      0.0000    779.9522     12.6531     97.7888
   579.5000      0.0000    780.1331     12.6267    101.1895
   579.7500      0.0000    780.6499     12.6465    103.3199
   580.0000      0.0000    782.0333     12.7251    104.5344
   580.2500      0.0000    785.2089     12.8638    104.9761
   580.5000      0.0000    791.3013     13.0533    104.3754
   580.7500      0.0000    800.9376     13.2731    103.0078
   581.0000      0.0000    813.4883     13.4886    102.2380
   581.2500      0.0000    827.0750     13.6586    103.5519
   581.5000      0.0000    839.5781     13.7567    107.0136
   581.7500      0.0000    849.7971     13.7899    110.9006
   582.0000      0.0000    857.6550     13.7935    113.0144
   582.2500      0.0000    863.4409     13.8068    112.3344
   582.5000      0.0000    867.2393     13.8505    109.5169
   582.7500      0.0000    869.1218     13.9203    106.0180
   583.0000      0.0000    869.3962     13.9964    102.7847
   583.2500      0.0000    868.6036     14.0597     99.6870
   583.5000      0.0000    867.9564     14.1028     96.0132
   583.7500      0.0000    869.5294     14.1295     91.3787
   584.0000      0.0000    874.6099     14.1466     86.2270
   584.2500      0.0000    881.4485     14.1608     81.6321
   584.5000      0.0000    885.9756     14.1771     78.6518
   584.7500      0.0000    885.6382     14.1971     77.6050
   585.0000      0.0000    881.8143     14.2209     77.6515
   585.2500      0.0000    878.1694     14.2541     77.2036
   585.5000      0.0000    877.7216     14.3047     75.2847
   585.7500      0.0000    881.4422     14.3707     72.7405
   586.0000      0.0000    888.1711     14.4377     71.8376
   586.2500      0.0000    895.4259     14.4879     74.5617
   586.5000      0.0000    901.0010     14.5084     81.3527
   586.7500      0.0000    904.1355     14.4943     90.9365
   587.0000      0.0000    905.2658     14.4510    100.6523
   587.2500      0.0000    904.9935     14.3893    107.2167
   587.5000      0.0000    903.3412     14.3156    108.3063
   587.7500      0.0000    899.6529     14.2339    104.1997
   588.0000      0.0000    893.1930     14.1567     97.7947
   588.2500      0.0000    884.1699     14.1049     92.6403
   588.5000      0.0000    874.2509     14.0935     90.7491
   588.7500      0.0000    865.7544     14.1193     92.0364
   589.0000      0.0000    860.1253     14.1623     95.1583
   589.2500      0.0000    857.2401     14.1994     98.4272
   589.5000      0.0000    856.0603     14.2187    100.3487
   589.7500      0.0000    855.6362     14.2225    100.1676
   590.0000      0.0000    855.4794     14.2196     98.3137
   590.2500      0.0000    855.3713     14.2216     95.9913
   590.5000      0.0000    855.1688     14.2433     94.0791
   590.7500      0.0000    854.8191     14.2931     92.6659
   591.0000      0.0000    854.4017     14.3606     91.6893
   591.2500      0.0000    854.0621     14.4214     91.5164
   591.5000      0.0000    853.8942     14.4552     92.6389
   591.7500      0.0000    853.8795     14.4595     95.0104
   592.0000      0.0000    853.9133     14.4480     97.7293
   592.2500      0.0000    853.8945     14.4376     99.2431
   592.5000      0.0000    853.8133     14.4328     98.2054
   592.7500      0.0000    853.7509     14.4216     94.7138
   593.0000      0.0000    853.7764     14.3901     90.6378
   593.2500      0.0000    853.8477     14.3422     88.2548
   593.5000      0.0000    853.8495     14.3048     88.4969
   593.7500      0.0000    853.7991     14.3092     90.6786
   594.0000      0.0000    854.1308     14.3635     93.5183
   594.2500      0.0000    855.9423     14.4411     95.9488
   594.5000      0.0000    860.8815     14.4998     97.2654
   594.7500      0.0000    870.1647     14.5152     97.2395
   595.0000      0.0000    882.9918     14.4937     96.2901
