~Version Information
VERS.                      2.0: CWLS Log ASCII Standard - VERSION 2.0
WRAP.                       NO: One line per depth step
~Well Information Block
STRT.FT                -8.0000: 
STOP.FT              1060.7500: 
STEP.FT                 0.2500: 
NULL.                -999.2500: 
COMP.          Pioneer Natural Resources: COMPANY
WELL.          Pavillion 44-25: WELL
FLD.           Purgatorie River: FIELD
LOC.           719' FSL & 650' FEL--: LOCATION
PROV.                       CO: PROVINCE
CNTY.               Las Animas: COUNTRY
SRVC.          Patterson Wireline: SERVICE COMPANY
DATE.          Mon Dec 19 11:59:26 2005: LOG DATE
UWI.           05 071 08624 00: UNIQUE WELL ID
~Curve Information Block
DEPT.FT            0 000 00 00: Depth
CCL.                          : Casing Collar Locator
TT3.usec                      : CBL 3' Travel Time
AMP3.mV                       : CBL 3' Amplitude
GR.GAPI                       : Gamma Ray
~Parameter Information Block
~A  Depth       CCL         TT3         AMP3         GR     
# ...
   260.0000      0.0000    750.8013      6.3080    115.6028
   260.2500      0.0000    768.1705      6.2988    120.9965
   260.5000      0.0000    785.0798      6.3082    128.1668
   260.7500      0.0000    797.5982      6.3360    135.8318
   261.0000      0.0000    804.6165      6.3793    142.1689
   261.2500      0.0000    807.5897      6.4390    146.0419
   261.5000      0.0000    808.5272      6.5203    147.3546
   261.7500      0.0000    808.7244      6.6245    146.7383
   262.0000      0.0000    808.7269      6.7403    145.3604
   262.2500      0.0000    808.6985      6.8465    144.6675
   262.5000      0.0000    808.6967      6.9237    145.6912
   262.7500      0.0000    808.7753      6.9621    148.2168
   263.0000      0.0000    808.9747      6.9609    150.5225
   263.2500      0.0000    809.2675      6.9280    150.4395
   263.5000      0.0000    809.5089      6.8787    147.2959
   263.7500      0.0000    809.3431      6.8306    142.7680
   264.0000      0.0000    807.9372      6.7937    139.6947
   264.2500      0.0000    803.6877      6.7656    140.2655
   264.5000      0.0000    794.5891      6.7377    144.8335
   264.7500      0.0000    779.9134      6.7074    151.3817
   265.0000      0.0000    762.2841      6.6834    156.1012
   265.2500      0.0000    747.4041      6.6817    155.6252
   265.5000      0.0000    740.1973      6.7150    149.3104
   265.7500      0.0000    740.6746      6.7819    139.1873
   266.0000      0.0000    744.2526      6.8625    127.9520
   266.2500      0.0000    746.3441      6.9297    117.3770
   266.5000      0.0000    746.1818      6.9654    108.1512
   266.7500      0.0000    746.2100      6.9634    100.6009
   267.0000      0.0000    748.5350      6.9209     95.6736
   267.2500      0.0000    752.6230      6.8343     95.1086
   267.5000      0.0000    756.1175      6.7060     99.8474
   267.7500      0.0000    756.7428      6.5519    108.1192
   268.0000      0.0000    752.9948      6.4015    115.7920
   268.2500      0.0000    744.0834      6.2958    118.9795
   268.5000      0.0000    730.3440      6.2749    116.4351
   268.7500      0.0000    713.3091      6.3581    109.8952
   269.0000      0.0000    693.8417      6.5322    102.3614
   269.2500      0.0000    669.7596      6.7639     95.6767
   269.5000      0.0000    637.0984      7.0170     89.4909
   269.7500      0.0000    596.4040      7.2531     82.5446
   270.0000      0.0000    558.2476      7.4239     74.5997
   270.2500      0.0000    539.3948      7.4835     66.8721
   270.5000      0.0000    549.9056      7.4164     61.0026
   270.7500      0.0000    583.7459      7.2496     58.0735
   271.0000      0.0000    623.6466      7.0382     58.4171
   271.2500      0.0000    654.6944      6.8363     61.6877
   271.5000      0.0000    672.3737      6.6767     66.6888
   271.7500      0.0000    680.0842      6.5659     71.4475
   272.0000      0.0000    682.8588      6.4963     74.2916
   272.2500      0.0000    683.9222      6.4616     75.2503
   272.5000      0.0000    684.5645      6.4612     75.9492
   272.7500      0.0000    685.0812      6.4941     77.8558
   273.0000      0.0000    685.4616      6.5529     81.1077
   273.2500      0.0000    685.7354      6.6261     85.1293
   273.5000      0.0000    686.0778      6.7041     89.6196
   273.7500      0.0000    686.7872      6.7850     94.4230
   274.0000      0.0000    688.1495      6.8746     98.7932
   274.2500      0.0000    690.2208      6.9842    101.3218
   274.5000      0.0000    692.7010      7.1245    100.8944
   274.7500      0.0000    695.1895      7.2982     97.7678
   275.0000      0.0000    697.6219      7.4911     93.5617
   275.2500      0.0000    700.0983      7.6712     90.0026
   275.5000      0.0000    702.0999      7.8011     87.6712
   275.7500      0.0000    702.4000      7.8562     86.0104
   276.0000      0.0000    700.2467      7.8346     84.4080
   276.2500      0.0000    696.4575      7.7522     83.0282
   276.5000      0.0000    692.9654      7.6304     82.5029
   276.7500      0.0000    691.2421      7.4881     83.0905
   277.0000      0.0000    691.2678      7.3400     84.4243
   277.2500      0.0000    692.0634      7.1989     85.9495
   277.5000      0.0000    693.1116      7.0758     87.3455
   277.7500      0.0000    694.9799      6.9781     88.3859
   278.0000      0.0000    698.3882      6.9071     88.5516
   278.2500      0.0000    702.9930      6.8594     87.2004
   278.5000      0.0000    707.4850      6.8282     84.3318
   278.7500      0.0000    710.7458      6.8028     81.0004
   279.0000      0.0000    712.5770      6.7696     78.8423
   279.2500      0.0000    713.4349      6.7162     79.2229
   279.5000      0.0000    713.8911      6.6370     82.7013
   279.7500      0.0000    714.4476      6.5381     88.8776
   280.0000      0.0000    715.6565      6.4359     96.5781
   280.2500      0.0000    718.2145      6.3477    104.4525
   280.5000      0.0000    722.8311      6.2822    111.6996
   280.7500      0.0000    730.0021      6.2383    118.2392
   281.0000      0.0000    739.9020      6.2112    124.0479
   281.2500      0.0000    752.0864      6.1977    128.3329
   281.5000      0.0000    764.6235      6.1960    129.8230
   281.7500      0.0000    773.6443      6.2059    128.2940
   282.0000      0.0000    775.2059      6.2308    125.5176
   282.2500      0.0000    768.4983      6.2711    123.9749
   282.5000      0.0000    756.7841      6.3080    124.5377
   282.7500      0.0000    744.9478      6.2973    125.9466
   283.0000      0.0000    737.8087      6.1930    126.5314
   283.2500      0.0000    740.9438      5.9883    125.6509
   283.5000      0.0000    758.9045      5.7352    123.3306
   283.7500      0.0000    788.7170      5.5206    119.4678
   284.0000      0.0000    818.0069      5.4110    114.1377
   284.2500      0.0000    834.3656      5.4154    108.3007
   284.5000      0.0000    836.2249      5.4967    103.5231
   284.7500      2.0000    831.7138      5.6078    100.8250
   285.0000      0.0000    827.7125      5.7157    100.1084
   285.2500      0.0000    822.8443      5.8142    100.8835
   285.5000      0.0000    811.9132      5.9259    103.2369
   285.7500      0.0000    795.0247      6.0795    107.5774
   286.0000      0.0000    779.2666      6.2758    113.6619
   286.2500      0.0000    771.3276      6.4936    120.6072
   286.5000      0.0000    772.1998      6.7177    127.9386
   286.7500      0.0000    780.1567      6.9372    135.9132
   287.0000      0.0000    794.4699      7.1264    144.4917
   287.2500      0.0000    813.1083      7.2565    152.4971
   287.5000      0.0000    830.0406      7.3189    158.0704
   287.7500      0.0000    838.6145      7.3239    159.7935
   288.0000      0.0000    837.4675      7.2878    157.7278
   288.2500      0.0000    831.4240      7.2265    153.7776
   288.5000      0.0000    826.7600      7.1521    150.6027
   288.7500      0.0000    826.7549      7.0689    149.7036
   289.0000      0.0000    831.1503      6.9804    150.7621
   289.2500      0.0000    836.9908      6.9012    152.7478
   289.5000      0.0000    839.1049      6.8542    154.9731
   289.7500      0.0000    832.4203      6.8532    156.9785
   290.0000      0.0000    815.5348      6.8892    158.2562
   290.2500      0.0000    791.5041      6.9370    158.5203
   290.5000      0.0000    765.6374      6.9739    157.8818
   290.7500      0.0000    743.1326      6.9930    156.5515
   291.0000      0.0000    727.2714      7.0007    154.3740
   291.2500      0.0000    718.4925      7.0027    150.6917
   291.5000      0.0000    715.4057      6.9963    145.0661
   291.7500      0.0000    717.0159      6.9730    138.4510
   292.0000      0.0000    723.7817      6.9279    133.1497
   292.2500      0.0000    736.3102      6.8639    131.2337
   292.5000      0.0000    752.9644      6.7887    133.2418
   292.7500      0.0000    769.1026      6.7095    138.0982
   293.0000      0.0000    779.1822      6.6314    143.5861
   293.2500      0.0000    779.9234      6.5606    147.2188
