~Version Information
VERS.                      2.0: CWLS Log ASCII Standard - VERSION 2.0
WRAP.                       NO: One line per depth step
~Well Information Block
STRT.FT               245.0000: 
STOP.FT              1273.7000: 
STEP.FT                 0.1000: 
NULL.                -999.2500: 
COMP.          Pioneer Natural Resources: COMPANY
WELL.                 Ray 34-6: WELL
FLD.           Purgatoire River: FIELD
LOC.           684' FSL & 2254' FEL--: LOCATION
CNTY.               Las Animas: COUNTY
SRVC.                Patterson: SERVICE COMPANY
DATE.          Fri May 26 09:17:30 2006: LOG DATE
UWI.           05 071 08695 00: UNIQUE WELL ID
STAT.                 Colorado: STATE
~Curve Information Block
DEPT.FT            0 000 00 00: Depth
DCAL.in                       : CDL Caliper
RHOB.g/cc                     : CDL Bulk Density
RHOC.g/cc                     : CDL Density Correction
DPOR.pu                       : CDL Density Porosity
NPOR.pu                       : Neutron Porosity
GR.GAPI                       : Gamma Ray
~Parameter Information Block
~A  Depth       DCAL        RHOB        RHOC        DPOR        NPOR         GR     
# ...
   446.6000      8.0548      2.6407      0.0950      0.5629     24.4747     90.8359
   446.7000      8.0548      2.6171      0.0417      1.9963     24.5741     93.2768
   446.8000      8.0585      2.5823      0.0497      4.1049     25.0958     95.4638
   446.9000      8.0585      2.5486     -0.0216      6.1442     25.6971     95.1215
   447.0000      8.0637      2.5305     -0.0576      7.2441     26.2840     95.1952
   447.1000      8.0637      2.5311     -0.0123      7.2052     26.8342     97.7377
   447.2000      8.0637      2.5393     -0.0508      6.7099     27.3095    101.5417
   447.3000      8.0678      2.5466      0.0128      6.2692     27.7547    103.8576
   447.4000      8.0678      2.5412      0.0119      6.5947     28.1070    103.3812
   447.5000      8.0722      2.5240     -0.0162      7.6389     28.3962    103.5025
   447.6000      8.0722      2.5076      0.0180      8.6289     28.7434    106.9295
   447.7000      8.0722      2.4891      0.0254      9.7543     29.0122    112.3461
   447.8000      8.0782      2.4654     -0.0236     11.1866     29.1171    118.3758
   447.9000      8.0782      2.4436     -0.0067     12.5111     29.1321    123.1702
   448.0000      8.0824      2.4193      0.0255     13.9842     28.7826    123.8953
   448.1000      8.0824      2.3938     -0.0409     15.5285     27.9830    120.9957
   448.2000      8.0824      2.3868      0.0111     15.9520     27.0354    120.0770
   448.3000      8.0867      2.3980      0.0704     15.2740     26.0376    126.1060
   448.4000      8.0867      2.3923      0.1281     15.6188     25.1066    134.6427
   448.5000      8.1015      2.3463      0.0889     18.4080     24.4385    139.4693
   448.6000      8.1015      2.2780      0.0824     22.5484     24.0090    140.5649
   448.7000      8.1015      2.2160      0.0724     26.3006     23.6830    139.4859
   448.8000      8.1230      2.1645      0.0860     29.4246     23.3124    137.2121
   448.9000      8.1230      2.1146      0.0112     32.4510     22.6727    133.7832
   449.0000      8.1315      2.0752     -0.0616     34.8360     21.6771    130.1483
   449.1000      8.1315      2.0640     -0.0191     35.5180     20.3984    127.7463
   449.2000      8.1315      2.0906     -0.0028     33.9037     18.9233    123.4688
   449.3000      8.1187      2.1556      0.1051     29.9611     17.4770    116.6360
   449.4000      8.1187      2.2404      0.1879     24.8233     16.3414    112.9985
   449.5000      8.0926      2.3245      0.2228     19.7303     15.7096    112.2953
   449.6000      8.0926      2.4034      0.2806     14.9431     15.5544    108.0630
   449.7000      8.0926      2.4732      0.3146     10.7173     15.7940    100.8544
   449.8000      8.0723      2.5221      0.2813      7.7535     16.4317     97.0848
   449.9000      8.0723      2.5457      0.1873      6.3236     17.3252     99.1247
   450.0000      8.0616      2.5473      0.1818      6.2234     18.0680    103.9157
   450.1000      8.0616      2.5337      0.1304      7.0470     18.4257    109.7749
   450.2000      8.0616      2.5247      0.0853      7.5909     18.7335    116.2122
   450.3000      8.0558      2.5325      0.1088      7.1234     19.2904    120.2163
   450.4000      8.0558      2.5380      0.1421      6.7861     19.9120    120.8033
   450.5000      8.0531      2.5271      0.0926      7.4508     20.5262    121.8430
   450.6000      8.0531      2.5200      0.0825      7.8758     21.1378    124.2804
   450.7000      8.0531      2.5375      0.0748      6.8184     21.5892    123.1078
   450.8000      8.0532      2.5669      0.1173      5.0343     21.7748    119.7223
   450.9000      8.0532      2.5847      0.0972      3.9584     21.6464    121.0697
   451.0000      8.0548      2.5845      0.0977      3.9674     21.4707    124.6444
   451.1000      8.0548      2.5702      0.0682      4.8384     21.5997    123.7941
   451.2000      8.0548      2.5527      0.0274      5.8960     22.0237    122.9589
   451.3000      8.0559      2.5474      0.0537      6.2178     22.3024    128.1038
   451.4000      8.0559      2.5545      0.0551      5.7871     22.1153    134.5261
   451.5000      8.0553      2.5664      0.0259      5.0637     21.8596    137.0817
   451.6000      8.0553      2.5734      0.0785      4.6437     21.8574    138.1618
   451.7000      8.0553      2.5647      0.0525      5.1717     21.9445    139.8176
   451.8000      8.0537      2.5436      0.0444      6.4496     21.9303    139.9525
   451.9000      8.0537      2.5220      0.0512      7.7592     21.8131    137.4338
   452.0000      8.0525      2.5073      0.0261      8.6478     21.8110    134.1933
   452.1000      8.0525      2.4951      0.0493      9.3857     21.9754    134.9622
   452.2000      8.0525      2.4767      0.0409     10.5045     22.0316    140.8940
   452.3000      8.0523      2.4573      0.0239     11.6809     21.9277    147.1422
   452.4000      8.0523      2.4504     -0.0163     12.0965     21.9392    149.0141
   452.5000      8.0535      2.4564      0.0510     11.7309     22.1947    145.1357
   452.6000      8.0535      2.4641      0.0514     11.2652     22.5182    142.1889
   452.7000      8.0535      2.4729      0.0415     10.7341     22.8775    143.0344
   452.8000      8.0534      2.4850      0.0717      9.9998     23.3976    141.8963
   452.9000      8.0534      2.4964      0.0570      9.3088     24.0093    138.1011
   453.0000      8.0516      2.5107      0.0522      8.4412     24.5560    135.0648
   453.1000      8.0516      2.5274      0.1359      7.4292     25.0243    134.1369
   453.2000      8.0516      2.5397      0.0727      6.6862     25.6066    134.9864
   453.3000      8.0515      2.5557      0.1057      5.7137     26.4740    134.4480
   453.4000      8.0515      2.5810      0.0856      4.1827     27.5290    130.5013
   453.5000      8.0535      2.6019      0.1387      2.9145     28.4645    126.4161
   453.6000      8.0535      2.6035      0.0959      2.8197     29.1129    125.4414
   453.7000      8.0535      2.5944      0.0382      3.3672     29.4031    125.4313
   453.8000      8.0549      2.5913      0.0717      3.5563     29.3741    124.5175
   453.9000      8.0549      2.5925      0.0280      3.4867     29.2668    123.1387
   454.0000      8.0557      2.5915      0.0331      3.5462     29.2019    122.2279
   454.1000      8.0557      2.5850      0.0498      3.9384     29.1406    122.5137
   454.2000      8.0557      2.5688      0.0254      4.9219     28.9921    122.7413
   454.3000      8.0562      2.5417      0.0134      6.5621     28.6908    122.2145
   454.4000      8.0562      2.5139      0.0003      8.2514     28.2986    118.9617
   454.5000      8.0558      2.5158     -0.0606      8.1355     28.0392    112.2519
   454.6000      8.0558      2.5608      0.0101      5.4074     28.0540    107.9702
   454.7000      8.0558      2.6061      0.0910      2.6597     28.1094    109.6414
   454.8000      8.0524      2.6143      0.0384      2.1616     27.8384    110.5374
   454.9000      8.0524      2.6075     -0.0091      2.5786     27.3698    105.2240
   455.0000      8.0502      2.6107      0.0561      2.3831     27.1267     97.6431
   455.1000      8.0502      2.6162      0.0653      2.0466     26.8121     92.7944
   455.2000      8.0502      2.6139      0.0639      2.1850     26.1578     93.2468
   455.3000      8.0521      2.6063      0.0800      2.6471     25.7689     98.8539
   455.4000      8.0521      2.6035      0.0292      2.8158     26.0333    105.7021
   455.5000      8.0540      2.6117      0.0450      2.3223     26.3805    109.5242
   455.6000      8.0540      2.6185      0.1009      1.9120     26.2472    108.3899
   455.7000      8.0540      2.6116      0.0943      2.3302     25.9062    104.7704
   455.8000      8.0532      2.6017      0.0456      2.9260     25.8218    103.0542
   455.9000      8.0532      2.6001      0.0449      3.0257     25.9997    104.0669
   456.0000      8.0515      2.5938      0.1030      3.4060     26.1164    105.9048
   456.1000      8.0515      2.5756      0.0425      4.5085     26.0299    108.3470
