~Version Information
VERS.                      2.0: CWLS Log ASCII Standard - VERSION 2.0
WRAP.                       NO: One line per depth step
~Well Information Block
STRT.FT               245.0000: 
STOP.FT              1273.7500: 
STEP.FT                 0.2500: 
NULL.                -999.2500: 
COMP.          Pioneer Natural Resources: COMPANY
WELL.                 Ray 34-6: WELL
FLD.           Purgatoire River: FIELD
LOC.           684' FSL & 2254' FEL--: LOCATION
CNTY.               Las Animas: COUNTY
SRVC.                Patterson: SERVICE COMPANY
DATE.          Fri May 26 03:08:09 2006: LOG DATE
UWI.           05 071 08695 00: UNIQUE WELL ID
STAT.                 Colorado: STATE
~Curve Information Block
DEPT.FT            0 000 00 00: Depth
SN.Ohm-m                      : IEL Short Normal
SP.mV                         : IEL Spontaneous Potential
DIR.Ohm-m                     : IEL Induction Resistivity
GR.GAPI                       : Gamma Ray
~Parameter Information Block
~A  Depth        SN          SP         DIR          GR     
# ...
   379.0000    685.7410   -565.8687     16.1381    120.2348
   379.2500    685.7410   -565.8686     15.6333    120.7315
   379.5000    685.7410   -565.8688     15.1768    120.6024
   379.7500    685.7410   -565.8691     14.7752    119.5494
   380.0000    685.7410   -565.8696     14.4425    116.3748
   380.2500    685.7410   -565.8699     14.1971    113.5168
   380.5000    685.7410   -565.8701     14.0571    109.0860
   380.7500    685.7410   -565.8700     14.0342    106.3755
   381.0000    685.7410   -565.8698     14.1249    102.2129
   381.2500    685.7410   -565.8692     14.3034     98.7244
   381.5000    685.7410   -565.8683     14.5180     91.7297
   381.7500    685.7410   -565.8672     14.6980     86.1209
   382.0000    685.7410   -565.8658     14.7719     77.9071
   382.2500    685.7410   -565.8639     14.6914     74.0294
   382.5000    685.7410   -565.8615     14.4491     72.9246
   382.7500    685.7410   -565.8581     14.0761     75.8182
   383.0000    685.7410   -565.8536     13.6248     84.5401
   383.2500    685.7410   -565.8474     13.1477     92.0026
   383.5000    685.7410   -565.8391     12.6867    103.5797
   383.7500    685.7410   -565.8278     12.2744    110.7679
   384.0000    685.7410   -565.8130     11.9384    120.1410
   384.2500    685.7410   -565.7939     11.7032    125.2890
   384.5000    685.7410   -565.7698     11.5882    131.2790
   384.7500    685.7410   -565.7405     11.6075    134.2691
   385.0000    685.7410   -565.7056     11.7712    137.5448
   385.2500    685.7410   -565.6653     12.0885    138.7088
   385.5000    685.7410   -565.6202     12.5674    137.8537
   385.7500    685.7410   -565.5713     13.2125    134.9827
   386.0000    685.7410   -565.5200     14.0186    127.1923
   386.2500    685.7410   -565.4680     14.9628    120.3166
   386.5000    685.7410   -565.4170     15.9919    109.3511
   386.7500    685.7410   -565.3688     17.0124    102.7246
   387.0000    685.7410   -565.3250     17.8911     95.1135
   387.2500    685.7410   -565.2867     18.4810     91.9670
   387.5000    685.7410   -565.2546     18.6692     90.3992
   387.7500    685.7410   -565.2290     18.4252     91.3794
   388.0000    685.7410   -565.2095     17.8148     95.2609
   388.2500    685.7410   -565.1954     16.9710     98.9136
   388.5000    685.7410   -565.1856     16.0412    105.1992
   388.7500    685.7410   -565.1790     15.1430    109.7048
   389.0000    685.7410   -565.1740     14.3435    116.8746
   389.2500    685.7410   -565.1697     13.6619    121.8428
   389.5000    685.7410   -565.1652     13.0836    128.9780
   389.7500    685.7410   -565.1598     12.5767    133.0178
   390.0000    685.7410   -565.1534     12.1073    137.3718
   390.2500    685.7410   -565.1462     11.6514    139.0498
   390.5000    685.7410   -565.1387     11.2019    140.1432
   390.7500    685.7410   -565.1313     10.7687    140.4970
   391.0000    685.7410   -565.1246     10.3724    141.5646
   391.2500    685.7410   -565.1190     10.0354    142.9080
   391.5000    685.7410   -565.1150      9.7747    145.3341
   391.7500    685.7410   -565.1125      9.5970    146.5776
   392.0000    685.7410   -565.1116      9.4985    147.1823
   392.2500    685.7410   -565.1122      9.4672    146.9513
   392.5000    685.7410   -565.1141      9.4869    146.6860
   392.7500    685.7410   -565.1170      9.5414    146.9739
   393.0000    685.7410   -565.1207      9.6189    147.7409
   393.2500    685.7410   -565.1249      9.7129    147.7551
   393.5000    685.7410   -565.1294      9.8210    145.8345
   393.7500    685.7410   -565.1337      9.9416    143.1701
   394.0000    685.7410   -565.1376     10.0700    138.4117
   394.2500    685.7410   -565.1407     10.1973    135.9481
   394.5000    685.7410   -565.1428     10.3105    134.7672
   394.7500    685.7410   -565.1437     10.3942    135.6548
   395.0000    685.7410   -565.1432     10.4352    138.3942
   395.2500    685.7410   -565.1415     10.4284    140.4830
   395.5000    685.7410   -565.1385     10.3825    143.4395
   395.7500    685.7410   -565.1347     10.3222    145.1203
   396.0000    685.7410   -565.1303     10.2844    146.7554
   396.2500    685.7410   -565.1257     10.3102    147.0119
   396.5000    685.7410   -565.1215     10.4366    146.1201
   396.7500    685.7410   -565.1180     10.6912    144.8319
   397.0000    685.7410   -565.1155     11.0907    142.0569
   397.2500    685.7410   -565.1141     11.6441    139.5875
   397.5000    685.7410   -565.1137     12.3576    134.4869
   397.7500    685.7410   -565.1142     13.2403    129.7355
   398.0000    685.7410   -565.1152     14.3054    120.1247
   398.2500    685.7410   -565.1163     15.5671    112.3295
   398.5000    685.7410   -565.1170     17.0315    100.1704
   398.7500    685.7410   -565.1170     18.6813     93.0622
   399.0000    685.7410   -565.1161     20.4626     85.7194
   399.2500    685.7410   -565.1143     22.2799     83.4412
   399.5000    685.7410   -565.1116     24.0114     83.4221
   399.7500    685.7410   -565.1084     25.5393     84.8805
   400.0000    685.7410   -565.1050     26.7806     87.6187
   400.2500    685.7410   -565.1017     27.7037     88.9511
   400.5000    685.7410   -565.0991     28.3306     89.3894
   400.7500    685.7410   -565.0972     28.7358     88.6448
   401.0000    685.7410   -565.0964     29.0372     86.5505
   401.2500    685.7410   -565.0965     29.3704     84.9206
   401.5000    685.7410   -565.0974     29.8455     82.7656
   401.7500    685.7410   -565.0989     30.5013     81.8575
   402.0000    685.7410   -565.1008     31.2786     81.5928
   402.2500    685.7410   -565.1027     32.0255     81.9770
   402.5000    685.7410   -565.1044     32.5436     82.6783
   402.7500    685.7410   -565.1059     32.6590     83.0401
   403.0000    685.7410   -565.1069     32.2845     84.2652
   403.2500    685.7410   -565.1075     31.4401     86.5232
   403.5000    685.7410   -565.1076     30.2327     93.2609
   403.7500    685.7410   -565.1073     28.8135     99.7539
   404.0000    685.7410   -565.1068     27.3308    110.5404
   404.2500    685.7410   -565.1060     25.8903    116.9683
   404.5000    685.7410   -565.1052     24.5397    123.5739
   404.7500    685.7410   -565.1044     23.2834    125.5181
   405.0000    685.7410   -565.1036     22.1140    125.2416
   405.2500    685.7410   -565.1030     21.0390    123.8741
   405.5000    685.7410   -565.1026     20.0833    122.1641
   405.7500    685.7410   -565.1024     19.2743    122.1111
   406.0000    685.7410   -565.1025     18.6238    123.5459
   406.2500    685.7410   -565.1027     18.1191    124.7210
   406.5000    685.7410   -565.1032     17.7224    125.6402
   406.7500    685.7410   -565.1038     17.3768    125.7091
   407.0000    685.7410   -565.1043     17.0176    126.0097
   407.2500    685.7410   -565.1048     16.5890    126.9241
   407.5000    685.7410   -565.1051     16.0623    129.5877
   407.7500    685.7410   -565.1051     15.4457    131.9941
   408.0000    685.7410   -565.1049     14.7783    136.2647
   408.2500    685.7410   -565.1044     14.1120    139.5943
   408.5000    685.7410   -565.1036     13.4920    145.1599
   408.7500    685.7410   -565.1028     12.9459    148.6769
   409.0000    685.7410   -565.1019     12.4834    151.9782
   409.2500    685.7410   -565.1010     12.1016    151.9895
   409.5000    685.7410   -565.1003     11.7916    148.4910
   409.7500    685.7410   -565.1000     11.5432    144.6105
   410.0000    685.7410   -565.0999     11.3461    138.5271
   410.2500    685.7410   -565.1002     11.1914    135.0748
   410.5000    685.7410   -565.1009     11.0718    130.7719
   410.7500    685.7410   -565.1017     10.9836    128.0972
   411.0000    685.7410   -565.1027     10.9261    124.2395
   411.2500    685.7410   -565.1037     10.8995    122.1095
   411.5000    685.7410   -565.1046     10.8997    120.2443
   411.7500    685.7410   -565.1053     10.9152    120.1249
   412.0000    685.7410   -565.1058     10.9292    121.8277
   412.2500    685.7410   -565.1063     10.9263    124.1252
