~Version Information
VERS.                      2.0: CWLS Log ASCII Standard - VERSION 2.0
WRAP.                       NO: One line per depth step
~Well Information Block
STRT.FT                -7.0000: 
STOP.FT              2517.5000: 
STEP.FT                 0.2500: 
NULL.                -999.2500: 
COMP.          Pioneer Natural Resources: COMPANY
WELL.          Horsefeathers 24-34: WELL
FLD.           Purgatoire River: FIELD
LOC.           183' FSL & 1570' FWL: LOCATION
CNTY.               Las Animas: COUNTY
SRVC.                         : SERVICE COMPANY
DATE.          Fri Mar 17 10:06:37 2006: LOG DATE
UWI.           05 071 08675 00: UNIQUE WELL ID
STAT.                       CO: STATE
~Curve Information Block
DEPT.FT            0 000 00 00: Depth
GR.GAPI                       : Gamma Ray
CCL.                          : Casing Collar Locator
TT3.usec                      : CBL 3' Travel Time
AMP3.mV                       : CBL 3' Amplitude
~Parameter Information Block
~A  Depth        GR         CCL         TT3         AMP3    
# ...
  2137.0000    139.3062      0.0000    386.9368      8.1432
  2137.2500    136.2331      0.0000    386.5831      8.2346
  2137.5000    131.4731      0.0000    387.2238      8.2851
  2137.7500    124.8094      0.0000    389.1303      8.2695
  2138.0000    117.1875      0.0000    392.7042      8.1863
  2138.2500    111.0424      0.0000    398.1653      8.0534
  2138.5000    108.7198      0.0000    404.7881      7.8988
  2138.7500    110.4066      0.0000    410.4610      7.7501
  2139.0000    113.9749      0.0000    412.5420      7.6203
  2139.2500    117.0620      0.0000    409.7037      7.4991
  2139.5000    118.8977      0.0000    403.0574      7.3677
  2139.7500    119.8702      0.0000    395.3722      7.2282
  2140.0000    120.1008      0.0000    389.1500      7.1093
  2140.2500    119.2520      0.0000    385.3026      7.0366
  2140.5000    117.3530      0.0000    383.2892      7.0049
  2140.7500    114.9889      0.0000    382.1212      6.9890
  2141.0000    112.6230      0.0000    381.1455      6.9698
  2141.2500    110.2561      0.0000    380.1521      6.9400
  2141.5000    107.9362      0.0000    379.1454      6.8873
  2141.7500    106.2122      0.0000    378.2779      6.7790
  2142.0000    105.6894      0.0000    378.0118      6.5685
  2142.2500    106.2711      0.0000    379.1488      6.2341
  2142.5000    107.1162      0.0000    382.2678      5.8333
  2142.7500    107.3111      0.0000    386.7646      5.4992
  2143.0000    106.5785      0.0000    390.6705      5.3475
  2143.2500    105.4744      0.0000    392.1670      5.3897
  2143.5000    104.7941      0.0000    391.5105      5.5595
  2143.7500    104.6562      0.0000    390.8276      5.7969
  2144.0000    104.4212      0.0000    391.6579      6.0697
  2144.2500    103.6496     -1.0846    393.4302      6.3417
  2144.5000    102.7745      0.0000    395.1840      6.5660
  2144.7500    102.6066      0.0000    398.8352      6.7022
  2145.0000    103.5431      0.0000    409.8904      6.7272
  2145.2500    105.5250      0.0000    433.4095      6.6437
  2145.5000    108.3378      0.0000    467.4349      6.4846
  2145.7500    111.5628      0.0000    500.4685      6.2943
  2146.0000    114.5672      0.0000    518.4728      6.1110
  2146.2500    116.9363      0.0000    517.4847      5.9781
  2146.5000    118.7392      0.0000    509.1836      5.9450
  2146.7500    120.1812      0.0000    511.9488      6.0306
  2147.0000    121.3706      0.0000    535.3788      6.2031
  2147.2500    122.6850      0.0000    573.4338      6.4122
  2147.5000    124.9305      0.0000    611.6018      6.6215
  2147.7500    128.5364      0.0000    638.9798      6.8046
  2148.0000    132.5039      0.0000    653.6541      6.9365
  2148.2500    134.6761      0.0000    659.5971      7.0036
  2148.5000    133.3620      0.0000    661.4006      7.0096
  2148.7500    128.3157      0.0000    661.8230      6.9643
  2149.0000    120.1231      0.0000    662.0311      6.8724
  2149.2500    109.6718      0.0000    662.6263      6.7414
  2149.5000     98.4901      0.0000    664.3683      6.5993
  2149.7500     88.2896      0.0000    668.3687      6.5022
  2150.0000     79.6071      0.0000    675.3911      6.5127
  2150.2500     71.9788      0.0000    684.5693      6.6522
  2150.5000     65.7578      0.0000    693.0032      6.8669
  2150.7500     62.5852      0.0000    697.3730      7.0530
  2151.0000     63.7199      0.0000    696.1808      7.1272
  2151.2500     68.7703      0.0000    690.3416      7.0770
  2151.5000     76.3900      0.0000    682.0552      6.9490
  2151.7500     85.5769      0.0000    673.1881      6.8040
  2152.0000     95.7932      0.0000    663.6201      6.6884
  2152.2500    106.0577      0.0000    650.0652      6.6384
  2152.5000    114.6132      0.0000    627.0092      6.6907
  2152.7500    119.9670      0.0000    590.7614      6.8653
  2153.0000    122.0548      0.0000    544.4103      7.1317
  2153.2500    121.9693      0.0000    498.6493      7.4149
  2153.5000    120.6129      0.0000    466.4563      7.6515
  2153.7500    118.0996      0.0000    456.3142      7.8338
  2154.0000    114.6607      0.0000    469.3178      7.9832
  2154.2500    111.6279      0.0000    499.8047      8.0999
  2154.5000    110.7711      0.0000    537.2319      8.1600
  2154.7500    112.5057      0.0000    569.7317      8.1554
  2155.0000    115.2017      0.0000    588.4635      8.1139
  2155.2500    116.5948      0.0000    589.3267      8.0737
  2155.5000    115.7503      0.0000    571.8695      8.0472
  2155.7500    113.5901      0.0000    539.0329      8.0105
  2156.0000    111.8261      0.0000    498.3831      7.9258
  2156.2500    111.5833      0.0000    461.2118      7.7774
  2156.5000    112.7589      0.0000    438.2696      7.5897
  2156.7500    114.3252      0.0000    435.4515      7.4126
  2157.0000    115.1845      0.0000    451.8742      7.2881
  2157.2500    114.9392      0.0000    479.7496      7.2295
  2157.5000    114.0589      0.0000    507.2716      7.2225
  2157.7500    113.3083      0.0000    526.1536      7.2420
  2158.0000    112.9444      0.0000    537.9843      7.2753
  2158.2500    112.5245      0.0000    550.4115      7.3338
  2158.5000    111.3976      0.0000    566.4970      7.4398
  2158.7500    109.1583      0.0000    581.2100      7.5962
  2159.0000    105.7621      0.0000    589.0955      7.7711
  2159.2500    101.6212      0.0000    591.8080      7.9149
  2159.5000     97.5554      0.0000    595.3784      7.9941
  2159.7500     94.3606      0.0000    601.1833      8.0103
  2160.0000     92.4346      0.0000    602.8964      7.9885
  2160.2500     91.7088      0.0000    594.3294      7.9558
  2160.5000     91.5536      0.0000    579.0304      7.9328
  2160.7500     90.9487      0.0000    569.5607      7.9357
  2161.0000     89.4650      0.0000    576.3230      7.9773
  2161.2500     88.0814      0.0000    598.1305      8.0645
  2161.5000     88.3247      0.0000    624.4236      8.1964
  2161.7500     90.5612      0.0000    644.9384      8.3592
  2162.0000     93.8390      0.0000    655.6561      8.5242
  2162.2500     97.3773      0.0000    657.1514      8.6555
  2162.5000    101.2570      0.0000    650.9194      8.7199
  2162.7500    105.3585      0.0000    639.2308      8.6937
  2163.0000    108.4453      0.0000    627.2167      8.5672
  2163.2500    109.0081      0.0000    621.7505      8.3560
  2163.5000    106.9296      0.0000    625.9068      8.1032
  2163.7500    103.9633      0.0000    635.1965      7.8617
  2164.0000    102.2913      0.0000    640.5543      7.6657
  2164.2500    102.6189      0.0000    634.6487      7.5193
  2164.5000    103.9655      0.0000    616.0374      7.4060
  2164.7500    105.2643      0.0000    589.7427      7.3099
  2165.0000    106.5724      0.0000    564.1648      7.2309
  2165.2500    108.5371      0.0000    545.4183      7.1852
  2165.5000    111.2489      0.0000    534.6808      7.1866
  2165.7500    113.9754      0.0000    531.9674      7.2192
  2166.0000    115.7377      0.0000    539.7932      7.2352
  2166.2500    115.9254      0.0000    559.3672      7.1904
  2166.5000    114.4597      0.0000    584.4127      7.0835
  2166.7500    111.4488      0.0000    602.5286      6.9556
  2167.0000    106.8290      0.0000    603.5299      6.8543
  2167.2500    100.6621      0.0000    585.7120      6.8046
  2167.5000     93.8217      0.0000    555.5531      6.8095
  2167.7500     88.0048      0.0000    523.9330      6.8661
  2168.0000     84.8227      0.0000    502.0917      6.9699
  2168.2500     84.8715      0.0000    497.4916      7.1058
  2168.5000     87.4935      0.0000    510.3221      7.2490
  2168.7500     91.2310      0.0000    533.4079      7.3876
  2169.0000     94.6495      0.0000    556.8086      7.5401
  2169.2500     96.9985      0.0000    573.7189      7.7354
  2169.5000     98.1536      0.0000    582.8576      7.9709
  2169.7500     98.0214      0.0000    586.5029      8.2034
  2170.0000     96.3088      0.0000    587.4118      8.3884
  2170.2500     93.0465      0.0000    587.2849      8.5141
