~Version Information
VERS.                      2.0: CWLS Log ASCII Standard - VERSION 2.0
WRAP.                       NO: One line per depth step
~Well Information Block
STRT.FT               390.0000: 
STOP.FT               825.0000: 
STEP.FT                 0.1000: 
NULL.                -999.2500: 
COMP.          Pioneer Natural Resources: COMPANY
WELL.             Veedol 34-28: WELL
FLD.           Purgatoire River: FIELD
LOC.           357' FSL & 2520' FEL: LOCATION
PROV.                 Colorado: PROVINCE
CNTY.               Las Animas: COUNTRY
SRVC.                Patterson: SERVICE COMPANY
DATE.          Thu Dec 22 14:38:20 2005: LOG DATE
UWI.           05 071 08628 00: UNIQUE WELL ID
~Curve Information Block
DEPT.FT            0 000 00 00: Depth
DCAL.in                       : CDL Caliper
RHOB.g/cc                     : CDL Bulk Density
RHOC.g/cc                     : CDL Density Correction
DPOR.pu                       : CDL Density Porosity
GR.GAPI                       : Gamma Ray
NPOR.pu                       : Neutron Porosity
~Parameter Information Block
~A  Depth       DCAL        RHOB        RHOC        DPOR         GR         NPOR    
# ...
   610.8000      7.8817      2.5040      0.1033      8.8492     95.4522     22.0038
   610.9000      7.8817      2.4970      0.0904      9.2706     96.2921     22.8589
   611.0000      7.8777      2.4981      0.0951      9.2083     94.1717     23.2925
   611.1000      7.8777      2.5066      0.1050      8.6927     91.1049     23.0623
   611.2000      7.8777      2.5172      0.1201      8.0469     91.1970     22.9216
   611.3000      7.8881      2.5241      0.1293      7.6312     92.8850     23.2203
   611.4000      7.8881      2.5204      0.1320      7.8556     93.3278     23.1804
   611.5000      7.9042      2.5060      0.0792      8.7279     91.6020     22.7338
   611.6000      7.9042      2.4891      0.0858      9.7499     87.6208     22.6030
   611.7000      7.9042      2.4706      0.0868     10.8699     87.0509     22.9081
   611.8000      7.9116      2.4508      0.0293     12.0723     94.3346     23.2532
   611.9000      7.9116      2.4399      0.0177     12.7361    103.0365     23.5837
   612.0000      7.9109      2.4408      0.0447     12.6763    103.9739     23.9441
   612.1000      7.9109      2.4502      0.0383     12.1120     99.0469     24.0531
   612.2000      7.9109      2.4667      0.0412     11.1109     93.8371     23.7032
   612.3000      7.9120      2.4901      0.0098      9.6938     87.7378     23.1510
   612.4000      7.9120      2.5207      0.0645      7.8334     83.2141     23.0471
   612.5000      7.9137      2.5537      0.0987      5.8363     85.5183     23.5079
   612.6000      7.9137      2.5853      0.1066      3.9196     91.2658     23.9156
   612.7000      7.9137      2.6113      0.1274      2.3485     93.1662     23.9083
   612.8000      7.9088      2.6161      0.1100      2.0522     91.2337     23.8510
   612.9000      7.9088      2.5996      0.0866      3.0554     88.7792     24.1028
   613.0000      7.8999      2.5799      0.0969      4.2474     84.5302     24.4458
   613.1000      7.8999      2.5660      0.0582      5.0895     77.6014     24.7209
   613.2000      7.8999      2.5578      0.0476      5.5899     71.8782     24.5972
   613.3000      7.9001      2.5528      0.0468      5.8892     71.2254     23.6888
   613.4000      7.9001      2.5443      0.0387      6.4090     74.4166     22.5419
   613.5000      7.9074      2.5314     -0.0048      7.1894     79.0089     22.1000
   613.6000      7.9074      2.5266      0.0383      7.4769     84.3740     22.3353
   613.7000      7.9074      2.5309      0.0169      7.2183     86.8710     22.2925
   613.8000      7.9098      2.5296      0.0566      7.2961     84.3366     21.7506
   613.9000      7.9098      2.5145      0.0280      8.2095     81.2133     21.3546
   614.0000      7.9048      2.4972      0.0090      9.2629     81.0336     21.2414
   614.1000      7.9048      2.4855      0.0196      9.9716     83.2355     20.9803
   614.2000      7.9048      2.4711      0.0372     10.8431     88.5800     20.7771
   614.3000      7.8982      2.4574     -0.0217     11.6727     96.4299     21.1116
   614.4000      7.8982      2.4634      0.0027     11.3093    100.9301     21.3333
   614.5000      7.8916      2.4879      0.0399      9.8227    100.5585     20.7846
   614.6000      7.8916      2.5121      0.0513      8.3577    101.3042     19.7381
   614.7000      7.8916      2.5258      0.0824      7.5278    106.5565     18.5943
   614.8000      7.8835      2.5203      0.1162      7.8576    112.0557     17.6691
   614.9000      7.8835      2.4846      0.1059     10.0249    114.7360     17.0350
   615.0000      7.8826      2.4238      0.0533     13.7062    117.6431     16.6055
   615.1000      7.8826      2.3638      0.0086     17.3449    122.9939     16.3902
   615.2000      7.8826      2.3208      0.0178     19.9485    125.6124     16.4938
   615.3000      7.8967      2.2852      0.0089     22.1103    120.8277     16.8596
   615.4000      7.8967      2.2523     -0.0348     24.1026    114.1857     17.4102
   615.5000      7.9181      2.2330     -0.0440     25.2742    110.6759     18.2375
   615.6000      7.9181      2.2322      0.0027     25.3228    108.6125     19.2934
   615.7000      7.9181      2.2447      0.0594     24.5637    107.2833     19.9767
   615.8000      7.9297      2.2623      0.0631     23.4965    105.2089     19.9776
   615.9000      7.9297      2.2829      0.0999     22.2495    101.2808     20.2341
   616.0000      7.9304      2.3099      0.0979     20.6136     96.4032     21.3815
   616.1000      7.9304      2.3478      0.1173     18.3143     89.4845     22.7126
   616.2000      7.9304      2.3934      0.0967     15.5492     81.4379     23.5201
   616.3000      7.9287      2.4351      0.1457     13.0229     80.2131     23.9120
   616.4000      7.9287      2.4622      0.1407     11.3816     89.4973     24.1302
   616.5000      7.9311      2.4738      0.1442     10.6807    102.4617     24.2866
   616.6000      7.9311      2.4743      0.1189     10.6455    110.3344     24.7046
   616.7000      7.9311      2.4688      0.0894     10.9838    107.6584     25.6285
   616.8000      7.9332      2.4684      0.0485     11.0077     96.8004     26.3773
   616.9000      7.9332      2.4821      0.0751     10.1775     87.3481     26.1094
   617.0000      7.9325      2.5037      0.0413      8.8682     87.3630     25.3347
   617.1000      7.9325      2.5247      0.0804      7.5935     95.7537     25.0354
   617.2000      7.9325      2.5429      0.0707      6.4917    102.5394     25.2353
   617.3000      7.9310      2.5557      0.0796      5.7166    100.3063     25.2699
   617.4000      7.9310      2.5572      0.0917      5.6218     93.2554     25.2861
   617.5000      7.9279      2.5544      0.0843      5.7926     87.3846     25.4593
   617.6000      7.9279      2.5624      0.0676      5.3112     82.7269     25.1273
   617.7000      7.9279      2.5765      0.1035      4.4518     80.2131     24.4226
   617.8000      7.9227      2.5788      0.0769      4.3146     81.4565     24.1305
   617.9000      7.9227      2.5685      0.0377      4.9419     84.3863     24.1142
   618.0000      7.9179      2.5583      0.0457      5.5553     87.5198     23.8075
   618.1000      7.9179      2.5531      0.0669      5.8708     88.9180     23.1190
   618.2000      7.9179      2.5537      0.0452      5.8345     86.4163     22.1597
   618.3000      7.9147      2.5582      0.0836      5.5664     81.1719     21.0711
   618.4000      7.9147      2.5535      0.0471      5.8493     77.5554     20.2204
   618.5000      7.9182      2.5317      0.0475      7.1673     79.2869     20.0942
   618.6000      7.9182      2.4965      0.0350      9.3019     84.6684     20.5743
   618.7000      7.9182      2.4579     -0.0148     11.6395     89.5800     21.3961
   618.8000      7.9258      2.4238      0.0274     13.7092     92.0294     22.3960
   618.9000      7.9258      2.3931     -0.0266     15.5682     93.6270     23.0238
   619.0000      7.9295      2.3736     -0.0712     16.7490     97.6981     22.8279
   619.1000      7.9295      2.3756     -0.0321     16.6316    102.0205     22.3120
   619.2000      7.9295      2.3923     -0.0189     15.6166    101.3832     22.2091
   619.3000      7.9284      2.4118     -0.0043     14.4391     95.9444     22.2966
   619.4000      7.9284      2.4303      0.0267     13.3165     89.4440     22.1755
   619.5000      7.9230      2.4457      0.0445     12.3803     82.2996     21.9704
   619.6000      7.9230      2.4549      0.0449     11.8219     74.1329     21.9108
   619.7000      7.9230      2.4565      0.0622     11.7298     67.9357     21.8271
   619.8000      7.9123      2.4459      0.0508     12.3679     65.2803     21.6819
   619.9000      7.9123      2.4272      0.0209     13.5011     66.8153     21.8798
   620.0000      7.9037      2.4167      0.0163     14.1402     72.4570     22.6608
   620.1000      7.9037      2.4208      0.0423     13.8923     78.5975     23.6875
   620.2000      7.9037      2.4334      0.0511     13.1301     82.3637     24.1570
   620.3000      7.9068      2.4585      0.0357     11.6088     82.8356     23.8802
