~Version Information
 VERS.                                  2.0 : CWLS LAS VERSION
 WRAP.                                   NO : WRAPING MODE
 SWARE .                 MController 2.5.0N : SOFTWARE VERSION
~Well Information
 WELL.                    Hellzonfire 32-31 : WELL
 COMP.    Pioneer Natural Resources USA Inc : COMPANY
 FLD.                      Purgatoire River : FIELD
 LOC.                 SW/NE SEC31 T32S R66W : LOCATION
 DATE.                             09/01/05 : DATE(S) LOGGED
 SRVC.       Blanco Geological Services LLC : SERVICE COMPANY
 STAT.                             Colorado : STATE
 CNTY.                           Las Animas : COUNTY
 CTRY.                                  USA : COUNTRY
 API.                       05-071-08483-00 : API NUMBER
 STRT.FT                             356.00 : START DEPTH
 STOP.FT                            2480.00 : STOP DEPTH
 STEP.FT                               1.00 : DEPTH INCREMENT
 NULL.                                -9999 : NULL VALUE
~Curve information
 DEPTH.FT                                   :
 ROP.MIN/FT                                 :
 GAS.UNITS                                  :
~ASCII Log data
       356.0     -9999.00         16.9 
       357.0         2.38         17.0 
       358.0         0.10         16.7 
       359.0         0.13         16.0 
       360.0         0.10         16.1 
       361.0         0.13         16.7 
       362.0         0.10         16.7 
       363.0         0.10         16.4 
       364.0         0.13         16.3 
       365.0         0.10         16.2 
       366.0         0.13         16.2 
       367.0         0.10         16.2 
       368.0         0.10         16.3 
       369.0         0.10         16.3 
       370.0         0.07         16.3 
       371.0         0.10         16.6 
       372.0         0.07         16.6 
       373.0         0.10         16.6 
       374.0         0.07         16.0 
       375.0         0.10         16.0 
       376.0         0.13         16.0 
       377.0         0.13         16.2 
       378.0         0.13         16.3 
       379.0         0.13         16.3 
       380.0         0.10         16.3 
       381.0         0.13         16.1 
       382.0         0.13         16.1 
       383.0         0.15         16.1 
       384.0         0.13         16.0 
       385.0         0.13         16.0 
       386.0         1.93         16.6 
       387.0         0.13         16.6 
       388.0         0.23         16.3 
       389.0         0.20         16.6 
       390.0         0.23         16.6 
       391.0         0.18         16.5 
       392.0         0.17         16.3 
       393.0         0.23         16.3 
       394.0         0.17         16.6 
       395.0         0.10         16.3 
       396.0         0.07         16.3 
       397.0         0.10         16.4 
       398.0         0.07         16.3 
       399.0         0.10         16.2 
       400.0         0.07         16.2 
       401.0         0.10         16.4 
       402.0         0.07         16.4 
       403.0         0.10         16.0 
       404.0         0.07         16.4 
       405.0         0.10         15.4 
       406.0         0.07         15.4 
       407.0         0.10         16.2 
       408.0         0.07         16.1 
       409.0         0.10         16.0 
       410.0         0.07         16.1 
       411.0         0.07         16.1 
       412.0         0.10         16.0 
       413.0         0.10         15.9 
       414.0         0.10         16.6 
       415.0         0.07         16.6 
       416.0         0.10         16.0 
       417.0         0.10         16.0 
       418.0         0.07         16.4 
       419.0         0.10         16.4 
       420.0         0.07         16.2 
       421.0         0.10         15.8 
       422.0         0.07         16.0 
       423.0         0.10         16.0 
       424.0         0.07         16.5 
       425.0         0.10         16.5 
       426.0         0.07         16.0 
       427.0         0.12         16.0 
       428.0         0.07         16.4 
       429.0         0.10         16.4 
       430.0         0.10         16.4 
       431.0         0.13         16.0 
       432.0         0.10         16.3 
       433.0         0.10         16.3 
       434.0         0.10         16.7 
       435.0         0.07         16.7 
       436.0         0.13         16.7 
       437.0         0.10         16.3 
       438.0         0.17         16.3 
       439.0         0.13         16.3 
       440.0         0.10         16.3 
       441.0         0.10         16.0 
       442.0         0.13         16.0 
       443.0         0.10         16.2 
       444.0         0.10         16.2 
       445.0         0.13         16.2 
       446.0         2.32         16.4 
       447.0         0.27         16.5 
       448.0         0.27         16.1 
       449.0         0.27         16.2 
       450.0         0.27         16.3 
       451.0         0.23         16.5 
       452.0         0.27         16.2 
       453.0         0.23         16.2 
       454.0         0.27         16.4 
       455.0         0.20         16.6 
       456.0         0.22         16.3 
       457.0         0.20         16.2 
       458.0         0.20         16.3 
       459.0         0.23         16.7 
       460.0         0.23         16.4 
       461.0         0.20         15.7 
       462.0         0.23         16.1 
       463.0         0.20         16.1 
       464.0         0.23         15.8 
       465.0         0.20         16.1 
       466.0         0.20         16.0 
       467.0         0.20         16.0 
       468.0         0.20         16.1 
       469.0         0.17         16.1 
       470.0         0.20         16.2 
       471.0         0.20         16.1 
       472.0         0.22         15.9 
       473.0         0.23         16.3 
       474.0         0.20         16.3 
       475.0         0.30         16.4 
       476.0         2.52         16.3 
       477.0         0.23         15.9 
       478.0         0.20         15.9 
       479.0         0.23         16.1 
       480.0         0.23         15.9 
       481.0         0.23         15.7 
       482.0         0.27         16.1 
       483.0         0.23         15.7 
       484.0         0.23         15.7 
       485.0         0.33         15.8 
       486.0         0.23         15.5 
       487.0         0.20         15.4 
       488.0         0.23         15.4 
       489.0         0.20         15.4 
       490.0         0.25         15.2 
       491.0         0.23         15.7 
       492.0         0.23         15.5 
       493.0         0.23         15.8 
       494.0         0.20         15.3 
       495.0         0.17         15.4 
       496.0         0.17         15.4 
       497.0         0.20         16.0 
       498.0         0.17         16.0 
       499.0         0.23         15.1 
       500.0         0.23         15.8 
       501.0         0.27         15.8 
       502.0         0.23         15.5 
       503.0         0.27         16.1 
       504.0         0.23         15.8 
       505.0         0.32         15.8 
       506.0         1.17         16.1 
       507.0         0.63         15.9 
       508.0         0.37         15.6 
       509.0         0.27         15.8 
       510.0         0.27         15.9 
       511.0         0.23         15.4 
       512.0         0.23         15.6 
       513.0         0.28         15.8 
       514.0         0.20         15.7 
       515.0         0.20         16.0 
       516.0         0.23         15.6 
       517.0         0.23         15.8 
       518.0         0.23         15.6 
       519.0         0.23         15.0 
       520.0         0.20         16.0 
       521.0         0.20         15.4 
       522.0         0.23         15.7 
       523.0         0.20         15.7 
       524.0         0.20         15.5 
       525.0         0.20         15.6 
       526.0         0.23         15.6 
       527.0         0.23         15.9 
       528.0         0.25         15.9 
       529.0         0.20         15.8 
       530.0         0.20         15.8 
       531.0         0.23         15.6 
       532.0         0.23         15.7 
       533.0         0.23         15.3 
       534.0         0.23         16.1 
       535.0         0.20         15.8 
       536.0         1.92         16.3 
       537.0         0.20         16.1 
       538.0         0.40         16.0 
       539.0         0.33         15.7 
       540.0         0.27         15.6 
       541.0         0.27         16.0 
       542.0         0.23         15.9 
       543.0         0.27         15.6 
       544.0         0.20         15.7 
       545.0         0.23         16.4 
       546.0         0.20         16.0 
       547.0         0.20         15.8 
       548.0         0.20         16.2 
       549.0         0.22         15.6 
       550.0         0.20         15.4 
       551.0         0.20         14.5 
       552.0         0.33         15.1 
       553.0         0.17         15.1 
       554.0         0.20         15.1 
       555.0         0.17         15.5 
