~Version Information
VERS.                      2.0: CWLS Log ASCII Standard - VERSION 2.0
WRAP.                       NO: One line per depth step
~Well Information Block
STRT.FT               335.0000: 
STOP.FT              1154.7000: 
STEP.FT                 0.1000: 
NULL.                -999.2500: 
COMP.          Pioneer Natural Resources: COMPANY
WELL.             Croc 42-9 Tr: WELL
FLD.           Purgatoire River: FIELD
LOC.           2429' FNL & 315' FEL--: LOCATION
STAT.                 Colorado: State
CNTY.               Las Animas: COUNTY
CTRY. USA : Country
SECT. 9 : Section
TOWN. 32S : Township
RANG. 66W : Range
SRVC.                Patterson: SERVICE COMPANY
DATE.          Fri Oct 14 07:56:23 2005: LOG DATE
API.           05 071 08550 00: UNIQUE WELL ID
~Curve Information Block
DEPT.FT            0 000 00 00: Depth
DCAL.in                       : CDL Caliper
RHOB.g/cc                     : CDL Bulk Density
RHOC.g/cc                     : CDL Density Correction
DPOR.pu                       : CDL Density Porosity
NPOR.pu                       : Neutron Porosity
GR.GAPI                       : Gamma Ray
~Parameter Information Block
~A  Depth       DCAL        RHOB        RHOC        DPOR        NPOR         GR     
# ...
  1016.6000      7.9048      2.5203      0.0298      7.8599     24.3897     74.7785
  1016.7000      7.9048      2.5207      0.0411      7.8345     24.5064     68.8855
  1016.8000      7.9029      2.5347      0.0228      6.9873     24.7348     68.9823
  1016.9000      7.9029      2.5546      0.0546      5.7794     24.8114     78.2855
  1017.0000      7.9013      2.5719      0.0871      4.7357     24.9971     90.5975
  1017.1000      7.9013      2.5842      0.0633      3.9880     25.3852     97.1088
  1017.2000      7.9013      2.5967      0.0568      3.2277     25.8003     96.0657
  1017.3000      7.9017      2.6062      0.0645      2.6527     26.0738     93.3666
  1017.4000      7.9017      2.6013      0.0433      2.9493     26.3059     92.6260
  1017.5000      7.9027      2.5810      0.0270      4.1808     26.9179     93.7286
  1017.6000      7.9027      2.5615      0.0310      5.3621     27.8353     97.7465
  1017.7000      7.9027      2.5595      0.0264      5.4866     28.4506     99.9029
  1017.8000      7.9024      2.5743      0.0262      4.5895     28.7191     94.9008
  1017.9000      7.9024      2.5913      0.0691      3.5571     28.9006     90.9680
  1018.0000      7.8985      2.5951      0.0430      3.3293     28.8752     94.8941
  1018.1000      7.8985      2.5800      0.0309      4.2454     28.7670    100.2959
  1018.2000      7.8985      2.5536     -0.0094      5.8407     28.8912    102.3370
  1018.3000      7.8914      2.5290      0.0126      7.3312     29.1253    101.6896
  1018.4000      7.8914      2.5116     -0.0128      8.3884     29.3704    100.2486
  1018.5000      7.8840      2.4995      0.0341      9.1215     29.5046    100.3622
  1018.6000      7.8840      2.4880      0.0505      9.8176     28.9170    102.0358
  1018.7000      7.8840      2.4796      0.0065     10.3248     27.7620    104.0990
  1018.8000      7.8775      2.4851     -0.0096      9.9956     27.2183    106.8567
  1018.9000      7.8775      2.5019      0.0442      8.9760     27.6037    110.0319
  1019.0000      7.8720      2.5198      0.0368      7.8883     28.1609    113.7169
  1019.1000      7.8720      2.5359      0.0716      6.9150     28.4447    116.1527
  1019.2000      7.8720      2.5508      0.0824      6.0116     28.7967    116.0656
  1019.3000      7.8686      2.5683      0.0658      4.9527     29.4874    116.7709
  1019.4000      7.8686      2.5882      0.1094      3.7479     30.2588    120.3734
  1019.5000      7.8690      2.6015      0.0931      2.9401     30.6934    124.2983
  1019.6000      7.8690      2.6035      0.0584      2.8210     30.7008    127.9733
  1019.7000      7.8690      2.6009      0.0519      2.9742     30.5428    132.9866
  1019.8000      7.8708      2.6017      0.0496      2.9297     30.1506    136.2039
  1019.9000      7.8708      2.6017      0.0685      2.9260     29.6152    134.7340
  1020.0000      7.8740      2.5949      0.0508      3.3369     29.4118    131.9359
  1020.1000      7.8740      2.5868      0.0374      3.8278     29.5112    131.4102
  1020.2000      7.8740      2.5840      0.0301      3.9989     29.4712    133.5485
  1020.3000      7.8758      2.5839      0.0354      4.0066     29.6543    140.4421
  1020.4000      7.8758      2.5842      0.0123      3.9893     30.5241    151.1350
  1020.5000      7.8743      2.5877      0.0398      3.7730     31.5071    156.7509
  1020.6000      7.8743      2.5916      0.0820      3.5408     31.9433    153.5816
  1020.7000      7.8743      2.5921      0.0585      3.5077     31.8444    145.3220
  1020.8000      7.8725      2.5944      0.0624      3.3716     31.6812    134.6400
  1020.9000      7.8725      2.5965      0.0543      3.2410     31.7373    125.9266
  1021.0000      7.8714      2.5894      0.0534      3.6708     32.0309    123.9803
  1021.1000      7.8714      2.5784      0.0421      4.3365     32.3643    127.1680
  1021.2000      7.8714      2.5817      0.0266      4.1381     32.2597    131.4397
  1021.3000      7.8663      2.6064      0.0952      2.6442     31.6152    135.8102
  1021.4000      7.8663      2.6434      0.0918      0.3999     30.8934    138.0375
  1021.5000      7.8621      2.6761      0.1425     -1.5832     30.4580    136.1137
  1021.6000      7.8621      2.6875      0.1173     -2.2754     29.9806    131.9560
  1021.7000      7.8621      2.6824      0.0902     -1.9617     29.5068    128.3515
  1021.8000      7.8657      2.6774      0.1058     -1.6635     29.8096    125.5579
  1021.9000      7.8657      2.6715      0.0945     -1.3035     30.6584    123.3889
  1022.0000      7.8683      2.6517      0.0904     -0.1043     30.9702    123.6122
  1022.1000      7.8683      2.6202      0.0062      1.8050     30.4562    124.8054
  1022.2000      7.8683      2.5954      0.0254      3.3097     29.6899    123.0962
  1022.3000      7.8665      2.5828     -0.0280      4.0719     29.0972    120.8161
  1022.4000      7.8665      2.5716     -0.0047      4.7491     28.5668    124.6851
  1022.5000      7.8618      2.5480     -0.0411      6.1837     27.9807    134.4462
  1022.6000      7.8618      2.4976     -0.0036      9.2358     27.4922    139.8807
  1022.7000      7.8618      2.4259     -0.0922     13.5825     27.1070    133.8067
  1022.8000      7.8544      2.3716     -0.0826     16.8727     26.8181    124.7634
  1022.9000      7.8544      2.3588     -0.0354     17.6472     26.8734    122.3386
  1023.0000      7.8512      2.3707     -0.0035     16.9251     27.2872    122.5597
  1023.1000      7.8512      2.3849      0.0231     16.0650     27.8558    120.1138
  1023.2000      7.8512      2.3933      0.0132     15.5597     28.6637    114.2079
  1023.3000      7.8579      2.3897      0.0535     15.7779     29.9473    106.9929
  1023.4000      7.8579      2.3635      0.0513     17.3623     31.2793    103.6617
  1023.5000      7.8667      2.3112      0.0245     20.5337     31.9871    105.8038
  1023.6000      7.8667      2.2418      0.0046     24.7424     32.2872    109.8720
  1023.7000      7.8667      2.1639      0.0019     29.4607     32.9116    113.4264
  1023.8000      7.8704      2.0708     -0.0086     35.1049     33.9913    117.3566
  1023.9000      7.8704      1.9525     -0.0781     42.2719     34.8326    121.7270
  1024.0000      7.8655      1.8249     -0.1511     50.0060     35.1956    124.3267
  1024.1000      7.8655      1.7232     -0.1613     56.1699     35.4740    122.8989
  1024.2000      7.8655      1.6718     -0.1558     59.2829     35.5912    116.2662
  1024.3000      7.8535      1.6783     -0.0814     58.8904     35.1907    106.4434
  1024.4000      7.8535      1.7389     -0.0132     55.2172     34.5183     96.6996
  1024.5000      7.8436      1.8423      0.0971     48.9531     33.7973     88.0385
  1024.6000      7.8436      1.9722      0.1905     41.0771     32.6878     84.0643
  1024.7000      7.8436      2.1080      0.2758     32.8462     31.2955     89.5648
  1024.8000      7.8471      2.2306      0.2971     25.4166     30.3140    103.1261
  1024.9000      7.8471      2.3325      0.3036     19.2436     29.7750    117.7855
  1025.0000      7.8659      2.4169      0.2894     14.1300     28.9007    125.9691
  1025.1000      7.8659      2.4852      0.2426      9.9880     27.5404    125.5764
  1025.2000      7.8659      2.5330      0.1785      7.0899     26.3485    120.8026
  1025.3000      7.8858      2.5576      0.1097      5.6002     25.3501    113.8224
  1025.4000      7.8858      2.5632      0.0604      5.2596     24.1575    106.2189
  1025.5000      7.8963      2.5596      0.0437      5.4803     23.0875    103.8471
  1025.6000      7.8963      2.5537      0.0565      5.8337     22.5840    108.6119
  1025.7000      7.8963      2.5494      0.0312      6.0985     22.2254    111.1324
  1025.8000      7.9006      2.5511      0.0293      5.9927     21.5041    103.8197
  1025.9000      7.9006      2.5573      0.0528      5.6183     20.9182     92.7339
  1026.0000      7.9041      2.5633      0.0421      5.2516     20.8646     85.1370
  1026.1000      7.9041      2.5759      0.0360      4.4931     21.0390     80.0367
