~Version Information
VERS.                      2.0: CWLS Log ASCII Standard - VERSION 2.0
WRAP.                       NO: One line per depth step
~Well Information Block
STRT.FT                -5.7500: 
STOP.FT              2734.0000: 
STEP.FT                 0.2500: 
NULL.                -999.2500: 
COMP.          Pioneer Natural Resources: COMPANY
WELL.              Loews 41-32: WELL
FLD.           Purgatoire River: FIELD
LOC.           751' FNL & 128' FEL--: LOCATION
CNTY.               Las Animas: COUNTY
SRVC.                         : SERVICE COMPANY
DATE.          Sat Mar 04 08:20:59 2006: LOG DATE
UWI.           05 071 08693 00: UNIQUE WELL ID
STAT.                       CO: STATE
~Curve Information Block
DEPT.FT            0 000 00 00: Depth
GR.GAPI                       : Gamma Ray
CCL.                          : Casing Collar Locator
TT3.usec                      : CBL 3' Travel Time
AMP3.mV                       : CBL 3' Amplitude
~Parameter Information Block
~A  Depth        GR         CCL         TT3         AMP3    
# ...
  1803.2500    116.2295      0.0000    600.0313      4.3325
  1803.5000    102.2370      0.0000    548.3936      4.4289
  1803.7500     87.7000      0.0000    497.9191      4.5531
  1804.0000     74.7874      0.0000    468.0916      4.6440
  1804.2500     64.6725      0.0000    469.1767      4.6423
  1804.5000     57.5612      0.0000    492.8822      4.5330
  1804.7500     52.9788      0.0000    519.1958      4.3609
  1805.0000     50.4061      0.0000    532.8107      4.2082
  1805.2500     49.7137      0.0000    532.2191      4.1509
  1805.5000     50.8436      0.0000    524.0011      4.2222
  1805.7500     53.4118      0.0000    512.4264      4.4000
  1806.0000     57.0840      0.0000    498.6533      4.6169
  1806.2500     62.1869      0.0000    488.7651      4.7894
  1806.5000     69.5571      0.0000    495.3600      4.8593
  1806.7500     79.8723      0.0000    525.8436      4.8219
  1807.0000     93.1741      0.0000    571.3679      4.7180
  1807.2500    108.3756      0.0000    611.8273      4.5999
  1807.5000    122.8230      0.0000    631.9626      4.4998
  1807.7500    133.0550      0.0000    630.6337      4.4211
  1808.0000    136.9165      0.0000    615.2941      4.3510
  1808.2500    134.9473      0.0000    591.6899      4.2797
  1808.5000    129.5233      0.0000    562.8286      4.2107
  1808.7500    123.1070      0.0000    536.1616      4.1580
  1809.0000    117.5197      0.0000    523.8046      4.1353
  1809.2500    113.9771      0.0000    530.9645      4.1426
  1809.5000    112.9065      0.0000    547.8146      4.1608
  1809.7500    113.8788      0.0000    556.9113      4.1613
  1810.0000    116.2300      0.0000    547.0826      4.1250
  1810.2500    119.8157      0.0000    518.8807      4.0549
  1810.5000    124.9410      0.0000    480.8795      3.9716
  1810.7500    131.4709      0.0000    444.1045      3.8969
  1811.0000    138.0964      0.0000    417.1247      3.8404
  1811.2500    142.7798      0.0000    402.5653      3.7995
  1811.5000    144.1973      0.0000    397.3191      3.7681
  1811.7500    142.7247      0.0000    396.1874      3.7438
  1812.0000    139.9063      0.0000    395.6390      3.7280
  1812.2500    137.1191      0.0000    395.1330      3.7235
  1812.5000    134.8129      0.0000    396.0696      3.7345
  1812.7500    132.9105      0.0000    399.8957      3.7654
  1813.0000    131.7620      0.0000    406.6721      3.8180
  1813.2500    132.4196      0.0000    414.8616      3.8869
  1813.5000    135.6724      0.0000    422.2755      3.9605
  1813.7500    140.9607      0.0000    427.4312      4.0255
  1814.0000    146.5189      0.0000    430.1533      4.0732
  1814.2500    150.4233      0.0000    431.1005      4.1025
  1814.5000    151.4155      0.0000    430.9161      4.1212
  1814.7500    149.3945      0.0000    429.6875      4.1424
  1815.0000    145.6609      0.0000    426.9252      4.1788
  1815.2500    142.2559      0.0000    422.1894      4.2328
  1815.5000    140.4789      0.0000    416.0955      4.2926
  1815.7500    140.0962      0.0000    410.6189      4.3375
  1816.0000    139.9761      0.0000    407.8270      4.3528
  1816.2500    139.1189      0.0000    408.3601      4.3380
  1816.5000    136.9728      0.0000    412.0542      4.3042
  1816.7500    133.5136      0.0000    420.6883      4.2647
  1817.0000    129.7195      0.0000    439.4226      4.2291
  1817.2500    127.5659      0.0000    473.7986      4.2048
  1817.5000    128.5305      0.0000    523.7636      4.1983
  1817.7500    132.0048      0.0000    580.6558      4.2148
  1818.0000    135.9261      0.0000    631.5048      4.2524
  1818.2500    139.1579      0.0000    667.2733      4.2983
  1818.5000    142.5096      0.0000    687.1225      4.3327
  1818.7500    147.1613      0.0000    695.8590      4.3419
  1819.0000    152.8429      0.0000    698.9726      4.3303
  1819.2500    158.1096      0.0000    699.9584      4.3172
  1819.5000    161.9280      0.0000    700.3434      4.3203
  1819.7500    164.3747      0.0000    700.6188      4.3432
  1820.0000    165.9006      0.0000    700.9022      4.3763
  1820.2500    166.5137      0.0000    701.2161      4.4079
  1820.5000    165.9773      0.0000    701.5471      4.4328
  1820.7500    164.4970      0.0000    701.8511      4.4524
  1821.0000    162.7147      0.0000    702.0273      4.4710
  1821.2500    160.9374      0.0000    701.8727      4.4902
  1821.5000    158.5703      0.0000    701.1318      4.5043
  1821.7500    154.4891      0.0000    699.7870      4.5040
  1822.0000    148.1651      0.0000    698.3822      4.4863
  1822.2500    140.5816      0.0000    697.8229      4.4603
  1822.5000    133.8972      0.0000    698.5960      4.4399
  1822.7500    129.9770      0.0000    700.2889      4.4301
  1823.0000    129.1295      0.0000    702.0332      4.4251
  1823.2500    130.2199      0.0000    703.2631      4.4191
  1823.5000    131.8897      0.0000    703.9238      4.4156
  1823.7500    133.3928      0.0000    704.1753      4.4222
  1824.0000    134.3777      0.0000    704.1328      4.4403
  1824.2500    134.5337      0.0000    703.8412      4.4610
  1824.5000    133.7878      0.0000    703.3432      4.4709
  1824.7500    132.4565      0.0000    702.7126      4.4606
  1825.0000    130.8698      0.0000    702.0431      4.4289
  1825.2500    129.0427      0.0000    701.3904      4.3820
  1825.5000    127.0431      0.0000    700.6746      4.3281
  1825.7500    125.5865      0.0000    699.5597      4.2739
  1826.0000    125.8574      0.0000    697.4360      4.2254
  1826.2500    128.5765      0.0000    693.7087      4.1889
  1826.5000    133.2001      0.0000    688.3655      4.1651
  1826.7500    137.9455      0.0000    682.3178      4.1421
  1827.0000    140.6896      0.0000    677.0209      4.1005
  1827.2500    140.2468      0.0000    673.7102      4.0303
  1827.5000    137.0372      0.0000    673.0303      3.9433
  1827.7500    132.4750      0.0000    675.1130      3.8652
  1828.0000    127.7023      0.0000    679.5327      3.8136
  1828.2500    122.8445      0.0000    685.1440      3.7822
  1828.5000    117.3508      0.0000    690.4213      3.7492
  1828.7500    111.1165      0.0000    694.2822      3.6987
  1829.0000    105.3172      0.0000    696.5637      3.6341
  1829.2500    101.8111      0.0000    697.6576      3.5721
  1829.5000    101.4958      0.0000    697.7593      3.5292
  1829.7500    103.3876      0.0000    696.3617      3.5134
  1830.0000    105.4304      0.0000    692.3578      3.5253
  1830.2500    106.1888      0.0000    684.6942      3.5650
  1830.5000    105.8269      0.0000    672.9480      3.6382
  1830.7500    105.6766      0.0000    656.6291      3.7544
  1831.0000    106.9236      0.0000    633.6682      3.9149
  1831.2500    109.5886      0.0000    601.5114      4.1027
  1831.5000    112.5576      0.0000    562.6486      4.2872
  1831.7500    114.4912      0.0000    528.9626      4.4374
  1832.0000    114.9168      0.0000    516.6335      4.5298
  1832.2500    114.7623      0.0000    533.0856      4.5557
  1832.5000    115.8610      0.0000    568.6116      4.5328
  1832.7500    119.4803      0.0000    601.7016      4.5031
  1833.0000    124.8892      0.0000    612.7187      4.5046
  1833.2500    129.2446      0.0000    594.1212      4.5422
  1833.5000    129.0462      0.0000    552.3767      4.5894
  1833.7500    122.1103      0.0000    503.9059      4.6147
  1834.0000    108.7858      0.0000    466.9641      4.6058
  1834.2500     91.7300      0.0000    451.8930      4.5822
  1834.5000     74.5906      0.0000    456.7885      4.5953
  1834.7500     60.5622      0.0000    473.3970      4.6934
  1835.0000     51.5032      0.0000    497.1498      4.8629
  1835.2500     47.6807      0.0000    529.3416      5.0156
  1835.5000     47.9633      0.0000    569.9317      5.0609
  1835.7500     50.4990      0.0000    612.5048      4.9836
  1836.0000     53.8230      0.0000    648.1032      4.8328
  1836.2500     57.7705      0.0000    671.3374      4.6552
  1836.5000     63.3070      0.0000    681.1069      4.4648
