~Version Information
VERS.                      2.0: CWLS Log ASCII Standard - VERSION 2.0
WRAP.                       NO: One line per depth step
~Well Information Block
STRT.FT               240.0000: 
STOP.FT              1677.0000: 
STEP.FT                 0.1000: 
NULL.                -999.2500: 
COMP.          Pioneer Natural Resources: COMPANY
WELL.          Lorencito 8-1-34-67: WELL
FLD.           Purgatoire River: FIELD
LOC.           1567' FNL & 500' FEL: LOCATION
STAT.                 Colorado: State
CTRY. USA : Country 
CNTY.               Las Animas: COUNTY
SECT. 1 : Section 
TOWN. 34S : Township
RANG. 67W : Range
SRVC.                Patterson: SERVICE COMPANY
DATE.          Fri Aug 26 09:30:14 2005: LOG DATE
API.           05 071 08506 00: UNIQUE WELL ID
~Curve Information Block
DEPT.FT            0 000 00 00: Depth
DCAL.in                       : CDL Caliper
RHOB.g/cc                     : CDL Bulk Density
RHOC.g/cc                     : CDL Density Correction
DPOR.pu                       : CDL Density Porosity
GR.GAPI                       : Gamma Ray
NPOR.pu                       : Neutron Porosity
~Parameter Information Block
~A  Depth       DCAL        RHOB        RHOC        DPOR         GR         NPOR    
# ...
  1468.8000      7.8619      2.5458      0.0791      6.3166     86.6227     16.6598
  1468.9000      7.8619      2.5831      0.0703      4.0566     81.2210     16.5662
  1469.0000      7.8794      2.6208      0.1807      1.7713     79.8147     17.0389
  1469.1000      7.8794      2.6359      0.1425      0.8564     76.9603     17.2887
  1469.2000      7.8794      2.6283      0.1014      1.3174     69.4980     17.3143
  1469.3000      7.9260      2.6123      0.1073      2.2819     63.3568     17.4220
  1469.4000      7.9260      2.5848      0.1310      3.9520     62.9065     17.1726
  1469.5000      7.9458      2.5481      0.0299      6.1764     65.0558     16.4376
  1469.6000      7.9458      2.5233      0.0526      7.6813     65.5928     15.4024
  1469.7000      7.9458      2.5086      0.0561      8.5701     63.9117     14.2670
  1469.8000      7.9294      2.4923      0.0184      9.5578     60.6411     13.7976
  1469.9000      7.9294      2.4867      0.0199      9.8967     57.5974     14.6086
  1470.0000      7.9644      2.4976      0.0402      9.2386     57.1447     16.1707
  1470.1000      7.9644      2.5082      0.0366      8.5916     59.5821     17.0898
  1470.2000      7.9644      2.5068      0.0214      8.6806     64.1833     16.9099
  1470.3000      7.9766      2.4968      0.0172      9.2848     68.3465     16.5015
  1470.4000      7.9766      2.4915     -0.0182      9.6043     71.5275     16.1469
  1470.5000      8.0097      2.5059     -0.0168      8.7341     75.1512     15.4254
  1470.6000      8.0097      2.5369      0.0344      6.8519     76.9554     14.5796
  1470.7000      8.0097      2.5637      0.0699      5.2327     75.8791     14.3665
  1470.8000      7.9728      2.5768      0.0154      4.4349     73.1217     14.8913
  1470.9000      7.9728      2.5842      0.0410      3.9887     71.0089     15.6361
  1471.0000      7.9654      2.5919      0.0873      3.5219     74.4292     16.5962
  1471.1000      7.9654      2.6043      0.0754      2.7717     84.3160     17.8823
  1471.2000      7.9654      2.6211      0.0762      1.7498     93.4137     18.6153
  1471.3000      7.9416      2.6298      0.0618      1.2259     94.5276     18.4947
  1471.4000      7.9416      2.6212      0.0935      1.7445     89.7086     18.2661
  1471.5000      7.9310      2.6047      0.0499      2.7447     87.0335     17.9470
  1471.6000      7.9310      2.5953      0.0449      3.3138     89.2569     17.4126
  1471.7000      7.9310      2.5963      0.0623      3.2547     92.6394     17.0073
  1471.8000      7.9321      2.6089      0.0155      2.4908     94.3120     17.2806
  1471.9000      7.9321      2.6205      0.0901      1.7870     93.9595     18.3392
  1472.0000      7.9464      2.5947      0.1017      3.3504     93.6616     19.5604
  1472.1000      7.9464      2.5351     -0.0101      6.9624     94.9723     20.5682
  1472.2000      7.9464      2.4963     -0.0542      9.3169     93.9464     21.2871
  1472.3000      7.9388      2.5015      0.0332      9.0024     89.5367     21.4442
  1472.4000      7.9388      2.5199      0.0640      7.8879     86.0857     21.5223
  1472.5000      7.9299      2.5324      0.0217      7.1264     84.0450     21.9960
  1472.6000      7.9299      2.5495      0.0853      6.0889     82.7124     22.1182
  1472.7000      7.9299      2.5680      0.0805      4.9673     82.2215     21.2717
  1472.8000      7.9385      2.5767      0.0726      4.4453     79.9642     20.1990
  1472.9000      7.9385      2.5737      0.1083      4.6218     77.3847     20.1498
  1473.0000      7.9483      2.5606      0.0508      5.4158     81.8973     21.3025
  1473.1000      7.9483      2.5454      0.0316      6.3392     91.2813     22.1604
  1473.2000      7.9483      2.5450      0.0308      6.3634     96.5747     21.8075
  1473.3000      7.9397      2.5689      0.0227      4.9147     97.2632     21.5077
  1473.4000      7.9397      2.5980      0.0600      3.1510     95.5540     22.0852
  1473.5000      7.9292      2.6054      0.0706      2.7016     92.6437     22.6267
  1473.6000      7.9292      2.5970      0.0660      3.2138     90.0914     22.4204
  1473.7000      7.9292      2.5901      0.1227      3.6279     89.4641     22.0861
  1473.8000      7.9406      2.5850      0.0363      3.9374     90.5751     22.5029
  1473.9000      7.9406      2.5767      0.0654      4.4451     90.2824     23.0486
  1474.0000      7.9349      2.5594      0.0845      5.4888     87.1187     22.5885
  1474.1000      7.9349      2.5378      0.0423      6.7971     84.6793     21.4353
  1474.2000      7.9349      2.5229      0.0331      7.7043     88.8188     20.5110
  1474.3000      7.9433      2.5124     -0.0006      8.3376     99.3997     20.3774
  1474.4000      7.9433      2.5024      0.0064      8.9473    108.1955     20.7763
  1474.5000      7.9460      2.4991      0.0199      9.1453    106.5403     20.9798
  1474.6000      7.9460      2.5133     -0.0162      8.2856     94.7657     21.0413
  1474.7000      7.9460      2.5473      0.0017      6.2222     80.7049     21.2890
  1474.8000      7.9707      2.5828      0.0711      4.0697     74.0257     21.0652
  1474.9000      7.9707      2.5986      0.0336      3.1165     81.0716     20.0636
  1475.0000      7.9772      2.5994      0.0394      3.0694     96.0488     18.9696
  1475.1000      7.9772      2.5993      0.0505      3.0730    105.3501     18.3163
  1475.2000      7.9772      2.5945      0.0648      3.3658    104.9444     18.4898
  1475.3000      7.9722      2.5802      0.0309      4.2286    101.1662     19.5158
  1475.4000      7.9722      2.5677      0.0371      4.9864     98.0334     20.7233
  1475.5000      7.9577      2.5618      0.0312      5.3458     95.9171     21.3584
  1475.6000      7.9577      2.5568      0.0343      5.6504     94.4232     21.3605
  1475.7000      7.9577      2.5543      0.0480      5.7977     91.0408     21.2241
  1475.8000      7.9492      2.5625      0.0551      5.3045     85.4581     20.8617
  1475.9000      7.9492      2.5774      0.0510      4.3991     82.3725     20.1174
  1476.0000      7.9472      2.5863      0.0563      3.8614     85.1925     20.0088
  1476.1000      7.9472      2.5832      0.0392      4.0468     89.0722     20.8093
  1476.2000      7.9472      2.5761      0.0489      4.4789     86.7794     21.0793
  1476.3000      7.9465      2.5702      0.0863      4.8364     81.4392     20.3308
  1476.4000      7.9465      2.5539      0.1311      5.8228     81.1525     19.5395
  1476.5000      7.9230      2.5258      0.0567      7.5286     86.8698     19.2774
  1476.6000      7.9230      2.5098      0.0199      8.4965     93.9399     19.5975
  1476.7000      7.9230      2.5204      0.0267      7.8545     98.0249     19.7721
  1476.8000      7.9211      2.5375      0.0659      6.8211     99.2365     18.8245
  1476.9000      7.9211      2.5327      0.0390      7.1082     96.9907     17.2656
  1477.0000      7.9148      2.5119     -0.0555      8.3715     91.2978     16.4505
  1477.1000      7.9148      2.5067     -0.0083      8.6834     86.1165     16.7250
  1477.2000      7.9148      2.5272      0.0279      7.4451     82.8920     17.5941
  1477.3000      7.9625      2.5569      0.0907      5.6441     80.7582     18.4438
  1477.4000      7.9625      2.5752      0.0821      4.5304     79.1673     19.0181
  1477.5000      7.9570      2.5735      0.0664      4.6370     78.3975     19.1708
  1477.6000      7.9570      2.5671      0.0249      5.0214     79.4084     18.8984
  1477.7000      7.9570      2.5774     -0.0063      4.3987     81.6504     19.0120
  1477.8000      7.9280      2.5975      0.0476      3.1796     82.8794     19.6469
  1477.9000      7.9280      2.5959      0.0837      3.2806     82.0443     19.8796
  1478.0000      7.9319      2.5714     -0.0051      4.7612     83.6705     19.4927
  1478.1000      7.9319      2.5623      0.0357      5.3135     90.0405     19.0047
  1478.2000      7.9319      2.5735      0.0820      4.6339     94.5590     18.8291
  1478.3000      7.9497      2.5807      0.0300      4.1997     94.2522     19.0781
