~Version Information
VERS.                      2.0: CWLS Log ASCII Standard - VERSION 2.0
WRAP.                       NO: One line per depth step
~Well Information Block
STRT.FT               -16.0000: 
STOP.FT              2827.7500: 
STEP.FT                 0.2500: 
NULL.                -999.2500: 
COMP.          Pioneer Natural Resources: COMPANY
WELL.          Touchstone 11-32: WELL
FLD.           Purgatorie River: FIELD
LOC.           853' FNL & 407' FWL--: LOCATION
CNTY.               Las Animas: COUNTY
SRVC.          Patterson Wireline: SERVICE COMPANY
DATE.          Wed Mar 15 10:09:19 2006: LOG DATE
UWI.           05 071 08564 00: UNIQUE WELL ID
STAT.                       CO: STATE
~Curve Information Block
DEPT.FT            0 000 00 00: Depth
CCL.                          : Casing Collar Locator
TT3.usec                      : CBL 3' Travel Time
AMP3.mV                       : CBL 3' Amplitude
GR.GAPI                       : Gamma Ray
~Parameter Information Block
~A  Depth       CCL         TT3         AMP3         GR     
# ...
   185.0000      0.0000    874.5089     10.0426     70.1689
   185.2500      0.0000    875.4677     10.3318     67.0317
   185.5000      0.0000    875.5870     10.6153     66.1883
   185.7500      0.0000    871.4910     10.8976     68.4969
   186.0000      0.0000    857.8556     11.1844     73.5354
   186.2500      0.0000    830.5527     11.4682     79.7797
   186.5000      0.0000    792.0554     11.7258     85.5392
   186.7500      0.0000    754.1815     11.9345     89.8856
   187.0000      0.0000    732.2345     12.0952     92.7643
   187.2500      0.0000    732.9990     12.2424     94.3638
   187.5000      0.0000    749.2236     12.4210     94.7571
   187.7500      0.0000    767.5295     12.6480     94.1548
   188.0000      0.0000    780.0339     12.8952     93.1163
   188.2500      0.0000    787.1818     13.1088     92.3714
   188.5000      0.0000    792.3610     13.2481     92.5032
   188.7500      0.0000    796.9359     13.3102     93.4603
   189.0000      0.0000    799.6089     13.3271     94.2180
   189.2500      0.0000    797.3241     13.3457     93.5260
   189.5000      0.0000    784.6259     13.4101     91.4181
   189.7500      0.0000    753.7136     13.5537     89.5658
   190.0000      0.0000    699.5854     13.7935     89.6921
   190.2500      0.0000    629.6041     14.1164     91.7876
   190.5000      0.0000    567.5668     14.4658     94.2130
   190.7500      0.0000    542.4560     14.7539     95.4137
   191.0000      0.0000    567.2908     14.9069     95.1590
   191.2500      0.0000    628.1714     14.9084     94.2544
   191.5000      0.0000    695.4442     14.8057     93.6566
   191.7500      0.0000    745.3121     14.6771     94.0166
   192.0000      0.0000    771.3638     14.5939     95.5283
   192.2500      0.0000    780.1613     14.5929     97.6790
   192.5000      0.0000    780.9137     14.6678     99.3480
   192.7500      0.0000    779.2900     14.7792     99.6335
   193.0000      0.0000    776.5008     14.8805     98.6224
   193.2500      0.0000    770.1658     14.9400     97.1048
   193.5000      0.0000    754.6794     14.9485     95.6545
   193.7500      0.0000    722.1986     14.9187     94.3112
   194.0000      0.0000    666.6736     14.8790     93.0820
   194.2500      0.0000    590.5035     14.8572     92.2174
   194.5000      0.0000    507.7771     14.8622     91.8385
   194.7500      0.0000    438.3063     14.8810     91.9281
   195.0000      0.0000    396.6099     14.8945     92.9776
   195.2500      0.0000    385.6056     14.8900     95.8371
   195.5000      0.0000    397.2089     14.8624    100.2632
   195.7500      0.0000    415.7229     14.8105    104.2656
   196.0000      0.0000    424.3151     14.7403    105.7010
   196.2500      0.0000    414.9230     14.6682    104.3099
   196.5000      0.0000    392.9920     14.6145    101.8209
   196.7500      0.0000    370.5063     14.5911    100.3890
   197.0000      0.0000    355.3046     14.5954    101.2358
   197.2500      0.0000    347.8609     14.6143    104.3701
   197.5000      0.0000    345.0701     14.6341    108.7348
   197.7500      0.0000    344.1851     14.6479    112.2938
   198.0000      0.0000    343.8872     14.6579    112.8373
   198.2500      0.0000    343.7648     14.6710    109.6133
   198.5000      0.0000    343.7386     14.6922    104.0594
   198.7500      0.0000    343.7650     14.7203     98.6533
   199.0000      0.0000    343.8057     14.7518     95.1845
   199.2500      0.0000    343.8277     14.7868     94.0896
   199.5000      0.0000    343.8257     14.8267     94.9508
   199.7500      0.0000    343.8433     14.8594     97.1730
   200.0000      0.0000    344.0129     14.8519    100.1640
   200.2500      0.0000    344.8690     14.7606    103.2737
   200.5000      0.0000    348.1848     14.5617    105.8684
   200.7500      0.0000    358.3161     14.2737    107.4717
   201.0000      0.0000    382.6339     13.9328    107.8965
   201.2500      0.0000    428.4937     13.5339    107.3897
   201.5000      0.0000    496.5148     13.0308    106.3922
   201.7500      0.0000    575.8897     12.4300    104.9140
   202.0000      0.0000    648.7587     11.8420    102.4370
   202.2500      0.0000    701.9351     11.3918     98.6629
   202.5000      0.0000    735.2374     11.1067     94.1730
   202.7500      0.0000    758.3134     10.9262     90.2450
   203.0000      2.0000    779.4183     10.7945     88.2066
   203.2500      0.0000    797.7464     10.7277     88.8863
   203.5000      0.0000    806.3724     10.8268     92.1494
   203.7500      0.0000    800.4459     11.2199     96.6801
   204.0000      0.0000    780.3548     11.9228    100.5008
   204.2500      0.0000    749.2495     12.7434    102.1479
   204.5000      0.0000    712.4939     13.3981    101.6298
   204.7500      0.0000    680.2338     13.7503    100.3350
   205.0000      0.0000    664.8799     13.8790    100.0003
   205.2500      0.0000    671.5477     13.9288    101.5202
   205.5000      0.0000    692.7250     13.9739    104.2932
   205.7500      0.0000    715.1208     14.0216    106.5601
   206.0000      0.0000    730.3021     14.0670    106.5593
   206.2500      0.0000    737.6708     14.1109    103.5663
   206.5000      0.0000    740.3492     14.1470     98.1248
   206.7500      0.0000    741.0716     14.1577     91.7111
   207.0000      0.0000    741.1337     14.1288     86.2479
   207.2500      0.0000    740.9827     14.0661     83.4558
   207.5000      0.0000    740.7708     13.9921     84.0114
   207.7500      0.0000    740.5726     13.9229     87.0447
   208.0000      0.0000    740.3809     13.8559     90.6597
   208.2500      0.0000    740.1556     13.7833     93.2086
   208.5000      0.0000    739.8793     13.7107     94.2018
   208.7500      0.0000    739.5787     13.6574     94.1930
   209.0000      0.0000    739.2944     13.6379     93.9847
   209.2500      0.0000    739.0433     13.6449     93.7532
   209.5000      0.0000    738.8251     13.6508     92.8011
   209.7500      0.0000    738.6581     13.6257     90.4118
   210.0000      0.0000    738.5888     13.5548     87.0170
   210.2500      0.0000    738.6484     13.4400     84.0740
   210.5000      0.0000    738.8119     13.2892     82.5609
   210.7500      0.0000    739.0119     13.1121     82.0991
   211.0000      0.0000    739.1866     12.9269     81.8216
   211.2500      0.0000    739.3081     12.7627     81.4882
   211.5000      0.0000    739.3853     12.6459     81.2152
   211.7500      0.0000    739.4526     12.5822     80.6131
   212.0000      0.0000    739.5400     12.5545     78.8479
   212.2500      0.0000    739.6514     12.5384     75.4863
   212.5000      0.0000    739.7783     12.5188     71.0192
   212.7500      0.0000    739.9213     12.4897     66.5179
   213.0000      0.0000    740.0746     12.4448     62.8170
   213.2500      0.0000    740.2023     12.3759     60.0825
   213.5000      0.0000    740.2971     12.2804     58.1299
   213.7500      0.0000    740.5471     12.1672     56.9202
   214.0000      0.0000    741.4850     12.0555     56.5788
   214.2500      0.0000    743.8866     11.9651     57.0859
   214.5000      0.0000    748.2214     11.9007     58.1651
   214.7500      0.0000    753.9807     11.8450     59.5004
   215.0000      0.0000    759.7652     11.7726     60.9084
   215.2500      0.0000    764.4138     11.6727     62.2353
   215.5000      0.0000    767.9175     11.5588     63.1755
   215.7500      0.0000    770.8843     11.4548     63.4151
   216.0000      0.0000    773.3680     11.3761     62.9930
   216.2500      0.0000    774.5974     11.3239     62.3346
   216.5000      0.0000    773.5961     11.2897     61.8483
   216.7500      0.0000    769.8259     11.2610     61.5634
   217.0000      0.0000    763.6224     11.2254     61.2090
   217.2500      0.0000    756.3288     11.1755     60.6766
   217.5000      0.0000    749.7484     11.1115     60.3932
   217.7500      0.0000    745.1746     11.0401     61.0471
   218.0000      0.0000    742.9678     10.9704     62.7930
   218.2500      0.0000    743.0395     10.9105     64.9181
