~Version Information
VERS.                      2.0: CWLS Log ASCII Standard - VERSION 2.0
WRAP.                       NO: One line per depth step
~Well Information Block
STRT.FT                65.0000: 
STOP.FT               998.0000: 
STEP.FT                 0.2500: 
NULL.                -999.2500: 
COMP.          Pioneer Natural Resources: COMPANY
WELL.              Gough 14-29: WELL
FLD.           Purgatorie River: FIELD
LOC.           1199' FSL & 676' FWL: LOCATION
PROV.                 Colorado: PROVINCE
CNTY.               Las Animas: COUNTRY
SRVC.                Patterson: SERVICE COMPANY
DATE.          Wed Dec 28 08:38:26 2005: LOG DATE
UWI.                          : UNIQUE WELL ID
~Curve Information Block
DEPT.FT            0 000 00 00: Depth
CCL.                          : Casing Collar Locator
TT3.usec                      : CBL 3' Travel Time
AMP3.mV                       : CBL 3' Amplitude
GR.GAPI                       : Gamma Ray
~Parameter Information Block
~A  Depth       CCL         TT3         AMP3         GR     
# ...
   366.5000      0.0000    262.2390     44.2982    137.3462
   366.7500      0.0000    262.2480     44.1294    127.5744
   367.0000      0.0000    262.2451     43.9875    116.4251
   367.2500      0.0000    262.2644     43.9080    106.6025
   367.5000      0.0000    262.3258     43.8217    101.2527
   367.7500      0.0000    262.4167     43.6670    102.5077
   368.0000      0.0000    262.4967     43.5144    110.6586
   368.2500      0.0000    262.5134     43.5057    124.2561
   368.5000      0.0000    262.4579     43.6620    140.4108
   368.7500      0.0000    262.3882     43.8525    155.1265
   369.0000      0.0000    262.3621     43.9662    164.2929
   369.2500      0.0000    262.3795     43.9899    165.4872
   369.5000      0.0000    262.4069     43.9360    159.4203
   369.7500      0.0000    262.4287     43.8004    149.2218
   370.0000      0.0000    262.4629     43.5844    137.7718
   370.2500      0.0000    262.5305     43.3155    125.9821
   370.5000      0.0000    262.6254     43.0404    113.8135
   370.7500      0.0000    262.7256     42.8021    101.9435
   371.0000      0.0000    262.8042     42.6392     91.6766
   371.2500      0.0000    262.8260     42.5885     83.8574
   371.5000      0.0000    262.7803     42.6383     78.4150
   371.7500      0.0000    262.7093     42.7033     74.7477
   372.0000      0.0000    262.6755     42.7001     72.5838
   372.2500      0.0000    262.7028     42.6221     72.5866
   372.5000      0.0000    262.7616     42.5167     75.7497
   372.7500      0.0000    262.8145     42.4304     82.0178
   373.0000      0.0000    262.8524     42.3811     89.9221
   373.2500      0.0000    262.8844     42.3453     97.8019
   373.5000      0.0000    262.9159     42.2925    105.1119
   373.7500      0.0000    262.9325     42.2408    112.3657
   374.0000      0.0000    262.9189     42.2370    120.0713
   374.2500      0.0000    262.8886     42.2935    127.9535
   374.5000      0.0000    262.8669     42.3789    135.1065
   374.7500      0.0000    262.8588     42.4599    140.5083
   375.0000      0.0000    262.8534     42.5337    143.3968
   375.2500      0.0000    262.8486     42.5995    143.8784
   375.5000      0.0000    262.8536     42.6252    143.5703
   375.7500      0.0000    262.8740     42.5784    144.9713
   376.0000      0.0000    262.9047     42.4742    149.4024
   376.2500      0.0000    262.9396     42.3526    155.5947
   376.5000      0.0000    262.9873     42.2231    160.6319
   376.7500      0.0000    263.0599     42.0646    162.3189
   377.0000      0.0000    263.1587     41.8569    160.6682
   377.2500      0.0000    263.2771     41.6025    157.3481
   377.5000      0.0000    263.3976     41.3431    153.8969
   377.7500      0.0000    263.5249     41.1380    150.6542
   378.0000      0.0000    263.9312     40.9377    147.3661
   378.2500      0.0000    265.9758     40.3120    144.0556
   378.5000      0.0000    273.0622     38.3320    140.6714
   378.7500      0.0000    288.4085     34.5549    136.4806
   379.0000      0.0000    307.7402     30.6845    130.7207
   379.2500      0.0000    318.7270     29.2834    123.6656
   379.5000      0.0000    316.2123     29.9434    116.4595
   379.7500      0.0000    309.0854     30.1555    110.0398
   380.0000      0.0000    305.5740     29.4606    104.7934
   380.2500      0.0000    305.2443     28.9493    101.3488
   380.5000      0.0000    305.5319     28.9096    101.1073
   380.7500      0.0000    305.6621     29.0400    105.2323
   381.0000     -2.0000    305.6606     29.1436    112.7810
   381.2500      0.0000    305.4245     29.1637    120.2639
   381.5000      0.0000    304.3392     29.4329    123.8546
   381.7500      0.0000    301.1555     31.0438    122.2719
   382.0000      0.0000    295.1795     34.7133    117.2674
   382.2500      0.0000    287.6335     38.8981    111.5700
   382.5000      0.0000    280.0422     41.3891    106.7431
   382.7500      0.0000    272.9261     42.2045    102.6415
   383.0000      0.0000    267.3624     42.4374     98.2469
   383.2500      0.0000    264.3988     42.4255     92.9598
   383.5000      0.0000    263.5024     42.1803     87.4636
   383.7500      0.0000    263.6907     41.8193     83.5157
   384.0000      0.0000    265.1208     41.4285     82.8001
   384.2500      0.0000    269.2695     41.0210     85.7968
   384.5000      0.0000    277.2084     40.6076     91.6902
   384.7500      0.0000    287.0420     40.2579     99.3781
   385.0000      0.0000    294.8656     40.0529    108.3551
   385.2500      0.0000    298.8481     39.9912    118.3131
   385.5000      0.0000    300.1370     40.0013    127.9172
   385.7500      0.0000    300.4087     40.0215    134.4222
   386.0000      0.0000    300.4818     40.0253    134.9980
   386.2500      0.0000    300.5578     39.9959    128.7460
   386.5000      0.0000    300.6458     39.9008    117.5209
   386.7500      0.0000    300.7383     39.7026    104.7625
   387.0000      0.0000    300.8439     39.3958     93.4319
   387.2500      0.0000    300.9635     39.0281     84.8679
   387.5000      0.0000    301.0626     38.6844     79.1051
   387.7500      0.0000    301.0934     38.4399     75.8696
   388.0000      0.0000    301.0559     38.2971     75.3574
   388.2500      0.0000    301.0017     38.1841     78.1650
   388.5000      0.0000    300.9745     38.0286     84.3538
   388.7500      0.0000    300.9828     37.8092     92.6839
   389.0000      0.0000    301.0219     37.5394    101.0179
   389.2500      0.0000    301.0899     37.2294    107.6357
   389.5000      0.0000    301.1771     36.8893    112.2228
   389.7500      0.0000    301.2560     36.5569    115.6720
   390.0000      0.0000    301.2972     36.2702    119.0051
   390.2500      0.0000    301.3011     36.0125    122.4703
   390.5000      0.0000    301.3070     35.7319    125.5283
   390.7500      0.0000    301.3535     35.4066    127.4409
   391.0000      0.0000    301.4312     35.0721    127.7848
   391.2500      0.0000    301.4969     34.8022    126.6647
   391.5000      0.0000    301.5257     34.6595    124.7349
   391.7500      0.0000    301.5268     34.6372    122.9495
   392.0000      0.0000    301.5236     34.6494    121.9587
   392.2500      0.0000    301.5310     34.5988    121.4988
   392.5000      0.0000    301.5499     34.4492    120.5760
   392.7500      0.0000    301.5746     34.2198    118.6751
   393.0000      0.0000    301.6002     33.9312    116.6914
   393.2500      0.0000    301.6279     33.5898    116.3571
   393.5000      0.0000    301.6717     33.1953    118.8210
   393.7500      0.0000    301.7411     32.7420    123.7032
   394.0000      0.0000    301.8142     32.2473    129.2014
   394.2500      0.0000    301.8628     31.7649    133.3149
   394.5000      0.0000    301.8932     31.3475    135.4332
   394.7500      0.0000    301.9253     31.0133    136.6443
   395.0000      0.0000    301.9682     30.7370    138.3907
   395.2500      0.0000    302.0340     30.4766    141.1898
   395.5000      0.0000    302.1240     30.2295    144.8469
   395.7500      0.0000    302.2098     30.0332    149.2589
   396.0000      0.0000    302.2679     29.8862    154.1070
   396.2500      0.0000    302.3087     29.7152    157.6536
   396.5000      0.0000    302.3504     29.4520    156.7295
   396.7500      0.0000    302.3904     29.1012    148.9037
   397.0000      0.0000    302.4193     28.7126    134.8251
   397.2500      0.0000    302.4430     28.3338    117.9686
   397.5000      0.0000    302.4688     28.0085    101.9503
   397.7500      0.0000    302.4890     27.7714     88.3223
   398.0000      0.0000    302.4901     27.6195     76.7758
   398.2500      0.0000    302.4689     27.5193     66.7938
   398.5000      0.0000    302.4277     27.4565     58.7549
   398.7500      0.0000    302.3699     27.4452     53.6089
   399.0000      0.0000    302.3156     27.4683     51.7958
   399.2500      0.0000    302.3020     27.4683     52.5710
   399.5000      0.0000    302.3419     27.4231     54.4466
   399.7500      0.0000    302.4050     27.3634     56.2590
