~Version Information
VERS.                      2.0: CWLS Log ASCII Standard - VERSION 2.0
WRAP.                       NO: One line per depth step
~Well Information Block
STRT.FT               239.2000: 
STOP.FT              1618.0000: 
STEP.FT                 0.1000: 
NULL.                -999.2500: 
COMP.          Pioneer Natural Resources: COMPANY
WELL.          Daytona 31-14 Tr: WELL
FLD.           Purgatoire River: FIELD
LOC.           683' FNL & 1943' FEL: LOCATION
CNTY.               Las Animas: COUNTY
SRVC.                         : SERVICE COMPANY
DATE.          Fri Jan 27 14:32:28 2006: LOG DATE
UWI.           05 071 08681 00: UNIQUE WELL ID
STAT.                 Colorado: STATE
~Curve Information Block
DEPT.FT            0 000 00 00: Depth
DCAL.in                       : CDL Caliper
RHOB.g/cc                     : CDL Bulk Density
RHOC.g/cc                     : CDL Density Correction
DPOR.pu                       : CDL Density Porosity
GR.GAPI                       : Gamma Ray
~Parameter Information Block
~A  Depth       DCAL        RHOB        RHOC        DPOR         GR     
# ...
  1605.6000      7.8584      2.6244      0.1532      1.5507   -999.2500
  1605.7000      7.8584      2.6203      0.0910      1.7998   -999.2500
  1605.8000      7.8575      2.6138      0.0991      2.1965   -999.2500
  1605.9000      7.8575      2.6104      0.0551      2.3988   -999.2500
  1606.0000      7.8566      2.6097      0.0840      2.4408   -999.2500
  1606.1000      7.8566      2.6099      0.0535      2.4326   -999.2500
  1606.2000      7.8566      2.6099      0.0797      2.4322   -999.2500
  1606.3000      7.8597      2.6075      0.0984      2.5765   -999.2500
  1606.4000      7.8597      2.6005      0.0843      2.9980   -999.2500
  1606.5000      7.8590      2.5890      0.0499      3.6965   -999.2500
  1606.6000      7.8590      2.5725      0.0787      4.6988   -999.2500
  1606.7000      7.8590      2.5552      0.0439      5.7434   -999.2500
  1606.8000      7.8571      2.5439      0.0752      6.4331   -999.2500
  1606.9000      7.8571      2.5381      0.0851      6.7815   -999.2500
  1607.0000      7.8578      2.5440      0.0398      6.4234   -999.2500
  1607.1000      7.8578      2.5656      0.0988      5.1167   -999.2500
  1607.2000      7.8578      2.5835      0.1266      4.0326   -999.2500
  1607.3000      7.8574      2.5815      0.1073      4.1514   -999.2500
  1607.4000      7.8574      2.5691      0.0910      4.9029   -999.2500
  1607.5000      7.8561      2.5584      0.0960      5.5494   -999.2500
  1607.6000      7.8561      2.5458      0.1064      6.3166   -999.2500
  1607.7000      7.8561      2.5286      0.0548      7.3603   -999.2500
  1607.8000      7.8558      2.5220      0.0373      7.7599   -999.2500
  1607.9000      7.8558      2.5336      0.0560      7.0540   -999.2500
  1608.0000      7.8578      2.5439      0.0868      6.4327   -999.2500
  1608.1000      7.8578      2.5365      0.0873      6.8796   -999.2500
  1608.2000      7.8578      2.5218      0.0584      7.7722   -999.2500
  1608.3000      7.8655      2.5120      0.0680      8.3631   -999.2500
  1608.4000      7.8655      2.5026      0.0654      8.9318   -999.2500
  1608.5000      7.8586      2.4862      0.0571      9.9262   -999.2500
  1608.6000      7.8586      2.4607      0.0548     11.4733   -999.2500
  1608.7000      7.8586      2.4259      0.0721     13.5807   -999.2500
  1608.8000      7.8579      2.3932      0.0303     15.5627   -999.2500
  1608.9000      7.8579      2.3858      0.0340     16.0135   -999.2500
  1609.0000      7.8605      2.4148      0.0812     14.2560   -999.2500
  1609.1000      7.8605      2.4686      0.0985     10.9923   -999.2500
  1609.2000      7.8605      2.5258      0.1631      7.5266   -999.2500
  1609.3000      7.8589      2.5757      0.1893      4.5060   -999.2500
  1609.4000      7.8589      2.6232      0.2495      1.6263   -999.2500
  1609.5000      7.8555      2.6613      0.3260     -0.6848   -999.2500
  1609.6000      7.8555      2.6725      0.2853     -1.3619   -999.2500
  1609.7000      7.8555      2.6599      0.2202     -0.5975   -999.2500
  1609.8000      7.8585      2.6317      0.2331      1.1080   -999.2500
  1609.9000      7.8585      2.5940      0.0761      3.3939   -999.2500
  1610.0000      7.8648      2.5718      0.0705      4.7417   -999.2500
  1610.1000      7.8648      2.5774      0.0217      4.4012   -999.2500
  1610.2000      7.8648      2.5925      0.0805      3.4875   -999.2500
  1610.3000      7.8243      2.5971      0.0758      3.2046   -999.2500
  1610.4000      7.8243      2.5889      0.0595      3.7058   -999.2500
  1610.5000      7.8182      2.5746      0.0610      4.5690   -999.2500
  1610.6000      7.8182      2.5609      0.0581      5.4024   -999.2500
  1610.7000      7.8182      2.5523      0.0399      5.9195   -999.2500
  1610.8000      7.8189      2.5493      0.0375      6.1012   -999.2500
  1610.9000      7.8189      2.5443      0.0451      6.4059   -999.2500
  1611.0000      7.8186      2.5344      0.0242      7.0036   -999.2500
  1611.1000      7.8186      2.5257      0.0625      7.5342   -999.2500
  1611.2000      7.8186      2.5116      0.0730      8.3898   -999.2500
  1611.3000      7.8200      2.4798      0.0757     10.3145   -999.2500
  1611.4000      7.8200      2.4398      0.0198     12.7391   -999.2500
  1611.5000      7.8191      2.4177      0.0333     14.0791   -999.2500
  1611.6000      7.8191      2.4266      0.0486     13.5369   -999.2500
  1611.7000      7.8191      2.4634      0.0420     11.3107   -999.2500
  1611.8000      7.8159      2.5266      0.0617      7.4760   -999.2500
  1611.9000      7.8159      2.6055      0.1879      2.6965   -999.2500
  1612.0000      7.8171      2.6637      0.2826     -0.8313   -999.2500
  1612.1000      7.8171      2.6772      0.2717     -1.6508   -999.2500
  1612.2000      7.8171      2.6569      0.2519     -0.4211   -999.2500
  1612.3000      7.8132      2.6213      0.1817      1.7374   -999.2500
  1612.4000      7.8132      2.5820      0.1602      4.1241   -999.2500
  1612.5000      7.8157      2.5519      0.0729      5.9463   -999.2500
  1612.6000      7.8157      2.5420      0.0995      6.5429   -999.2500
  1612.7000      7.8157      2.5459      0.0593      6.3108   -999.2500
  1612.8000      7.8270      2.5503      0.0931      6.0453   -999.2500
  1612.9000      7.8270      2.5529      0.1031      5.8836   -999.2500
  1613.0000      7.8283      2.5654      0.0528      5.1281   -999.2500
  1613.1000      7.8283      2.5935      0.1014      3.4218   -999.2500
  1613.2000      7.8283      2.6186      0.1566      1.9044   -999.2500
  1613.3000      7.8262      2.6200      0.1403      1.8158   -999.2500
  1613.4000      7.8262      2.5980      0.1180      3.1542   -999.2500
  1613.5000      7.8264      2.5639      0.0881      5.2169   -999.2500
  1613.6000      7.8264      2.5345      0.1018      7.0024   -999.2500
  1613.7000      7.8264      2.5269      0.0455      7.4607   -999.2500
  1613.8000      7.8447      2.5470      0.0813      6.2442   -999.2500
  1613.9000      7.8447      2.5766      0.1230      4.4477   -999.2500
  1614.0000      7.8585      2.5885      0.1246      3.7275   -999.2500
  1614.1000      7.8585      2.5741      0.1157      4.6024   -999.2500
  1614.2000      7.8585      2.5356      0.1453      6.9306   -999.2500
  1614.3000      7.8829      2.4716      0.0968     10.8127   -999.2500
  1614.4000      7.8829      2.3928      0.0834     15.5873   -999.2500
  1614.5000      7.9160      2.3251      0.0469     19.6925   -999.2500
  1614.6000      7.9160      2.2859      0.0435     22.0681   -999.2500
  1614.7000      7.9160      2.2750      0.0046     22.7290   -999.2500
  1614.8000      7.9272      2.2895      0.0580     21.8512   -999.2500
  1614.9000      7.9272      2.3341      0.0305     19.1425   -999.2500
  1615.0000      7.9070      2.4377      0.1269     12.8691   -999.2500
  1615.1000      7.9070      2.7334      0.1920     -5.0527   -999.2500
  1615.2000      7.9070      3.4557      0.2623    -48.8275   -999.2500
  1615.3000      7.7049      4.3346      0.7268   -102.0992   -999.2500
  1615.4000      7.7049      4.1579      1.9163    -91.3903   -999.2500
  1615.5000      7.1137      2.5246      0.0000      7.5988   -999.2500
  1615.6000      7.1137      0.8828   -999.2500    107.1003   -999.2500
  1615.7000      7.1137      0.1701   -999.2500    150.2977   -999.2500
  1615.8000      3.2125      0.0177   -999.2500    159.5355   -999.2500
  1615.9000      3.2125      0.0010   -999.2500    160.5475   -999.2500
  1616.0000      2.6852      0.0000   -999.2500    160.6061   -999.2500
  1616.1000      2.6852   -999.2500   -999.2500   -999.2500   -999.2500
  1616.2000      2.6852   -999.2500   -999.2500   -999.2500   -999.2500
  1616.3000   -999.2500   -999.2500   -999.2500   -999.2500   -999.2500
  1616.4000   -999.2500   -999.2500   -999.2500   -999.2500   -999.2500
  1616.5000   -999.2500   -999.2500   -999.2500   -999.2500   -999.2500
  1616.6000   -999.2500   -999.2500   -999.2500   -999.2500   -999.2500
  1616.7000   -999.2500   -999.2500   -999.2500   -999.2500   -999.2500
