~Version Information
 VERS.                                  2.0 : CWLS LAS VERSION
 WRAP.                                   NO : WRAPING MODE
 SWARE .                 MController 2.5.0J : SOFTWARE VERSION
~Well Information
 WELL.                     Collister 17-31R : WELL
 COMP.                Petrogulf Corporation : COMPANY
 FLD.                      Purgatoire River : FIELD
 LOC.                NW/NE Sec 17 T33S R67W : LOCATION
 DATE.                             09/25/05 : DATE(S) LOGGED
 SRVC.       BLANCO Geological Services LLC : SERVICE COMPANY
 STAT.                                   CO : STATE
 CNTY.                           Las Animas : COUNTY
 CTRY.                                  USA : COUNTRY
 API.                       05-071-08436-00 : API NUMBER
 STRT.FT                             861.00 : START DEPTH
 STOP.FT                            2010.00 : STOP DEPTH
 STEP.FT                               1.00 : DEPTH INCREMENT
 NULL.                                -9999 : NULL VALUE
~Curve information
 DEPTH.FT                                   :
 ROP.MIN/FT                                 :
 GAS.UNITS                                  :
~ASCII Log data
# ...
      1061.0         0.30         16.3 
      1062.0         0.20         16.0 
      1063.0         0.23         16.0 
      1064.0         0.27         15.3 
      1065.0         0.40         15.6 
      1066.0         0.37         15.4 
      1067.0         0.33         15.5 
      1068.0         0.33         15.8 
      1069.0         0.37         16.2 
      1070.0         0.28         16.8 
      1071.0         0.23         16.9 
      1072.0         0.23         16.9 
      1073.0         0.23         17.1 
      1074.0         0.23         16.3 
      1075.0         0.27         15.6 
      1076.0         0.23         15.7 
      1077.0         0.23         16.0 
      1078.0         1.48         20.3 
      1079.0         0.37         18.2 
      1080.0         0.30         17.7 
      1081.0         0.27         17.5 
      1082.0         0.27         17.5 
      1083.0         0.23         17.1 
      1084.0         0.20         16.3 
      1085.0         0.23         16.2 
      1086.0         0.20         15.2 
      1087.0         0.23         15.7 
      1088.0         0.20         14.9 
      1089.0         0.20         14.9 
      1090.0         0.25         15.8 
      1091.0         0.23         15.9 
      1092.0         0.20         16.0 
      1093.0         0.20         16.1 
      1094.0         0.23         17.5 
      1095.0         0.20         19.0 
      1096.0         0.20         18.5 
      1097.0         0.20         17.7 
      1098.0         0.20         16.8 
      1099.0         0.13         16.0 
      1100.0         0.17         16.9 
      1101.0         0.20         16.7 
      1102.0         0.23         17.0 
      1103.0         0.20         16.9 
      1104.0         0.23         16.1 
      1105.0         0.20         16.3 
      1106.0         0.25         17.0 
      1107.0         0.20         17.8 
      1108.0         1.93         21.8 
      1109.0         0.33         18.3 
      1110.0         0.33         17.9 
      1111.0         0.28         17.6 
      1112.0         0.27         16.6 
      1113.0         0.23         16.5 
      1114.0         0.23         16.4 
      1115.0         4.25         17.5 
      1116.0         0.30         17.0 
      1117.0         0.30         16.8 
      1118.0         0.23         17.7 
      1119.0         0.27         18.2 
      1120.0         0.20         18.5 
      1121.0         0.25         18.1 
      1122.0         0.13         18.0 
      1123.0         0.30         17.5 
      1124.0         0.30         17.4 
      1125.0         0.20         17.3 
      1126.0         0.13         17.1 
      1127.0         0.17         17.0 
      1128.0         0.20         16.9 
      1129.0         0.23         16.9 
      1130.0         0.20         16.7 
      1131.0         0.30         16.9 
      1132.0         0.27         17.1 
      1133.0         0.27         17.0 
      1134.0         0.23         17.2 
      1135.0         0.32         17.0 
      1136.0         0.27         16.9 
      1137.0         0.33         18.0 
      1138.0         1.97         21.7 
      1139.0         0.37         17.4 
      1140.0         0.32         17.5 
      1141.0         0.30         17.7 
      1142.0         0.33         17.9 
      1143.0         0.30         18.4 
      1144.0         0.23         18.6 
      1145.0         0.20         18.6 
      1146.0         0.17         18.4 
      1147.0         0.13         17.6 
      1148.0         0.23         18.1 
      1149.0         0.17         17.6 
      1150.0         0.20         18.5 
      1151.0         0.20         19.1 
      1152.0         0.20         19.4 
      1153.0         0.17         19.1 
      1154.0         0.13         19.0 
      1155.0         0.13         19.1 
      1156.0         0.13         18.0 
      1157.0         0.18         18.8 
      1158.0         0.17         18.5 
      1159.0         0.23         18.0 
      1160.0         0.30         18.2 
      1161.0         0.33         17.9 
      1162.0         0.37         18.1 
      1163.0         0.30         18.0 
      1164.0         0.23         18.0 
      1165.0         0.17         18.3 
      1166.0         0.17         17.9 
      1167.0         0.23         18.2 
      1168.0         2.42         29.4 
      1169.0         0.17         25.7 
      1170.0         0.20         24.3 
      1171.0         0.20         23.5 
      1172.0         0.23         21.8 
      1173.0         0.17         21.0 
      1174.0         0.20         20.1 
      1175.0         0.23         19.8 
      1176.0         0.35         19.6 
      1177.0         0.47         19.6 
      1178.0         0.40         19.2 
      1179.0         0.30         19.4 
      1180.0         0.27         19.1 
      1181.0         0.23         19.1 
      1182.0         0.23         19.0 
      1183.0         0.23         18.8 
      1184.0         0.23         18.4 
      1185.0         0.23         18.2 
      1186.0         0.27         18.2 
      1187.0         0.28         18.6 
      1188.0         0.23         18.2 
      1189.0         0.23         18.2 
      1190.0         0.27         18.2 
      1191.0         0.20         18.2 
      1192.0         0.20         18.1 
      1193.0         0.20         18.2 
      1194.0         0.20         18.5 
      1195.0         0.27         18.5 
      1196.0         0.27         17.7 
      1197.0         0.23         17.7 
      1198.0         2.52         27.0 
      1199.0         0.17         19.4 
      1200.0         0.47         18.9 
      1201.0         0.37         18.1 
      1202.0         0.40         18.3 
      1203.0         0.48         18.6 
      1204.0         0.30         18.4 
      1205.0         0.27         18.4 
      1206.0         0.20         18.4 
      1207.0         0.33         21.6 
      1208.0         0.20         24.7 
      1209.0         0.23         25.9 
      1210.0         0.20         27.7 
      1211.0         0.13         30.1 
      1212.0         0.17         32.1 
      1213.0         0.17         34.3 
      1214.0         0.17         37.3 
      1215.0         0.17         39.7 
      1216.0         0.13         43.4 
      1217.0         0.18         46.7 
      1218.0         0.13         47.6 
      1219.0         0.13         47.5 
      1220.0         0.13         45.9 
      1221.0         0.10         43.8 
      1222.0         0.10         41.5 
      1223.0         0.13         38.6 
      1224.0         0.17         35.4 
      1225.0         0.13         31.5 
      1226.0         0.13         29.2 
      1227.0         0.17         28.1 
      1228.0         2.22         54.1 
      1229.0         0.23         37.0 
      1230.0         0.20         38.1 
      1231.0         0.13         37.1 
      1232.0         0.17         35.1 
      1233.0         0.17         33.1 
      1234.0         0.10         30.2 
      1235.0         0.13         29.1 
      1236.0         0.13         28.0 
      1237.0         0.20         26.4 
      1238.0         0.27         25.3 
      1239.0         0.23         24.5 
      1240.0         0.17         24.2 
      1241.0         0.20         25.4 
      1242.0         0.23         32.7 
      1243.0         0.25         40.5 
      1244.0         0.17         42.1 
      1245.0         0.13         42.6 
      1246.0         0.13         43.0 
      1247.0         0.13         43.0 
      1248.0         0.17         43.0 
      1249.0         0.20         41.8 
      1250.0         0.27         39.8 
      1251.0         0.30         42.1 
      1252.0         0.23         41.6 
      1253.0         0.17         36.7 
      1254.0         0.13         33.7 
      1255.0         0.13         32.5 
      1256.0         0.10         34.8 
      1257.0         0.10         37.9 
      1258.0         1.28        121.0 
      1259.0         0.27        104.7 
      1260.0         0.43         73.5 
