~Version Information
VERS.                      2.0: CWLS Log ASCII Standard - VERSION 2.0
WRAP.                       NO: One line per depth step
~Well Information Block
STRT.FT                -7.5000: 
STOP.FT              1572.0000: 
STEP.FT                 0.2500: 
NULL.                -999.2500: 
COMP.          Pioneer Natural Resources: COMPANY
WELL.          Galloway 32-13 Tr: WELL
FLD.           Purgatoire River: FIELD
LOC.           --1910' FNL & 2002' FEL----: LOCATION
PROV.                       CO: PROVINCE
CNTY.               Las Animas: COUNTRY
SRVC.          Patterson Wireline: SERVICE COMPANY
DATE.          Thu Nov 17 12:46:45 2005: LOG DATE
UWI.           05 071 08608 00: UNIQUE WELL ID
~Curve Information Block
DEPT.FT            0 000 00 00: Depth
CCL.                          : Casing Collar Locator
TT3.usec                      : CBL 3' Travel Time
AMP3.mV                       : CBL 3' Amplitude
GR.GAPI                       : Gamma Ray
~Parameter Information Block
~A  Depth       CCL         TT3         AMP3         GR     
# ...
   696.0000      0.0000    283.0920     52.1693     81.7467
   696.2500      0.0000    283.1090     52.1139     83.8658
   696.5000      0.0000    283.1323     52.0962     83.3932
   696.7500      0.0000    283.1657     52.0211     80.8591
   697.0000      0.0000    283.2091     51.8151     77.7517
   697.2500      0.0000    283.2582     51.4675     75.6248
   697.5000      0.0000    283.3057     51.0303     75.1166
   697.7500      0.0000    283.3445     50.5883     75.8347
   698.0000      0.0000    283.3681     50.2329     77.5451
   698.2500      0.0000    283.3710     50.0437     81.2524
   698.5000      0.0000    283.3494     50.0703     88.2532
   698.7500      0.0000    283.3046     50.3166     97.9538
   699.0000      0.0000    283.2444     50.7349    107.3279
   699.2500      0.0000    283.1814     51.2316    112.9095
   699.5000      0.0000    283.1272     51.6921    113.2802
   699.7500      0.0000    283.0862     52.0310    109.8989
   700.0000      0.0000    283.0540     52.2366    105.8629
   700.2500      0.0000    283.0229     52.3586    103.8815
   700.5000      0.0000    282.9887     52.4452    105.0048
   700.7500      0.0000    282.9510     52.5050    108.5451
   701.0000      0.0000    282.9108     52.5338    112.8108
   701.2500      0.0000    282.8679     52.5623    116.2633
   701.5000      0.0000    282.8228     52.6564    118.4472
   701.7500      0.0000    282.7789     52.8635    119.8156
   702.0000      0.0000    282.7430     53.1580    120.6169
   702.2500      0.0000    282.7227     53.4451    120.0159
   702.5000      0.0000    282.7217     53.6253    116.3184
   702.7500      0.0000    282.7379     53.6588    108.4549
   703.0000      0.0000    282.7678     53.5637     97.7926
   703.2500      0.0000    282.8097     53.3639     88.3395
   703.5000      0.0000    282.8631     53.0623     84.4965
   703.7500      0.0000    282.9225     52.6743     88.0650
   704.0000      0.0000    282.9747     52.2753     97.0489
   704.2500      0.0000    283.0045     51.9853    107.1346
   704.5000      0.0000    283.0049     51.8875    114.5737
   704.7500      0.0000    282.9843     51.9646    118.2890
   705.0000      0.0000    282.9605     52.1209    119.7545
   705.2500      0.0000    282.9472     52.2618    121.0224
   705.5000      0.0000    282.9467     52.3506    122.7805
   705.7500      0.0000    282.9535     52.4006    124.1340
   706.0000      0.0000    282.9630     52.4294    124.0052
   706.2500      0.0000    282.9745     52.4299    122.4740
   706.5000      0.0000    282.9883     52.3848    120.6889
   706.7500      0.0000    283.0018     52.3004    119.7569
   707.0000      0.0000    283.0093     52.2206    120.0285
   707.2500      0.0000    283.0045     52.1979    121.2846
   707.5000      0.0000    282.9845     52.2501    123.1815
   707.7500      0.0000    282.9525     52.3494    125.4821
   708.0000      0.0000    282.9159     52.4527    127.9617
   708.2500      0.0000    282.8817     52.5351    130.0559
   708.5000      0.0000    282.8557     52.5904    130.7469
   708.7500      0.0000    282.8430     52.6095    129.1369
   709.0000      0.0000    282.8490     52.5704    125.3119
   709.2500      0.0000    282.8758     52.4604    120.5915
   709.5000      0.0000    282.9171     52.3059    116.8337
   709.7500      0.0000    282.9602     52.1625    115.3857
   710.0000      0.0000    282.9950     52.0640    116.5323
   710.2500      0.0000    283.0200     51.9920    119.5793
   710.5000      0.0000    283.0389     51.9063    123.0359
   710.7500      0.0000    283.0539     51.7937    124.8701
   711.0000      0.0000    283.0641     51.6735    123.4055
   711.2500      0.0000    283.0694     51.5681    118.6064
   711.5000      0.0000    283.0714     51.4878    112.4174
   711.7500      0.0000    283.0697     51.4431    107.4758
   712.0000      0.0000    283.0582     51.4506    105.3869
   712.2500      0.0000    283.0280     51.5214    106.3632
   712.5000      0.0000    282.9750     51.6494    110.0868
   712.7500      0.0000    282.9067     51.8091    115.8749
   713.0000      0.0000    282.8393     51.9620    121.7770
   713.2500      0.0000    282.7866     52.0751    124.7921
   713.5000      0.0000    282.7511     52.1419    123.0717
   713.7500      0.0000    282.7245     52.1852    117.7147
   714.0000      0.0000    282.6962     52.2397    111.9708
   714.2500      0.0000    282.6602     52.3348    108.7936
   714.5000      0.0000    282.6153     52.4899    109.0263
   714.7500      0.0000    282.5618     52.7130    111.2189
   715.0000      0.0000    282.4979     53.0010    112.7737
   715.2500      0.0000    282.4213     53.3456    111.6807
   715.5000      0.0000    282.3331     53.7369    107.8711
   715.7500      0.0000    282.2420     54.1543    103.2165
   716.0000      0.0000    282.1615     54.5626    100.1834
   716.2500      0.0000    282.1004     54.9396    100.3117
   716.5000      0.0000    282.0561     55.3111    103.4958
   716.7500      0.0000    282.0167     55.7442    108.2899
   717.0000      0.0000    281.9708     56.2970    112.9950
   717.2500      0.0000    281.9162     56.9697    116.6369
   717.5000      0.0000    281.8607     57.6995    118.9045
   717.7500      0.0000    281.8152     58.3952    119.5434
   718.0000      0.0000    281.7874     58.9789    118.4730
   718.2500      0.0000    281.7826     59.4019    116.6417
   718.5000      0.0000    281.8167     59.6351    116.0930
   718.7500      0.0000    281.9619     59.6447    118.5260
   719.0000      0.0000    282.4730     59.3451    123.6401
   719.2500      0.0000    283.9939     58.4955    128.8239
   719.5000      0.0000    287.6461     56.6010    130.5390
   719.7500      0.0000    294.5162     53.0747    126.6969
   720.0000      0.0000    304.4312     47.8197    118.4184
   720.2500      0.0000    315.0748     41.7845    109.5238
   720.5000      0.0000    322.9895     36.6801    103.9627
   720.7500      0.0000    326.1632     33.8438    103.3651
   721.0000      0.0000    325.6175     33.3561    106.6222
   721.2500      0.0000    324.1903     34.2488    111.4353
   721.5000      0.0000    323.8906     35.3882    116.1006
   721.7500      0.0000    324.5806     36.1192    120.0143
   722.0000      2.0000    324.8615     36.3196    123.1133
   722.2500      0.0000    323.7120     36.1416    125.4699
   722.5000      0.0000    321.1664     35.8731    127.3164
   722.7500      0.0000    317.6743     36.0232    128.8037
   723.0000      0.0000    313.1775     37.2718    129.5489
   723.2500      0.0000    307.2412     39.9835    128.7988
   723.5000      0.0000    300.1216     43.7151    126.1320
   723.7500      0.0000    293.1414     47.4538    121.8057
   724.0000      0.0000    287.7351     50.4188    116.5269
   724.2500      0.0000    284.4167     52.4962    111.0930
   724.5000      0.0000    282.7710     53.9749    106.1244
   724.7500      0.0000    282.0846     55.1397    101.8612
   725.0000      0.0000    281.8185     56.1380     98.1472
   725.2500      0.0000    281.6983     57.0176     94.8046
   725.5000      0.0000    281.6243     57.7729     92.0788
   725.7500      0.0000    281.5691     58.3940     90.4853
   726.0000      0.0000    281.5226     58.9085     90.0723
   726.2500      0.0000    281.4776     59.3653     90.0938
   726.5000      0.0000    281.4302     59.7782     89.6906
   726.7500      0.0000    281.3827     60.1068     88.7369
   727.0000      0.0000    281.3420     60.3020     87.7336
   727.2500      0.0000    281.3151     60.3652     87.0658
   727.5000      0.0000    281.3047     60.3598     86.8427
   727.7500      0.0000    281.3087     60.3675     87.3596
   728.0000      0.0000    281.3217     60.4242     89.0711
   728.2500      0.0000    281.3390     60.4861     91.9264
   728.5000      0.0000    281.3591     60.4599     95.2049
   728.7500      0.0000    281.3824     60.2730     98.2224
   729.0000      0.0000    281.4090     59.9225    100.8145
   729.2500      0.0000    281.4370     59.4640    102.9638
