~Version Information
VERS.                      2.0: CWLS Log ASCII Standard - VERSION 2.0
WRAP.                       NO: One line per depth step
~Well Information Block
STRT.FT                10.0000: 
STOP.FT              1063.0000: 
STEP.FT                 0.1000: 
NULL.                -999.2500: 
COMP.          Pioneer Natural Resources: COMPANY
WELL.                Mac 22-36: WELL
FLD.           Purgatorie River: FIELD
LOC.           2545' FNL & 1398' FWL: LOCATION
PROV.                 Colorado: PROVINCE
CNTY.               Las Animas: COUNTRY
SRVC.                Patterson: SERVICE COMPANY
DATE.          Mon Dec 05 10:55:42 2005: LOG DATE
UWI.                          : UNIQUE WELL ID
~Curve Information Block
DEPT.FT            0 000 00 00: Depth
DCAL.in                       : CDL Caliper
RHOB.g/cc                     : CDL Bulk Density
RHOC.g/cc                     : CDL Density Correction
DPOR.pu                       : CDL Density Porosity
GR.GAPI                       : Gamma Ray
NPOR.pu                       : Neutron Porosity
~Parameter Information Block
~A  Depth       DCAL        RHOB        RHOC        DPOR         GR         NPOR    
# ...
   912.4000      7.8972      2.4509      0.0653     12.0669     70.6669     18.6135
   912.5000      7.8837      2.4644      0.0489     11.2458     74.1032     18.4935
   912.6000      7.8837      2.4849      0.0515     10.0034     75.3833     18.3329
   912.7000      7.8837      2.4967      0.1236      9.2886     73.4730     18.2666
   912.8000      7.9052      2.4858      0.0593      9.9539     72.6547     18.3517
   912.9000      7.9052      2.4723      0.0117     10.7723     75.8529     18.4796
   913.0000      7.9224      2.4794      0.0405     10.3406     80.5839     18.6202
   913.1000      7.9224      2.4965      0.0545      9.3002     84.4047     18.8433
   913.2000      7.9224      2.5044      0.0444      8.8234     86.6744     19.1851
   913.3000      7.9311      2.5007      0.0462      9.0502     87.1512     19.5312
   913.4000      7.9311      2.4969     -0.0042      9.2781     85.6278     19.6102
   913.5000      7.9342      2.4965      0.0905      9.3014     82.0243     19.2935
   913.6000      7.9342      2.4899      0.0284      9.7035     79.0885     18.8979
   913.7000      7.9342      2.4814      0.0106     10.2167     78.8368     18.9795
   913.8000      7.9129      2.4832      0.0030     10.1109     78.5958     19.4785
   913.9000      7.9129      2.4939      0.0340      9.4616     75.3353     19.7224
   914.0000      7.9032      2.5012      0.0431      9.0172     69.9634     19.5075
   914.1000      7.9032      2.5031      0.0201      8.9060     63.8910     18.9875
   914.2000      7.9032      2.5080      0.0394      8.6085     57.9474     18.2134
   914.3000      7.8667      2.5116      0.0791      8.3874     55.4660     17.4707
   914.4000      7.8667      2.5094      0.0089      8.5198     59.1020     17.2010
   914.5000      7.8481      2.5093      0.0340      8.5292     64.9115     17.3412
   914.6000      7.8481      2.5088      0.0380      8.5559     67.0320     17.4632
   914.7000      7.8481      2.5027      0.0662      8.9252     65.8296     17.3151
   914.8000      7.8547      2.4924      0.0412      9.5491     64.1800     16.9582
   914.9000      7.8547      2.4797      0.0372     10.3235     63.8463     16.5940
   915.0000      7.8386      2.4692      0.0372     10.9577     64.9453     16.4310
   915.1000      7.8386      2.4631      0.0458     11.3262     66.6107     16.6309
   915.2000      7.8386      2.4525      0.0404     11.9693     68.9192     17.2272
   915.3000      7.8505      2.4306      0.0119     13.2975     71.6231     17.9966
   915.4000      7.8505      2.4087      0.0127     14.6270     72.9526     18.5533
   915.5000      7.8532      2.4054      0.0222     14.8256     72.7188     18.8954
   915.6000      7.8532      2.4254      0.0580     13.6102     73.6347     19.1780
   915.7000      7.8532      2.4528      0.0726     11.9543     75.2011     19.2168
   915.8000      7.8540      2.4701      0.0695     10.9017     73.1692     19.0603
   915.9000      7.8540      2.4775      0.0572     10.4545     68.0096     19.0789
   916.0000      7.8735      2.4755      0.1271     10.5735     65.7515     19.2956
   916.1000      7.8735      2.4606      0.0765     11.4800     68.4710     19.3253
   916.2000      7.8735      2.4461      0.0099     12.3566     71.2634     18.8902
   916.3000      7.8758      2.4443      0.0719     12.4649     70.8119     18.4763
   916.4000      7.8758      2.4496      0.0411     12.1465     69.3546     18.6290
   916.5000      7.8626      2.4577      0.0609     11.6529     70.9416     18.8585
   916.6000      7.8626      2.4642      0.1021     11.2596     75.2321     18.5415
   916.7000      7.8626      2.4678      0.0452     11.0421     76.6439     17.9434
   916.8000      7.8392      2.4761      0.1350     10.5391     72.2791     17.6438
   916.9000      7.8392      2.4864      0.1233      9.9135     66.0508     17.9594
   917.0000      7.8349      2.4889      0.1231      9.7627     63.0115     18.6549
   917.1000      7.8349      2.4813      0.0753     10.2219     63.2300     19.0587
   917.2000      7.8349      2.4709      0.0469     10.8554     63.3295     18.8022
   917.3000      7.8400      2.4652      0.0578     11.2007     63.4477     18.1700
   917.4000      7.8400      2.4662      0.0586     11.1406     66.8454     17.6991
   917.5000      7.8418      2.4728      0.0550     10.7410     71.8441     17.4610
   917.6000      7.8418      2.4807      0.0603     10.2587     73.0723     17.2288
   917.7000      7.8418      2.4814      0.1239     10.2159     69.7164     17.1529
   917.8000      7.8423      2.4736      0.0928     10.6937     65.1273     17.3949
   917.9000      7.8423      2.4711      0.0627     10.8407     63.4564     17.9236
   918.0000      7.8394      2.4771      0.1350     10.4801     65.9105     18.6833
   918.1000      7.8394      2.4728      0.1194     10.7384     69.3714     19.4404
   918.2000      7.8394      2.4522      0.0653     11.9859     70.9546     19.9097
   918.3000      7.8559      2.4318      0.0471     13.2250     70.6188     19.9937
   918.4000      7.8559      2.4229      0.0483     13.7653     69.7509     19.7751
   918.5000      7.8721      2.4214      0.0188     13.8530     70.6083     19.4600
   918.6000      7.8721      2.4164      0.0524     14.1599     73.2453     19.2402
   918.7000      7.8721      2.4030     -0.0104     14.9713     75.3507     19.2256
   918.8000      7.8872      2.3959     -0.0168     15.4019     77.2297     19.3584
   918.9000      7.8872      2.4065      0.0488     14.7548     80.4773     19.3653
   919.0000      7.8962      2.4231      0.0190     13.7486     84.5010     19.2182
   919.1000      7.8962      2.4355      0.0193     13.0002     86.6577     19.0975
   919.2000      7.8962      2.4512      0.0228     12.0497     85.9372     19.0422
   919.3000      7.8994      2.4743      0.0617     10.6465     84.2869     19.0692
   919.4000      7.8994      2.4918      0.0807      9.5857     82.1650     19.2365
   919.5000      7.9076      2.4895      0.0653      9.7292     80.2727     19.5658
   919.6000      7.9076      2.4684      0.0510     11.0072     80.2079     19.9933
   919.7000      7.9076      2.4434      0.0730     12.5188     80.4972     20.3533
   919.8000      7.9066      2.4258      0.0310     13.5885     79.2804     20.3674
   919.9000      7.9066      2.4158      0.0142     14.1910     78.8492     20.0802
   920.0000      7.8962      2.4107      0.0523     14.5007     82.0478     19.9853
   920.1000      7.8962      2.4084      0.0172     14.6405     84.8786     20.2733
   920.2000      7.8962      2.4082      0.0449     14.6518     82.2400     20.5845
   920.3000      7.8798      2.4059      0.0281     14.7953     77.7337     20.5850
   920.4000      7.8798      2.3975      0.0128     15.3055     76.8168     20.3648
   920.5000      7.8717      2.3838      0.0165     16.1323     77.8710     20.3278
   920.6000      7.8717      2.3729      0.0081     16.7944     78.1174     20.5732
   920.7000      7.8717      2.3747      0.0210     16.6876     78.1876     20.7760
   920.8000      7.8710      2.3876      0.0523     15.9023     78.3838     20.6068
   920.9000      7.8710      2.4036      0.0534     14.9347     78.1400     20.2022
   921.0000      7.8636      2.4182      0.0549     14.0504     77.0800     20.0507
   921.1000      7.8636      2.4253      0.0733     13.6172     76.4782     20.1361
   921.2000      7.8636      2.4195      0.0425     13.9690     77.7772     20.0746
   921.3000      7.8618      2.4088      0.0276     14.6180     79.0254     19.9029
   921.4000      7.8618      2.4047      0.0559     14.8671     78.2785     19.8692
   921.5000      7.8687      2.4096      0.0405     14.5722     77.4412     20.0568
   921.6000      7.8687      2.4229      0.0541     13.7614     77.1627     20.3773
   921.7000      7.8687      2.4417      0.0432     12.6260     75.9393     20.5685
   921.8000      7.8543      2.4535      0.1204     11.9107     74.1784     20.5164
   921.9000      7.8543      2.4495      0.0769     12.1517     73.2875     20.5306
