~Version Information
VERS.                      2.0: CWLS Log ASCII Standard - VERSION 2.0
WRAP.                       NO: One line per depth step
~Well Information Block
STRT.FT                 0.0000: 
STOP.FT              1674.7500: 
STEP.FT                 0.2500: 
NULL.                -999.2500: 
COMP.          Pioneer Natural Resources: COMPANY
WELL.          Culver 14-12 Tr: WELL
FLD.           Purgatorie River: FIELD
LOC.           915' FSL & 1048' FWL: LOCATION
STAT.                 Colorado: Colorado
CNTY.               Las Animas: COUNTY
CTRY. USA : Country
SECT. 12 : Section
TOWN. 32S : Township
RANG. 66W : Range
SRVC.                Patterson: SERVICE COMPANY
DATE.          Mon Oct 03 12:52:29 2005: LOG DATE
API. 05-071-08520                         : UNIQUE WELL ID
~Curve Information Block
DEPT.FT            0 000 00 00: Depth
CCL.                          : Casing Collar Locator
TT3.usec                      : CBL 3' Travel Time
AMP3.mV                       : CBL 3' Amplitude
GR.GAPI                       : Gamma Ray
~Parameter Information Block
~A  Depth       CCL         TT3         AMP3         GR     
# ...
  1105.5000      0.0000    772.5349      9.4547     90.2990
  1105.7500      0.0000    772.7038      9.4461     83.4328
  1106.0000      0.0000    772.8813      9.4169     76.2135
  1106.2500      0.0000    773.0436      9.3828     69.8374
  1106.5000      0.0000    773.1915      9.3581     65.3068
  1106.7500      0.0000    773.4108      9.3270     63.2240
  1107.0000      0.0000    773.7626      9.2773     63.4880
  1107.2500      0.0000    774.1577      9.2362     65.1896
  1107.5000      0.0000    774.4965      9.2345     67.0270
  1107.7500      0.0000    774.9008      9.2697     67.9851
  1108.0000      0.0000    775.9827      9.3211     67.7968
  1108.2500      0.0000    779.6135      9.3781     66.9549
  1108.5000      0.0000    788.5022      9.4435     66.2515
  1108.7500      0.0000    800.9925      9.5226     66.0553
  1109.0000      0.0000    807.9830      9.6254     66.0162
  1109.2500      0.0000    804.7308      9.7589     65.6066
  1109.5000      0.0000    801.8273      9.8936     64.8082
  1109.7500      0.0000    812.8572      9.9804     64.0254
  1110.0000      0.0000    837.4121     10.0057     63.5594
  1110.2500      0.0000    863.2462      9.9891     63.5479
  1110.5000      0.0000    880.1699      9.9561     64.2358
  1110.7500      0.0000    886.7814      9.9406     65.8722
  1111.0000      0.0000    884.8920      9.9670     68.3104
  1111.2500      0.0000    872.7912     10.0120     70.8672
  1111.5000      0.0000    848.2828     10.0300     72.6584
  1111.7500      0.0000    817.4048     10.0128     73.1266
  1112.0000      0.0000    792.3717      9.9780     72.4150
  1112.2500      0.0000    779.1428      9.9219     71.4024
  1112.5000      0.0000    774.4458      9.8336     71.2323
  1112.7500      0.0000    773.2405      9.7352     72.4480
  1113.0000      0.0000    773.0197      9.6729     74.4932
  1113.2500      0.0000    773.0447      9.6758     76.1564
  1113.5000      0.0000    773.0866      9.7226     76.4665
  1113.7500      0.0000    773.0983      9.7509     75.2471
  1114.0000      0.0000    773.2523      9.7156     73.1747
  1114.2500      0.0000    774.1675      9.6191     71.4054
  1114.5000      0.0000    777.6603      9.4900     70.7900
  1114.7500      0.0000    786.3036      9.3683     71.2019
  1115.0000      0.0000    798.3583      9.2864     71.8235
  1115.2500      0.0000    804.4912      9.2352     72.2353
  1115.5000      0.0000    798.3342      9.1740     72.9867
  1115.7500      0.0000    786.2969      9.0749     74.8695
  1116.0000      0.0000    777.7015      8.9404     77.7509
  1116.2500      0.0000    774.2111      8.7914     80.4694
  1116.5000      0.0000    773.2654      8.6546     82.0671
  1116.7500      0.0000    773.3170      8.5437     82.7703
  1117.0000      0.0000    774.4407      8.4554     83.3455
  1117.2500      0.0000    778.2988      8.3886     83.7052
  1117.5000      0.0000    788.4324      8.3385     82.6864
  1117.7500      0.0000    807.6243      8.2799     79.2810
  1118.0000      0.0000    835.6812      8.1938     73.7537
  1118.2500      0.0000    872.1784      8.0988     67.5554
  1118.5000      0.0000    912.4750      8.0310     62.5278
  1118.7500      0.0000    941.1548      8.0061     60.1008
  1119.0000      0.0000    943.7223      8.0193     60.6089
  1119.2500      0.0000    923.5576      8.0560     63.0987
  1119.5000      0.0000    901.3688      8.0854     66.0338
  1119.7500      0.0000    894.9078      8.0719     68.2711
  1120.0000      0.0000    904.6187      8.0138     69.3112
  1120.2500      0.0000    923.7376      7.9513     69.0428
  1120.5000      0.0000    945.8329      7.9253     67.8213
  1120.7500      0.0000    962.6194      7.9428     66.5963
  1121.0000      0.0000    967.9314      7.9817     66.2424
  1121.2500      0.0000    959.3998      8.0033     66.5698
  1121.5000      0.0000    936.2720      7.9723     66.4870
  1121.7500      0.0000    903.3627      7.8937     65.3610
  1122.0000      0.0000    872.4446      7.8135     63.8643
  1122.2500      0.0000    852.7352      7.7753     63.1970
  1122.5000      0.0000    844.0469      7.7941     63.6219
  1122.7500      0.0000    841.3151      7.8683     63.9884
  1123.0000      0.0000    840.8110      7.9946     62.8111
  1123.2500      0.0000    841.4008      8.1719     59.8031
  1123.5000      0.0000    843.7197      8.4077     56.3394
  1123.7500      0.0000    849.2876      8.7054     54.5328
  1124.0000      0.0000    857.7589      9.0199     56.0111
  1124.2500      0.0000    863.7400      9.2766     61.4856
  1124.5000      0.0000    861.1260      9.4482     71.1051
  1124.7500      0.0000    852.0823      9.5546     84.5860
  1125.0000      0.0000    843.7955      9.5953    100.4420
  1125.2500      0.0000    836.3920      9.5368    115.3618
  1125.5000      0.0000    822.9102      9.3445    125.3968
  1125.7500      0.0000    803.0771      9.0076    128.5319
  1126.0000      0.0000    792.2000      8.5608    126.0701
  1126.2500      0.0000    807.1974      8.0918    121.1642
  1126.5000      0.0000    846.3929      7.7062    115.8716
  1126.7500      0.0000    891.3287      7.4559    109.8530
  1127.0000      0.0000    918.3484      7.3112    101.8936
  1127.2500      0.0000    911.1398      7.2119     91.9419
  1127.5000      0.0000    878.0527      7.1275     81.2664
  1127.7500      0.0000    848.1743      7.0741     71.3302
  1128.0000      0.0000    842.0899      7.0517     63.1674
  1128.2500      0.0000    852.9990      6.9637     57.4028
  1128.5000      0.0000    854.9902      6.7557     54.2550
  1128.7500      0.0000    837.3848      6.6659     53.6109
  1129.0000      0.0000    830.1368      6.9347     55.4599
  1129.2500      0.0000    868.7759      7.3032     60.1143
  1129.5000      0.0000    939.1416      7.4537     67.5589
  1129.7500      0.0000    993.2991      7.6008     76.3937
  1130.0000      0.0000   1011.1394      8.0227     83.9111
  1130.2500      0.0000   1003.8858      8.6306     88.0544
  1130.5000      2.0000    979.0657      9.2394     89.3231
  1130.7500     -2.0000    945.9176      9.7444     90.1311
  1131.0000      0.0000    928.9608     10.0827     92.4005
  1131.2500      0.0000    942.2846     10.3354     96.2407
  1131.5000      0.0000    964.7986     10.9060    100.4929
  1131.7500      0.0000    960.9193     12.0957    103.7155
  1132.0000      0.0000    922.6195     13.2857    104.8278
  1132.2500      0.0000    876.8376     13.6703    103.5006
  1132.5000      0.0000    850.3241     13.5435    100.2066
  1132.7500      0.0000    843.9414     13.5021     95.9198
  1133.0000      0.0000    844.9213     13.4963     91.9335
  1133.2500      0.0000    845.0967     13.3292     89.8841
  1133.5000      0.0000    842.4094     13.0354     91.3315
  1133.7500      0.0000    838.0800     12.7094     96.6617
  1134.0000      0.0000    836.2692     12.3983    104.3409
  1134.2500      0.0000    840.5096     12.1326    111.5423
  1134.5000      0.0000    849.7430     11.9562    115.7446
  1134.7500      0.0000    858.9031     11.8876    116.0315
  1135.0000      0.0000    859.7618     11.8651    113.1961
  1135.2500      0.0000    846.4709     11.7994    108.7958
  1135.5000      0.0000    826.5670     11.6913    104.2332
  1135.7500      0.0000    815.8827     11.6098    100.4448
  1136.0000      0.0000    819.1740     11.5623     97.8027
  1136.2500      0.0000    828.3414     11.4869     96.1264
  1136.5000      0.0000    835.7484     11.3355     95.2303
  1136.7500      0.0000    838.5208     11.1126     95.2916
  1137.0000      0.0000    837.2805     10.8701     96.1514
  1137.2500      0.0000    836.0674     10.6800     96.6938
  1137.5000      0.0000    838.1570     10.6059     95.9693
  1137.7500      0.0000    842.1914     10.6852     94.8464
  1138.0000      0.0000    845.4209     10.8981     95.5667
  1138.2500      0.0000    847.3004     11.1572     99.5029
  1138.5000      0.0000    848.4299     11.3715    105.8007
  1138.7500      0.0000    849.0292     11.5207    112.2464
