~Version Information
VERS.                      2.0: CWLS Log ASCII Standard - VERSION 2.0
WRAP.                       NO: One line per depth step
~Well Information Block
STRT.FT               686.2000: 
STOP.FT              1252.7000: 
STEP.FT                 0.1000: 
NULL.                -999.2500: 
COMP.          Pioneer Natural Resources: COMPANY
WELL.          Rock Island 44-24 Tr: WELL
FLD.           Purgatoire River: FIELD
LOC.           814' FSL & 761' FEL--: LOCATION
CNTY.               Las Animas: COUNTY
SRVC.                Patterson: SERVICE COMPANY
DATE.          Thu Apr 20 08:34:45 2006: LOG DATE
UWI.           05 071 08680 00: UNIQUE WELL ID
STAT.                 Colorado: STATE
~Curve Information Block
DEPT.FT            0 000 00 00: Depth
DCAL.in                       : CDL Caliper
RHOB.g/cc                     : CDL Bulk Density
RHOC.g/cc                     : CDL Density Correction
DPOR.pu                       : CDL Density Porosity
GR.GAPI                       : Gamma Ray
~Parameter Information Block
~A  Depth       DCAL        RHOB        RHOC        DPOR         GR     
# ...
  1156.6000      7.9629      2.5342      0.0498      7.0165    118.2606
  1156.7000      7.9629      2.5236      0.0607      7.6609    110.3429
  1156.8000      7.9583      2.5155      0.0067      8.1524    106.1338
  1156.9000      7.9583      2.5207      0.0474      7.8382    110.5507
  1157.0000      7.9530      2.5277      0.0723      7.4108    118.0527
  1157.1000      7.9530      2.5230      0.0709      7.6952    120.6624
  1157.2000      7.9530      2.5086      0.0463      8.5725    116.5205
  1157.3000      7.9539      2.4920      0.0318      9.5771    112.3217
  1157.4000      7.9539      2.4838      0.0371     10.0748    115.5706
  1157.5000      7.9594      2.4922      0.0355      9.5613    124.8204
  1157.6000      7.9594      2.5131      0.0688      8.2986    129.5509
  1157.7000      7.9594      2.5351      0.0421      6.9645    124.5115
  1157.8000      7.9619      2.5499      0.0880      6.0639    117.2970
  1157.9000      7.9619      2.5521      0.0927      5.9323    112.5167
  1158.0000      7.9620      2.5421      0.0589      6.5421    107.3309
  1158.1000      7.9620      2.5225      0.0671      7.7271    103.6110
  1158.2000      7.9620      2.4987     -0.0001      9.1667    107.9668
  1158.3000      7.9622      2.4814      0.0451     10.2192    118.5787
  1158.4000      7.9622      2.4769      0.0096     10.4904    125.5735
  1158.5000      7.9630      2.4832      0.0276     10.1089    125.0055
  1158.6000      7.9630      2.4882      0.0414      9.8065    120.4937
  1158.7000      7.9630      2.4824      0.0279     10.1576    115.2951
  1158.8000      7.9636      2.4733      0.0035     10.7061    112.1753
  1158.9000      7.9636      2.4727     -0.0050     10.7441    113.0503
  1159.0000      7.9633      2.4765      0.0466     10.5136    118.5453
  1159.1000      7.9633      2.4763      0.0489     10.5261    126.7216
  1159.2000      7.9633      2.4780      0.0680     10.4223    131.2470
  1159.3000      7.9624      2.4874      0.0329      9.8553    131.3593
  1159.4000      7.9624      2.4953      0.0749      9.3771    130.4185
  1159.5000      7.9646      2.4975      0.0303      9.2443    126.8791
  1159.6000      7.9646      2.5085      0.0506      8.5778    120.6279
  1159.7000      7.9646      2.5383      0.0565      6.7721    115.2647
  1159.8000      7.9705      2.5843      0.0744      3.9788    113.2728
  1159.9000      7.9705      2.6393      0.1116      0.6499    115.5340
  1160.0000      7.9743      2.6946      0.0759     -2.7044    119.4340
  1160.1000      7.9743      2.7394      0.1507     -5.4151    119.2113
  1160.2000      7.9743      2.7581      0.1153     -6.5525    114.2999
  1160.3000      7.9723      2.7504      0.1089     -6.0846    109.4972
  1160.4000      7.9723      2.7348      0.0898     -5.1415    105.9792
  1160.5000      7.9663      2.7228      0.1154     -4.4121    102.4826
  1160.6000      7.9663      2.7041      0.0688     -3.2779     99.4889
  1160.7000      7.9663      2.6710      0.0221     -1.2754     98.1301
  1160.8000      7.9619      2.6249      0.0026      1.5236    100.2708
  1160.9000      7.9619      2.5745     -0.0305      4.5749    105.9321
  1161.0000      7.9615      2.5427     -0.0611      6.5051    111.9046
  1161.1000      7.9615      2.5337      0.0480      7.0495    115.5615
  1161.2000      7.9615      2.5282      0.0747      7.3819    119.5293
  1161.3000      7.9615      2.5248      0.0468      7.5868    124.5578
  1161.4000      7.9615      2.5325      0.0941      7.1194    126.2863
  1161.5000      7.9595      2.5394      0.0908      6.7046    123.6306
  1161.6000      7.9595      2.5334      0.0524      7.0680    120.0733
  1161.7000      7.9595      2.5285      0.0091      7.3655    121.2351
  1161.8000      7.9555      2.5403      0.0804      6.6513    127.8760
  1161.9000      7.9555      2.5629      0.0887      5.2794    130.2827
  1162.0000      7.9500      2.5905      0.0584      3.6084    123.3087
  1162.1000      7.9500      2.6158      0.1052      2.0751    114.0807
  1162.2000      7.9500      2.6196      0.0845      1.8440    109.4443
  1162.3000      7.9497      2.5969      0.0669      3.2182    109.5634
  1162.4000      7.9497      2.5615      0.0438      5.3662    112.6460
  1162.5000      7.9590      2.5268      0.0007      7.4661    115.6350
  1162.6000      7.9590      2.5063     -0.0088      8.7113    113.8430
  1162.7000      7.9590      2.5049      0.0264      8.7931    109.6399
  1162.8000      7.9719      2.5055      0.0402      8.7552    110.6122
  1162.9000      7.9719      2.4874      0.0161      9.8519    115.6501
  1163.0000      7.9859      2.4515      0.0062     12.0291    117.4290
  1163.1000      7.9859      2.4184     -0.0692     14.0357    117.0362
  1163.2000      7.9859      2.3976      0.0058     15.2953    117.4448
  1163.3000      8.0004      2.3732      0.0043     16.7750    116.1881
  1163.4000      8.0004      2.3404     -0.0171     18.7616    114.8190
  1163.5000      8.0148      2.3157     -0.0708     20.2624    114.4647
  1163.6000      8.0148      2.3083     -0.0122     20.7063    116.0690
  1163.7000      8.0148      2.3173     -0.0113     20.1644    122.3924
  1163.8000      8.0245      2.3361      0.0591     19.0235    129.5873
  1163.9000      8.0245      2.3499      0.0629     18.1902    132.5211
  1164.0000      8.0269      2.3530      0.0848     18.0002    130.3846
  1164.1000      8.0269      2.3647      0.0496     17.2882    125.3282
  1164.2000      8.0269      2.4042      0.1231     14.8980    119.3817
  1164.3000      8.0232      2.4544      0.1716     11.8565    113.4935
  1164.4000      8.0232      2.4846      0.1521     10.0260    110.6300
  1164.5000      8.0159      2.4912      0.1066      9.6248    112.8098
  1164.6000      8.0159      2.4874      0.1014      9.8528    117.4747
  1164.7000      8.0159      2.4792      0.0623     10.3539    122.0953
  1164.8000      8.0063      2.4650      0.0814     11.2112    127.1222
  1164.9000      8.0063      2.4487      0.0476     12.1972    131.3924
  1165.0000      7.9998      2.4422      0.0668     12.5939    131.3402
  1165.1000      7.9998      2.4519      0.0407     12.0056    127.4577
  1165.2000      7.9998      2.4675      0.0542     11.0628    122.9860
  1165.3000      7.9957      2.4707      0.0522     10.8649    120.0228
  1165.4000      7.9957      2.4585      0.0337     11.6088    119.3354
  1165.5000      7.9928      2.4332      0.0179     13.1411    120.8398
  1165.6000      7.9928      2.3850      0.0518     16.0578    123.9895
  1165.7000      7.9928      2.3081     -0.0176     20.7230    127.2141
  1165.8000      7.9933      2.2166     -0.0316     26.2670    126.9297
  1165.9000      7.9933      2.1356     -0.0497     31.1753    123.2216
  1166.0000      7.9930      2.0885     -0.0591     34.0293    121.0545
  1166.1000      7.9930      2.0740      0.0338     34.9068    121.4344
  1166.2000      7.9930      2.0685     -0.0194     35.2432    121.3301
  1166.3000      7.9908      2.0607      0.0248     35.7134    118.5857
  1166.4000      7.9908      2.0608     -0.0128     35.7076    113.1208
  1166.5000      7.9878      2.0938      0.0296     33.7062    108.0435
  1166.6000      7.9878      2.1729      0.1185     28.9152    107.2705
  1166.7000      7.9878      2.2744      0.2388     22.7657    108.7836
  1166.8000      7.9803      2.3643      0.2621     17.3171    107.0020
  1166.9000      7.9803      2.4353      0.2658     13.0143    101.7313
  1167.0000      7.9645      2.4898      0.2459      9.7075     97.4066
  1167.1000      7.9645      2.5193      0.1992      7.9216     95.9267
  1167.2000      7.9645      2.5230      0.1626      7.6977     94.7287
  1167.3000      7.9458      2.5154      0.0894      8.1598     91.6972
  1167.4000      7.9458      2.5089      0.0510      8.5526     89.5191
  1167.5000      7.9383      2.5130     -0.0016      8.3025     90.8018
  1167.6000      7.9383      2.5316      0.0646      7.1741     92.8416
  1167.7000      7.9383      2.5517      0.0900      5.9556     90.9273
