~Version Information
 VERS.                                  2.0 : CWLS LAS VERSION
 WRAP.                                   NO : WRAPING MODE
 SWARE .                 MController 2.5.0J : SOFTWARE VERSION
~Well Information
 WELL.                         Kraft 17-23R : WELL
 COMP.                Petrogulf Corporation : COMPANY
 FLD.                      Purgatoire River : FIELD
 LOC.                NE/SW Sec 17 T33S R67W : LOCATION
 DATE.                          10/10-11/05 : DATE(S) LOGGED
 SRVC.       BLANCO Geological Services LLC : SERVICE COMPANY
 STAT.                                   CO : STATE
 CNTY.                           Las Animas : COUNTY
 CTRY.                                  USA : COUNTRY
 API.                       05-071-08560-00 : API NUMBER
 STRT.FT                             101.00 : START DEPTH
 STOP.FT                            1920.00 : STOP DEPTH
 STEP.FT                               1.00 : DEPTH INCREMENT
 NULL.                                -9999 : NULL VALUE
~Curve information
 DEPTH.FT                                   :
 ROP.MIN/FT                                 :
 GAS.UNITS                                  :
~ASCII Log data
# ...
       501.0         0.13         18.0 
       502.0         0.27         17.7 
       503.0         0.27         16.4 
       504.0         0.23         17.9 
       505.0         0.20         21.3 
       506.0         1.25         61.8 
       507.0         0.27         23.8 
       508.0         0.30         14.9 
       509.0         0.30         10.6 
       510.0         0.23          9.7 
       511.0         0.13         10.3 
       512.0         0.10         10.2 
       513.0         0.27         10.8 
       514.0         0.20         10.8 
       515.0         0.33         11.0 
       516.0         0.27         10.8 
       517.0         0.20         10.6 
       518.0         0.17         10.3 
       519.0         0.22          9.8 
       520.0         0.23          9.5 
       521.0         0.27          9.3 
       522.0         0.23          9.9 
       523.0         0.17         10.3 
       524.0         0.13         10.4 
       525.0         0.23         10.9 
       526.0         0.23         11.2 
       527.0         0.27         10.2 
       528.0         0.30          9.5 
       529.0         0.27          8.9 
       530.0         0.30          8.0 
       531.0         0.30          7.3 
       532.0         0.28          7.0 
       533.0         0.23          6.7 
       534.0         0.23          7.0 
       535.0         0.30         13.3 
       536.0         1.33         53.6 
       537.0         0.20         23.7 
       538.0         0.20         16.2 
       539.0         0.27         12.6 
       540.0         0.33         10.9 
       541.0         0.35          9.0 
       542.0         0.27          8.4 
       543.0         0.27          9.1 
       544.0         0.30          8.8 
       545.0         0.37          8.1 
       546.0         0.30          7.8 
       547.0         0.30          8.0 
       548.0         0.23          8.3 
       549.0         0.17          9.1 
       550.0         0.17          9.9 
       551.0         0.20         10.9 
       552.0         0.17         11.2 
       553.0         0.32         11.6 
       554.0         0.27         11.6 
       555.0         0.27         10.7 
       556.0         0.27          9.8 
       557.0         0.30          8.8 
       558.0         0.30          7.6 
       559.0         0.30          6.3 
       560.0         0.27          5.9 
       561.0         0.23          5.8 
       562.0         0.27          6.4 
       563.0         0.23          6.5 
       564.0         0.27          5.7 
       565.0         0.25          6.7 
       566.0         1.80         57.3 
       567.0         0.37         20.8 
       568.0         0.30         11.3 
       569.0         0.27          8.7 
       570.0         0.23          8.8 
       571.0         0.28          8.4 
       572.0         0.30          8.4 
       573.0         0.27          8.4 
       574.0         0.30          9.0 
       575.0         0.20          9.7 
       576.0         0.23         10.3 
       577.0         0.23         11.0 
       578.0         0.27         11.5 
       579.0         0.17         11.6 
       580.0         0.20         11.8 
       581.0         0.13         11.8 
       582.0         0.23         12.3 
       583.0         0.20         12.5 
       584.0         0.20         12.1 
       585.0         0.27         12.7 
       586.0         0.28         11.8 
       587.0         0.27         12.1 
       588.0         0.30         12.8 
       589.0         0.27         13.8 
       590.0         0.17         14.7 
       591.0         0.13         14.8 
       592.0         0.13         14.0 
       593.0         0.13         14.9 
       594.0         0.13         17.2 
       595.0         0.17         21.7 
       596.0         1.42         61.7 
       597.0         0.33         22.9 
       598.0         0.40         12.5 
       599.0         0.27          7.9 
       600.0         0.30          6.0 
       601.0         0.37          5.1 
       602.0         0.30          4.7 
       603.0         0.37          4.6 
       604.0         0.43          4.9 
       605.0         0.48          5.5 
       606.0         0.33          5.9 
       607.0         0.30          7.1 
       608.0         0.27          7.6 
       609.0         0.27          8.6 
       610.0         0.27          9.2 
       611.0         0.20          9.5 
       612.0         0.23         10.4 
       613.0         0.27         10.6 
       614.0         0.30         10.9 
       615.0         0.25         11.5 
       616.0         0.23         11.3 
       617.0         0.27         11.3 
       618.0         0.40         10.0 
       619.0         0.30          8.9 
       620.0         0.23          8.7 
       621.0         0.27          9.0 
       622.0         0.23          9.1 
       623.0         0.30          9.8 
       624.0         0.33          9.5 
       625.0         0.32          8.1 
       626.0         1.60         49.3 
       627.0         0.47         23.8 
       628.0         0.43         10.9 
       629.0         0.35          7.7 
       630.0         0.30          8.5 
       631.0         0.37          9.6 
       632.0         0.30         10.3 
       633.0         0.33         11.1 
       634.0         0.37         11.5 
       635.0         0.33         11.2 
       636.0         0.27         10.6 
       637.0         0.30          9.8 
       638.0         0.23          9.3 
       639.0         0.28          9.0 
       640.0         0.33          9.3 
       641.0         0.43          8.7 
       642.0         0.33          8.2 
       643.0         0.53          8.4 
       644.0         0.33          8.1 
       645.0         0.30          9.3 
       646.0         0.32          9.7 
       647.0         0.33         10.2 
       648.0         0.37         10.6 
       649.0         0.30         10.3 
       650.0         0.30         10.2 
       651.0         0.27         10.3 
       652.0         0.33         11.0 
       653.0         0.33         10.9 
       654.0         0.33         10.8 
       655.0         0.32          8.7 
       656.0         1.87         53.6 
       657.0         0.40         26.5 
       658.0         0.57         15.9 
       659.0         0.52         11.7 
       660.0         0.27         10.2 
       661.0         0.33         10.7 
       662.0         0.40         10.6 
       663.0         0.43         11.6 
       664.0         0.23         11.4 
       665.0         0.13         11.6 
       666.0         0.37         12.6 
       667.0         0.45         13.4 
       668.0         0.43         12.7 
       669.0         0.43         11.6 
       670.0         0.33          9.7 
       671.0         0.23         10.1 
       672.0         0.30         11.3 
       673.0         0.27         11.7 
       674.0         0.27         13.0 
       675.0         0.30         13.2 
       676.0         0.38         13.1 
       677.0         0.33         11.3 
       678.0         0.30         10.5 
       679.0         0.33         10.4 
       680.0         0.23         10.3 
       681.0         0.23         10.4 
       682.0         0.23         10.5 
       683.0         0.27         10.8 
       684.0         0.27         11.4 
       685.0         0.33         12.0 
       686.0         1.42         63.0 
       687.0         0.30         37.8 
       688.0         0.33         22.9 
       689.0         0.30         12.2 
       690.0         0.33          8.4 
       691.0         0.38          7.2 
       692.0         0.30          7.8 
       693.0         0.17          8.8 
       694.0         0.20          9.6 
       695.0         0.13         11.0 
       696.0         0.10         10.6 
       697.0         0.37         11.5 
       698.0         0.13         12.2 
       699.0         0.17         12.5 
       700.0         0.20         12.9 
