~Version Information
 VERS.                                  2.0 : CWLS LAS VERSION
 WRAP.                                   NO : WRAPING MODE
 SWARE .                 MController 2.5.0J : SOFTWARE VERSION
~Well Information
 WELL.                       Parsons 15-23R : WELL
 COMP.                Petrogulf Corporation : COMPANY
 FLD.                      Purgatoire River : FIELD
 LOC.                NE/SW Sec 15 T33S R67W : LOCATION
 DATE.                             09/12/05 : DATE(S) LOGGED
 SRVC.       Blanco Geological Services LLC : SERVICE COMPANY
 STAT.                             Colorado : STATE
 CNTY.                           Las Animas : COUNTY
 CTRY.                                  USA : COUNTRY
 API.                       05-071-08441-00 : API NUMBER
 STRT.FT                             423.00 : START DEPTH
 STOP.FT                            1250.00 : STOP DEPTH
 STEP.FT                               1.00 : DEPTH INCREMENT
 NULL.                                -9999 : NULL VALUE
~Curve information
 DEPTH.FT                                   :
 ROP.MIN/FT                                 :
 GAS.UNITS                                  :
~ASCII Log data
# ...
       623.0         0.17        566.0 
       624.0         0.23        761.6 
       625.0         1.25       1488.7 
       626.0         0.30        870.4 
       627.0         0.23        743.5 
       628.0         0.23        690.1 
       629.0         0.20        648.2 
       630.0         0.17        624.1 
       631.0         0.20        610.5 
       632.0         0.20        596.5 
       633.0         0.20        596.5 
       634.0         0.17        601.3 
       635.0         0.17        603.8 
       636.0         0.25        604.8 
       637.0         0.20        609.5 
       638.0         0.23        608.6 
       639.0         0.23        614.9 
       640.0         0.17        654.0 
       641.0         0.17        703.2 
       642.0         0.13        730.8 
       643.0         0.17        741.9 
       644.0         0.10        742.5 
       645.0         0.10        743.5 
       646.0         0.10        744.4 
       647.0         0.07        742.2 
       648.0         0.13        735.2 
       649.0         0.07        724.4 
       650.0         0.13        719.7 
       651.0         0.10        725.7 
       652.0         0.13        773.3 
       653.0         0.10        822.5 
       654.0         0.10        900.9 
       655.0         1.35       2113.6 
       656.0         0.17       1387.1 
       657.0         0.33       1203.7 
       658.0         0.17        963.7 
       659.0         0.23        879.3 
       660.0         0.17        796.1 
       661.0         0.20        758.1 
       662.0         0.20        725.4 
       663.0         0.20        703.2 
       664.0         0.17        686.0 
       665.0         0.17        677.4 
       666.0         0.15        667.9 
       667.0         0.17        661.9 
       668.0         0.13        655.5 
       669.0         0.17        653.0 
       670.0         0.30        659.4 
       671.0         0.20        665.7 
       672.0         0.27        668.2 
       673.0         0.23        662.5 
       674.0         0.20        655.9 
       675.0         0.20        651.1 
       676.0         0.23        645.4 
       677.0         0.20        639.4 
       678.0         0.17        634.6 
       679.0         0.13        633.3 
       680.0         0.17        630.5 
       681.0         0.28        626.3 
       682.0         0.20        609.5 
       683.0         0.17        622.5 
       684.0         0.20        713.3 
       685.0         1.50       1429.3 
       686.0         0.27       1020.9 
       687.0         0.23        875.2 
       688.0         0.23        790.1 
       689.0         0.25        731.1 
       690.0         0.20        684.7 
       691.0         0.20        669.2 
       692.0         0.20        661.9 
       693.0         0.17        655.2 
       694.0         0.10        650.8 
       695.0         0.10        647.6 
       696.0         0.07        646.0 
       697.0         0.10        644.8 
       698.0         0.10        644.1 
       699.0         0.10        647.6 
       700.0         0.13        649.8 
       701.0         0.10        648.2 
       702.0         0.13        646.0 
       703.0         0.17        643.8 
       704.0         0.10        639.7 
       705.0         0.17        637.5 
       706.0         0.20        629.5 
       707.0         0.20        634.9 
       708.0         0.27        639.4 
       709.0         0.17        638.7 
       710.0         0.18        628.3 
       711.0         0.17        598.1 
       712.0         0.20        571.1 
       713.0         0.20        549.5 
       714.0         0.23        569.2 
       715.0         2.55       1542.6 
       716.0         0.47        659.7 
       717.0         0.37        612.7 
       718.0         0.37        639.4 
       719.0         0.30        693.0 
       720.0         0.20        741.2 
       721.0         0.27        765.4 
       722.0         0.23        765.0 
       723.0         0.30        757.1 
       724.0         0.27        726.6 
       725.0         0.23        702.2 
       726.0         0.25        679.0 
       727.0         0.23        652.4 
       728.0         0.23        635.9 
       729.0         0.20        646.0 
       730.0         0.10        658.7 
       731.0         0.10        681.3 
       732.0         0.17        708.2 
       733.0         0.10        723.2 
       734.0         0.07        728.9 
       735.0         0.10        737.1 
       736.0         0.17        739.3 
       737.0         0.07        741.2 
       738.0         0.27        742.8 
       739.0         0.23        731.1 
       740.0         0.23        717.1 
       741.0         0.23        694.3 
       742.0         0.20        673.0 
       743.0         0.23        649.8 
       744.0         0.27        639.7 
       745.0         1.58       1345.2 
       746.0         0.23       1105.3 
       747.0         0.17       1001.2 
       748.0         0.10        938.7 
       749.0         0.13        911.0 
       750.0         0.17        876.8 
       751.0         0.20        838.4 
       752.0         0.17        803.4 
       753.0         0.23        774.9 
       754.0         0.10        732.4 
       755.0         0.13        714.6 
       756.0         0.12        705.1 
       757.0         0.10        691.7 
       758.0         0.13        683.2 
       759.0         0.17        669.5 
       760.0         0.13        654.0 
       761.0         0.13        655.9 
       762.0         0.10        660.3 
       763.0         0.13        660.9 
       764.0         0.10        659.7 
       765.0         0.10        657.1 
       766.0         0.07        652.1 
       767.0         0.13        646.7 
       768.0         0.13        637.8 
       769.0         0.17        625.7 
       770.0         0.10        612.7 
       771.0         0.10        620.0 
       772.0         0.10        643.5 
       773.0         0.10        684.7 
       774.0         0.13        766.0 
       775.0         1.85       1786.7 
       776.0         0.33       1039.9 
       777.0         0.30        889.5 
       778.0         0.23        818.4 
       779.0         0.17        770.1 
       780.0         0.17        742.8 
       781.0         0.27        719.7 
       782.0         0.23        688.9 
       783.0         0.30        669.8 
       784.0         0.20        653.6 
       785.0         0.22        645.7 
       786.0         0.20        638.7 
       787.0         0.23        634.6 
       788.0         0.20        630.8 
       789.0         0.20        627.3 
       790.0         0.20        628.9 
       791.0         0.17        631.1 
       792.0         0.13        629.8 
       793.0         0.13        629.2 
       794.0         0.13        624.8 
       795.0         0.13        615.2 
       796.0         0.13        609.8 
       797.0         0.17        607.0 
       798.0         0.13        607.0 
       799.0         0.13        603.2 
       800.0         0.10        603.5 
       801.0         0.13        623.8 
       802.0         0.10        654.9 
       803.0         0.20        765.7 
       804.0         0.20        951.7 
       805.0         1.25       1748.0 
       806.0         0.33       1326.8 
       807.0         0.27       1103.1 
       808.0         0.27        960.2 
       809.0         0.23        866.3 
       810.0         0.23        800.6 
       811.0         0.20        750.8 
       812.0         0.17        723.8 
       813.0         0.13        712.4 
       814.0         0.10        704.7 
       815.0         0.07        698.4 
       816.0         0.17        694.0 
       817.0         0.15        683.5 
       818.0         0.23        673.6 
       819.0         0.17        663.2 
       820.0         0.17        653.3 
       821.0         0.20        650.5 
       822.0         0.23        647.9 
