~Version Information
VERS.                      2.0: CWLS Log ASCII Standard - VERSION 2.0
WRAP.                       NO: One line per depth step
~Well Information Block
STRT.FT                 0.0000: 
STOP.FT               712.5000: 
STEP.FT                 0.2500: 
NULL.                -999.2500: 
COMP.          Pioneer Natural Resources: COMPANY
WELL.                Mia 21-18: WELL
FLD.           Purgatorie River: FIELD
LOC.           1067' FNL & 1824' FWL: LOCATION
PROV.                 Colorado: PROVINCE
CNTY.               Las Animas: COUNTRY
SRVC.                Patterson: SERVICE COMPANY
DATE.          Mon Nov 28 13:12:22 2005: LOG DATE
UWI.           05-071-08559               : UNIQUE WELL ID
~Curve Information Block
DEPT.FT            0 000 00 00: Depth
CCL.                          : Casing Collar Locator
TT3.usec                      : CBL 3' Travel Time
AMP3.mV                       : CBL 3' Amplitude
GR.GAPI                       : Gamma Ray
~Parameter Information Block
~A  Depth       CCL         TT3         AMP3         GR     
# ...
   435.5000      0.0000    702.2313      7.4228     53.4025
   435.7500      0.0000    655.8834      7.9807     54.9130
   436.0000      0.0000    621.0241      9.2289     55.4844
   436.2500      0.0000    618.8950     10.5752     54.4620
   436.5000      0.0000    641.9252     11.3033     51.6303
   436.7500      0.0000    673.6859     11.6446     47.4723
   437.0000      0.0000    699.2205     12.2036     42.9542
   437.2500      0.0000    703.3196     13.0086     38.7828
   437.5000      0.0000    673.9508     13.6938     34.9788
   437.7500      0.0000    613.6763     14.0290     31.4203
   438.0000      0.0000    556.8792     14.0736     28.5035
   438.2500      0.0000    543.8275     13.9922     26.8570
   438.5000      0.0000    558.5977     13.8484     26.5954
   438.7500      0.0000    542.3320     13.6063     27.3035
   439.0000      0.0000    478.2571     13.2518     28.6427
   439.2500      0.0000    407.5349     12.8529     30.5343
   439.5000      0.0000    366.7328     12.5053     32.7117
   439.7500      0.0000    361.7221     12.2580     34.5694
   440.0000      0.0000    391.6430     12.1170     35.8115
   440.2500      0.0000    452.2559     12.0826     37.1220
   440.5000      0.0000    510.8406     12.1522     40.0124
   440.7500      0.0000    521.4257     12.3065     45.9770
   441.0000      0.0000    486.2108     12.5149     55.4993
   441.2500      0.0000    457.1778     12.7460     67.4115
   441.5000      0.0000    459.5357     12.9743     79.1400
   441.7500      0.0000    460.7457     13.1759     87.8457
   442.0000      0.0000    430.7689     13.3101     91.5899
   442.2500      0.0000    386.7370     13.3163     89.8759
   442.5000      0.0000    357.2876     13.1662     83.7877
   442.7500      0.0000    346.3502     12.9041     75.7556
   443.0000      0.0000    345.0231     12.6151     68.5497
   443.2500      0.0000    349.8145     12.3609     63.9693
   443.5000      0.0000    364.4628     12.1365     62.3414
   443.7500      0.0000    391.1343     11.8914     62.9858
   444.0000      0.0000    419.6928     11.6139     65.0198
   444.2500      0.0000    432.7175     11.3659     68.0374
   444.5000      0.0000    425.4966     11.2069     72.0702
   444.7500      0.0000    412.5987     11.1308     76.6785
   445.0000      0.0000    414.9973     11.0981     80.4234
   445.2500      0.0000    445.9058     11.0876     81.7724
   445.5000      0.0000    498.3891     11.1277     80.3839
   445.7500      0.0000    539.7576     11.2918     77.1457
   446.0000      0.0000    539.9930     11.5962     73.1767
   446.2500      0.0000    518.1456     11.9200     69.1462
   446.5000      0.0000    521.5722     12.1091     65.4431
   446.7500      0.0000    547.0180     12.1126     62.6945
   447.0000      0.0000    547.9547     11.9598     61.7879
   447.2500      0.0000    527.3863     11.6797     63.1340
   447.5000      0.0000    540.5637     11.2974     66.0836
   447.7500      0.0000    602.4709     10.8527     69.3882
   448.0000      0.0000    669.7325     10.3919     72.1751
   448.2500      0.0000    708.3071      9.9472     74.3314
   448.5000      0.0000    721.4285      9.5147     76.1242
   448.7500      0.0000    723.8190      9.0721     77.6254
   449.0000      0.0000    723.5232      8.6237     78.3640
   449.2500      0.0000    722.8159      8.1903     77.4231
   449.5000      0.0000    721.8839      7.7769     73.9312
   449.7500      0.0000    719.7842      7.3892     67.6616
   450.0000      0.0000    714.4722      7.0423     59.4629
   450.2500      0.0000    704.5493      6.7380     51.1338
   450.5000      0.0000    692.4128      6.4840     44.5736
   450.7500      0.0000    683.7932      6.3190     40.7988
   451.0000      0.0000    682.9541      6.2682     39.6067
   451.2500      0.0000    689.0459      6.2909     39.9985
   451.5000      0.0000    695.6855      6.3185     40.9237
   451.7500      0.0000    695.6577      6.3375     41.8835
   452.0000      0.0000    688.6189      6.3883     43.0567
   452.2500      0.0000    680.6074      6.4989     44.9052
   452.5000      0.0000    675.9608      6.6641     47.5652
   452.7500      0.0000    674.3853      6.8501     50.5360
   453.0000      0.0000    674.3466      7.0083     52.9668
   453.2500      0.0000    675.8489      7.1261     54.3540
   453.5000      0.0000    680.5099      7.2465     54.9140
   453.7500      0.0000    688.9619      7.4070     55.2335
   454.0000      0.0000    697.8282      7.6131     55.8312
   454.2500      0.0000    702.9230      7.8951     57.3612
   454.5000      0.0000    705.6052      8.3297     60.8493
   454.7500      0.0000    709.7305      8.9860     66.8858
   455.0000      0.0000    714.4920      9.9033     74.4090
   455.2500      0.0000    714.9117     11.1136     80.9432
   455.5000      0.0000    701.5663     12.6212     84.4365
   455.7500      0.0000    656.7839     14.3664     84.6162
   456.0000      0.0000    568.3793     16.2572     82.5105
   456.2500      0.0000    457.3286     18.2264     79.3464
   456.5000      0.0000    367.9021     20.2286     76.4462
   456.7500      0.0000    321.5711     22.1956     75.5685
   457.0000      0.0000    305.9535     24.0129     78.0628
   457.2500      0.0000    302.3468     25.5319     83.2815
   457.5000      0.0000    301.6373     26.6181     88.5487
   457.7500      0.0000    301.4590     27.2031     91.3115
   458.0000      0.0000    301.4360     27.2825     91.0480
   458.2500      0.0000    301.5298     26.8914     88.8951
   458.5000      0.0000    301.7476     26.1194     86.1073
   458.7500      0.0000    302.0576     25.1271     83.3601
   459.0000      0.0000    302.3742     24.0991     81.0059
   459.2500      0.0000    302.6178     23.1481     79.4815
   459.5000      0.0000    302.7840     22.2695     79.5488
   459.7500      0.0000    302.9313     21.4245     82.0001
   460.0000      0.0000    303.1315     20.6173     86.6228
   460.2500      0.0000    303.4722     19.8450     91.6074
   460.5000      0.0000    304.2599     19.0753     94.6972
   460.7500      0.0000    307.3977     18.3106     95.0922
   461.0000      0.0000    320.4049     17.5897     93.8469
   461.2500      0.0000    358.8641     16.9238     92.4337
   461.5000      0.0000    432.7309     16.2963     91.4989
   461.7500      0.0000    520.9843     15.7162     91.0887
   462.0000      0.0000    577.4587     15.2368     91.1894
   462.2500      0.0000    574.1362     14.9138     91.3267
   462.5000      0.0000    525.0128     14.7569     90.1657
   462.7500      0.0000    465.8988     14.7298     86.4190
   463.0000      0.0000    423.5262     14.7874     80.2259
   463.2500      0.0000    408.6028     14.9184     73.2753
   463.5000      0.0000    427.2896     15.1559     67.5249
   463.7500      0.0000    480.7969     15.5224     63.8792
   464.0000      0.0000    550.1066     15.9744     62.0041
   464.2500      0.0000    600.3849     16.4268     61.1953
   464.5000      0.0000    609.3636     16.8032     61.1409
   464.7500      0.0000    584.3943     17.0436     61.8048
   465.0000      0.0000    559.1864     17.1064     62.9045
   465.2500      0.0000    564.3833     16.9859     63.7786
   465.5000      0.0000    584.7930     16.7100     63.7220
   465.7500      0.0000    573.7875     16.3222     62.2934
   466.0000      0.0000    518.6074     15.8564     59.3917
   466.2500      0.0000    454.3004     15.3128     55.3182
   466.5000      0.0000    421.4543     14.6761     50.8545
   466.7500      0.0000    440.2799     13.9821     47.1189
   467.0000      0.0000    499.6840     13.3385     45.2295
   467.2500      0.0000    549.8721     12.8380     45.9876
   467.5000      0.0000    539.0721     12.4817     49.6008
   467.7500      0.0000    472.7034     12.2340     55.6178
   468.0000      0.0000    403.0756     12.0991     63.2522
   468.2500      0.0000    363.9542     12.0744     71.6745
   468.5000      0.0000    350.5691     12.0960     79.8321
   468.7500      0.0000    347.6707     12.0900     86.3647
