~Version Information
VERS.                      2.0: CWLS Log ASCII Standard - VERSION 2.0
WRAP.                       NO: One line per depth step
~Well Information Block
STRT.FT               325.0000: 
STOP.FT              1014.5000: 
STEP.FT                 0.2500: 
NULL.                -999.2500: 
COMP.          Pioneer Natural Resources: COMPANY
WELL.                Doc 34-30: WELL
FLD.           Purgatoire River: FIELD
LOC.           454' FSL & 1386' FEL: LOCATION
CNTY.               Las Animas: COUNTY
SRVC.                Patterson: SERVICE COMPANY
DATE.          Wed Feb 15 20:26:19 2006: LOG DATE
UWI.           05 071 08694 00: UNIQUE WELL ID
STAT.                 Colorado: STATE
~Curve Information Block
DEPT.FT            0 000 00 00: Depth
SN.Ohm-m                      : IEL Short Normal
SP.mV                         : IEL Spontaneous Potential
DIR.Ohm-m                     : IEL Induction Resistivity
GR.GAPI                       : Gamma Ray
~Parameter Information Block
~A  Depth        SN          SP         DIR          GR     
# ...
   861.0000     25.0942     31.6587     18.8279     60.2009
   861.2500     23.3290     32.2053     18.1407     65.5674
   861.5000     21.6453     32.7769     17.4946     73.5261
   861.7500     20.1632     33.3414     16.8801     77.6835
   862.0000     19.0156     33.8643     16.2877     81.6688
   862.2500     18.2656     34.3141     15.7138     83.1257
   862.5000     17.8145     34.6700     15.1623     84.3199
   862.7500     17.4854     34.9319     14.6437     84.9349
   863.0000     17.1979     35.1218     14.1740     86.4418
   863.2500     17.0084     35.2741     13.7738     88.2070
   863.5000     16.9647     35.4195     13.4662     91.8446
   863.7500     17.0120     35.5731     13.2710     94.3060
   864.0000     17.0544     35.7337     13.1974     96.7111
   864.2500     17.0168     35.8925     13.2381     97.0203
   864.5000     16.8653     36.0415     13.3657     95.8324
   864.7500     16.6396     36.1768     13.5345     94.4762
   865.0000     16.4595     36.2988     13.6894     92.1561
   865.2500     16.4125     36.4116     13.7820     90.1634
   865.5000     16.4310     36.5229     13.7883     85.4646
   865.7500     16.3997     36.6409     13.7148     80.9446
   866.0000     16.2954     36.7698     13.5897     73.2580
   866.2500     16.1170     36.9057     13.4481     68.9744
   866.5000     15.8667     37.0381     13.3193     66.2837
   866.7500     15.6078     37.1583     13.2186     67.7116
   867.0000     15.4078     37.2653     13.1426     74.1704
   867.2500     15.3027     37.3659     13.0701     80.2534
   867.5000     15.2962     37.4697     12.9703     89.7642
   867.7500     15.2923     37.5840     12.8157     95.2633
   868.0000     15.1317     37.7125     12.5922    101.1669
   868.2500     14.7587     37.8542     12.3018    103.3842
   868.5000     14.2427     38.0021     11.9601    104.3623
   868.7500     13.6789     38.1417     11.5905    103.6667
   869.0000     13.1558     38.2560     11.2190    101.1591
   869.2500     12.6890     38.3349     10.8694     99.0618
   869.5000     12.2093     38.3831     10.5580     96.4827
   869.7500     11.7086     38.4178     10.2929     95.7698
   870.0000     11.2640     38.4615     10.0750     96.8064
   870.2500     10.9389     38.5368      9.9003     98.8598
   870.5000     10.7844     38.6595      9.7624    103.1911
   870.7500     10.8276     38.8295      9.6526    106.1603
   871.0000     11.0137     39.0265      9.5606    109.4256
   871.2500     11.2614     39.2168      9.4762    110.2701
   871.5000     11.5281     39.3694      9.3918    109.1746
   871.7500     11.7731     39.4708      9.3046    106.9841
   872.0000     11.9476     39.5278      9.2171    102.2592
   872.2500     12.0325     39.5601      9.1361     98.8566
   872.5000     12.0154     39.5897      9.0691     94.6130
   872.7500     11.9025     39.6323      9.0218     92.8017
   873.0000     11.7672     39.6954      8.9955     91.7354
   873.2500     11.6515     39.7787      8.9864     91.9519
   873.5000     11.5058     39.8774      8.9869     93.1627
   873.7500     11.3276     39.9845      8.9871     94.1306
   874.0000     11.1813     40.0925      8.9778     94.9625
   874.2500     11.0844     40.1935      8.9545     94.8078
   874.5000     11.0239     40.2754      8.9212     93.9372
   874.7500     10.9811     40.3205      8.8902     93.6421
   875.0000     10.8936     40.3066      8.8790     94.6133
   875.2500     10.7444     40.2150      8.9041     96.1372
   875.5000     10.6485     40.0398      8.9762     98.7105
   875.7500     10.7152     39.7940      9.0992     99.9787
   876.0000     10.9158     39.5079      9.2717    100.6627
   876.2500     11.1709     39.2199      9.4893    100.3395
   876.5000     11.4450     38.9637      9.7475     99.0975
   876.7500     11.7371     38.7566     10.0429     97.9492
   877.0000     12.0651     38.5935     10.3735     95.5834
   877.2500     12.4412     38.4523     10.7390     93.2994
   877.5000     12.8636     38.3053     11.1425     88.5472
   877.7500     13.3790     38.1315     11.5910     84.6268
   878.0000     14.0930     37.9253     12.0955     78.3263
   878.2500     15.0829     37.6997     12.6698     74.4453
   878.5000     16.3494     37.4820     13.3281     69.8698
   878.7500     17.8040     37.3030     14.0822     67.5367
   879.0000     19.2741     37.1850     14.9364     64.0352
   879.2500     20.6224     37.1352     15.8833     61.2003
   879.5000     21.8358     37.1468     16.9003     56.4842
   879.7500     22.9071     37.2030     17.9513     53.5978
   880.0000     23.7739     37.2792     18.9910     50.3176
   880.2500     24.4471     37.3441     19.9727     48.9784
   880.5000     25.0262     37.3634     20.8554     48.5760
   880.7500     25.5388     37.3064     21.6115     49.5823
   881.0000     25.9017     37.1535     22.2275     52.7740
   881.2500     26.0730     36.9037     22.6955     55.4590
   881.5000     26.1262     36.5777     23.0040     59.0622
   881.7500     26.1654     36.2116     23.1430     60.5181
   882.0000     26.2261     35.8428     23.1271     60.4880
   882.2500     26.2339     35.4967     23.0119     58.9145
   882.5000     26.0951     35.1807     22.8791     55.1268
   882.7500     25.8595     34.8867     22.7962     52.6483
   883.0000     25.6833     34.5998     22.7848     50.5293
   883.2500     25.6450     34.3066     22.8186     50.4737
   883.5000     25.7209     33.9990     22.8503     51.8534
   883.7500     25.8503     33.6746     22.8465     53.1587
   884.0000     25.9394     33.3365     22.8059     54.9741
   884.2500     25.9068     32.9936     22.7516     55.9449
   884.5000     25.7840     32.6612     22.7059     56.9353
   884.7500     25.7197     32.3608     22.6726     57.1408
   885.0000     25.8039     32.1171     22.6375     56.5342
   885.2500     25.9535     31.9540     22.5869     55.5962
   885.5000     26.0557     31.8910     22.5261     53.9748
   885.7500     26.1005     31.9435     22.4817     53.2475
   886.0000     26.1275     32.1193     22.4852     53.5682
   886.2500     26.1406     32.4132     22.5475     55.0772
   886.5000     26.1217     32.8049     22.6425     59.1061
   886.7500     26.0645     33.2673     22.7092     62.2671
   887.0000     25.9232     33.7788     22.6739     65.9636
   887.2500     25.6344     34.3283     22.4825     66.9103
   887.5000     25.2682     34.9122     22.1156     65.8547
   887.7500     25.0031     35.5312     21.5801     64.2486
   888.0000     24.8927     36.1903     20.8860     62.6761
   888.2500     24.7756     36.8996     20.0372     63.2367
   888.5000     24.4764     37.6708     19.0426     66.5950
   888.7500     23.9813     38.5102     17.9365     69.5338
   889.0000     23.3364     39.4102     16.7843     72.8884
   889.2500     22.4908     40.3451     15.6665     73.8999
   889.5000     21.3066     41.2771     14.6516     74.6969
   889.7500     19.7350     42.1717     13.7783     76.1581
   890.0000     17.9763     43.0126     13.0537     81.6411
   890.2500     16.3634     43.8024     12.4628     87.4174
   890.5000     15.0893     44.5485     11.9790     96.9859
   890.7500     14.1275     45.2474     11.5712    102.2637
   891.0000     13.3707     45.8836     11.2083    106.9224
   891.2500     12.7253     46.4416     10.8657    107.9650
   891.5000     12.1312     46.9189     10.5317    107.3607
   891.7500     11.6031     47.3293     10.2102    105.8752
   892.0000     11.1885     47.6948      9.9150    102.2468
   892.2500     10.8886     48.0366      9.6616     99.0914
   892.5000     10.6929     48.3669      9.4613     93.9916
   892.7500     10.6373     48.6840      9.3201     90.8858
   893.0000     10.7766     48.9742      9.2408     87.5393
   893.2500     11.0973     49.2197      9.2235     86.5949
   893.5000     11.4777     49.4102      9.2655     87.2429
   893.7500     11.7559     49.5509      9.3601     88.5971
   894.0000     11.8471     49.6640      9.4961     90.9825
   894.2500     11.8219     49.7816      9.6585     92.6620
