~Version Information
VERS.                      2.0: CWLS Log ASCII Standard - VERSION 2.0
WRAP.                       NO: One line per depth step
~Well Information Block
STRT.FT                 0.0000: 
STOP.FT              1871.2500: 
STEP.FT                 0.2500: 
NULL.                -999.2500: 
COMP.          Petrogulf Corporation: COMPANY
WELL.             Norton 9-14R: WELL
FLD.           Purgatorie River: FIELD
LOC.           725' FSL & 1103' FWL: LOCATION
STAT.                 Colorado: State
CNTY.               Las Animas: COUNTY
CTRY. USA : Country
SECT. 9 : Section
TOWN. 33S : Township
RANG. 67W : Range
SRVC.                Patterson: SERVICE COMPANY
DATE.          Thu Nov 10 13:05:53 2005: LOG DATE
API. 05-071-08444                         : UNIQUE WELL ID
~Curve Information Block
DEPT.FT            0 000 00 00: Depth
CCL.                          : Casing Collar Locator
TT3.usec                      : CBL 3' Travel Time
AMP3.mV                       : CBL 3' Amplitude
GR.GAPI                       : Gamma Ray
~Parameter Information Block
~A  Depth       CCL         TT3         AMP3         GR     
# ...
   368.5000      0.0000    660.6730      7.5746     51.2226
   368.7500      0.0000    677.4966      7.6021     47.6291
   369.0000      0.0000    679.2228      7.6127     46.3200
   369.2500      0.0000    667.6180      7.6060     47.3493
   369.5000      0.0000    653.0877      7.5938     49.9239
   369.7500      0.0000    641.5093      7.5716     52.8747
   370.0000      0.0000    635.7881      7.5203     55.2379
   370.2500      0.0000    639.8074      7.4222     56.7041
   370.5000      0.0000    654.8228      7.2822     57.5533
   370.7500      0.0000    674.7514      7.1217     58.0498
   371.0000      0.0000    688.5183      6.9599     57.9404
   371.2500      0.0000    688.6530      6.8166     56.7028
   371.5000      0.0000    676.9693      6.7148     54.3381
   371.7500      0.0000    664.8644      6.6780     51.8078
   372.0000      0.0000    665.0198      6.7071     50.4321
   372.2500      0.0000    677.6307      6.7568     50.6365
   372.5000      0.0000    691.2360      6.7847     51.4604
   372.7500      0.0000    697.4638      6.7897     51.5896
   373.0000      0.0000    697.3503      6.7838     50.7340
   373.2500      0.0000    696.1373      6.7752     49.7294
   373.5000      0.0000    696.4719      6.7752     49.4646
   373.7500      0.0000    695.3159      6.8009     50.0750
   374.0000      0.0000    686.6348      6.8518     51.1553
   374.2500      0.0000    668.1938      6.8997     52.3116
   374.5000      0.0000    646.9952      6.9256     53.2150
   374.7500      0.0000    634.6777      6.9338     53.4214
   375.0000      0.0000    637.1229      6.9301     52.6544
   375.2500      0.0000    651.5160      6.9081     51.2721
   375.5000      0.0000    668.2709      6.8622     50.1087
   375.7500      0.0000    676.5820      6.8045     49.7547
   376.0000      0.0000    675.1282      6.7550     50.1336
   376.2500      0.0000    672.7335      6.7339     50.8207
   376.5000      0.0000    675.1304      6.7466     51.6957
   376.7500      0.0000    679.3924      6.7644     53.2141
   377.0000      0.0000    681.9537      6.7362     56.0233
   377.2500      0.0000    682.8038      6.6342     60.2647
   377.5000      0.0000    681.7617      6.4841     65.1547
   377.7500      0.0000    674.4829      6.3329     69.4090
   378.0000      0.0000    656.3743      6.2040     72.2954
   378.2500      0.0000    632.6439      6.0896     74.2515
   378.5000      0.0000    615.6877      5.9866     76.3731
   378.7500      0.0000    611.2205      5.9104     79.3254
   379.0000      0.0000    614.2643      5.8439     82.8362
   379.2500      0.0000    616.9075      5.7376     86.2019
   379.5000      0.0000    615.8428      5.5973     89.0023
   379.7500      0.0000    613.0359      5.5077     91.0421
   380.0000      0.0000    611.3771      5.5284     91.7863
   380.2500      0.0000    611.5602      5.6186     90.5088
   380.5000      0.0000    611.9061      5.7106     87.2720
   380.7500      0.0000    609.9282      5.7945     83.3070
   381.0000      0.0000    606.0684      5.8970     80.0961
   381.2500      0.0000    604.4498      6.0357     78.3652
   381.5000      0.0000    607.9397      6.2092     78.1861
   381.7500      0.0000    614.9733      6.4157     79.5059
   382.0000      0.0000    622.2869      6.6534     81.8902
   382.2500      0.0000    628.0811      6.8989     83.9995
   382.5000      0.0000    631.1843      7.1332     84.1767
   382.7500      0.0000    630.0234      7.3555     81.9674
   383.0000      0.0000    624.4696      7.5549     78.8923
   383.2500      0.0000    617.7380      7.7417     77.4660
   383.5000      0.0000    613.2494      7.9581     79.3268
   383.7500      0.0000    609.2650      8.1859     84.1418
   384.0000      0.0000    603.1755      8.3491     89.9787
   384.2500      0.0000    595.5182      8.4202     94.5877
   384.5000      0.0000    580.3893      8.4209     96.5630
   384.7500      0.0000    550.6329      8.3527     95.7058
   385.0000      0.0000    521.2966      8.2027     92.7381
   385.2500      0.0000    519.6729      7.9926     88.9321
   385.5000      0.0000    549.9064      7.7730     85.9121
   385.7500      0.0000    589.8493      7.5815     85.2468
   386.0000      0.0000    616.8798      7.4362     87.5587
   386.2500      0.0000    626.4164      7.3350     91.8620
   386.5000      0.0000    628.0135      7.2424     96.2564
   386.7500      0.0000    629.4387      7.1271     99.5952
   387.0000      0.0000    629.7664      6.9955    102.1789
   387.2500      0.0000    628.0127      6.8654    104.5969
   387.5000      0.0000    631.1709      6.7598    106.3400
   387.7500      0.0000    644.2407      6.7139    105.9729
   388.0000      0.0000    660.1298      6.7441    102.4843
   388.2500      0.0000    670.1541      6.8363     96.1649
   388.5000      0.0000    673.9351      6.9565     88.4593
   388.7500      0.0000    674.6030      7.0609     81.5375
   389.0000      0.0000    673.0118      7.1351     77.7317
   389.2500      0.0000    667.4718      7.2068     78.1915
   389.5000      0.0000    656.8202      7.2852     81.5760
   389.7500      0.0000    644.4529      7.3313     84.8652
   390.0000      0.0000    636.9467      7.3186     86.1883
   390.2500      0.0000    636.2599      7.2726     86.5110
   390.5000      0.0000    636.8966      7.2250     88.0899
   390.7500      0.0000    633.7917      7.1909     91.7144
   391.0000      0.0000    628.6188      7.1824     96.0544
   391.2500      0.0000    625.2448      7.1884     99.3920
   391.5000      0.0000    624.5785      7.1722    101.1406
   391.7500      0.0000    626.3206      7.1130    101.5002
   392.0000      0.0000    631.5109      7.0318    100.4816
   392.2500      0.0000    640.5229      6.9599     98.0569
   392.5000      0.0000    649.6754      6.8988     94.9273
   392.7500      0.0000    654.6687      6.8378     92.1600
   393.0000      0.0000    657.3205      6.7883     89.9028
   393.2500      0.0000    662.0512      6.7636     87.1862
   393.5000      0.0000    668.2270      6.7483     83.2476
   393.7500      0.0000    672.3043      6.7165     78.5659
   394.0000      0.0000    672.6099      6.6633     74.3258
   394.2500      0.0000    669.0601      6.5931     71.2679
   394.5000      0.0000    663.1431      6.4742     69.4598
   394.7500      0.0000    658.4146      6.2302     68.9885
   395.0000      0.0000    656.5507      5.8384     70.3343
   395.2500      0.0000    655.9162      5.4694     73.8474
   395.5000      0.0000    657.6556      5.3398     78.9224
   395.7500      0.0000    666.6420      5.3383     83.8555
   396.0000      0.0000    685.7413      5.1985     86.8660
   396.2500      0.0000    712.0524      4.9892     87.5548
   396.5000      0.0000    734.6940      4.9226     87.1086
   396.7500      2.0000    741.7708      4.9721     86.9168
   397.0000     -2.0000    735.3179      4.9997     87.4139
   397.2500      2.0000    728.4751      4.9654     88.3322
   397.5000      0.0000    725.5249      4.9247     89.3569
   397.7500      0.0000    718.6704      4.9932     90.3031
   398.0000      0.0000    703.9798      5.3316     91.2063
   398.2500      0.0000    687.3000      5.9804     92.3879
   398.5000      0.0000    674.9789      6.6535     93.9146
   398.7500      0.0000    668.6990      7.0528     95.1081
   399.0000      0.0000    668.4955      7.2535     95.2770
   399.2500      0.0000    673.9590      7.3828     94.8481
   399.5000      0.0000    684.9708      7.3870     94.9612
   399.7500      0.0000    700.3534      7.2762     95.8178
   400.0000      0.0000    711.5912      7.1671     96.2539
   400.2500      0.0000    707.3771      7.1104     95.4638
   400.5000      0.0000    688.2161      7.0619     94.4960
   400.7500      0.0000    666.4006      6.9745     95.2977
   401.0000      0.0000    650.1889      6.8456     98.5271
   401.2500      0.0000    639.1812      6.6806    102.9213
   401.5000      0.0000    633.6808      6.4632    106.7196
   401.7500      0.0000    635.0757      6.1775    109.1400
