~Version Information
VERS.                      2.0: CWLS Log ASCII Standard - VERSION 2.0
WRAP.                       NO: One line per depth step
~Well Information Block
STRT.FT               295.7500: 
STOP.FT              1461.0000: 
STEP.FT                 0.2500: 
NULL.                -999.2500: 
COMP.          Pioneer Natural Resources: COMPANY
WELL.              Lucky 21-36: WELL
FLD.           Purgatoire River: FIELD
LOC.           799' FNL & 1578' FWL--: LOCATION
CDN. :
PROV. :
UWI. :
STAT. :
CNTY. :
CTRY. :
API. :
COMP. :
WELL. :
FLD. :
LOC. :
DATE. :
SRVC. :
CNTY.               Las Animas: COUNTY
SRVC.          Superior Well Services: SERVICE COMPANY
DATE.          Mon Jul 07 19-13-01 2008: LOG DATE
UWI.           05 071 08456 00: UNIQUE WELL ID
STAT.                 Colorado: STATE
~Curve Information Block
DEPT.FT            0 000 00 00: Depth
SN.Ohm-m                      : IEL Short Normal
SP.mV                         : IEL Spontaneous Potential
DIR.Ohm-m                     : IEL Induction Resistivity
GR.GAPI                       : Gamma Ray
~Parameter Information Block
~A  Depth        SN          SP         DIR          GR     
# ...
  1200.2500     41.8043    -50.6864      5.8371     99.0778
  1200.5000     46.4944    -49.3534      5.3152     97.4219
  1200.7500     51.4001    -48.2014      5.8201     94.5988
  1201.0000     55.9460    -47.1692      7.4125     92.8797
  1201.2500     59.4925    -46.2049     11.1897     91.4208
  1201.5000     61.7017    -45.2680     24.1892     91.3804
  1201.7500     62.4896    -44.3306 100000.0000     92.0868
  1202.0000     62.2835    -43.3776 100000.0000     92.3814
  1202.2500     61.8828    -42.4071 100000.0000     91.6709
  1202.5000     61.5876    -41.4286 100000.0000     90.3236
  1202.7500     61.1951    -40.4609 100000.0000     87.3107
  1203.0000     60.5061    -39.5270 100000.0000     84.9080
  1203.2500     59.5963    -38.6499 100000.0000     81.1348
  1203.5000     58.6081    -37.8465 100000.0000     78.6667
  1203.7500     57.5585    -37.1255 100000.0000     75.0221
  1204.0000     56.4177    -36.4849 100000.0000     72.5231
  1204.2500     55.3761    -35.9136 100000.0000     68.7387
  1204.5000     54.7644    -35.3940 100000.0000     66.4879
  1204.7500     54.6953    -34.9055   1758.4359     64.1816
  1205.0000     55.0661    -34.4293     41.1599     63.5792
  1205.2500     55.7628    -33.9510     26.8964     64.0097
  1205.5000     56.7039    -33.4626     24.0587     64.9713
  1205.7500     57.8075    -32.9623     24.7213     66.9369
  1206.0000     58.9346    -32.4536     27.5998     68.2592
  1206.2500     59.8951    -31.9441     32.7311     69.8313
  1206.5000     60.6412    -31.4429     40.7659     70.7194
  1206.7500     61.2542    -30.9592     52.8441     72.5895
  1207.0000     61.7215    -30.5011     70.5621     74.4047
  1207.2500     62.2014    -30.0740     95.7626     76.8702
  1207.5000     63.1743    -29.6815    129.5216     77.1237
  1207.7500     64.9651    -29.3232    169.4333     74.1586
  1208.0000     67.2758    -28.9966    206.6685     70.3593
  1208.2500     69.4353    -28.6971    229.9057     64.1089
  1208.5000     71.0560    -28.4186    236.0741     61.0205
  1208.7500     72.2577    -28.1540    231.6462     59.9193
  1209.0000     73.4129    -27.8958    223.6683     62.0858
  1209.2500     74.5270    -27.6372    214.5396     69.0231
  1209.5000     75.1952    -27.3724    202.6647     74.7678
  1209.7500     75.1508    -27.0975    185.5899     82.5378
  1210.0000     74.3689    -26.8110    163.4445     86.4685
  1210.2500     73.0655    -26.5148    139.4858     90.6477
  1210.5000     71.6230    -26.2150    117.3728     92.4339
  1210.7500     70.3264    -25.9220     98.9860     93.3405
  1211.0000     69.0506    -25.6506     84.5127     92.6500
  1211.2500     67.3897    -25.4190     73.3760     90.2916
  1211.5000     65.2067    -25.2477     64.8398     88.6675
  1211.7500     62.6980    -25.1570     58.2101     87.7084
  1212.0000     59.6950    -25.1655     52.8708     88.5694
  1212.2500     55.8133    -25.2870     48.3128     91.7402
  1212.5000     51.3438    -25.5287     44.1926     94.1776
  1212.7500     47.0273    -25.8890     40.3702     96.3137
  1213.0000     43.2449    -26.3567     36.8702     95.9447
  1213.2500     39.8666    -26.9105     33.7808     92.8815
  1213.5000     36.7328    -27.5201     31.1631     90.2007
  1213.7500     34.0569    -28.1487     29.0166     87.8564
  1214.0000     31.9418    -28.7563     27.2906     88.7637
  1214.2500     30.1282    -29.3037     25.9124     94.6303
  1214.5000     28.4112    -29.7576     24.8102    100.8862
  1214.7500     26.8080    -30.0945     23.9269    111.2625
  1215.0000     25.5350    -30.3032     23.2261    117.1878
  1215.2500     24.6964    -30.3861     22.6912    122.7267
  1215.5000     24.2104    -30.3579     22.3173    124.1493
  1215.7500     23.9680    -30.2434     22.0969    124.5454
  1216.0000     23.8437    -30.0725     22.0061    124.9471
  1216.2500     23.6846    -29.8764     21.9998    126.7409
  1216.5000     23.4102    -29.6829     22.0197    128.1738
  1216.7500     22.9941    -29.5133     22.0077    128.9358
  1217.0000     22.4773    -29.3804     21.9144    128.0280
  1217.2500     21.9699    -29.2882     21.7002    125.2864
  1217.5000     21.4571    -29.2321     21.3386    123.5109
  1217.7500     20.9228    -29.2010     20.8280    122.3200
  1218.0000     20.4362    -29.1795     20.2015    122.6579
  1218.2500     20.0175    -29.1499     19.5183    123.9579
  1218.5000     19.6434    -29.0945     18.8397    124.6504
  1218.7500     19.2367    -28.9971     18.2089    124.8014
  1219.0000     18.7644    -28.8446     17.6468    124.2735
  1219.2500     18.3435    -28.6272     17.1597    122.5946
  1219.5000     18.0491    -28.3382     16.7491    120.9554
  1219.7500     17.7752    -27.9741     16.4153    118.0881
  1220.0000     17.5214    -27.5328     16.1592    116.2142
  1220.2500     17.3353    -27.0132     15.9826    113.8079
  1220.5000     17.2157    -26.4141     15.8891    112.4157
  1220.7500     17.2498    -25.7332     15.8825    110.1589
  1221.0000     17.4009    -24.9674     15.9643    108.3081
  1221.2500     17.5322    -24.1127     16.1290    105.2313
  1221.5000     17.6860    -23.1650     16.3626    103.3354
  1221.7500     17.9427    -22.1215     16.6440    100.9590
  1222.0000     18.2622    -20.9818     16.9491     99.5994
  1222.2500     18.5447    -19.7494     17.2517     98.1563
  1222.5000     18.6969    -18.4327     17.5255     98.0447
  1222.7500     18.7754    -17.0457     17.7464     99.6503
  1223.0000     18.9652    -15.6080     17.9008    101.7715
  1223.2500     19.3174    -14.1436     17.9902    105.9430
  1223.5000     19.7304    -12.6799     18.0262    109.1191
  1223.7500     20.0219    -11.2455     18.0202    114.3493
  1224.0000     20.0421     -9.8678     17.9767    118.1653
  1224.2500     19.7757     -8.5714     17.8972    123.9258
  1224.5000     19.4176     -7.3758     17.7893    127.0012
  1224.7500     19.1809     -6.2947     17.6718    128.8618
  1225.0000     19.1400     -5.3351     17.5717    127.8810
  1225.2500     19.2841     -4.4974     17.5147    123.8276
  1225.5000     19.4614     -3.7763     17.5165    120.2453
  1225.7500     19.4975     -3.1613     17.5790    114.8029
  1226.0000     19.2973     -2.6383     17.6940    111.6912
  1226.2500     18.9606     -2.1906     17.8537    108.6417
  1226.5000     18.7461     -1.8001     18.0602    107.9008
  1226.7500     18.8275     -1.4490     18.3247    108.1258
  1227.0000     19.2709     -1.1207     18.6537    108.5207
  1227.2500     19.9967     -0.8009     19.0324    108.9086
  1227.5000     20.7787     -0.4786     19.4186    109.0932
  1227.7500     21.4624     -0.1462     19.7569    109.4375
  1228.0000     22.0008      0.1996     20.0069    109.6753
  1228.2500     22.3394      0.5582     20.1646    109.6869
  1228.5000     22.6027      0.9255     20.2651    109.0923
  1228.7500     22.9258      1.2948     20.3662    106.8231
  1229.0000     23.2793      1.6571     20.5279    104.4938
  1229.2500     23.6253      2.0026     20.7917    100.2769
  1229.5000     24.0358      2.3217     21.1677     97.0406
  1229.7500     24.5345      2.6059     21.6312     91.1012
  1230.0000     25.0217      2.8485     22.1328     86.2382
  1230.2500     25.4259      3.0454     22.6177     78.3628
  1230.5000     25.7606      3.1956     23.0408     73.8548
  1230.7500     26.0477      3.3011     23.3681     70.0350
  1231.0000     26.2226      3.3664     23.5679     69.6544
  1231.2500     26.2413      3.3983     23.6061     71.3379
  1231.5000     26.1520      3.4041     23.4542     73.4133
  1231.7500     25.9673      3.3908     23.1075     78.0030
  1232.0000     25.6663      3.3638     22.5971     82.3822
  1232.2500     25.2273      3.3250     21.9842     91.1864
  1232.5000     24.6522      3.2723     21.3375     98.4143
  1232.7500     24.0355      3.1993     20.7092    110.6414
  1233.0000     23.4193      3.0960     20.1226    118.9741
  1233.2500     22.6714      2.9493     19.5765    129.9746
  1233.5000     21.5806      2.7458     19.0593    135.4615
