~Version Information
VERS.                      2.0: CWLS Log ASCII Standard - VERSION 2.0
WRAP.                       NO: One line per depth step
~Well Information Block
STRT.FT               460.0000: 
STOP.FT              1349.5000: 
STEP.FT                 0.2500: 
NULL.                -999.2500: 
COMP.          Pioneer Natural Resources: COMPANY
WELL.              Dicks 32-5R: WELL
FLD.           Purgatorie River: FIELD
LOC.           1485' FNL & 1684' FEL: LOCATION
PROV.                 Colorado: PROVINCE
CNTY.               Las Animas: COUNTRY
SRVC.                Patterson: SERVICE COMPANY
DATE.          Thu Dec 08 23:11:15 2005: LOG DATE
UWI.                          : UNIQUE WELL ID
~Curve Information Block
DEPT.FT            0 000 00 00: Depth
SN.Ohm-m                      : IEL Short Normal
SP.mV                         : IEL Spontaneous Potential
DIR.Ohm-m                     : IEL Induction Resistivity
GR.GAPI                       : Gamma Ray
~Parameter Information Block
~A  Depth        SN          SP         DIR          GR     
# ...
   996.0000     20.1079    212.6142     16.9819     99.1665
   996.2500     20.1676    213.2373     17.1877     97.3380
   996.5000     20.1136    213.7316     17.3660     97.7346
   996.7500     19.9924    214.0796     17.5060    100.2858
   997.0000     19.8914    214.2590     17.6009    106.7650
   997.2500     19.8950    214.2563     17.6579    111.7214
   997.5000     20.0267    214.0907     17.6947    117.8850
   997.7500     20.2708    213.8134     17.7307    120.2853
   998.0000     20.6384    213.4798     17.7865    121.1034
   998.2500     21.1600    213.1252     17.9015    120.3225
   998.5000     21.8517    212.7622     18.1498    118.7706
   998.7500     22.7380    212.3954     18.6337    118.4388
   999.0000     23.8587    212.0329     19.4477    119.6666
   999.2500     25.2216    211.6889     20.6287    121.1733
   999.5000     26.7795    211.3771     22.1163    122.8011
   999.7500     28.4776    211.1003     23.7537    122.6423
  1000.0000     30.2899    210.8433     25.3497    120.0583
  1000.2500     32.1747    210.5769     26.7758    116.8990
  1000.5000     34.0160    210.2725     28.0145    110.3570
  1000.7500     35.6245    209.9164     29.1241    104.9406
  1001.0000     36.8107    209.5141     30.1731     95.6290
  1001.2500     37.4797    209.0843     31.2125     89.1706
  1001.5000     37.6696    208.6516     32.2847     80.5195
  1001.7500     37.5280    208.2410     33.4270     76.1560
  1002.0000     37.2462    207.8776     34.6424     72.0667
  1002.2500     36.9561    207.5882     35.8579     70.8333
  1002.5000     36.6764    207.3946     36.9221     71.3374
  1002.7500     36.3892    207.3054     37.6786     73.6593
  1003.0000     36.1441    207.3207     38.0666     80.4078
  1003.2500     36.0543    207.4487     38.1565     86.3726
  1003.5000     36.2149    207.7095     38.0985     94.9506
  1003.7500     36.6481    208.1118     38.0432     98.8618
  1004.0000     37.3270    208.6241     38.0892    100.5459
  1004.2500     38.1996    209.1728     38.2566     98.9697
  1004.5000     39.1453    209.6753     38.4687     93.9327
  1004.7500     39.9767    210.0807     38.5661     89.8397
  1005.0000     40.5130    210.3789     38.3847     83.9329
  1005.2500     40.6492    210.5745     37.8721     80.4399
  1005.5000     40.4086    210.6582     37.1423     75.8631
  1005.7500     39.9171    210.6108     36.4058     73.3580
  1006.0000     39.2925    210.4271     35.8346     71.0557
  1006.2500     38.5939    210.1274     35.4647     70.8207
  1006.5000     37.8466    209.7493     35.1865     72.2414
  1006.7500     37.0436    209.3356     34.8094     73.8894
  1007.0000     36.1424    208.9242     34.1644     76.6438
  1007.2500     35.1147    208.5359     33.1846     78.4616
  1007.5000     33.9928    208.1697     31.9056     80.9135
  1007.7500     32.8372    207.8190     30.4129     82.0876
  1008.0000     31.6691    207.5028     28.8078     82.6410
  1008.2500     30.4633    207.2707     27.2146     82.1673
  1008.5000     29.2338    207.1715     25.7826     80.8247
  1008.7500     28.0913    207.2156     24.6487     80.1157
  1009.0000     27.1520    207.3678     23.8885     80.1849
  1009.2500     26.4341    207.5694     23.4918     81.1238
  1009.5000     25.8870    207.7598     23.3697     83.4967
  1009.7500     25.4715    207.8866     23.3845     85.3068
  1010.0000     25.1842    207.9124     23.3974     87.4547
  1010.2500     25.0173    207.8270     23.3199     87.8765
  1010.5000     24.9200    207.6508     23.1398     86.1136
  1010.7500     24.8308    207.4150     22.9003     83.2931
  1011.0000     24.7275    207.1380     22.6519     77.4709
  1011.2500     24.6146    206.8206     22.4173     73.3026
  1011.5000     24.5046    206.4642     22.1911     67.7215
  1011.7500     24.4177    206.0850     21.9688     64.7851
  1012.0000     24.3452    205.7081     21.7765     61.6111
  1012.2500     24.2398    205.3544     21.6689     60.1649
  1012.5000     24.0910    205.0421     21.6884     58.7347
  1012.7500     23.9421    204.7977     21.8196     58.2013
  1013.0000     23.8224    204.6533     21.9834     57.9709
  1013.2500     23.7473    204.6340     22.0908     58.1347
  1013.5000     23.7312    204.7567     22.1215     58.6534
  1013.7500     23.7533    205.0364     22.1493     59.0546
  1014.0000     23.7865    205.4794     22.2863     59.6164
  1014.2500     23.8583    206.0621     22.5954     59.9273
  1014.5000     24.0339    206.7261     23.0406     60.1528
  1014.7500     24.3417    207.3988     23.5053     60.0480
  1015.0000     24.7130    208.0208     23.8735     59.5688
  1015.2500     25.0446    208.5577     24.1227     59.1884
  1015.5000     25.3181    209.0010     24.3444     58.6848
  1015.7500     25.5686    209.3664     24.6693     58.3688
  1016.0000     25.7988    209.6816     25.1630     57.8757
  1016.2500     26.0047    209.9664     25.7657     57.5559
  1016.5000     26.2135    210.2211     26.3121     57.0660
  1016.7500     26.4631    210.4348     26.6339     56.6187
  1017.0000     26.7782    210.6057     26.6850     55.5494
  1017.2500     27.1661    210.7526     26.5872     54.5762
  1017.5000     27.5906    210.9048     26.5506     53.1091
  1017.7500     27.9865    211.0782     26.7497     52.4664
  1018.0000     28.3562    211.2670     27.2530     52.4267
  1018.2500     28.7669    211.4568     28.0314     53.0319
  1018.5000     29.2039    211.6424     29.0103     54.5060
  1018.7500     29.5754    211.8274     30.1073     55.4751
  1019.0000     29.8882    212.0059     31.2157     56.2312
  1019.2500     30.2641    212.1404     32.1578     56.0722
  1019.5000     30.7876    212.1606     32.6947     54.9748
  1019.7500     31.4390    211.9981     32.6361     53.8910
  1020.0000     32.1275    211.6383     31.9836     52.0412
  1020.2500     32.6869    211.1394     30.9631     50.7850
  1020.5000     32.9198    210.5956     29.9049     49.1567
  1020.7500     32.7759    210.0817     29.0813     48.4221
  1021.0000     32.3823    209.6214     28.6095     47.8675
  1021.2500     31.8539    209.1875     28.4398     47.6386
  1021.5000     31.2061    208.7328     28.4115     47.0469
  1021.7500     30.4005    208.2337     28.3519     46.4334
  1022.0000     29.4048    207.7162     28.1722     45.5604
  1022.2500     28.2961    207.2392     27.8926     45.3467
  1022.5000     27.2742    206.8573     27.5867     46.1640
  1022.7500     26.5065    206.5952     27.3075     47.8635
  1023.0000     26.0417    206.4441     27.0551     52.9500
  1023.2500     25.8600    206.3729     26.7943     58.3927
  1023.5000     25.9072    206.3456     26.4986     69.4591
  1023.7500     26.0915    206.3334     26.1855     77.9953
  1024.0000     26.3361    206.3126     25.9167     90.2899
  1024.2500     26.6656    206.2536     25.7632     96.7813
  1024.5000     27.1513    206.1222     25.7642    102.6304
  1024.7500     27.7597    205.8994     25.9149    104.0262
  1025.0000     28.3551    205.5983     26.1926    103.5979
  1025.2500     28.8494    205.2581     26.5952    102.5013
  1025.5000     29.2742    204.9205     27.1576    100.6662
  1025.7500     29.7166    204.6122     27.9321     99.4977
  1026.0000     30.2387    204.3428     28.9503     97.6631
  1026.2500     30.8472    204.1129     30.1878     96.2777
  1026.5000     31.5035    203.9213     31.5307     94.0452
  1026.7500     32.1562    203.7732     32.7460     92.7067
  1027.0000     32.7635    203.6910     33.5012     91.6578
  1027.2500     33.3301    203.7158     33.4994     91.9973
  1027.5000     33.9687    203.8919     32.6751     94.1245
  1027.7500     34.8407    204.2440     31.2527     96.1785
  1028.0000     35.9873    204.7656     29.5865     98.9554
  1028.2500     37.2698    205.4245     27.9608     99.7980
  1028.5000     38.4245    206.1789     26.5145     98.2983
  1028.7500     39.0722    206.9897     25.2719     94.9832
  1029.0000     38.7618    207.8268     24.2012     86.5804
  1029.2500     37.1845    208.6732     23.2562     79.3304
