~Version Information
VERS.                      2.0: CWLS Log ASCII Standard - VERSION 2.0
WRAP.                       NO: One line per depth step
~Well Information Block
STRT.FT                -6.7500: 
STOP.FT              2256.0000: 
STEP.FT                 0.2500: 
NULL.                -999.2500: 
COMP.          Pioneer Natural Resources: COMPANY
WELL.               Relay 12-7: WELL
FLD.           Purgatorie River: FIELD
LOC.           1999' FNL & 848' FWL--: LOCATION
PROV.                       CO: PROVINCE
CNTY.               Las Animas: COUNTRY
SRVC.          Patterson Wireline: SERVICE COMPANY
DATE.          Thu Dec 22 09:06:31 2005: LOG DATE
UWI.           05 071 08453 00: UNIQUE WELL ID
~Curve Information Block
DEPT.FT            0 000 00 00: Depth
CCL.                          : Casing Collar Locator
TT3.usec                      : CBL 3' Travel Time
AMP3.mV                       : CBL 3' Amplitude
GR.GAPI                       : Gamma Ray
~Parameter Information Block
~A  Depth       CCL         TT3         AMP3         GR     
# ...
  1031.7500      0.0000    786.7883      7.1416    117.1219
  1032.0000      0.0000    794.0135      7.1235    118.0079
  1032.2500      0.0000    799.4672      7.1003    118.5838
  1032.5000      0.0000    803.2936      7.0659    118.5055
  1032.7500      0.0000    805.3318      7.0216    117.4333
  1033.0000      0.0000    805.4919      6.9745    115.5002
  1033.2500      0.0000    803.4626      6.9327    113.7101
  1033.5000      0.0000    798.6572      6.9015    113.4711
  1033.7500      0.0000    791.0860      6.8840    114.9468
  1034.0000      0.0000    782.2106      6.8809    116.2764
  1034.2500      0.0000    774.0253      6.8885    115.3752
  1034.5000      0.0000    766.9752      6.8993    112.4346
  1034.7500      0.0000    759.9395      6.9078    109.9664
  1035.0000      0.0000    752.8784      6.9154    110.1595
  1035.2500      0.0000    748.0242      6.9299    112.4567
  1035.5000      0.0000    747.4156      6.9562    114.1112
  1035.7500      0.0000    750.0893      6.9909    113.1876
  1036.0000      0.0000    752.4567      7.0260    110.4495
  1036.2500      0.0000    751.3384      7.0582    107.9380
  1036.5000      0.0000    746.5912      7.0906    106.4492
  1036.7500      0.0000    740.9770      7.1273    105.1730
  1037.0000      0.0000    737.6921      7.1681    103.3425
  1037.2500      0.0000    738.1272      7.2079    101.4604
  1037.5000      0.0000    741.5793      7.2394    100.8746
  1037.7500      0.0000    746.1327      7.2553    102.4768
  1038.0000      0.0000    749.4084      7.2508    105.7360
  1038.2500      0.0000    749.2372      7.2253    108.9522
  1038.5000      0.0000    744.8304      7.1845    110.7871
  1038.7500      0.0000    737.9379      7.1396    111.5502
  1039.0000      0.0000    732.4501      7.1046    112.7190
  1039.2500      0.0000    731.6161      7.0917    115.4897
  1039.5000      0.0000    735.1576      7.1062    120.1101
  1039.7500      0.0000    739.6763      7.1455    126.1228
  1040.0000      0.0000    742.0386      7.2016    132.5978
  1040.2500      0.0000    741.6958      7.2659    138.2719
  1040.5000      0.0000    739.8138      7.3317    142.0675
  1040.7500      0.0000    737.3879      7.3962    143.7356
  1041.0000      0.0000    734.9372      7.4612    143.9954
  1041.2500      0.0000    733.4148      7.5315    144.0165
  1041.5000      0.0000    734.1151      7.6052    144.2548
  1041.7500      0.0000    737.0233      7.6684    143.5513
  1042.0000      0.0000    740.0795      7.7010    140.0112
  1042.2500      0.0000    741.3434      7.6866    132.9958
  1042.5000      0.0000    741.2863      7.6117    123.6882
  1042.7500      0.0000    741.0989      7.4638    113.9731
  1043.0000      0.0000    739.3856      7.2468    105.6642
  1043.2500      0.0000    733.6575      7.0078    100.5990
  1043.5000      0.0000    725.5360      6.8209    100.3790
  1043.7500      0.0000    721.1825      6.7173    105.4568
  1044.0000      0.0000    725.0038      6.6524    114.4967
  1044.2500      0.0000    735.1346      6.5756    124.4984
  1044.5000      0.0000    746.5838      6.5067    131.7440
  1044.7500      0.0000    756.9254      6.5042    133.5111
  1045.0000      0.0000    767.0391      6.5869    129.6503
  1045.2500      2.0000    777.3326      6.7243    122.8208
  1045.5000      0.0000    785.2990      6.8862    117.0921
  1045.7500      0.0000    786.9526      7.0772    115.7549
  1046.0000      0.0000    779.8380      7.3244    119.6050
  1046.2500      0.0000    764.8008      7.6285    126.8134
  1046.5000      0.0000    745.5914      7.9212    134.5497
  1046.7500      0.0000    726.5532      8.1036    140.9682
  1047.0000      0.0000    710.0874      8.1518    145.8453
  1047.2500      0.0000    696.4064      8.1467    149.6389
  1047.5000      0.0000    685.4254      8.1712    152.3308
  1047.7500      0.0000    677.6660      8.2160    153.3673
  1048.0000      0.0000    672.9644      8.2135    152.5040
  1048.2500      0.0000    669.6555      8.1236    150.2208
  1048.5000      0.0000    665.9796      7.9657    147.3449
  1048.7500      0.0000    661.7463      7.7895    144.7057
  1049.0000      0.0000    658.0875      7.6362    143.1688
  1049.2500      0.0000    656.4103      7.5233    143.5142
  1049.5000      0.0000    658.5203      7.4492    145.7321
  1049.7500      0.0000    666.8365      7.4053    148.1540
  1050.0000      0.0000    682.6721      7.3798    147.7403
  1050.2500      0.0000    703.7933      7.3568    142.2615
  1050.5000      0.0000    724.6124      7.3215    132.5344
  1050.7500      0.0000    739.2910      7.2694    121.9524
  1051.0000      0.0000    744.5829      7.2108    113.7590
  1051.2500      0.0000    740.3947      7.1613    109.2089
  1051.5000      0.0000    729.1947      7.1289    107.8400
  1051.7500      0.0000    715.4059      7.1123    108.3307
  1052.0000      0.0000    704.2455      7.1069    108.9648
  1052.2500      0.0000    699.8528      7.1119    108.2378
  1052.5000      0.0000    703.7822      7.1294    105.6467
  1052.7500      0.0000    714.5176      7.1586    101.7063
  1053.0000      0.0000    727.9655      7.1922     96.9717
  1053.2500      0.0000    739.0412      7.2196     91.4148
  1053.5000      0.0000    743.9133      7.2343     85.2026
  1053.7500      0.0000    741.7375      7.2365     79.7036
  1054.0000      0.0000    735.0243      7.2286     76.8514
  1054.2500      0.0000    728.1552      7.2103     77.2957
  1054.5000      0.0000    724.1566      7.1833     79.7193
  1054.7500      0.0000    722.2796      7.1593     82.3059
  1055.0000      0.0000    719.4844      7.1570     84.7010
  1055.2500      0.0000    714.2652      7.1876     88.3822
  1055.5000      0.0000    707.8311      7.2418     95.0659
  1055.7500      0.0000    701.8406      7.2929    104.7795
  1056.0000      0.0000    696.9220      7.3113    115.5583
  1056.2500      0.0000    693.8336      7.2798    124.8029
  1056.5000      0.0000    694.4434      7.2026    130.5370
  1056.7500      0.0000    700.3796      7.1033    131.6537
  1057.0000      0.0000    710.6866      7.0134    128.0660
  1057.2500      0.0000    720.9540      6.9583    121.3928
  1057.5000      0.0000    725.2220      6.9517    114.8397
  1057.7500      0.0000    719.0749      6.9978    111.1933
  1058.0000      0.0000    700.9579      7.0923    110.7052
  1058.2500      0.0000    671.9024      7.2196    111.6780
  1058.5000      0.0000    637.0809      7.3533    113.2425
  1058.7500      0.0000    608.2702      7.4676    116.2769
  1059.0000      0.0000    600.2124      7.5517    120.8730
  1059.2500      0.0000    619.7141      7.6152    124.3723
  1059.5000      0.0000    658.3840      7.6765    123.5541
  1059.7500      0.0000    697.9563      7.7478    118.2791
  1060.0000      0.0000    722.1311      7.8290    111.6855
  1060.2500      0.0000    722.6644      7.9113    107.0165
  1060.5000      0.0000    697.5334      7.9843    105.3757
  1060.7500      0.0000    648.6730      8.0423    106.4624
  1061.0000      0.0000    583.5187      8.0847    110.1073
  1061.2500      0.0000    515.9678      8.1123    116.0539
  1061.5000      0.0000    461.4979      8.1285    122.6579
  1061.7500      0.0000    429.0552      8.1434    127.1343
  1062.0000      0.0000    417.5486      8.1706    127.8043
  1062.2500      0.0000    419.5547      8.2158    125.6519
  1062.5000      0.0000    427.4479      8.2714    123.1643
  1062.7500      0.0000    436.5436      8.3207    121.9080
  1063.0000      0.0000    444.4284      8.3501    121.6355
  1063.2500      0.0000    449.2717      8.3587    121.3857
  1063.5000      0.0000    449.7829      8.3594    120.8360
  1063.7500      0.0000    446.3651      8.3687    120.5471
  1064.0000      0.0000    441.1600      8.3931    121.4069
  1064.2500      0.0000    436.3940      8.4265    124.0021
  1064.5000      0.0000    432.8910      8.4589    128.1485
  1064.7500      0.0000    430.1704      8.4852    132.8070
  1065.0000      0.0000    427.6582      8.5020    136.8300
