~Version Information
VERS.                      2.0: CWLS Log ASCII Standard - VERSION 2.0
WRAP.                       NO: One line per depth step
~Well Information Block
STRT.FT               330.0000: 
STOP.FT              1972.5000: 
STEP.FT                 0.1000: 
NULL.                -999.2500: 
COMP.          Pioneer Natural Resources: COMPANY
WELL.           Willys 32-8 Tr: WELL
FLD.           Purgatoire River: FIELD
LOC.           1843' FNL & 2355' FEL: LOCATION
CNTY.               Las Animas: COUNTY
SRVC.                Patterson: SERVICE COMPANY
DATE.          Thu Feb 09 10:31:59 2006: LOG DATE
UWI.           05 071 08688 00: UNIQUE WELL ID
STAT.                 Colorado: STATE
~Curve Information Block
DEPT.FT            0 000 00 00: Depth
DCAL.in                       : CDL Caliper
RHOB.g/cc                     : CDL Bulk Density
RHOC.g/cc                     : CDL Density Correction
DPOR.pu                       : CDL Density Porosity
GR.GAPI                       : Gamma Ray
~Parameter Information Block
~A  Depth       DCAL        RHOB        RHOC        DPOR         GR     
# ...
   654.8000      7.9334      2.5198     -0.0486      7.8894    131.1767
   654.9000      7.9334      2.5391      0.0368      6.7229    131.2104
   655.0000      7.9331      2.5631      0.0822      5.2676    135.7817
   655.1000      7.9331      2.5750      0.0520      4.5435    137.3904
   655.2000      7.9331      2.5806     -0.0488      4.2055    131.7944
   655.3000      7.9398      2.5929      0.0077      3.4578    124.3163
   655.4000      7.9398      2.5997      0.0852      3.0465    121.5623
   655.5000      7.9846      2.5832      0.0334      4.0471    120.3811
   655.6000      7.9846      2.5555      0.0338      5.7287    117.5904
   655.7000      7.9846      2.5319      0.0503      7.1590    114.3565
   655.8000      7.9888      2.5146      0.0326      8.2086    110.5498
   655.9000      7.9888      2.5088      0.0005      8.5563    106.8017
   656.0000      7.9673      2.5192     -0.0026      7.9286    105.6232
   656.1000      7.9673      2.5360      0.0536      6.9065    105.8046
   656.2000      7.9673      2.5455      0.0666      6.3356    101.4669
   656.3000      7.9527      2.5497      0.0637      6.0792     92.3135
   656.4000      7.9527      2.5581      0.0937      5.5691     84.7393
   656.5000      7.9326      2.5632      0.1178      5.2607     82.2235
   656.6000      7.9326      2.5503      0.0721      6.0436     81.1208
   656.7000      7.9326      2.5199      0.0619      7.8855     77.9368
   656.8000      7.9577      2.4855     -0.0375      9.9714     74.9784
   656.9000      7.9577      2.4593      0.0091     11.5602     73.4457
   657.0000      7.9716      2.4425      0.0114     12.5771     71.7429
   657.1000      7.9716      2.4279      0.0221     13.4600     70.4949
   657.2000      7.9716      2.4080      0.0278     14.6653     69.7494
   657.3000      7.9856      2.3902     -0.0022     15.7463     68.6890
   657.4000      7.9856      2.3844      0.0246     16.0968     69.5013
   657.5000      7.9774      2.3815      0.0447     16.2736     72.4941
   657.6000      7.9774      2.3821      0.0006     16.2381     74.2119
   657.7000      7.9774      2.4034      0.0431     14.9448     73.0059
   657.8000      7.9772      2.4355      0.1226     13.0005     70.9609
   657.9000      7.9772      2.4505      0.1336     12.0913     71.1394
   658.0000      7.9782      2.4462      0.1371     12.3494     72.0443
   658.1000      7.9782      2.4464      0.1494     12.3394     69.2918
   658.2000      7.9782      2.4622      0.1700     11.3796     64.1595
   658.3000      7.9714      2.4771      0.1775     10.4812     61.3479
   658.4000      7.9714      2.4794      0.1510     10.3384     61.7543
   658.5000      7.9876      2.4759      0.1592     10.5540     62.5318
   658.6000      7.9876      2.4727      0.1591     10.7463     60.4775
   658.7000      7.9876      2.4715      0.1288     10.8170     55.4862
   658.8000      7.9767      2.4713      0.1562     10.8284     52.4411
   658.9000      7.9767      2.4730      0.0972     10.7267     55.0886
   659.0000      7.9542      2.4752      0.1292     10.5919     59.0286
   659.1000      7.9542      2.4655      0.0873     11.1805     57.1351
   659.2000      7.9542      2.4435      0.0540     12.5122     50.4912
   659.3000      7.9534      2.4277      0.0487     13.4717     46.4063
   659.4000      7.9534      2.4206      0.0623     13.9002     46.7034
   659.5000      7.9608      2.4041      0.0889     14.9006     46.3138
   659.6000      7.9608      2.3742      0.0299     16.7144     45.5675
   659.7000      7.9608      2.3469      0.0176     18.3683     48.6057
   659.8000      7.9485      2.3302      0.0511     19.3828     52.2162
   659.9000      7.9485      2.3237     -0.0090     19.7757     52.5346
   660.0000      7.9369      2.3308      0.0404     19.3456     51.4622
   660.1000      7.9369      2.3569      0.0161     17.7611     51.7251
   660.2000      7.9369      2.3989      0.1227     15.2178     54.0027
   660.3000      7.9883      2.4351      0.1168     13.0215     58.3174
   660.4000      7.9883      2.4530      0.1119     11.9413     62.0357
   660.5000      7.9511      2.4502      0.1691     12.1068     60.1935
   660.6000      7.9511      2.4250      0.1607     13.6339     55.5729
   660.7000      7.9511      2.3967      0.0694     15.3500     55.6551
   660.8000      7.9107      2.3914      0.0931     15.6711     59.7814
   660.9000      7.9107      2.4069      0.1202     14.7313     62.3178
   661.0000      7.9202      2.4229      0.0916     13.7615     61.3796
   661.1000      7.9202      2.4307      0.0232     13.2918     59.0743
   661.2000      7.9202      2.4353      0.0559     13.0104     57.5960
   661.3000      7.9550      2.4394      0.0269     12.7656     56.8161
   661.4000      7.9550      2.4360      0.0681     12.9687     56.0913
   661.5000      7.9492      2.4210      0.0347     13.8810     56.2693
   661.6000      7.9492      2.3988      0.0542     15.2269     57.5206
   661.7000      7.9492      2.3712      0.0160     16.8955     58.2168
   661.8000      7.9292      2.3425     -0.0010     18.6390     60.3148
   661.9000      7.9292      2.3269     -0.0510     19.5823     64.5174
   662.0000      7.9507      2.3325     -0.0338     19.2413     64.6579
   662.1000      7.9507      2.3540     -0.0125     17.9412     57.6546
   662.2000      7.9507      2.3897     -0.0185     15.7744     50.6115
   662.3000      7.9864      2.4291      0.0661     13.3893     50.8578
   662.4000      7.9864      2.4467      0.0710     12.3221     54.1634
   662.5000      7.9615      2.4348      0.1339     13.0406     53.5302
   662.6000      7.9615      2.4122      0.0496     14.4115     51.3470
   662.7000      7.9615      2.4024      0.0675     15.0056     53.1676
   662.8000      7.9342      2.4039      0.1094     14.9170     58.4307
   662.9000      7.9342      2.4000      0.0934     15.1537     62.8945
   663.0000      7.9169      2.3868      0.1117     15.9541     62.6399
   663.1000      7.9169      2.3686      0.0780     17.0545     57.1329
   663.2000      7.9169      2.3469      0.0554     18.3669     52.3177
   663.3000      7.9445      2.3277      0.0536     19.5332     51.0822
   663.4000      7.9445      2.3258      0.0288     19.6493     50.8021
   663.5000      7.9928      2.3463      0.0903     18.4038     50.3367
   663.6000      7.9928      2.3779      0.0996     16.4932     49.4871
   663.7000      7.9928      2.4110      0.0857     14.4824     49.6845
   663.8000      8.0291      2.4453      0.1440     12.4089     52.2334
   663.9000      8.0291      2.4801      0.1571     10.2984     53.5626
   664.0000      8.0491      2.5152      0.1467      8.1724     51.2343
   664.1000      8.0491      2.5432      0.1861      6.4739     50.2694
   664.2000      8.0491      2.5451      0.1652      6.3555     56.0405
   664.3000      8.0645      2.5142      0.1191      8.2313     67.1290
   664.4000      8.0645      2.4761      0.0035     10.5415     79.0509
   664.5000      8.0558      2.4584      0.0706     11.6097     87.3675
   664.6000      8.0558      2.4568      0.0223     11.7103     88.1400
   664.7000      8.0558      2.4677      0.0200     11.0476     83.3334
   664.8000      8.0356      2.5037      0.0278      8.8691     82.0660
   664.9000      8.0356      2.5630      0.1040      5.2744     89.3833
   665.0000      7.9831      2.6283      0.1620      1.3154     98.8908
   665.1000      7.9831      2.6833      0.1877     -2.0209    103.1469
   665.2000      7.9831      2.7117      0.2652     -3.7394    102.3531
   665.3000      7.9395      2.7056      0.1989     -3.3700    103.5481
   665.4000      7.9395      2.6844      0.1416     -2.0823    111.4614
   665.5000      7.9123      2.6630      0.1597     -0.7873    121.8543
   665.6000      7.9123      2.6291      0.1464      1.2659    129.2278
   665.7000      7.9123      2.5819      0.0005      4.1268    131.8103
   665.8000      7.9009      2.5469      0.0142      6.2513    130.6791
   665.9000      7.9009      2.5354      0.0064      6.9433    128.9456
