~Version Information
VERS.                      2.0: CWLS Log ASCII Standard - VERSION 2.0
WRAP.                       NO: One line per depth step
~Well Information Block
STRT.FT              1585.0000: 
STOP.FT              2353.0000: 
STEP.FT                 0.2500: 
NULL.                -999.2500: 
COMP.          XTO Energy Inc.: COMPANY
WELL.          Hill Ranch 15-11: WELL
FLD.           Purgatrorie River: FIELD
LOC.           1862' FSL & 1801' FWL: LOCATION
STAT.                       CO: State
CNTY.               Las Animas: COUNTY
CTRY. USA : Country
SECT. 15 : Section
TOWN. 35S : Township
RANG. 67W : Range
SRVC.          Patterson Wireline: SERVICE COMPANY
DATE.          Thu Dec 08 10:20:02 2005: LOG DATE
API.              05 071 08472: UNIQUE WELL ID
~Curve Information Block
DEPT.FT            0 000 00 00: Depth
CCL.                          : Casing Collar Locator
TT3.usec                      : CBL 3' Travel Time
AMP3.mV                       : CBL 3' Amplitude
BONDIX.                       : CBL Bond Index
GR.GAPI                       : Gamma Ray
~Parameter Information Block
~A  Depth       CCL         TT3         AMP3       BONDIX        GR     
# ...
  2173.0000      0.0000    790.1951      6.6212      0.5847     80.3299
  2173.2500      0.0000    784.3007      6.4968      0.5889     81.6708
  2173.5000      0.0000    790.2477      6.3724      0.5931     81.5929
  2173.7500      0.0000    799.9038      6.2428      0.5977     80.2842
  2174.0000      0.0000    804.8329      6.0950      0.6029     79.0095
  2174.2500      0.0000    802.0112      5.9242      0.6092     79.8237
  2174.5000      0.0000    793.1163      5.7419      0.6160     84.2128
  2174.7500      0.0000    781.1404      5.5714      0.6226     91.3361
  2175.0000      0.0000    769.0393      5.4363      0.6280     97.9663
  2175.2500      0.0000    759.8159      5.3466      0.6317    100.8213
  2175.5000      0.0000    755.2994      5.2927      0.6339     99.0645
  2175.7500      0.0000    754.3430      5.2512      0.6357     94.5944
  2176.0000      0.0000    753.4264      5.1996      0.6378     90.3030
  2176.2500      0.0000    749.7048      5.1294      0.6408     88.2584
  2176.5000      0.0000    743.2057      5.0509      0.6442     89.1319
  2176.7500      0.0000    736.0955      4.9873      0.6470     92.5060
  2177.0000      0.0000    730.4374      4.9581      0.6483     97.2173
  2177.2500      0.0000    726.9568      4.9649      0.6480    101.6978
  2177.5000      0.0000    725.4805      4.9900      0.6469    104.5768
  2177.7500      0.0000    726.0383      5.0081      0.6461    105.2192
  2178.0000      0.0000    729.5320      5.0027      0.6463    103.8552
  2178.2500      0.0000    737.3811      4.9734      0.6476    101.3331
  2178.5000      0.0000    750.1086      4.9329      0.6494     98.5664
  2178.7500      0.0000    765.8794      4.8940      0.6511     96.0019
  2179.0000      0.0000    780.7835      4.8569      0.6528     93.7289
  2179.2500      0.0000    791.2716      4.8102      0.6549     92.2153
  2179.5000      0.0000    796.4788      4.7392      0.6582     92.5229
  2179.7500      0.0000    797.8903      4.6327      0.6632     95.2054
  2180.0000      0.0000    796.8903      4.4820      0.6705     98.9915
  2180.2500      0.0000    793.3258      4.2816      0.6805    101.1496
  2180.5000      0.0000    786.6461      4.0387      0.6933     99.4276
  2180.7500      0.0000    777.6135      3.7806      0.7078     93.5505
  2181.0000      0.0000    768.0535      3.5480      0.7218     85.0676
  2181.2500      0.0000    759.1385      3.3749      0.7328     76.2341
  2181.5000      0.0000    750.6560      3.2743      0.7394     69.0156
  2181.7500      0.0000    742.1183      3.2370      0.7419     64.5910
  2182.0000      0.0000    734.1218      3.2430      0.7415     63.2617
  2182.2500      0.0000    728.3303      3.2777      0.7392     64.6081
  2182.5000      0.0000    726.3319      3.3436      0.7348     67.7318
  2182.7500      0.0000    728.5765      3.4574      0.7275     71.6428
  2183.0000      0.0000    733.9384      3.6360      0.7164     75.7299
  2183.2500      0.0000    739.9972      3.8802      0.7021     79.9502
  2183.5000      0.0000    744.4408      4.1662      0.6865     84.3935
  2183.7500      0.0000    747.1386      4.4495      0.6720     88.6466
  2184.0000      0.0000    750.8276      4.6853      0.6607     91.7715
  2184.2500      0.0000    758.9756      4.8556      0.6529     92.9196
  2184.5000      0.0000    772.6382      4.9760      0.6475     91.7509
  2184.7500      0.0000    789.5776      5.0743      0.6432     88.4829
  2185.0000      0.0000    806.1721      5.1649      0.6393     83.9539
  2185.2500      0.0000    819.6638      5.2454      0.6359     79.6137
  2185.5000      0.0000    829.0775      5.3120      0.6331     76.9814
  2185.7500      0.0000    834.9126      5.3691      0.6308     76.7520
  2186.0000      0.0000    838.0742      5.4238      0.6285     78.3978
  2186.2500      0.0000    839.1961      5.4751      0.6265     80.7183
  2186.5000      0.0000    839.4568      5.5141      0.6249     82.7860
  2186.7500      0.0000    840.9070      5.5336      0.6241     84.4734
  2187.0000      0.0000    844.0793      5.5370      0.6240     86.1724
  2187.2500      0.0000    846.0060      5.5346      0.6241     87.9869
  2187.5000      0.0000    842.6977      5.5365      0.6240     89.3237
  2187.7500      0.0000    833.2493      5.5465      0.6236     89.5260
  2188.0000      0.0000    820.2546      5.5623      0.6230     88.8595
  2188.2500      0.0000    807.1087      5.5784      0.6224     88.5390
  2188.5000      0.0000    796.1334      5.5908      0.6219     89.5336
  2188.7500      0.0000    788.3040      5.6017      0.6215     91.5123
  2189.0000      0.0000    783.2311      5.6178      0.6208     93.3254
  2189.2500      0.0000    779.7654      5.6464      0.6197     94.4978
  2189.5000      0.0000    777.5238      5.6919      0.6180     95.7533
  2189.7500      0.0000    777.3864      5.7550      0.6155     97.8467
  2190.0000      0.0000    780.0192      5.8310      0.6126    100.2010
  2190.2500      0.0000    784.3287      5.9095      0.6097    101.0590
  2190.5000      0.0000    787.6975      5.9805      0.6071     99.0254
  2190.7500      0.0000    787.4372      6.0423      0.6048     94.3523
  2191.0000      0.0000    782.0561      6.1005      0.6027     88.7588
  2191.2500      0.0000    772.2770      6.1578      0.6007     84.1721
  2191.5000      0.0000    761.5492      6.2060      0.5990     81.7225
  2191.7500      0.0000    754.4968      6.2330      0.5980     81.6372
  2192.0000      0.0000    753.5927      6.2341      0.5980     83.6179
  2192.2500      0.0000    757.5500      6.2138      0.5987     87.0991
  2192.5000      0.0000    763.2302      6.1777      0.6000     91.3718
  2192.7500      0.0000    768.2268      6.1308      0.6016     95.6481
  2193.0000      0.0000    771.0009      6.0831      0.6033     98.9576
  2193.2500      0.0000    769.7465      6.0509      0.6045    100.2507
  2193.5000      0.0000    762.8939      6.0479      0.6046     99.2993
  2193.7500      0.0000    750.8165      6.0795      0.6035     97.5380
  2194.0000      0.0000    735.5565      6.1451      0.6011     97.3309
  2194.2500      0.0000    718.3180      6.2408      0.5977    100.0095
  2194.5000      0.0000    698.7888      6.3511      0.5939    104.6185
  2194.7500      0.0000    677.9500      6.4355      0.5910    108.4651
  2195.0000      0.0000    660.2556      6.4356      0.5910    108.9519
  2195.2500      0.0000    651.2150      6.3197      0.5950    105.3260
  2195.5000      0.0000    652.9946      6.1301      0.6017     99.1178
  2195.7500      0.0000    663.4893      5.9648      0.6077     93.1949
  2196.0000      0.0000    679.1061      5.8962      0.6102     90.2221
  2196.2500      0.0000    697.3420      5.9179      0.6094     91.0690
  2196.5000      2.0000    717.1575      5.9717      0.6074     94.1984
  2196.7500      0.0000    738.0438      6.0082      0.6061     97.1453
  2197.0000      0.0000    758.7520      6.0167      0.6058     98.7475
  2197.2500      0.0000    776.2158      6.0211      0.6056     99.4893
  2197.5000      0.0000    785.8713      6.0598      0.6042    100.1427
  2197.7500      0.0000    784.0921      6.1517      0.6009    100.8979
  2198.0000      0.0000    771.1592      6.2669      0.5968    101.6107
  2198.2500      0.0000    752.2053      6.3498      0.5939    102.2189
  2198.5000      0.0000    734.9030      6.3829      0.5928    102.7983
  2198.7500      0.0000    725.1548      6.4112      0.5918    103.4914
  2199.0000      0.0000    724.1016      6.5005      0.5888    104.6076
  2199.2500      0.0000    728.5226      6.6852      0.5826    106.7924
  2199.5000      0.0000    733.5695      6.9581      0.5738    110.6664
  2199.7500      0.0000    735.3834      7.2933      0.5635    115.8505
  2200.0000      0.0000    732.7919      7.6688      0.5525    120.5025
  2200.2500      0.0000    727.9137      8.0739      0.5411    122.4505
  2200.5000      0.0000    724.5339      8.5075      0.5297    121.1077
  2200.7500      0.0000    724.6804      8.9673      0.5181    117.9128
