~Version Information
VERS.                      2.0: CWLS Log ASCII Standard - VERSION 2.0
WRAP.                       NO: One line per depth step
~Well Information Block
STRT.FT               875.0000: 
STOP.FT              2947.2000: 
STEP.FT                 0.1000: 
NULL.                -999.2500: 
COMP.          Pioneer Natural Resources: COMPANY
WELL.          Hanginstone 21-27: WELL
FLD.           Purgatoire River: FIELD
LOC.           1186' FNL & 1606' FWL--: LOCATION
PROV.                 Colorado: PROVINCE
CNTY.               Las Animas: COUNTRY
SRVC.                Patterson: SERVICE COMPANY
DATE.          Mon Jan 09 07:31:45 2006: LOG DATE
UWI.           05 071 08632 00: UNIQUE WELL ID
~Curve Information Block
DEPT.FT            0 000 00 00: Depth
DCAL.in                       : CDL Caliper
RHOB.g/cc                     : CDL Bulk Density
RHOC.g/cc                     : CDL Density Correction
DPOR.pu                       : CDL Density Porosity
NPOR.pu                       : Neutron Porosity
GR.GAPI                       : Gamma Ray
~Parameter Information Block
~A  Depth       DCAL        RHOB        RHOC        DPOR        NPOR         GR     
# ...
  2651.0000      7.9058      2.6428      0.0734      0.4352     18.0328     94.0929
  2651.1000      7.9058      2.5918      0.0371      3.5263     17.6707     89.7380
  2651.2000      7.9058      2.5472     -0.0274      6.2332     17.2592     74.8560
  2651.3000      7.9054      2.5354      0.0024      6.9475     16.9248     62.3051
  2651.4000      7.9054      2.5533      0.0155      5.8598     16.8408     61.9886
  2651.5000      7.9067      2.5841      0.0540      3.9948     17.0000     66.1538
  2651.6000      7.9067      2.6111      0.0504      2.3573     17.1129     65.2223
  2651.7000      7.9067      2.6190      0.0816      1.8778     17.1054     61.8917
  2651.8000      7.9134      2.6079      0.0382      2.5531     17.3084     62.8950
  2651.9000      7.9134      2.6014      0.0351      2.9446     17.7996     69.0951
  2652.0000      7.9227      2.6167      0.0255      2.0170     18.1520     74.2408
  2652.1000      7.9227      2.6433      0.0876      0.4047     18.1971     77.2424
  2652.2000      7.9227      2.6620      0.0905     -0.7291     18.2908     84.3530
  2652.3000      7.9269      2.6723      0.0797     -1.3494     18.5374     93.7398
  2652.4000      7.9269      2.6762      0.1113     -1.5905     18.8092     99.2861
  2652.5000      7.9289      2.6602      0.0772     -0.6173     18.9212    101.8209
  2652.6000      7.9289      2.6314      0.0392      1.1282     18.7485    103.0280
  2652.7000      7.9289      2.6234      0.0163      1.6101     18.6245     99.1535
  2652.8000      7.9318      2.6455      0.0473      0.2698     18.8327     88.4360
  2652.9000      7.9318      2.6722      0.0521     -1.3464     19.1770     76.3970
  2653.0000      7.9338      2.6798      0.0779     -1.8039     19.3879     70.4120
  2653.1000      7.9338      2.6700      0.0266     -1.2140     19.4700     71.5276
  2653.2000      7.9338      2.6627      0.0112     -0.7686     19.3767     74.0894
  2653.3000      7.9346      2.6650      0.0519     -0.9119     19.0340     74.4559
  2653.4000      7.9346      2.6697      0.0284     -1.1964     18.8425     74.7338
  2653.5000      7.9326      2.6735      0.0384     -1.4253     18.9240     75.9378
  2653.6000      7.9326      2.6731      0.0640     -1.4024     18.9656     75.1920
  2653.7000      7.9326      2.6680      0.0101     -1.0910     19.0455     74.1333
  2653.8000      7.9292      2.6671      0.0326     -1.0391     19.1967     77.2353
  2653.9000      7.9292      2.6735      0.0250     -1.4216     19.1737     83.6891
  2654.0000      7.9291      2.6825      0.0306     -1.9723     18.9116     88.6982
  2654.1000      7.9291      2.6903      0.0530     -2.4417     18.6308     88.9228
  2654.2000      7.9291      2.6935      0.0651     -2.6337     18.3879     86.7918
  2654.3000      7.9339      2.6910      0.0503     -2.4865     18.0802     86.4527
  2654.4000      7.9339      2.6782      0.0379     -1.7114     17.9587     86.2914
  2654.5000      7.9429      2.6462      0.0585      0.2329     18.1687     84.3839
  2654.6000      7.9429      2.6053     -0.0395      2.7069     18.3282     84.4291
  2654.7000      7.9429      2.5795      0.0515      4.2701     18.2765     88.2303
  2654.8000      7.9565      2.5737     -0.0023      4.6218     18.1979     92.6966
  2654.9000      7.9565      2.5795      0.0689      4.2732     18.2859     95.7857
  2655.0000      7.9716      2.5849      0.0238      3.9438     18.8800     97.6228
  2655.1000      7.9716      2.5827      0.0329      4.0817     20.0188     99.8107
  2655.2000      7.9716      2.5668      0.0337      5.0395     21.0876    101.1536
  2655.3000      7.9839      2.5417     -0.0134      6.5635     21.5940     96.7240
  2655.4000      7.9839      2.5307     -0.0052      7.2280     21.6444     90.0931
  2655.5000      7.9923      2.5524      0.0194      5.9164     21.5766     90.1410
  2655.6000      7.9923      2.5906      0.0984      3.5988     21.6823     97.9763
  2655.7000      7.9923      2.6015      0.1026      2.9380     22.0031    109.1334
  2655.8000      8.0003      2.5721      0.0432      4.7224     22.3707    115.2484
  2655.9000      8.0003      2.5419     -0.0032      6.5537     22.8497    114.3759
  2656.0000      8.0046      2.5414      0.0486      6.5807     23.5729    113.4245
  2656.1000      8.0046      2.5546      0.0730      5.7790     24.0567    115.9559
  2656.2000      8.0046      2.5576      0.0536      5.6014     23.8649    119.2599
  2656.3000      7.9936      2.5435      0.0617      6.4528     23.1292    118.2447
  2656.4000      7.9936      2.5182      0.0007      7.9897     22.0171    113.1376
  2656.5000      7.9727      2.5013      0.0053      9.0141     20.8807    109.8049
  2656.6000      7.9727      2.5091      0.0057      8.5424     20.3155    111.2541
  2656.7000      7.9727      2.5369      0.0315      6.8546     20.3554    116.1491
  2656.8000      7.9597      2.5662      0.0635      5.0789     20.6363    123.0961
  2656.9000      7.9597      2.5787      0.0817      4.3198     21.1376    129.6487
  2657.0000      7.9544      2.5712      0.0639      4.7741     21.9202    133.7537
  2657.1000      7.9544      2.5567      0.0413      5.6525     22.6228    135.0175
  2657.2000      7.9544      2.5499      0.0345      6.0676     22.8251    133.1664
  2657.3000      7.9463      2.5539      0.0472      5.8245     22.5691    128.9378
  2657.4000      7.9463      2.5629      0.0687      5.2786     22.3516    125.8060
  2657.5000      7.9357      2.5731      0.0480      4.6591     22.4370    124.7772
  2657.6000      7.9357      2.5789      0.0743      4.3119     22.6072    125.6330
  2657.7000      7.9357      2.5763      0.0501      4.4658     22.6719    130.4902
  2657.8000      7.9301      2.5760      0.0048      4.4826     22.7536    138.3497
  2657.9000      7.9301      2.5776      0.0616      4.3895     22.9825    140.9209
  2658.0000      7.9305      2.5671      0.0586      5.0236     23.2698    134.9671
  2658.1000      7.9305      2.5599     -0.0171      5.4599     23.4816    126.6059
  2658.2000      7.9305      2.5753      0.0334      4.5246     23.3686    121.9198
  2658.3000      7.9332      2.5947      0.0676      3.3498     23.0674    123.5869
  2658.4000      7.9332      2.5985      0.0380      3.1214     23.3115    126.8682
  2658.5000      7.9351      2.5935      0.0537      3.4243     24.0555    125.1544
  2658.6000      7.9351      2.5846      0.0744      3.9619     24.3415    123.1109
  2658.7000      7.9351      2.5734      0.0469      4.6420     24.0038    126.8503
  2658.8000      7.9343      2.5676      0.0506      4.9969     23.5854    132.8487
  2658.9000      7.9343      2.5645      0.0660      5.1830     23.3379    136.7718
  2659.0000      7.9344      2.5571     -0.0034      5.6297     23.3575    139.1835
  2659.1000      7.9344      2.5492      0.0391      6.1085     23.7635    140.4457
  2659.2000      7.9344      2.5437      0.0464      6.4423     24.4108    139.1690
  2659.3000      7.9409      2.5407      0.0087      6.6237     24.7183    137.1045
  2659.4000      7.9409      2.5428      0.0737      6.4968     24.4782    136.9465
  2659.5000      7.9536      2.5482      0.0350      6.1714     24.2061    135.1502
  2659.6000      7.9536      2.5551      0.0545      5.7498     24.3378    128.7656
  2659.7000      7.9536      2.5551      0.0541      5.7516     24.7312    121.7750
  2659.8000      7.9606      2.5413      0.0443      6.5862     24.8657    118.6947
  2659.9000      7.9606      2.5251      0.0196      7.5669     24.7557    119.7805
  2660.0000      7.9594      2.5118      0.0450      8.3750     24.8012    123.0592
  2660.1000      7.9594      2.4983     -0.0182      9.1914     24.9362    125.4530
  2660.2000      7.9594      2.4966     -0.0244      9.2997     25.0768    124.8005
  2660.3000      7.9574      2.5119      0.0264      8.3727     25.2166    124.7536
  2660.4000      7.9574      2.5377      0.0499      6.8063     25.1371    129.5749
  2660.5000      7.9569      2.5686      0.0727      4.9342     24.8954    133.8170
