~Version Information
VERS.                      2.0: CWLS Log ASCII Standard - VERSION 2.0
WRAP.                       NO: One line per depth step
~Well Information Block
STRT.FT                10.0000: 
STOP.FT              1665.0000: 
STEP.FT                 0.1000: 
NULL.                -999.2500: 
COMP.          Pioneer Natural Resources: COMPANY
WELL.          Stock Canyon 34-33: WELL
FLD.           Purgatorie River: FIELD
LOC.           980' FSL & 2191' FEL: LOCATION
PROV.                 Colorado: PROVINCE
CNTY.               Las Animas: COUNTRY
SRVC.                Patterson: SERVICE COMPANY
DATE.          Mon Dec 05 10:33:50 2005: LOG DATE
UWI.                          : UNIQUE WELL ID
~Curve Information Block
DEPT.FT            0 000 00 00: Depth
DCAL.in                       : CDL Caliper
RHOB.g/cc                     : CDL Bulk Density
RHOC.g/cc                     : CDL Density Correction
DPOR.pu                       : CDL Density Porosity
GR.GAPI                       : Gamma Ray
NPOR.pu                       : Neutron Porosity
~Parameter Information Block
~A  Depth       DCAL        RHOB        RHOC        DPOR         GR         NPOR    
# ...
  1325.2000      8.0707      2.3448      0.1013     18.4968     20.4357     14.4915
  1325.3000      8.0622      2.3436      0.0257     18.5726     23.6393     14.3921
  1325.4000      8.0622      2.3472      0.0510     18.3491     26.0944     14.3053
  1325.5000      8.0593      2.3687      0.0368     17.0498     27.8578     14.3655
  1325.6000      8.0593      2.4010      0.0742     15.0903     28.6405     14.6852
  1325.7000      8.0593      2.4238      0.0927     13.7093     27.8073     15.1728
  1325.8000      8.0697      2.4197      0.0755     13.9600     26.8797     15.5301
  1325.9000      8.0697      2.3992      0.0417     15.2028     27.0615     15.5572
  1326.0000      8.0736      2.3890      0.0308     15.8174     27.2986     15.3602
  1326.1000      8.0736      2.4009      0.0584     15.0976     27.5455     15.1750
  1326.2000      8.0736      2.4206      0.1105     13.9058     29.0697     15.0419
  1326.3000      8.0696      2.4288      0.0740     13.4073     32.1036     15.0614
  1326.4000      8.0696      2.4263      0.0675     13.5587     36.1315     15.5450
  1326.5000      8.0677      2.4303      0.0475     13.3138     39.8476     16.4477
  1326.6000      8.0677      2.4546      0.0784     11.8398     42.5238     17.3501
  1326.7000      8.0677      2.4913      0.1242      9.6185     45.4077     17.9174
  1326.8000      8.0726      2.5162      0.1033      8.1107     49.2413     18.2700
  1326.9000      8.0726      2.5170      0.0891      8.0630     54.6087     18.8266
  1327.0000      8.0741      2.5003      0.0572      9.0704     63.2565     19.8406
  1327.1000      8.0741      2.4758      0.0293     10.5588     74.8736     21.1519
  1327.2000      8.0741      2.4508      0.0117     12.0750     87.2864     22.4773
  1327.3000      8.0801      2.4382     -0.0111     12.8377     97.3617     23.5401
  1327.4000      8.0801      2.4458     -0.0178     12.3785    103.5752     24.2793
  1327.5000      8.0808      2.4628      0.0253     11.3424    108.2799     24.8988
  1327.6000      8.0808      2.4774     -0.0347     10.4618    113.2828     25.4968
  1327.7000      8.0808      2.4847      0.0645     10.0169    118.8918     25.9265
  1327.8000      8.0940      2.4799      0.0273     10.3070    124.8358     26.1584
  1327.9000      8.0940      2.4731      0.0069     10.7211    128.8303     26.3660
  1328.0000      8.0904      2.4771      0.0237     10.4818    128.3598     26.7396
  1328.1000      8.0904      2.4814      0.0598     10.2202    123.8769     27.2400
  1328.2000      8.0904      2.4721      0.0363     10.7797    118.4799     27.3909
  1328.3000      8.1010      2.4551      0.0054     11.8140    115.4098     27.0040
  1328.4000      8.1010      2.4459      0.0000     12.3727    115.5067     26.5416
  1328.5000      8.0966      2.4522      0.0624     11.9859    117.5386     26.3679
  1328.6000      8.0966      2.4649      0.0857     11.2195    120.7224     26.3802
  1328.7000      8.0966      2.4716      0.0753     10.8105    124.3639     26.3857
  1328.8000      8.0972      2.4707      0.0928     10.8674    126.0917     26.3153
  1328.9000      8.0972      2.4621      0.0871     11.3880    124.9425     26.2532
  1329.0000      8.1013      2.4466      0.0959     12.3278    123.5589     26.4933
  1329.1000      8.1013      2.4328      0.0425     13.1620    124.7297     26.9991
  1329.2000      8.1013      2.4321      0.0681     13.2047    127.3500     27.4768
  1329.3000      8.1081      2.4441      0.0710     12.4812    127.8971     27.9034
  1329.4000      8.1081      2.4598      0.0880     11.5287    126.1023     28.2490
  1329.5000      8.1096      2.4696      0.0880     10.9352    124.8285     28.2444
  1329.6000      8.1096      2.4654      0.0914     11.1905    125.9087     27.8826
  1329.7000      8.1096      2.4513      0.0456     12.0440    129.0923     27.5696
  1329.8000      8.1083      2.4407      0.0358     12.6863    130.3712     27.5315
  1329.9000      8.1083      2.4367      0.0499     12.9246    126.4999     27.6446
  1330.0000      8.1197      2.4392      0.0337     12.7731    120.3860     27.6763
  1330.1000      8.1197      2.4457      0.0834     12.3839    115.1296     27.6240
  1330.2000      8.1197      2.4393      0.0698     12.7721    112.1956     27.6746
  1330.3000      8.1175      2.4192     -0.0089     13.9898    111.0033     27.7153
  1330.4000      8.1175      2.4046      0.0291     14.8748    110.6056     27.5178
  1330.5000      8.1183      2.4018      0.0244     15.0454    112.8332     27.2191
  1330.6000      8.1183      2.4061      0.0383     14.7829    117.1634     27.1387
  1330.7000      8.1183      2.4092      0.0785     14.5928    121.0866     27.1911
  1330.8000      8.1140      2.4071      0.0348     14.7188    123.5250     26.8612
  1330.9000      8.1140      2.4121      0.0560     14.4169    124.3530     26.2834
  1331.0000      8.1186      2.4294      0.0828     13.3715    124.5370     26.2245
  1331.1000      8.1186      2.4469      0.0918     12.3075    123.8334     26.7660
  1331.2000      8.1186      2.4545      0.1100     11.8489    122.7056     27.3300
  1331.3000      8.1259      2.4490      0.1773     12.1832    122.4577     27.5974
  1331.4000      8.1259      2.4314      0.1239     13.2514    121.9158     27.7340
  1331.5000      8.1188      2.4028      0.1148     14.9795    119.8213     27.9424
  1331.6000      8.1188      2.3664      0.0531     17.1884    117.8576     28.1909
  1331.7000      8.1188      2.3361      0.0071     19.0256    116.1532     28.4276
  1331.8000      8.1446      2.3207     -0.0089     19.9575    113.0157     28.6035
  1331.9000      8.1446      2.3081      0.0149     20.7242    109.2972     28.5469
  1332.0000      8.1769      2.2811      0.0444     22.3567    107.0634     28.3139
  1332.1000      8.1769      2.2351      0.0223     25.1434    105.8888     28.1693
  1332.2000      8.1769      2.1802     -0.0189     28.4712    103.3622     28.2189
  1332.3000      8.2035      2.1366     -0.0608     31.1158    100.1674     28.3309
  1332.4000      8.2035      2.1098      0.0295     32.7383     98.7258     28.4048
  1332.5000      8.1977      2.0897     -0.0237     33.9576     98.9877     28.5652
  1332.6000      8.1977      2.0796     -0.0039     34.5685     97.2514     28.7485
  1332.7000      8.1977      2.0927     -0.0057     33.7773     92.8756     28.8526
  1332.8000      8.1641      2.1375      0.0374     31.0630     91.0758     29.1907
  1332.9000      8.1641      2.2063      0.1007     26.8912     92.7774     29.8370
  1333.0000      8.1232      2.2775      0.1217     22.5736     96.0000     30.1405
  1333.1000      8.1232      2.3345      0.1519     19.1205    101.1490     29.7392
  1333.2000      8.1232      2.3740      0.1299     16.7276    107.0076     29.1139
  1333.3000      8.1223      2.4015      0.1351     15.0610    110.1162     28.8121
  1333.4000      8.1223      2.4216      0.0681     13.8435    109.4210     28.7613
  1333.5000      8.1464      2.4367      0.0858     12.9259    108.9659     28.6589
  1333.6000      8.1464      2.4521      0.0532     11.9965    112.5000     28.5174
  1333.7000      8.1464      2.4691      0.1258     10.9621    117.6235     28.4267
  1333.8000      8.1570      2.4785      0.1202     10.3965    119.2335     28.3241
  1333.9000      8.1570      2.4828      0.0593     10.1341    116.3385     28.2355
  1334.0000      8.1445      2.4982      0.0893      9.1973    112.2541     28.2897
  1334.1000      8.1445      2.5204      0.1521      7.8539    110.0926     28.4849
  1334.2000      8.1445      2.5381      0.1131      6.7806    111.2005     28.7377
  1334.3000      8.1413      2.5564      0.1326      5.6728    115.0537     28.7795
  1334.4000      8.1413      2.5736      0.1521      4.6286    119.6295     28.4782
  1334.5000      8.1461      2.5732      0.2095      4.6526    121.4545     28.1695
  1334.6000      8.1461      2.5494      0.1236      6.0983    119.6219     28.1202
  1334.7000      8.1461      2.5205      0.1060      7.8477    117.7386     28.2218
