~Version Information
VERS.                      2.0: CWLS Log ASCII Standard - VERSION 2.0
WRAP.                       NO: One line per depth step
~Well Information Block
STRT.FT                -7.2500: 
STOP.FT              1334.7500: 
STEP.FT                 0.2500: 
NULL.                -999.2500: 
COMP.          Pioneer Natural Resources: COMPANY
WELL.          Buffet 41-36 Tr: WELL
FLD.           Purgatorie River: FIELD
LOC.           119' FNL & 271' FEL--: LOCATION
PROV.                       CO: PROVINCE
CNTY.               Las Animas: COUNTRY
SRVC.          Patterson Wireline: SERVICE COMPANY
DATE.          Tue Jan 03 09:43:31 2006: LOG DATE
UWI.           05 071 08627 00: UNIQUE WELL ID
~Curve Information Block
DEPT.FT            0 000 00 00: Depth
CCL.                          : Casing Collar Locator
TT3.usec                      : CBL 3' Travel Time
AMP3.mV                       : CBL 3' Amplitude
GR.GAPI                       : Gamma Ray
~Parameter Information Block
~A  Depth       CCL         TT3         AMP3         GR     
# ...
  1131.7500      0.0000    704.3502      5.2808    108.2702
  1132.0000      0.0000    688.4078      5.2161    106.8144
  1132.2500      0.0000    675.4455      5.1476    107.1688
  1132.5000      0.0000    666.0132      5.0839    110.5603
  1132.7500      0.0000    661.3997      5.0379    116.8870
  1133.0000      0.0000    664.2107      5.0229    123.9833
  1133.2500      0.0000    676.0237      5.0432    128.8330
  1133.5000      0.0000    694.5494      5.0881    129.9638
  1133.7500      0.0000    713.1927      5.1389    128.3384
  1134.0000      0.0000    723.5886      5.1826    125.9159
  1134.2500      0.0000    719.1454      5.2209    123.8788
  1134.5000      0.0000    698.0633      5.2645    122.4085
  1134.7500      0.0000    665.4240      5.3200    121.5435
  1135.0000      0.0000    632.4048      5.3806    121.3910
  1135.2500      0.0000    609.8603      5.4301    121.3721
  1135.5000      0.0000    600.3049      5.4545    120.2027
  1135.7500      0.0000    598.3300      5.4523    117.4144
  1136.0000      0.0000    600.1615      5.4316    114.4273
  1136.2500      0.0000    608.9028      5.4042    113.3606
  1136.5000      0.0000    628.0374      5.3827    114.9438
  1136.7500      0.0000    654.0702      5.3804    117.8994
  1137.0000      0.0000    679.1238      5.4070    120.1284
  1137.2500      0.0000    698.0878      5.4647    120.5252
  1137.5000      0.0000    710.6044      5.5467    119.9891
  1137.7500      0.0000    718.2040      5.6395    120.6363
  1138.0000      0.0000    722.2937      5.7284    123.7906
  1138.2500      0.0000    724.4944      5.8055    128.7101
  1138.5000      0.0000    726.8423      5.8725    133.1587
  1138.7500      0.0000    730.4867      5.9345    135.0545
  1139.0000      0.0000    734.7962      5.9897    133.9184
  1139.2500      0.0000    738.5735      6.0292    131.2292
  1139.5000      0.0000    741.9117      6.0452    129.2839
  1139.7500      0.0000    745.8447      6.0327    129.2546
  1140.0000      0.0000    749.9786      5.9770    130.2946
  1140.2500      0.0000    751.3909      5.8454    130.7494
  1140.5000      0.0000    747.0797      5.6112    129.8663
  1140.7500      0.0000    737.8846      5.2998    127.9401
  1141.0000      0.0000    729.7962      4.9979    125.2779
  1141.2500      0.0000    730.5965      4.7895    121.6923
  1141.5000      0.0000    743.8608      4.6875    116.9276
  1141.7500      0.0000    765.8609      4.6506    111.2595
  1142.0000      0.0000    790.2670      4.6538    105.6183
  1142.2500      0.0000    816.2475      4.7034    101.1393
  1142.5000      0.0000    848.3788      4.7955     98.6226
  1142.7500     -2.0000    887.0541      4.9005     98.4581
  1143.0000      2.0000    922.2588      4.9877    100.7301
  1143.2500      0.0000    939.2012      5.0512    105.0413
  1143.5000      0.0000    929.8240      5.1115    110.4523
  1143.7500      0.0000    899.0001      5.1900    115.9186
  1144.0000      0.0000    860.1794      5.2683    120.6871
  1144.2500      0.0000    825.1484      5.2897    124.3307
  1144.5000      0.0000    797.4897      5.2321    126.7206
  1144.7500      0.0000    773.8801      5.1569    128.0551
  1145.0000      0.0000    749.3171      5.1510    128.6821
  1145.2500      0.0000    721.0122      5.2322    128.8829
  1145.5000      0.0000    689.6985      5.3388    128.8381
  1145.7500      0.0000    659.5455      5.4000    128.4753
  1146.0000      0.0000    637.3688      5.3987    127.1813
  1146.2500      0.0000    630.1485      5.3722    124.0400
  1146.5000      0.0000    640.8439      5.3682    118.7436
  1146.7500      0.0000    665.8309      5.4079    112.1703
  1147.0000      0.0000    696.7101      5.4840    105.8701
  1147.2500      0.0000    724.5859      5.5820    101.0704
  1147.5000      0.0000    743.3268      5.6934     98.1408
  1147.7500      0.0000    750.9304      5.8075     96.8316
  1148.0000      0.0000    749.2465      5.8980     96.7915
  1148.2500      0.0000    742.0504      5.9274     97.8543
  1148.5000      0.0000    732.9171      5.8729    100.0550
  1148.7500      0.0000    724.5397      5.7498    103.4869
  1149.0000      0.0000    718.8889      5.6034    107.9118
  1149.2500      0.0000    717.2911      5.4796    112.5260
  1149.5000      0.0000    720.5558      5.4036    116.2737
  1149.7500      0.0000    728.8929      5.3793    118.2109
  1150.0000      0.0000    741.1234      5.3983    117.4811
  1150.2500      0.0000    754.0076      5.4453    113.6236
  1150.5000      0.0000    763.0359      5.5039    107.5546
  1150.7500      0.0000    764.6397      5.5625    101.8267
  1151.0000      0.0000    758.4417      5.6181     99.1950
  1151.2500      0.0000    747.9931      5.6743    100.8129
  1151.5000      0.0000    738.8318      5.7354    105.7604
  1151.7500      0.0000    734.7710      5.7997    111.8292
  1152.0000      0.0000    735.6198      5.8588    116.5700
  1152.2500      0.0000    738.4177      5.9027    118.2579
  1152.5000      0.0000    740.3719      5.9233    116.6440
  1152.7500      0.0000    740.1356      5.9148    112.9408
  1153.0000      0.0000    737.1760      5.8757    108.8754
  1153.2500      0.0000    731.7247      5.8133    105.5924
  1153.5000      0.0000    725.5194      5.7406    103.2504
  1153.7500      0.0000    721.4185      5.6684    101.3395
  1154.0000      0.0000    721.8267      5.6042     99.1514
  1154.2500      0.0000    727.5599      5.5558     96.0615
  1154.5000      0.0000    737.7661      5.5330     91.7752
  1154.7500      0.0000    750.6172      5.5397     86.6065
  1155.0000      0.0000    764.1835      5.5638     81.3752
  1155.2500      0.0000    776.6815      5.5789     76.8883
  1155.5000      0.0000    786.1805      5.5602     73.6789
  1155.7500      0.0000    790.8299      5.5028     72.2766
  1156.0000      0.0000    789.7729      5.4230     73.2846
  1156.2500      0.0000    783.7408      5.3439     76.9364
  1156.5000      0.0000    774.8206      5.2793     82.8328
  1156.7500      0.0000    765.4923      5.2310     90.1354
  1157.0000      0.0000    757.3311      5.1970     97.6639
  1157.2500      0.0000    750.1829      5.1790    103.8819
  1157.5000      0.0000    742.7070      5.1805    107.6575
  1157.7500      0.0000    734.1216      5.2034    109.5283
  1158.0000      0.0000    725.3000      5.2444    111.4717
  1158.2500      0.0000    717.8653      5.2944    114.5742
  1158.5000      0.0000    712.5627      5.3404    117.4609
  1158.7500      0.0000    709.0331      5.3722    118.0084
  1159.0000      0.0000    706.8724      5.3892    116.2386
  1159.2500      0.0000    706.2109      5.3986    114.4152
  1159.5000      0.0000    707.1275      5.4066    114.4115
  1159.7500      0.0000    708.9957      5.4121    116.0340
  1160.0000      0.0000    710.7117      5.4112    118.0725
  1160.2500      0.0000    711.2848      5.4058    120.0123
  1160.5000      0.0000    710.0980      5.4023    122.1336
  1160.7500      0.0000    707.1013      5.4045    124.5057
  1161.0000      0.0000    703.2664      5.4096    126.6652
  1161.2500      0.0000    700.5497      5.4111    128.3496
  1161.5000      0.0000    700.6382      5.4049    130.0339
  1161.7500      0.0000    703.4774      5.3929    132.2596
  1162.0000      0.0000    707.3656      5.3833    134.5626
  1162.2500      0.0000    710.6124      5.3867    135.7765
  1162.5000      0.0000    712.9869      5.4098    135.5247
  1162.7500      0.0000    715.9141      5.4500    134.7253
  1163.0000      0.0000    721.7704      5.4945    134.3823
  1163.2500      0.0000    732.5872      5.5267    134.4069
  1163.5000      0.0000    748.3535      5.5345    133.7638
  1163.7500      0.0000    766.2018      5.5180    131.5565
  1164.0000      0.0000    781.8978      5.4911    128.0759
  1164.2500      0.0000    792.6120      5.4731    124.6873
  1164.5000      0.0000    798.1793      5.4771    122.3418
  1164.7500      0.0000    799.9603      5.5020    120.4281
  1165.0000      0.0000    798.9821      5.5350    117.6194
