~Version Information
VERS.                      2.0: CWLS Log ASCII Standard - VERSION 2.0
WRAP.                       NO: One line per depth step
~Well Information Block
STRT.FT               230.0000: 
STOP.FT               706.5000: 
STEP.FT                 0.1000: 
NULL.                -999.2500: 
COMP.          Pioneer Natural Resources: COMPANY
WELL.          Razor Clam 23-27: WELL
FLD.           Purgatoire River: FIELD
LOC.           2499' FSL & 2636' FWL: LOCATION
CNTY.               Las Animas: COUNTY
SRVC.                Patterson: SERVICE COMPANY
DATE.          Mon Feb 13 07:31:47 2006: LOG DATE
UWI.           05 071 08667 00: UNIQUE WELL ID
STAT.                 Colorado: STATE
~Curve Information Block
DEPT.FT            0 000 00 00: Depth
DCAL.in                       : CDL Caliper
RHOB.g/cc                     : CDL Bulk Density
RHOC.g/cc                     : CDL Density Correction
DPOR.pu                       : CDL Density Porosity
GR.GAPI                       : Gamma Ray
NPOR.pu                       : Neutron Porosity
~Parameter Information Block
~A  Depth       DCAL        RHOB        RHOC        DPOR         GR         NPOR    
# ...
   383.6000      8.0437      2.5992      0.0892      3.0760    117.9357     25.7170
   383.7000      8.0437      2.5956      0.0680      3.2968    111.1411     24.6748
   383.8000      8.0425      2.5797      0.0283      4.2582    108.1627     24.4253
   383.9000      8.0425      2.5629      0.0412      5.2769    113.2593     24.5484
   384.0000      8.0425      2.5474     -0.0046      6.2157    120.0374     24.7014
   384.1000      8.0425      2.5331     -0.0208      7.0864    122.4278     24.8951
   384.2000      8.0425      2.5260     -0.0153      7.5164    118.9482     25.4716
   384.3000      8.0459      2.5294     -0.0056      7.3084    109.7646     26.1126
   384.4000      8.0459      2.5305      0.0428      7.2434    100.4669     26.0180
   384.5000      8.0427      2.5147      0.0086      8.2025     97.1911     25.2512
   384.6000      8.0427      2.4890     -0.0188      9.7568     96.8728     24.5512
   384.7000      8.0427      2.4755     -0.0155     10.5784     95.7753     24.2471
   384.8000      8.0439      2.4849     -0.0079     10.0072     95.4076     24.0848
   384.9000      8.0439      2.5048     -0.0268      8.8003     95.9996     23.9208
   385.0000      8.0435      2.5144      0.0282      8.2184     95.0485     23.5141
   385.1000      8.0435      2.5053     -0.0057      8.7693     93.6741     22.8786
   385.2000      8.0435      2.4940     -0.0259      9.4530     95.1069     22.6650
   385.3000      8.0439      2.4991      0.0001      9.1432     94.9648     22.9069
   385.4000      8.0439      2.5177     -0.0092      8.0210     87.1061     23.1026
   385.5000      8.0513      2.5399     -0.0172      6.6721     78.9191     23.2893
   385.6000      8.0513      2.5528      0.0716      5.8899     81.7599     23.7032
   385.7000      8.0513      2.5486      0.0187      6.1439     91.2101     23.9045
   385.8000      8.0467      2.5404      0.0304      6.6430     94.1357     23.2273
   385.9000      8.0467      2.5368      0.0365      6.8578     86.6938     22.1244
   386.0000      8.0439      2.5309      0.0511      7.2207     77.8949     21.6208
   386.1000      8.0439      2.5242     -0.0097      7.6229     76.2976     21.6154
   386.2000      8.0439      2.5312      0.0258      7.2010     78.1878     21.7329
   386.3000      8.0440      2.5538      0.0449      5.8331     78.3033     22.2317
   386.4000      8.0440      2.5773      0.0510      4.4047     79.2982     22.9728
   386.5000      8.0433      2.5875      0.0651      3.7865     81.9790     23.2889
   386.6000      8.0433      2.5880      0.0583      3.7552     83.7240     22.8032
   386.7000      8.0433      2.5913      0.0485      3.5579     85.8736     21.7827
   386.8000      8.0452      2.5900      0.0775      3.6363     88.0962     20.6965
   386.9000      8.0452      2.5709      0.0366      4.7939     87.8639     20.0119
   387.0000      8.0417      2.5448     -0.0037      6.3736     86.0530     20.0441
   387.1000      8.0417      2.5224      0.0596      7.7303     85.2313     20.3768
   387.2000      8.0417      2.4982     -0.0083      9.1972     85.8034     20.6766
   387.3000      8.0461      2.4754     -0.0123     10.5812     87.0946     21.1512
   387.4000      8.0461      2.4655     -0.0057     11.1840     86.3347     21.6684
   387.5000      8.0477      2.4744      0.0004     10.6411     81.3634     21.8218
   387.6000      8.0477      2.4991      0.0280      9.1441     73.8323     21.5301
   387.7000      8.0477      2.5335      0.0189      7.0624     68.4981     21.2879
   387.8000      8.0457      2.5705      0.0575      4.8201     69.5208     21.2493
   387.9000      8.0457      2.5977      0.0621      3.1692     75.4114     20.9923
   388.0000      8.0451      2.6043      0.0747      2.7673     79.8015     20.5439
   388.1000      8.0451      2.5895      0.0777      3.6694     78.0633     20.3629
   388.2000      8.0451      2.5578      0.0813      5.5888     74.4013     20.4326
   388.3000      8.0433      2.5225     -0.0154      7.7299     76.9459     20.3190
   388.4000      8.0433      2.5014      0.0064      9.0046     84.7020     19.7877
   388.5000      8.0468      2.4960      0.0194      9.3359     87.5641     19.3296
   388.6000      8.0468      2.4969     -0.0277      9.2809     82.5681     19.5438
   388.7000      8.0468      2.4948      0.0207      9.4041     80.9152     20.2034
   388.8000      8.0452      2.4813     -0.0239     10.2257     88.3891     20.8801
   388.9000      8.0452      2.4597      0.0117     11.5309     95.9394     21.5569
   389.0000      8.0462      2.4440     -0.0260     12.4857     98.4425     21.9178
   389.1000      8.0462      2.4482      0.0045     12.2292     97.9795     21.7239
   389.2000      8.0462      2.4739      0.0138     10.6732     95.3761     21.2991
   389.3000      8.0452      2.5079      0.0501      8.6137     93.6508     20.9785
   389.4000      8.0452      2.5333      0.0742      7.0740     93.4446     20.8232
   389.5000      8.0448      2.5442      0.0278      6.4134     89.9386     20.9573
   389.6000      8.0448      2.5468      0.0236      6.2525     83.5045     21.7548
   389.7000      8.0448      2.5481     -0.0014      6.1743     79.7238     23.0192
   389.8000      8.0426      2.5492      0.0141      6.1066     79.7136     24.0746
   389.9000      8.0426      2.5455     -0.0080      6.3321     79.2708     24.4048
   390.0000      8.0419      2.5393     -0.0226      6.7089     76.5988     23.6315
   390.1000      8.0419      2.5397      0.0080      6.6825     76.1995     21.6011
   390.2000      8.0419      2.5442      0.0175      6.4123     79.6676     19.2802
   390.3000      8.0441      2.5487     -0.0241      6.1394     80.6896     18.2866
   390.4000      8.0441      2.5565      0.0098      5.6650     77.7880     18.8180
   390.5000      8.0451      2.5635      0.0025      5.2421     74.8018     19.7230
   390.6000      8.0451      2.5661      0.0092      5.0877     71.0404     19.9446
   390.7000      8.0451      2.5646      0.0188      5.1728     68.3025     19.4544
   390.8000      8.0443      2.5595      0.0009      5.4852     69.1867     19.0331
   390.9000      8.0443      2.5514      0.0372      5.9762     73.2051     19.0460
   391.0000      8.0460      2.5409      0.0109      6.6119     77.7509     19.5514
   391.1000      8.0460      2.5357     -0.0391      6.9297     78.7457     20.4614
   391.2000      8.0460      2.5420      0.0255      6.5460     78.1064     21.2006
   391.3000      8.0414      2.5570     -0.0115      5.6385     80.2364     21.5821
   391.4000      8.0414      2.5790     -0.0081      4.3005     83.2615     21.8315
   391.5000      8.0233      2.5999      0.0457      3.0394     83.7188     21.5531
   391.6000      8.0233      2.6001      0.0297      3.0215     80.8060     20.5866
   391.7000      8.0233      2.5752      0.0118      4.5335     76.0824     19.8322
   391.8000      8.0419      2.5440      0.0343      6.4267     71.0523     19.9800
   391.9000      8.0419      2.5274      0.0059      7.4327     70.0326     20.8119
   392.0000      8.0457      2.5292     -0.0033      7.3187     77.0919     21.3223
   392.1000      8.0457      2.5405      0.0009      6.6351     85.7247     20.6982
   392.2000      8.0457      2.5492      0.0326      6.1111     85.1788     19.4453
   392.3000      8.0435      2.5413      0.0343      6.5887     75.9315     18.5803
   392.4000      8.0435      2.5146      0.0361      8.2079     69.6649     18.4848
   392.5000      8.0410      2.4883     -0.0006      9.7990     75.7977     18.7284
   392.6000      8.0410      2.4798      0.0069     10.3145     89.3936     18.3806
   392.7000      8.0410      2.4840      0.0412     10.0607    100.1443     17.1036
   392.8000      8.0421      2.4945      0.0387      9.4270    103.9525     15.8315
   392.9000      8.0421      2.5138      0.0529      8.2549     99.0950     15.4153
   393.0000      8.0421      2.5325      0.0944      7.1208     89.4312     15.6610
   393.1000      8.0421      2.5409      0.0428      6.6114     84.0478     16.0279
