~Version Information
VERS.                      2.0: CWLS Log ASCII Standard - VERSION 2.0
WRAP.                       NO: One line per depth step
~Well Information Block
STRT.FT               196.3000: 
STOP.FT              1631.0000: 
STEP.FT                 0.1000: 
NULL.                -999.2500: 
COMP.          Petrogulf Corporation: COMPANY
WELL.             State 16-44R: WELL
FLD.           Purgatoire River: FIELD
LOC.           632' FSL & 223' FEL--: LOCATION
PROV.                 Colorado: PROVINCE
CNTY.               Las Animas: COUNTRY
SRVC.                Patterson: SERVICE COMPANY
DATE.          Fri Oct 21 14:20:18 2005: LOG DATE
UWI.           05 071 08457 00: UNIQUE WELL ID
~Curve Information Block
DEPT.FT            0 000 00 00: Depth
DCAL.in                       : CDL Caliper
RHOB.g/cc                     : CDL Bulk Density
RHOC.g/cc                     : CDL Density Correction
DPOR.pu                       : CDL Density Porosity
NPOR.pu                       : Neutron Porosity
GR.GAPI                       : Gamma Ray
~Parameter Information Block
~A  Depth       DCAL        RHOB        RHOC        DPOR        NPOR         GR     
# ...
   666.7000      8.0432      1.9294     -0.0454     43.6701     32.5338    119.1668
   666.8000      8.0399      1.8367     -0.0776     49.2884     32.5624    112.7976
   666.9000      8.0399      1.7597     -0.0386     53.9578     32.6373    109.9093
   667.0000      8.0355      1.7002     -0.0114     57.5648     32.5281    107.8355
   667.1000      8.0355      1.6612      0.0287     59.9296     32.4062    104.2622
   667.2000      8.0355      1.6605      0.0305     59.9697     32.4915    100.6670
   667.3000      8.0334      1.7109      0.0613     56.9157     32.4200     99.3914
   667.4000      8.0334      1.8015      0.1260     51.4257     31.7869    102.6194
   667.5000      8.0336      1.9073      0.1846     45.0118     30.7247    112.0028
   667.6000      8.0336      2.0101      0.2340     38.7836     29.7127    121.0769
   667.7000      8.0336      2.1049      0.2367     33.0374     29.1598    120.8766
   667.8000      8.0362      2.1924      0.2063     27.7321     29.2961    116.1002
   667.9000      8.0362      2.2676      0.2234     23.1765     30.1437    119.8247
   668.0000      8.0398      2.3270      0.1880     19.5774     31.1668    133.3531
   668.1000      8.0398      2.3795      0.1246     16.3919     31.5674    143.9555
   668.2000      8.0398      2.4279      0.0932     13.4591     31.0959    146.5172
   668.3000      8.0432      2.4625      0.0278     11.3636     30.1116    150.2684
   668.4000      8.0432      2.4835      0.0378     10.0909     29.1347    157.8154
   668.5000      8.0439      2.5005      0.0290      9.0594     28.5696    160.9075
   668.6000      8.0439      2.5140      0.0659      8.2422     28.5465    158.5424
   668.7000      8.0439      2.5124      0.0836      8.3397     28.8321    155.0661
   668.8000      8.0426      2.4969      0.0493      9.2806     29.2240    149.0340
   668.9000      8.0426      2.4908      0.0336      9.6481     29.5584    138.0431
   669.0000      8.0420      2.5051      0.0522      8.7799     29.5609    126.7202
   669.1000      8.0420      2.5225      0.0942      7.7299     29.3106    122.0411
   669.2000      8.0420      2.5315      0.0236      7.1838     28.8021    123.7501
   669.3000      8.0402      2.5397      0.0884      6.6850     28.0364    128.1124
   669.4000      8.0402      2.5480      0.0521      6.1810     27.6824    133.3695
   669.5000      8.0328      2.5542      0.0645      5.8063     27.9742    137.0039
   669.6000      8.0328      2.5611      0.0731      5.3891     28.0331    136.7155
   669.7000      8.0328      2.5743      0.0348      4.5902     27.3049    132.4868
   669.8000      8.0224      2.5948      0.0669      3.3433     26.5549    123.2853
   669.9000      8.0224      2.6139      0.0421      2.1906     26.5850    112.2624
   670.0000      8.0169      2.6255      0.0763      1.4853     26.7361    106.5285
   670.1000      8.0169      2.6297      0.0740      1.2298     26.2380    108.3657
   670.2000      8.0169      2.6245      0.1116      1.5478     25.7289    111.8310
   670.3000      8.0149      2.6038      0.0713      2.8016     25.9796    111.9313
   670.4000      8.0149      2.5727      0.0535      4.6865     26.6734    114.0882
   670.5000      8.0155      2.5501      0.0317      6.0524     27.1861    120.3525
   670.6000      8.0155      2.5447      0.0482      6.3816     27.3782    122.9222
   670.7000      8.0155      2.5426      0.0238      6.5080     27.2469    122.8157
   670.8000      8.0228      2.5333      0.0164      7.0734     26.9570    126.2806
   670.9000      8.0228      2.5225      0.0149      7.7290     26.7526    127.2161
   671.0000      8.0338      2.5227      0.0031      7.7147     26.8547    121.4711
   671.1000      8.0338      2.5447      0.0201      6.3846     27.4016    117.1503
   671.2000      8.0338      2.5847      0.0477      3.9550     28.0477    119.4189
   671.3000      8.0428      2.6228      0.0999      1.6515     28.5555    127.9043
   671.4000      8.0428      2.6362      0.1037      0.8347     28.7730    138.6466
   671.5000      8.0472      2.6145      0.0947      2.1532     28.6042    147.0023
   671.6000      8.0472      2.5712      0.0268      4.7744     28.5313    150.8920
   671.7000      8.0472      2.5405      0.0312      6.6356     28.7947    147.1094
   671.8000      8.0474      2.5383      0.0506      6.7695     29.1744    138.9876
   671.9000      8.0474      2.5455      0.0572      6.3319     29.7480    135.3491
   672.0000      8.0458      2.5380      0.0425      6.7892     30.3121    136.6083
   672.1000      8.0458      2.5085      0.0645      8.5755     30.5280    139.7803
   672.2000      8.0458      2.4666      0.0042     11.1147     30.7068    143.9353
   672.3000      8.0440      2.4305      0.0215     13.3023     30.9378    144.9427
   672.4000      8.0440      2.4020     -0.0039     15.0274     31.0933    140.6698
   672.5000      8.0419      2.3640      0.0291     17.3326     31.4133    134.0375
   672.6000      8.0419      2.3039      0.0308     20.9767     31.8272    129.5838
   672.7000      8.0419      2.2338     -0.0271     25.2216     32.0998    128.4677
   672.8000      8.0423      2.1812     -0.0127     28.4123     32.1654    128.1107
   672.9000      8.0423      2.1598     -0.0292     29.7068     31.9865    125.0486
   673.0000      8.0476      2.1670      0.0132     29.2756     31.6273    120.4205
   673.1000      8.0476      2.1896      0.0773     27.9058     31.2238    118.9483
   673.2000      8.0476      2.2144      0.1030     26.3981     30.7061    119.7275
   673.3000      8.0583      2.2410      0.1166     24.7881     29.8609    116.5503
   673.4000      8.0583      2.2740      0.1476     22.7908     28.7405    111.8210
   673.5000      8.0641      2.3099      0.1730     20.6118     27.8749    113.0493
   673.6000      8.0641      2.3403      0.1697     18.7673     27.5983    118.1987
   673.7000      8.0641      2.3670      0.0595     17.1499     27.3247    119.1053
   673.8000      8.0512      2.4084     -0.0012     14.6427     26.4845    113.7061
   673.9000      8.0512      2.4736      0.0533     10.6938     25.2817    106.4123
   674.0000      8.0194      2.5437      0.0917      6.4441     24.2730    102.4637
   674.1000      8.0194      2.5929      0.1011      3.4593     23.7492    102.3619
   674.2000      8.0194      2.6081      0.0902      2.5421     23.5478    102.3721
   674.3000      7.9870      2.5997      0.0367      3.0467     23.1424     98.5266
   674.4000      7.9870      2.5942      0.0587      3.3820     22.3697     91.9579
   674.5000      7.9659      2.6007      0.0701      2.9863     21.8293     90.0959
   674.6000      7.9659      2.6125      0.0772      2.2706     21.8258     95.9427
   674.7000      7.9659      2.6249      0.1142      1.5222     21.8817    105.0911
   674.8000      7.9582      2.6267      0.1251      1.4119     21.8898    111.8310
   674.9000      7.9582      2.6122      0.0923      2.2938     22.1759    112.6390
   675.0000      7.9603      2.5952      0.0647      3.3194     22.6054    107.8444
   675.1000      7.9603      2.5882      0.0739      3.7430     23.0229    101.0038
   675.2000      7.9603      2.5870      0.0810      3.8208     23.7831     95.9613
   675.3000      7.9802      2.5838      0.0706      4.0121     24.6415     95.5912
   675.4000      7.9802      2.5786      0.0487      4.3257     24.9220    100.2453
   675.5000      8.0160      2.5711      0.0471      4.7792     25.0091    105.9175
   675.6000      8.0160      2.5553      0.0568      5.7420     25.4205    109.7780
   675.7000      8.0160      2.5269      0.0374      7.4594     25.7939    114.8327
   675.8000      8.0382      2.4979     -0.0154      9.2178     26.0831    121.9282
   675.9000      8.0382      2.4849     -0.0016     10.0071     26.7503    127.1576
   676.0000      8.0429      2.4880      0.0286      9.8191     27.7635    131.2365
   676.1000      8.0429      2.4998      0.0192      9.1005     28.4211    136.7666
   676.2000      8.0429      2.5182      0.0490      7.9882     28.1861    140.8736
