~Version Information
VERS.                      2.0: CWLS Log ASCII Standard - VERSION 2.0
WRAP.                       NO: One line per depth step
~Well Information Block
STRT.FT               -14.0000: 
STOP.FT               951.0000: 
STEP.FT                 0.2500: 
NULL.                -999.2500: 
COMP.          Pioneer Natural Resources: COMPANY
WELL.             Giggle 21-22: WELL
FLD.           Purgatoire River: FIELD
LOC.           950' FNL & 2094' FWL: LOCATION
CNTY.               Las Animas: COUNTY
SRVC.                         : SERVICE COMPANY
DATE.          Mon Apr 17 17:51:33 2006: LOG DATE
UWI.           05 071 08726 00: UNIQUE WELL ID
STAT.                       CO: STATE
~Curve Information Block
DEPT.FT            0 000 00 00: Depth
CCL.                          : Casing Collar Locator
TT3.usec                      : CBL 3' Travel Time
AMP3.mV                       : CBL 3' Amplitude
GR.GAPI                       : Gamma Ray
~Parameter Information Block
~A  Depth       CCL         TT3         AMP3         GR     
# ...
   689.5000      0.0000    659.5963      6.2100    124.5991
   689.7500      0.0000    653.2004      6.2563    120.5016
   690.0000      0.0000    651.2126      6.4146    116.6950
   690.2500      0.0000    652.7783      6.6340    113.8138
   690.5000      0.0000    657.8958      6.8482    111.7979
   690.7500      0.0000    666.9747      7.0113    110.2264
   691.0000      0.0000    679.5587      7.1098    109.1757
   691.2500      0.0000    693.4529      7.1589    109.6357
   691.5000      0.0000    705.1424      7.1917    112.4536
   691.7500      0.0000    711.2027      7.2323    116.6605
   692.0000      0.0000    709.7466      7.2790    119.3984
   692.2500      0.0000    701.4946      7.3318    118.0273
   692.5000      0.0000    689.9842      7.4300    112.2648
   692.7500      0.0000    679.7843      7.6316    104.1006
   693.0000      0.0000    672.8297      7.9363     95.9012
   693.2500      0.0000    665.7081      8.2440     88.8114
   693.5000      0.0000    651.2983      8.4166     82.5620
   693.7500      0.0000    625.3881      8.4001     76.2880
   694.0000      0.0000    593.8542      8.2865     69.6132
   694.2500      0.0000    572.2538      8.2348     63.2272
   694.5000      0.0000    574.4836      8.3274     58.3849
   694.7500      0.0000    600.5069      8.5066     55.8848
   695.0000      0.0000    636.9412      8.6351     55.7036
   695.2500      0.0000    669.1304      8.5956     57.4063
   695.5000      0.0000    690.2468      8.3554     60.4743
   695.7500      0.0000    700.5341      7.9641     64.1603
   696.0000      0.0000    702.7919      7.4935     67.3154
   696.2500      0.0000    700.2692      6.9756     68.7967
   696.5000      0.0000    696.3546      6.4121     68.4008
   696.7500      0.0000    694.0355      5.8409     67.3643
   697.0000      0.0000    695.4128      5.3630     67.6129
   697.2500      0.0000    701.6962      5.0813     70.3102
   697.5000      0.0000    712.8867      5.0363     74.9781
   697.7500      0.0000    726.9427      5.2188     79.7506
   698.0000      0.0000    739.6046      5.5952     82.5629
   698.2500      0.0000    746.1819      6.0746     82.5364
   698.5000      0.0000    744.3854      6.4968     80.5371
   698.7500      5.0000    735.6077      6.7178     78.5581
   699.0000      2.4637    722.8455      6.7071     78.5830
   699.2500      0.0000    707.4254      6.5573     81.5329
   699.5000      0.0000    689.0652      6.4250     86.6146
   699.7500      0.0000    669.8962      6.4484     91.5587
   700.0000      0.0000    656.0231      6.6613     93.8450
   700.2500      0.0000    651.6722      6.9654     92.0802
   700.5000      0.0000    651.9172      7.2207     86.7127
   700.7500      0.0000    643.8331      7.3734     79.8174
   701.0000      0.0000    615.8991      7.4714     73.8863
   701.2500      0.0000    567.0544      7.5664     70.3262
   701.5000      0.0000    508.2576      7.6499     69.0473
   701.7500      0.0000    455.3002      7.7022     69.3543
   702.0000      0.0000    418.6456      7.7577     70.8116
   702.2500      0.0000    399.0473      7.8849     73.1436
   702.5000      0.0000    391.0658      8.1132     75.8069
   702.7500      0.0000    388.8202      8.4101     78.0615
   703.0000      0.0000    388.7054      8.7206     79.2920
   703.2500      0.0000    389.1812      9.0081     79.0547
   703.5000      0.0000    389.7435      9.2503     77.1462
   703.7500      0.0000    390.2553      9.4174     74.0764
   704.0000      0.0000    390.6774      9.4795     71.1395
   704.2500      0.0000    391.0081      9.4413     69.4355
   704.5000      0.0000    391.2603      9.3477     68.9207
   704.7500      0.0000    391.4826      9.2450     68.6068
   705.0000      0.0000    392.0315      9.1529     67.4279
   705.2500      0.0000    394.3065      9.0809     64.8647
   705.5000      0.0000    401.8694      9.0411     61.1479
   705.7500      0.0000    420.7124      9.0128     57.0986
   706.0000      0.0000    456.5132      8.9150     53.7203
   706.2500      0.0000    508.9909      8.6563     51.8572
   706.5000      0.0000    568.6415      8.2177     52.0495
   706.7500      0.0000    621.3234      7.6790     54.2960
   707.0000      0.0000    657.4810      7.1598     57.7006
   707.2500      0.0000    676.7190      6.7415     60.6366
   707.5000      0.0000    684.5538      6.4495     61.7674
   707.7500      0.0000    686.8426      6.3004     60.9284
   708.0000      0.0000    687.1274      6.3217     58.7033
   708.2500      0.0000    686.9134      6.5065     55.3980
   708.5000      0.0000    686.7017      6.7864     50.9656
   708.7500      0.0000    686.6224      7.0912     45.8150
   709.0000      0.0000    686.6697      7.4107     41.1562
   709.2500      0.0000    686.7592      7.7546     38.4556
   709.5000      0.0000    686.7924      8.0726     38.6223
   709.7500      0.0000    686.7149      8.2830     41.3772
   710.0000      0.0000    686.5486      8.3878     45.1822
   710.2500      0.0000    686.3815      8.4989     48.0954
   710.5000      0.0000    686.3206      8.7215     49.1128
   710.7500      0.0000    686.4251      9.0354     48.7551
   711.0000      0.0000    686.6569      9.3170     48.3122
   711.2500      0.0000    686.8940      9.4661     48.6524
   711.5000      0.0000    686.9944      9.4962     49.9254
   711.7500      0.0000    686.8356      9.5115     52.1126
   712.0000      0.0000    686.2658      9.6221     55.3012
   712.2500      0.0000    685.1031      9.8736     59.3357
   712.5000      0.0000    683.3985     10.2136     63.7001
   712.7500      0.0000    681.7907     10.5085     68.0691
   713.0000      0.0000    681.3160     10.6245     72.7669
   713.2500      0.0000    682.5404     10.5170     78.4060
   713.5000      0.0000    684.9757     10.2452     85.1264
   713.7500      0.0000    687.5568      9.9200     92.2684
   714.0000      0.0000    689.5566      9.6407     98.4983
   714.2500      0.0000    690.9114      9.4554    102.0878
   714.5000      0.0000    691.9131      9.3501    101.7151
   714.7500      0.0000    692.8931      9.2735     97.6698
   715.0000      0.0000    694.2311      9.1805     92.1375
   715.2500      0.0000    696.4344      9.0566     87.8291
   715.5000      0.0000    699.7543      8.9077     86.1465
   715.7500      0.0000    703.3845      8.7352     86.6072
   716.0000      0.0000    705.0710      8.5394     87.8940
   716.2500      0.0000    701.7211      8.3412     89.2203
   716.5000      0.0000    689.9258      8.1789     90.6261
   716.7500      0.0000    665.6600      8.0726     92.3234
   717.0000      0.0000    625.3500      8.0070     94.2505
   717.2500      0.0000    570.1591      7.9497     96.3235
   717.5000      0.0000    509.3210      7.8887     98.7005
   717.7500      0.0000    456.3577      7.8637    101.5555
   718.0000      0.0000    420.3755      7.9559    104.7127
   718.2500      0.0000    401.5130      8.2196    107.5498
   718.5000      0.0000    394.0507      8.6166    109.2227
   718.7500      0.0000    391.9524      9.0291    109.1486
   719.0000      0.0000    391.5880      9.3328    107.4134
   719.2500      0.0000    391.4726      9.4590    104.6949
   719.5000      0.0000    391.1734      9.4030    101.8614
   719.7500      0.0000    390.6368      9.2030     99.6091
   720.0000      0.0000    389.9599      8.9198     98.2044
   720.2500      0.0000    389.3156      8.6184     97.3482
   720.5000      0.0000    388.8287      8.3450     96.2280
   720.7500      0.0000    388.4997      8.1226     93.7449
   721.0000      0.0000    388.2431      7.9721     89.1182
   721.2500      0.0000    387.9821      7.9287     82.7343
   721.5000      0.0000    387.6991      8.0277     76.1481
   721.7500      0.0000    387.4275      8.2795     70.8359
   722.0000      0.0000    387.2312      8.6468     67.1167
   722.2500      0.0000    387.1773      9.0293     64.4137
   722.5000      0.0000    387.2852      9.2827     62.2090
   722.7500      0.0000    387.4834      9.2901     60.5840
