~Version Information
VERS.                      2.0: CWLS Log ASCII Standard - VERSION 2.0
WRAP.                       NO: One line per depth step
~Well Information Block
STRT.FT                -8.0000: 
STOP.FT              1661.0000: 
STEP.FT                 0.2500: 
NULL.                -999.2500: 
COMP.          Pioneer Natural Resources: COMPANY
WELL.          Rollerball 34-30: WELL
FLD.           Purgatorie River: FIELD
LOC.           893' FSL & 2408' FEL----: LOCATION
CNTY.               Las Animas: COUNTY
SRVC.          Patterson Wireline: SERVICE COMPANY
DATE.          Mon Feb 20 08:34:38 2006: LOG DATE
UWI.           05 071 08581 00: UNIQUE WELL ID
STAT.                       CO: STATE
~Curve Information Block
DEPT.FT            0 000 00 00: Depth
CCL.                          : Casing Collar Locator
TT3.usec                      : CBL 3' Travel Time
AMP3.mV                       : CBL 3' Amplitude
GR.GAPI                       : Gamma Ray
~Parameter Information Block
~A  Depth       CCL         TT3         AMP3         GR     
# ...
  1533.0000      0.0000    757.3511      5.4639     61.9611
  1533.2500      0.0000    754.0861      5.4903     63.3476
  1533.5000      0.0000    743.3051      5.5038     63.2558
  1533.7500      0.0000    723.2876      5.5164     61.2560
  1534.0000      0.0000    697.8635      5.5325     58.1152
  1534.2500      0.0000    676.2205      5.5398     54.8502
  1534.5000      0.0000    667.1953      5.5187     52.0062
  1534.7500      0.0000    672.6306      5.4619     49.7117
  1535.0000      0.0000    685.2976      5.3845     48.1299
  1535.2500      0.0000    694.3868      5.3143     47.6618
  1535.5000      0.0000    695.5590      5.2716     48.6804
  1535.7500      0.0000    694.9402      5.2581     51.0123
  1536.0000      0.0000    700.8569      5.2627     53.6423
  1536.2500      0.0000    713.5858      5.2726     55.1686
  1536.5000      0.0000    726.1340      5.2786     54.8189
  1536.7500      0.0000    732.1985      5.2754     53.0864
  1537.0000      0.0000    729.0256      5.2645     51.3769
  1537.2500      0.0000    714.2578      5.2554     51.0064
  1537.5000      0.0000    685.9298      5.2593     52.3070
  1537.7500      0.0000    648.4012      5.2805     54.5218
  1538.0000      0.0000    615.7346      5.3141     56.4941
  1538.2500      0.0000    604.1339      5.3512     57.3523
  1538.5000      0.0000    618.1431      5.3829     56.6540
  1538.7500      0.0000    645.3971      5.4027     54.3810
  1539.0000      0.0000    667.1898      5.4073     51.1935
  1539.2500      0.0000    673.9697      5.3949     48.4714
  1539.5000      0.0000    668.8123      5.3637     47.6585
  1539.7500      0.0000    657.3668      5.3096     49.4261
  1540.0000      0.0000    639.7984      5.2265     53.3994
  1540.2500      0.0000    614.7383      5.1101     58.3703
  1540.5000      0.0000    586.1057      4.9737     62.6493
  1540.7500      0.0000    561.1924      4.8686     64.7864
  1541.0000      0.0000    544.3636      4.8652     64.5878
  1541.2500      0.0000    536.5792      4.9771     63.3483
  1541.5000      0.0000    538.9022      5.1210     62.6655
  1541.7500      0.0000    552.6503      5.1944     62.9590
  1542.0000      0.0000    578.0137      5.1806     63.2858
  1542.2500      0.0000    615.5616      5.1384     62.4653
  1542.5000      0.0000    664.6509      5.1138     60.2224
  1542.7500      1.6006    715.9073      5.1061     57.3959
  1543.0000      1.8066    750.1983      5.1039     55.2985
  1543.2500      0.0000    751.9175      5.1250     54.7853
  1543.5000      0.0000    722.6432      5.2122     55.6926
  1543.7500      0.0000    679.8742      5.3825     57.1186
  1544.0000      0.0000    644.9769      5.5718     58.2869
  1544.2500      0.0000    631.9501      5.6632     59.0848
  1544.5000      0.0000    640.8314      5.6019     59.8157
  1544.7500      0.0000    657.9404      5.4550     60.5593
  1545.0000      0.0000    665.2679      5.3325     60.7929
  1545.2500      0.0000    653.4496      5.2847     59.7182
  1545.5000      0.0000    628.4468      5.2951     57.1853
  1545.7500      0.0000    607.4850      5.3305     54.2963
  1546.0000      0.0000    607.6448      5.3672     52.8801
  1546.2500      0.0000    634.6185      5.3902     54.2130
  1546.5000      0.0000    678.8851      5.3933     58.0225
  1546.7500      0.0000    722.5630      5.3835     62.5100
  1547.0000      0.0000    751.4823      5.3753     65.5422
  1547.2500      0.0000    762.0604      5.3791     66.1266
  1547.5000      0.0000    759.0886      5.3932     64.7564
  1547.7500      0.0000    749.8438      5.4065     62.5306
  1548.0000      0.0000    740.3247      5.4039     60.3815
  1548.2500      0.0000    734.1205      5.3720     59.0721
  1548.5000      0.0000    732.1497      5.3056     59.2257
  1548.7500      0.0000    733.2852      5.2121     60.9045
  1549.0000      0.0000    735.8672      5.1109     63.3115
  1549.2500      0.0000    738.6656      5.0305     65.1643
  1549.5000      0.0000    740.8374      5.0072     65.4833
  1549.7500      0.0000    742.1111      5.0768     64.0054
  1550.0000      0.0000    743.3539      5.2505     60.9454
  1550.2500      0.0000    746.0203      5.4873     56.7657
  1550.5000      0.0000    750.4558      5.7001     52.4036
  1550.7500      0.0000    755.1690      5.7993     49.3122
  1551.0000      0.0000    758.0435      5.7441     48.7348
  1551.2500      0.0000    757.6655      5.5636     50.8730
  1551.5000      0.0000    753.5558      5.3352     54.8479
  1551.7500      0.0000    746.4009      5.1363     59.3439
  1552.0000      0.0000    738.5479      5.0026     63.2389
  1552.2500      0.0000    733.1923      4.9253     65.9089
  1552.5000      0.0000    732.3514      4.8784     67.3245
  1552.7500      0.0000    736.0149      4.8484     67.9692
  1553.0000      0.0000    742.9542      4.8421     68.4067
  1553.2500      0.0000    751.1829      4.8739     68.7029
  1553.5000      0.0000    757.9487      4.9421     68.3964
  1553.7500      0.0000    761.0964      5.0139     67.0474
  1554.0000      0.0000    761.0203      5.0349     64.5237
  1554.2500      0.0000    760.1724      4.9617     60.8587
  1554.5000      0.0000    760.0858      4.7940     56.3217
  1554.7500      0.0000    759.5045      4.5799     51.6502
  1555.0000      0.0000    755.9282      4.3865     47.8942
  1555.2500      0.0000    748.6487      4.2589     45.9524
  1555.5000      0.0000    739.9218      4.2021     46.1818
  1555.7500      0.0000    733.3337      4.1935     48.2288
  1556.0000      0.0000    731.1561      4.2062     51.1729
  1556.2500      0.0000    732.9935      4.2216     54.0296
  1556.5000      0.0000    736.6269      4.2312     56.2330
  1556.7500      0.0000    739.9619      4.2345     57.5471
  1557.0000      0.0000    742.1720      4.2348     57.6561
  1557.2500      0.0000    743.4094      4.2347     56.2663
  1557.5000      0.0000    743.9812      4.2318     53.6912
  1557.7500      0.0000    743.9378      4.2212     50.9474
  1558.0000      0.0000    743.1199      4.2012     49.0307
  1558.2500      0.0000    741.3666      4.1773     48.1676
  1558.5000      0.0000    738.8441      4.1609     47.8244
  1558.7500      0.0000    736.3749      4.1656     47.3877
  1559.0000      0.0000    735.2078      4.2006     46.7770
  1559.2500      0.0000    736.1007      4.2622     46.3815
  1559.5000      0.0000    738.6409      4.3317     46.5421
  1559.7500      0.0000    741.6423      4.3855     47.2726
  1560.0000      0.0000    743.9059      4.4113     48.4713
  1560.2500      0.0000    744.3597      4.4142     50.2172
  1560.5000      0.0000    741.9859      4.4078     52.6836
  1560.7500      0.0000    736.4371      4.4035     55.8794
  1561.0000      0.0000    728.7966      4.4050     59.7811
  1561.2500      0.0000    721.2438      4.4105     64.6060
  1561.5000      0.0000    715.9930      4.4162     70.3647
  1561.7500      0.0000    714.7864      4.4197     76.0266
  1562.0000      0.0000    718.6578      4.4231     79.7161
  1562.2500      0.0000    727.0665      4.4304     80.0370
  1562.5000      0.0000    737.1936      4.4415     77.0192
  1562.7500      0.0000    745.0292      4.4488     71.9986
  1563.0000      0.0000    747.8401      4.4388     66.9573
  1563.2500      0.0000    745.6057      4.3995     63.5740
  1563.5000      0.0000    740.3032      4.3293     62.3091
  1563.7500      0.0000    734.5019      4.2437     62.3568
  1564.0000      0.0000    730.4330      4.1707     62.5022
  1564.2500      0.0000    729.0894      4.1345     61.8794
  1564.5000      0.0000    729.4125      4.1444     60.1381
  1564.7500      0.0000    728.9125      4.1994     57.4717
  1565.0000      0.0000    725.7804      4.2981     54.7726
  1565.2500      0.0000    720.4310      4.4352     53.4047
  1565.5000      0.0000    714.9667      4.5851     54.1940
  1565.7500      0.0000    711.4938      4.6895     56.4307
  1566.0000      0.0000    711.0168      4.6741     58.2134
  1566.2500      0.0000    713.3663      4.4937     58.1411
