~Version Information
VERS.                      2.0: CWLS Log ASCII Standard - VERSION 2.0
WRAP.                       NO: One line per depth step
~Well Information Block
STRT.FT               742.7000: 
STOP.FT              1614.5000: 
STEP.FT                 0.1000: 
NULL.                -999.2500: 
COMP.          Pioneer Natural Resources: COMPANY
WELL.           Kermit 32-7 Tr: WELL
FLD.           Purgatoire River: FIELD
LOC.           2009' FNL & 2196' FEL: LOCATION
PROV.                 Colorado: PROVINCE
CNTY.               Las Animas: COUNTRY
SRVC.                Patterson: SERVICE COMPANY
DATE.          Mon Jan 16 13:19:56 2006: LOG DATE
UWI.           05 071 08664 00: UNIQUE WELL ID
~Curve Information Block
DEPT.FT            0 000 00 00: Depth
DCAL.in                       : CDL Caliper
RHOB.g/cc                     : CDL Bulk Density
RHOC.g/cc                     : CDL Density Correction
DPOR.pu                       : CDL Density Porosity
GR.GAPI                       : Gamma Ray
~Parameter Information Block
~A  Depth       DCAL        RHOB        RHOC        DPOR         GR     
# ...
  1056.3000      7.9027      2.6015      0.0731      2.9376    132.8536
  1056.4000      7.9027      2.6096      0.0620      2.4492    127.8751
  1056.5000      7.9188      2.6206      0.0255      1.7822    119.6801
  1056.6000      7.9188      2.6467      0.0215      0.2029    112.5792
  1056.7000      7.9188      2.6832      0.0902     -2.0109    110.1689
  1056.8000      7.9321      2.7054      0.1367     -3.3590    109.3945
  1056.9000      7.9321      2.7053      0.1223     -3.3525    106.0869
  1057.0000      7.9455      2.6938      0.1665     -2.6572    103.0373
  1057.1000      7.9455      2.6810      0.0696     -1.8791    100.8118
  1057.2000      7.9455      2.6763      0.0506     -1.5940     96.7601
  1057.3000      7.9278      2.6767      0.1293     -1.6166     93.1276
  1057.4000      7.9278      2.6722      0.0944     -1.3454     89.9156
  1057.5000      7.9213      2.6647      0.1060     -0.8920     83.1989
  1057.6000      7.9213      2.6505      0.1106     -0.0302     75.4755
  1057.7000      7.9213      2.6260      0.0781      1.4543     74.9500
  1057.8000      7.9297      2.6007      0.0505      2.9855     82.7488
  1057.9000      7.9297      2.5786      0.0511      4.3263     88.3795
  1058.0000      7.9417      2.5585      0.0549      5.5464     83.9057
  1058.1000      7.9417      2.5486      0.0457      6.1431     75.5606
  1058.2000      7.9417      2.5502      0.0554      6.0462     73.5505
  1058.3000      7.9424      2.5501      0.0767      6.0553     79.6549
  1058.4000      7.9424      2.5531      0.0416      5.8746     86.6214
  1058.5000      7.9422      2.5869      0.0543      3.8260     88.4151
  1058.6000      7.9422      2.6544      0.0835     -0.2691     87.4811
  1058.7000      7.9422      2.7246      0.1811     -4.5217     88.9749
  1058.8000      7.9353      2.7762      0.1658     -7.6482     94.8267
  1058.9000      7.9353      2.8102      0.1534     -9.7099    101.6329
  1059.0000      7.9363      2.8249      0.1147    -10.6009    103.6331
  1059.1000      7.9363      2.8107      0.1252     -9.7384     99.4168
  1059.2000      7.9363      2.7726      0.0046     -7.4326     92.6358
  1059.3000      7.9463      2.7316      0.0291     -4.9427     89.2144
  1059.4000      7.9463      2.6916     -0.0096     -2.5222     93.7546
  1059.5000      7.9404      2.6572     -0.0398     -0.4354    104.0331
  1059.6000      7.9404      2.6468     -0.0536      0.1940    112.3490
  1059.7000      7.9404      2.6560     -0.0233     -0.3615    118.1214
  1059.8000      7.9456      2.6639      0.0083     -0.8395    125.0652
  1059.9000      7.9456      2.6729      0.0056     -1.3900    127.0490
  1060.0000      7.9361      2.6876      0.0593     -2.2811    120.5203
  1060.1000      7.9361      2.6905      0.0463     -2.4542    116.8436
  1060.2000      7.9361      2.6695      0.0271     -1.1825    121.7464
  1060.3000      7.9485      2.6270      0.0757      1.3968    127.6203
  1060.4000      7.9485      2.5837     -0.0084      4.0159    129.5184
  1060.5000      7.9568      2.5692     -0.0132      4.8951    130.6428
  1060.6000      7.9568      2.5761      0.0422      4.4791    134.3874
  1060.7000      7.9568      2.5759      0.0677      4.4920    139.7909
  1060.8000      7.9607      2.5594      0.0312      5.4917    143.8157
  1060.9000      7.9607      2.5351      0.0497      6.9629    143.2381
  1061.0000      7.9711      2.5136      0.0502      8.2667    138.7447
  1061.1000      7.9711      2.5036     -0.0008      8.8723    133.1943
  1061.2000      7.9711      2.5091     -0.0169      8.5394    128.2209
  1061.3000      7.9789      2.5153      0.0456      8.1637    127.7677
  1061.4000      7.9789      2.5019      0.0501      8.9739    133.2802
  1061.5000      8.0023      2.4712     -0.0172     10.8371    141.7496
  1061.6000      8.0023      2.4322      0.0619     13.2001    150.0727
  1061.7000      8.0023      2.3864     -0.0234     15.9787    152.9914
  1061.8000      8.0192      2.3412     -0.0150     18.7179    149.9373
  1061.9000      8.0192      2.2975      0.0015     21.3664    144.8781
  1062.0000      8.0328      2.2531     -0.0185     24.0529    137.4750
  1062.1000      8.0328      2.2193      0.0176     26.1036    129.4192
  1062.2000      8.0328      2.2089      0.0079     26.7338    126.1200
  1062.3000      8.0371      2.2246      0.1026     25.7811    127.2946
  1062.4000      8.0371      2.2532      0.1794     24.0491    124.2314
  1062.5000      8.0547      2.2692      0.1577     23.0782    115.6144
  1062.6000      8.0547      2.2549      0.1449     23.9437    109.6718
  1062.7000      8.0547      2.2157      0.0996     26.3206    108.8193
  1062.8000      8.0452      2.1731      0.0722     28.9060    109.0924
  1062.9000      8.0452      2.1350      0.0951     31.2091    108.4462
  1063.0000      8.0575      2.0870      0.0563     34.1223    108.8975
  1063.1000      8.0575      2.0142      0.0550     38.5332    109.6887
  1063.2000      8.0575      1.9161     -0.0489     44.4790    106.7701
  1063.3000      8.0735      1.8008     -0.0370     51.4689    101.4341
  1063.4000      8.0735      1.6804     -0.0765     58.7608     96.7734
  1063.5000      8.0644      1.5693     -0.0912     65.4959     92.5466
  1063.6000      8.0644      1.4766     -0.0805     71.1137     91.0906
  1063.7000      8.0644      1.4128     -0.0658     74.9845     91.6941
  1063.8000      8.0627      1.3841     -0.0592     76.7206     87.2097
  1063.9000      8.0627      1.3749      0.0449     77.2760     76.6576
  1064.0000      8.0836      1.3646      0.0162     77.9036     65.9014
  1064.1000      8.0836      1.3562     -0.0011     78.4113     59.8769
  1064.2000      8.0836      1.3597      0.0094     78.1984     59.0545
  1064.3000      8.1636      1.3713     -0.0017     77.4949     57.6036
  1064.4000      8.1636      1.3842      0.0288     76.7166     51.5290
  1064.5000      8.2231      1.3988      0.0231     75.8326     44.4063
  1064.6000      8.2231      1.4220      0.0568     74.4272     43.1924
  1064.7000      8.2231      1.4623      0.0641     71.9819     48.6019
  1064.8000      8.2076      1.5267      0.0747     68.0771     53.2466
  1064.9000      8.2076      1.6139      0.0750     62.7920     55.9341
  1065.0000      8.2099      1.7092      0.1266     57.0163     61.4761
  1065.1000      8.2099      1.7963      0.1499     51.7404     68.5169
  1065.2000      8.2099      1.8722      0.1597     47.1403     73.3041
  1065.3000      8.1569      1.9284      0.1687     43.7307     75.0119
  1065.4000      8.1569      1.9416      0.1920     42.9332     73.4971
  1065.5000      8.1257      1.9089      0.0876     44.9169     70.5425
  1065.6000      8.1257      1.8519      0.0756     48.3705     70.7969
  1065.7000      8.1257      1.7803      0.0053     52.7113     75.6988
  1065.8000      8.1449      1.6931     -0.0452     57.9918     80.4628
  1065.9000      8.1449      1.6058     -0.0433     63.2864     80.9809
  1066.0000      8.1508      1.5428     -0.0687     67.1041     78.1582
  1066.1000      8.1508      1.5139     -0.0402     68.8527     73.1010
  1066.2000      8.1508      1.5114      0.0591     69.0045     65.6006
  1066.3000      8.1487      1.5252      0.0836     68.1710     60.9600
  1066.4000      8.1487      1.5604      0.0501     66.0356     62.7123
  1066.5000      8.1512      1.6305      0.0647     61.7853     67.9457
  1066.6000      8.1512      1.7347      0.1207     55.4751     74.9537
  1066.7000      8.1512      1.8633      0.1390     47.6796     81.5153
  1066.8000      8.1987      2.0030      0.1613     39.2138     85.3842
  1066.9000      8.1987      2.1352      0.1701     31.2028     88.6382
  1067.0000      8.2592      2.2591      0.1486     23.6883     92.0799
  1067.1000      8.2592      2.3861      0.1802     15.9945     94.7353
  1067.2000      8.2592      2.5038      0.2174      8.8632    102.5027
  1067.3000      8.0924      2.5790      0.2238      4.3044    118.5480
  1067.4000      8.0924      2.5936      0.0789      3.4178    132.6785
