~Version Information
VERS.                      2.0: CWLS Log ASCII Standard - VERSION 2.0
WRAP.                       NO: One line per depth step
~Well Information Block
STRT.FT                 0.0000: 
STOP.FT              2473.5000: 
STEP.FT                 0.2500: 
NULL.                -999.2500: 
COMP.          Petrogulf Corporation: COMPANY
WELL.          Montoya 18-11V-B: WELL
FLD.           Purgatorie River: FIELD
LOC.           848' FNL & 619' FWL: LOCATION
PROV.                 Colorado: PROVINCE
CNTY.               Las Animas: COUNTRY
SRVC.                Patterson: SERVICE COMPANY
DATE.          Wed Nov 09 10:15:13 2005: LOG DATE
UWI.                          : UNIQUE WELL ID
~Curve Information Block
DEPT.FT            0 000 00 00: Depth
CCL.                          : Casing Collar Locator
TT3.usec                      : CBL 3' Travel Time
AMP3.mV                       : CBL 3' Amplitude
GR.GAPI                       : Gamma Ray
~Parameter Information Block
~A  Depth       CCL         TT3         AMP3         GR     
# ...
  1139.0000      0.0000    260.3116     73.0749    126.2111
  1139.2500      0.0000    260.3464     72.5891    128.6844
  1139.5000      0.0000    260.3857     72.0598    129.2536
  1139.7500      0.0000    260.4052     71.5494    126.9028
  1140.0000      0.0000    260.4053     71.0858    122.5893
  1140.2500      0.0000    260.4140     70.6321    118.6373
  1140.5000      0.0000    260.4527     70.1580    116.7505
  1140.7500      0.0000    260.5151     69.6589    116.7096
  1141.0000      0.0000    260.5846     69.1127    116.8998
  1141.2500      0.0000    260.6442     68.5613    115.9293
  1141.5000      0.0000    260.6666     68.2156    113.6547
  1141.7500      0.0000    260.6280     68.2644    110.6139
  1142.0000      0.0000    260.5423     68.5826    106.8042
  1142.2500      0.0000    260.4705     68.7924    101.4777
  1142.5000      0.0000    260.5054     68.5398     94.0341
  1142.7500      0.0000    260.8920     67.5730     84.8296
  1143.0000      0.0000    262.4660     65.6851     75.2283
  1143.2500      0.0000    266.9140     62.8594     66.9651
  1143.5000      0.0000    275.3318     59.4215     61.2536
  1143.7500      0.0000    285.7576     55.8107     58.3032
  1144.0000      0.0000    294.1863     52.2833     57.5392
  1144.2500      0.0000    298.7296     48.9450     58.1716
  1144.5000      0.0000    300.5747     45.9236     59.5218
  1144.7500      0.0000    301.7968     43.3322     60.7574
  1145.0000      0.0000    305.7068     41.0567     60.5102
  1145.2500      0.0000    322.0011     38.7504     57.3750
  1145.5000      0.0000    370.0812     36.2176     51.1710
  1145.7500      0.0000    463.0692     33.7499     43.5286
  1146.0000      0.0000    580.0679     31.8223     36.8846
  1146.2500      0.0000    677.8076     30.5616     32.7820
  1146.5000      0.0000    736.3857     29.7689     31.1280
  1146.7500      0.0000    765.7103     29.2464     30.8489
  1147.0000      0.0000    777.3853     28.8983     30.8940
  1147.2500      0.0000    777.9731     28.6952     30.6464
  1147.5000      0.0000    776.0902     28.6545     29.8810
  1147.7500      0.0000    774.6227     28.7983     28.7322
  1148.0000      0.0000    765.4226     29.1076     27.6857
  1148.2500      0.0000    746.5664     29.5263     27.4810
  1148.5000      0.0000    730.9421     29.9829     28.9228
  1148.7500      0.0000    725.7743     30.4113     32.5141
  1149.0000      0.0000    717.3043     30.7863     37.9553
  1149.2500      0.0000    677.9384     31.1213     43.9583
  1149.5000      0.0000    589.4379     31.4717     48.7658
  1149.7500      0.0000    472.4459     31.9627     51.0770
  1150.0000      0.0000    375.8100     32.7548     50.6983
  1150.2500      0.0000    324.9484     33.9490     48.6138
  1150.5000      0.0000    307.4641     35.5518     46.6964
  1150.7500      0.0000    303.1197     37.5252     47.1157
  1151.0000      0.0000    301.9547     39.7873     51.3322
  1151.2500      0.0000    301.3688     42.1820     59.2692
  1151.5000      0.0000    300.8896     44.5586     69.6417
  1151.7500      0.0000    300.2434     46.8644     81.1446
  1152.0000      0.0000    298.6370     49.1269     93.0615
  1152.2500      0.0000    294.4130     51.4378    104.9569
  1152.5000      0.0000    286.3916     53.9461    116.3051
  1152.7500      0.0000    276.3032     56.7100    126.2704
  1153.0000      0.0000    267.9706     59.5303    133.6615
  1153.2500      0.0000    263.3683     61.9865    137.5060
  1153.5000      0.0000    261.5829     63.7434    137.7568
  1153.7500      0.0000    261.0459     64.8162    135.0646
  1154.0000      0.0000    260.9044     65.4273    130.0869
  1154.2500      0.0000    260.8738     65.7545    123.4982
  1154.5000      0.0000    260.8730     65.9223    116.4056
  1154.7500      0.0000    260.8775     66.0460    110.2039
  1155.0000      0.0000    260.8834     66.1934    105.9671
  1155.2500      0.0000    260.8866     66.3743    103.9883
  1155.5000      0.0000    260.8787     66.5769    103.8267
  1155.7500      0.0000    260.8633     66.7587    104.8538
  1156.0000      0.0000    260.8572     66.8480    106.6187
  1156.2500      0.0000    260.8667     66.8549    108.4996
  1156.5000      0.0000    260.8868     66.8859    109.4937
  1156.7500      0.0000    260.9786     66.8980    109.1113
  1157.0000      0.0000    261.5092     66.5419    108.3139
  1157.2500      0.0000    263.5990     65.2153    108.6688
  1157.5000      0.0000    269.1638     61.9983    110.4062
  1157.7500      0.0000    279.0949     56.4245    111.9696
  1158.0000      0.0000    290.7176     50.2700    111.6520
  1158.2500      0.0000    299.4490     46.5255    109.1156
  1158.5000      0.0000    303.5751     45.7756    105.3950
  1158.7500      0.0000    304.7903     46.1751    102.2809
  1159.0000      2.0000    305.0298     46.3732    101.8128
  1159.2500     -2.0000    305.0413     46.3327    105.5450
  1159.5000      0.0000    304.8526     46.2136    113.6130
  1159.7500      0.0000    304.0788     45.8866    124.3734
  1160.0000      0.0000    302.1220     45.7874    135.2084
  1160.2500      0.0000    299.0985     47.1307    143.9715
  1160.5000      0.0000    295.4348     50.2225    149.7698
  1160.7500      0.0000    289.4709     54.3581    152.5538
  1161.0000      0.0000    279.8334     59.1915    152.4308
  1161.2500      0.0000    269.9082     63.8337    149.6785
  1161.5000      0.0000    263.8556     66.8286    145.1500
  1161.7500      0.0000    261.6573     67.9217    140.2187
  1162.0000      0.0000    261.2055     67.9917    135.9854
  1162.2500      0.0000    261.1773     67.8522    132.2430
  1162.5000      0.0000    261.1713     67.9024    127.3415
  1162.7500      0.0000    261.1213     68.3214    119.7456
  1163.0000      0.0000    261.0377     69.1304    109.9539
  1163.2500      0.0000    260.9438     70.1503    100.3616
  1163.5000      0.0000    260.8552     71.0931     92.9793
  1163.7500      0.0000    260.7818     71.7585     87.7699
  1164.0000      0.0000    260.7324     72.1333     83.4371
  1164.2500      0.0000    260.7109     72.2956     79.3454
  1164.5000      0.0000    260.7115     72.3026     76.2868
  1164.7500      0.0000    260.7232     72.2262     75.4993
  1165.0000      0.0000    260.7316     72.2034     77.1825
  1165.2500      0.0000    260.7234     72.3627     80.0745
  1165.5000      0.0000    260.7004     72.7074     82.5139
  1165.7500      0.0000    260.6816     73.1071     83.9712
  1166.0000      0.0000    260.6824     73.4032     85.5557
  1166.2500      0.0000    260.6956     73.5211     89.0438
  1166.5000      0.0000    260.6968     73.4913     95.2992
  1166.7500      0.0000    260.6674     73.3706    103.3580
  1167.0000      0.0000    260.6160     73.1780    110.9579
  1167.2500      0.0000    260.5758     72.9421    116.1504
  1167.5000      0.0000    260.5687     72.7504    118.4937
  1167.7500      0.0000    260.5816     72.6828    118.7820
  1168.0000      0.0000    260.5926     72.7313    118.0408
  1168.2500      0.0000    260.5992     72.7906    116.9883
  1168.5000      0.0000    260.6062     72.7312    116.1266
  1168.7500      0.0000    260.6070     72.5193    115.8544
  1169.0000      0.0000    260.5961     72.1991    116.1507
  1169.2500      0.0000    260.5854     71.7683    116.2717
  1169.5000      0.0000    260.5954     71.1576    115.3358
  1169.7500      0.0000    260.6436     70.2374    113.5467
  1170.0000      0.0000    260.7509     68.8397    112.4440
  1170.2500      0.0000    260.9714     66.9163    113.4731
  1170.5000      0.0000    261.5383     64.6489    116.4006
  1170.7500      0.0000    263.2556     62.2716    119.5024
  1171.0000      0.0000    267.7038     59.8248    121.5059
  1171.2500      0.0000    275.8665     57.2546    123.1209
  1171.5000      0.0000    285.8277     54.6763    126.1840
  1171.7500      0.0000    293.7758     52.3298    131.1765
  1172.0000      0.0000    297.9328     50.3497    136.0942
  1172.2500      0.0000    299.3797     48.7433    138.0152
