~Version Information
 VERS.                                  2.0 : CWLS LAS VERSION
 WRAP.                                   NO : WRAPING MODE
 SWARE .                 MController 2.5.0N : SOFTWARE VERSION
~Well Information
 WELL.                         Andrew 23-15 : WELL
 COMP.    Pioneer Natural Resources USA Inc : COMPANY
 FLD.                      Purgatoire River : FIELD
 LOC.               NE/SW Sec 15 T32S  R65W : LOCATION
 DATE.                             08/12/05 : DATE(S) LOGGED
 SRVC.       BLANCO Geological Services LLC : SERVICE COMPANY
 STAT.                                   CO : STATE
 CNTY.                           Las Animas : COUNTY
 CTRY.                                  USA : COUNTRY
 API.                       05 071 08460 00 : API NUMBER
 STRT.FT                             447.00 : START DEPTH
 STOP.FT                            1521.00 : STOP DEPTH
 STEP.FT                               1.00 : DEPTH INCREMENT
 NULL.                                -9999 : NULL VALUE
~Curve information
 DEPTH.FT                                   :
 ROP.MIN/FT                                 :
 GAS.UNITS                                  :
~ASCII Log data
       447.0     -9999.00          6.3 
       448.0         4.48          6.8 
       449.0         2.28          6.4 
       450.0         0.13          6.0 
       451.0         6.97          6.2 
       452.0         9.72          5.9 
       453.0         7.63          3.2 
       454.0         3.55          3.5 
       455.0         0.20          2.9 
       456.0         1.78          3.1 
       457.0         1.40          3.0 
       458.0         0.07          2.7 
       459.0         0.10          2.7 
       460.0         1.88          3.0 
       461.0         0.27          1.9 
       462.0         1.13          2.6 
       463.0         0.03          2.2 
       464.0         0.88          2.4 
       465.0         0.17          2.5 
       466.0         0.27          1.8 
       467.0         0.37          2.6 
       468.0         0.10          2.5 
       469.0         1.53          2.6 
       470.0         0.75          2.1 
       471.0         1.17          2.4 
       472.0         0.17          2.4 
       473.0         3.45          2.5 
       474.0         0.53          2.0 
       475.0         1.05          2.2 
       476.0         1.87          2.4 
       477.0         0.53          2.3 
       478.0         0.53          2.1 
       479.0         0.55          2.1 
       480.0         0.80          2.2 
       481.0         0.80          2.4 
       482.0         0.80          1.9 
       483.0         0.53          2.3 
       484.0         0.55          2.2 
       485.0         0.37          1.6 
       486.0         0.63          2.2 
       487.0         0.13          1.5 
       488.0         0.10          1.5 
       489.0         0.80          2.1 
       490.0         0.80          2.3 
       491.0         0.82          2.4 
       492.0         0.80          2.5 
       493.0         1.07          2.3 
       494.0         0.53          2.3 
       495.0         0.55          2.3 
       496.0         0.57          2.5 
       497.0         0.80          2.4 
       498.0         0.53          2.2 
       499.0         0.80          2.3 
       500.0         0.55         14.5 
       501.0         0.80        142.9 
       502.0         0.80         12.4 
       503.0         2.12         55.3 
       504.0         0.27         44.4 
       505.0         0.17         30.2 
       506.0         0.27         18.9 
       507.0         0.27         10.9 
       508.0         0.27          6.0 
       509.0         0.37          3.9 
       510.0         0.27          2.5 
       511.0         0.27          1.3 
       512.0         0.27          0.5 
       513.0         0.27          1.0 
       514.0         0.28          0.4 
       515.0         0.27          1.0 
       516.0         0.27          1.5 
       517.0         0.27          1.0 
       518.0         0.33          1.6 
       519.0         0.27          1.0 
       520.0         0.30          1.5 
       521.0         0.37          1.5 
       522.0         0.47          1.5 
       523.0         0.17          1.5 
       524.0         0.35          1.8 
       525.0         0.27          1.6 
       526.0         0.37          1.6 
       527.0         0.37          1.3 
       528.0         0.60          1.3 
       529.0         0.10          0.8 
       530.0         0.50          1.8 
       531.0         0.20          1.8 
       532.0         0.40          1.7 
       533.0         6.87         64.8 
       534.0         0.62          8.9 
       535.0         0.60          2.1 
       536.0         0.33          1.4 
       537.0         0.53          1.4 
       538.0         0.53          1.6 
       539.0         0.20          1.1 
       540.0         0.40          1.4 
       541.0         0.20          1.8 
       542.0         0.32          1.7 
       543.0         0.57          1.8 
       544.0         0.60          1.8 
       545.0         0.07          1.2 
       546.0         0.57          1.8 
       547.0         0.27          1.4 
       548.0         0.20          1.6 
       549.0         0.47          1.7 
       550.0         0.17          1.9 
       551.0         0.28          1.8 
       552.0         0.40          1.9 
       553.0         0.30          1.8 
       554.0         0.70          1.9 
       555.0         0.60          1.7 
       556.0         0.23          1.3 
       557.0         0.50          1.7 
       558.0         0.20          1.8 
       559.0         0.75          1.9 
       560.0         0.73          1.9 
       561.0         0.60          2.0 
       562.0         0.60         31.4 
       563.0         2.25         70.8 
       564.0         0.47          2.7 
       565.0         0.07          0.9 
       566.0         0.10          0.5 
       567.0         0.53          1.3 
       568.0         0.17          0.9 
       569.0         0.10          0.1 
       570.0         0.45          0.8 
       571.0         0.37          0.8 
       572.0         0.20          0.5 
       573.0         0.23          0.9 
       574.0         0.37          0.7 
       575.0         0.50          1.0 
       576.0         0.10          0.9 
       577.0         0.20          1.0 
       578.0         0.47          1.0 
       579.0         0.10          0.4 
       580.0         0.27          1.2 
       581.0         0.40          1.2 
       582.0         0.12          1.0 
       583.0         0.10          0.8 
       584.0         0.10          1.2 
       585.0         0.73          1.1 
       586.0         0.20          1.2 
       587.0         0.60          1.1 
       588.0         0.27          1.2 
       589.0         0.57          1.4 
       590.0         0.27          1.2 
       591.0         0.62          1.4 
       592.0         5.95        149.3 
       593.0         0.65          0.2 
       594.0         0.17          0.1 
       595.0         0.47          0.2 
       596.0         0.47          0.3 
       597.0         0.27          0.1 
       598.0         0.27          0.2 
       599.0         0.43          0.1 
       600.0         0.20          0.4 
       601.0         0.27          0.3 
       602.0         0.42          0.7 
       603.0         0.53          0.6 
       604.0         0.20          0.5 
       605.0         0.40          0.6 
       606.0         0.47          0.4 
       607.0         0.20          0.5 
       608.0         0.67          0.6 
       609.0         0.10          0.2 
       610.0         0.53          0.5 
       611.0         0.10          0.1 
       612.0         0.03          0.1 
       613.0         0.45          0.6 
       614.0         0.43          0.6 
       615.0         0.10          0.1 
       616.0         0.20          0.6 
       617.0         0.40          0.6 
       618.0         0.43          0.8 
       619.0         0.10          1.1 
       620.0         0.87          1.2 
       621.0         3.45       1146.8 
       622.0         0.45         22.3 
       623.0         0.10          8.7 
       624.0         0.27          7.4 
       625.0         0.17          3.6 
       626.0         0.17          2.8 
       627.0         0.47          1.4 
       628.0         0.23          0.2 
       629.0         0.27          0.0 
       630.0         0.43          0.1 
       631.0         0.10          0.1 
       632.0         0.17          0.1 
       633.0         0.37          0.0 
       634.0         0.38          0.1 
       635.0         0.10          0.5 
       636.0         0.40          0.0 
       637.0         0.10          0.2 
       638.0         0.10          0.1 
       639.0         0.40          0.3 
       640.0         0.40          0.1 
       641.0         0.10          0.1 
       642.0         0.20          0.0 
       643.0         0.10          0.4 
       644.0         0.27          0.1 
       645.0         0.40          0.0 
       646.0         0.42          0.1 
