~Version Information
VERS.                      2.0: CWLS Log ASCII Standard - VERSION 2.0
WRAP.                       NO: One line per depth step
~Well Information Block
STRT.FT               525.0000: 
STOP.FT              2377.2000: 
STEP.FT                 0.1000: 
NULL.                -999.2500: 
COMP.          Pioneer Natural Resources: COMPANY
WELL.          Sparrowhawk 22-12: WELL
FLD.           Purgatoire River: FIELD
LOC.           2049' FNL & 2060' FWL--: LOCATION
CNTY.               Las Animas: COUNTY
SRVC.                Patterson: SERVICE COMPANY
DATE.          Thu Mar 23 13:24:48 2006: LOG DATE
UWI.           05 071 08484 00: UNIQUE WELL ID
STAT.                 Colorado: STATE
~Curve Information Block
DEPT.FT            0 000 00 00: Depth
DCAL.in                       : CDL Caliper
RHOB.g/cc                     : CDL Bulk Density
RHOC.g/cc                     : CDL Density Correction
DPOR.pu                       : CDL Density Porosity
NPOR.pu                       : Neutron Porosity
GR.GAPI                       : Gamma Ray
~Parameter Information Block
~A  Depth       DCAL        RHOB        RHOC        DPOR        NPOR         GR     
# ...
   889.8000      8.0856      2.5408      0.0090      6.6202     26.1623    149.4926
   889.9000      8.0856      2.5233     -0.0101      7.6774     26.9733    147.8902
   890.0000      8.1015      2.5378      0.0249      6.8001     27.2224    141.2432
   890.1000      8.1015      2.5618      0.0350      5.3453     27.2415    134.0950
   890.2000      8.1015      2.5669      0.0261      5.0366     27.2746    130.1570
   890.3000      8.1017      2.5567      0.0096      5.6516     27.3415    129.2580
   890.4000      8.1017      2.5496      0.0178      6.0832     27.4057    129.4398
   890.5000      8.0818      2.5500      0.0329      6.0577     27.4785    130.3912
   890.6000      8.0818      2.5527      0.0303      5.8996     27.6834    132.5098
   890.7000      8.0818      2.5484      0.0738      6.1552     28.1268    136.0153
   890.8000      8.0566      2.5300      0.0464      7.2734     28.6442    141.0952
   890.9000      8.0566      2.5060      0.0250      8.7279     28.6947    144.1458
   891.0000      8.0437      2.4869      0.0420      9.8822     27.9784    143.3646
   891.1000      8.0437      2.4688      0.0027     10.9837     27.1303    142.8074
   891.2000      8.0437      2.4535     -0.0024     11.9111     26.8376    145.2035
   891.3000      8.0451      2.4462      0.0088     12.3532     26.7988    149.8907
   891.4000      8.0451      2.4332      0.0392     13.1401     26.5485    152.5140
   891.5000      8.0511      2.4004      0.0185     15.1254     26.1707    149.2683
   891.6000      8.0511      2.3643     -0.0573     17.3169     25.8236    143.6915
   891.7000      8.0511      2.3488     -0.0261     18.2526     25.4920    139.4298
   891.8000      8.0541      2.3534     -0.0220     17.9752     25.1068    137.7657
   891.9000      8.0541      2.3640      0.0456     17.3313     24.6593    138.6602
   892.0000      8.0490      2.3717      0.0368     16.8646     24.1914    141.5812
   892.1000      8.0490      2.3805      0.0514     16.3361     23.6510    147.9962
   892.2000      8.0490      2.3884      0.1500     15.8539     23.1530    153.0042
   892.3000      8.0359      2.3941      0.0968     15.5109     22.9494    148.5846
   892.4000      8.0359      2.4250      0.0498     13.6341     22.8360    138.6545
   892.5000      8.0203      2.4882      0.1631      9.8065     22.5348    131.1613
   892.6000      8.0203      2.5406      0.1884      6.6325     22.1805    127.6831
   892.7000      8.0203      2.5638      0.1561      5.2213     22.1463    126.2953
   892.8000      8.0102      2.5811      0.1602      4.1786     22.5527    124.5419
   892.9000      8.0102      2.5930      0.1564      3.4546     23.1973    122.9005
   893.0000      8.0037      2.5791      0.1156      4.2949     23.9670    122.2361
   893.1000      8.0037      2.5456      0.0570      6.3273     24.8005    123.4791
   893.2000      8.0037      2.5222      0.0442      7.7466     25.4603    127.5830
   893.3000      8.0063      2.5157      0.0764      8.1413     25.8397    130.3180
   893.4000      8.0063      2.4988      0.0441      9.1628     26.0724    128.2494
   893.5000      8.0239      2.4633     -0.0478     11.3155     26.0697    125.7814
   893.6000      8.0239      2.4387     -0.0703     12.8070     25.8212    130.6572
   893.7000      8.0239      2.4389      0.0473     12.7955     25.4539    140.3957
   893.8000      8.0403      2.4423      0.0710     12.5880     24.9077    144.6677
   893.9000      8.0403      2.4283      0.0817     13.4354     24.2250    141.4403
   894.0000      8.0424      2.4002      0.0230     15.1422     23.7205    139.3924
   894.1000      8.0424      2.3814      0.0120     16.2806     23.4684    141.0441
   894.2000      8.0424      2.3846      0.0670     16.0857     23.3136    138.9974
   894.3000      8.0323      2.3995      0.0936     15.1835     23.1996    133.2371
   894.4000      8.0323      2.4179      0.1114     14.0684     23.2736    130.9105
   894.5000      8.0204      2.4440      0.1237     12.4876     23.5969    133.7652
   894.6000      8.0204      2.4769      0.2094     10.4909     23.8224    138.5274
   894.7000      8.0204      2.4987      0.2200      9.1679     23.7177    141.1554
   894.8000      8.0228      2.4921      0.2142      9.5667     23.5478    140.6073
   894.9000      8.0228      2.4618      0.1280     11.4052     23.5181    138.7243
   895.0000      8.0345      2.4329      0.0836     13.1580     23.6737    139.0044
   895.1000      8.0345      2.4133      0.1511     14.3436     24.0610    146.8273
   895.2000      8.0345      2.3854      0.0824     16.0341     24.2690    159.3857
   895.3000      8.0358      2.3492      0.0123     18.2329     23.7253    165.0787
   895.4000      8.0358      2.3172      0.0340     20.1703     22.6005    159.2298
   895.5000      8.0347      2.2911      0.0042     21.7534     21.5443    149.1859
   895.6000      8.0347      2.2731      0.0104     22.8400     20.8248    146.0613
   895.7000      8.0347      2.2752      0.0058     22.7175     20.2909    150.5868
   895.8000      8.0364      2.3077      0.0458     20.7468     19.6858    151.5148
   895.9000      8.0364      2.3565      0.1436     17.7857     18.9631    146.3390
   896.0000      8.0322      2.3944      0.1642     15.4894     18.2673    141.6851
   896.1000      8.0322      2.4241      0.1548     13.6915     17.9132    136.9728
   896.2000      8.0322      2.4648      0.1666     11.2236     18.1092    130.7573
   896.3000      8.0216      2.5137      0.1905      8.2587     18.6269    126.8748
   896.4000      8.0216      2.5520      0.2261      5.9417     19.4352    129.8764
   896.5000      8.0175      2.5723      0.1202      4.7106     20.6572    140.6050
   896.6000      8.0175      2.5893      0.1066      3.6759     22.0485    150.1852
   896.7000      8.0175      2.6105      0.0914      2.3970     23.2428    150.3471
   896.8000      8.0298      2.6172      0.1406      1.9880     24.1445    143.7025
   896.9000      8.0298      2.5966      0.0674      3.2372     24.8220    136.1767
   897.0000      8.0454      2.5695      0.0440      4.8806     25.3580    133.0215
   897.1000      8.0454      2.5607      0.0700      5.4096     25.6479    134.0672
   897.2000      8.0454      2.5707      0.0404      4.8053     25.6261    135.4911
   897.3000      8.0524      2.5891      0.0290      3.6939     25.7234    139.5396
   897.4000      8.0524      2.6026      0.0249      2.8742     26.1175    149.0587
   897.5000      8.0545      2.5958      0.0355      3.2839     26.3059    159.4064
   897.6000      8.0545      2.5738     -0.0225      4.6205     26.1886    162.3389
   897.7000      8.0545      2.5671     -0.0111      5.0217     26.1417    152.6693
   897.8000      8.0564      2.5899      0.0106      3.6435     26.3333    135.2815
   897.9000      8.0564      2.6180      0.0625      1.9424     26.5905    119.5618
   898.0000      8.0566      2.6207      0.0628      1.7769     26.6719    110.1411
   898.1000      8.0566      2.6006      0.0059      2.9930     26.7790    107.5315
   898.2000      8.0566      2.5875     -0.0033      3.7903     27.0183    111.4259
   898.3000      8.0590      2.6052     -0.0261      2.7175     27.0831    118.3711
   898.4000      8.0590      2.6472      0.0570      0.1725     26.7801    124.1380
   898.5000      8.0726      2.6776      0.0224     -1.6752     26.2319    126.3399
   898.6000      8.0726      2.6793      0.0415     -1.7773     25.8103    122.0234
   898.7000      8.0726      2.6792     -0.0374     -1.7676     25.6578    113.2548
   898.8000      8.0896      2.6982      0.0435     -2.9220     25.5291    109.1120
   898.9000      8.0896      2.7157      0.0135     -3.9820     25.3313    111.6488
   899.0000      8.0965      2.7127      0.0440     -3.8006     25.2764    116.5420
   899.1000      8.0965      2.6963      0.0178     -2.8051     25.3580    123.2191
   899.2000      8.0965      2.6810      0.0137     -1.8760     25.2250    128.3191
   899.3000      8.0975      2.6647      0.0511     -0.8931     25.0140    126.2516
