~Version Information
VERS.                      2.0: CWLS Log ASCII Standard - VERSION 2.0
WRAP.                       NO: One line per depth step
~Well Information Block
STRT.FT               -10.0000: 
STOP.FT              1703.5000: 
STEP.FT                 0.2500: 
NULL.                -999.2500: 
COMP.          Pioneer Natural Resources: COMPANY
WELL.          Parrothead 31-31 Tr: WELL
FLD.           Purgatoire River: FIELD
LOC.           496' FNL & 1546' FEL--: LOCATION
PROV.                       CO: PROVINCE
CNTY.               Las Animas: COUNTRY
SRVC.          Patterson Wireline: SERVICE COMPANY
DATE.          Mon Nov 14 09:44:02 2005: LOG DATE
UWI.           05 071 08610 00: UNIQUE WELL ID
~Curve Information Block
DEPT.FT            0 000 00 00: Depth
CCL.                          : Casing Collar Locator
TT3.usec                      : CBL 3' Travel Time
AMP3.mV                       : CBL 3' Amplitude
GR.GAPI                       : Gamma Ray
~Parameter Information Block
~A  Depth       CCL         TT3         AMP3         GR     
# ...
   995.0000      0.0000    743.3643      7.6553     75.4004
   995.2500      0.0000    743.4149      7.7218     66.5946
   995.5000      0.0000    743.5228      7.9318     60.1583
   995.7500      0.0000    743.6985      8.2330     57.1332
   996.0000      0.0000    743.9069      8.5448     58.6236
   996.2500      0.0000    744.0287      8.8153     65.5219
   996.5000      0.0000    743.7017      9.0331     77.3410
   996.7500      0.0000    741.7995      9.1907     91.7770
   997.0000      0.0000    735.5344      9.2611    105.9036
   997.2500      0.0000    720.2064      9.2219    117.7714
   997.5000      0.0000    691.3842      9.1010    126.9063
   997.7500      0.0000    649.5403      8.9895    133.7154
   998.0000      0.0000    603.1079      8.9899    138.7210
   998.2500      0.0000    565.6364      9.1300    142.2484
   998.5000      0.0000    548.8683      9.3261    144.5088
   998.7500      0.0000    557.5391      9.4508    145.7162
   999.0000      0.0000    588.1796      9.4359    145.8731
   999.2500      0.0000    630.8019      9.3082    144.4632
   999.5000      0.0000    672.9566      9.1366    140.8421
   999.7500      0.0000    704.7171      8.9668    135.4070
  1000.0000      0.0000    721.5820      8.8044    130.2435
  1000.2500      0.0000    724.9375      8.6478    128.2470
  1000.5000      0.0000    721.2574      8.5258    131.0946
  1000.7500      0.0000    718.9667      8.4937    137.7150
  1001.0000      0.0000    723.1218      8.5813    144.7353
  1001.2500      0.0000    732.6257      8.7518    148.9915
  1001.5000      0.0000    742.9648      8.9188    150.0701
  1001.7500      0.0000    750.5570      9.0085    150.3240
  1002.0000      0.0000    753.8514      9.0033    152.2893
  1002.2500      0.0000    752.2288      8.9287    156.2219
  1002.5000      0.0000    746.4148      8.8102    160.0427
  1002.7500      0.0000    739.8677      8.6587    161.0939
  1003.0000      0.0000    737.6607      8.4911    157.7142
  1003.2500      0.0000    742.6757      8.3460    149.7664
  1003.5000      0.0000    752.9335      8.2690    138.3002
  1003.7500      0.0000    762.9328      8.2896    124.9829
  1004.0000      0.0000    767.7087      8.4101    112.0287
  1004.2500      0.0000    765.9818      8.6127    102.3391
  1004.5000      0.0000    760.1218      8.8768     98.5947
  1004.7500      0.0000    753.7278      9.1824    101.3883
  1005.0000      0.0000    749.2050      9.4903    108.4630
  1005.2500      0.0000    747.0112      9.7327    116.4057
  1005.5000      0.0000    746.4315      9.8472    123.0834
  1005.7500      0.0000    746.6128      9.8247    128.2521
  1006.0000      0.0000    747.0356      9.7069    132.2907
  1006.2500      0.0000    747.4809      9.5380    135.1761
  1006.5000      0.0000    747.9338      9.3378    136.7652
  1006.7500      0.0000    748.5838      9.1292    137.2816
  1007.0000      0.0000    749.5366      8.9711    137.0104
  1007.2500      0.0000    749.9656      8.9391    135.8438
  1007.5000      0.0000    747.0768      9.0599    133.6163
  1007.7500      0.0000    736.6307      9.2714    130.7687
  1008.0000      0.0000    716.1960      9.4545    128.1563
  1008.2500      0.0000    689.1920      9.5099    126.1645
  1008.5000      0.0000    665.1857      9.4155    124.5908
  1008.7500      0.0000    654.5785      9.2209    123.4878
  1009.0000      0.0000    661.6060      8.9785    123.4990
  1009.2500      0.0000    681.6348      8.6647    124.9935
  1009.5000      0.0000    705.1154      8.1938    127.1796
  1009.7500      0.0000    724.6442      7.5567    128.5182
  1010.0000      0.0000    738.6649      6.9280    128.1637
  1010.2500      0.0000    749.3612      6.5643    126.7449
  1010.5000      0.0000    758.7628      6.5787    125.4788
  1010.7500      0.0000    767.2930      6.8517    124.7131
  1011.0000      0.0000    774.3674      7.1629    123.6183
  1011.2500     -2.0000    779.2215      7.3679    121.3484
  1011.5000      2.0000    781.6642      7.4533    118.3914
  1011.7500      0.0000    782.5983      7.4859    116.4564
  1012.0000      0.0000    783.2484      7.5512    116.9457
  1012.2500      0.0000    783.5714      7.7277    119.7712
  1012.5000      0.0000    781.9688      8.0631    123.6264
  1012.7500      0.0000    777.0685      8.5257    127.0593
  1013.0000      0.0000    769.4193      8.9808    129.3845
  1013.2500      0.0000    761.1359      9.2582    130.8020
  1013.5000      0.0000    754.2482      9.2681    131.4842
  1013.7500      0.0000    749.3765      9.0546    130.5222
  1014.0000      0.0000    745.3912      8.7504    126.3128
  1014.2500      0.0000    739.7708      8.4871    118.3473
  1014.5000      0.0000    729.6936      8.3340    108.4488
  1014.7500      0.0000    714.2687      8.2924    100.0089
  1015.0000      0.0000    696.4310      8.3356     95.8368
  1015.2500      0.0000    681.5638      8.4533     96.6118
  1015.5000      0.0000    673.5798      8.6520    101.0370
  1015.7500      0.0000    673.5179      8.9100    107.0470
  1016.0000      0.0000    681.3571      9.1459    112.9113
  1016.2500      0.0000    696.0223      9.2578    117.8500
  1016.5000      0.0000    713.5814      9.1983    122.1894
  1016.7500      0.0000    728.6194      9.0019    126.7329
  1017.0000      0.0000    738.0881      8.7447    131.5246
  1017.2500      0.0000    742.5399      8.4934    135.4737
  1017.5000      0.0000    744.1306      8.2801    137.5441
  1017.7500      0.0000    744.5795      8.0988    137.9984
  1018.0000      0.0000    744.6920      7.9208    138.1025
  1018.2500      0.0000    744.6995      7.7302    138.6412
  1018.5000      0.0000    744.6148      7.5574    138.9656
  1018.7500      0.0000    744.3861      7.4688    137.7908
  1019.0000      0.0000    743.7099      7.5138    135.0219
  1019.2500      0.0000    741.4711      7.6805    132.4012
  1019.5000      0.0000    734.7939      7.9011    131.9265
  1019.7500      0.0000    718.6875      8.0964    133.8674
  1020.0000      0.0000    688.0723      8.2227    136.8360
  1020.2500      0.0000    642.4220      8.2856    139.6995
  1020.5000      0.0000    589.1226      8.3180    142.5922
  1020.7500      0.0000    540.5732      8.3488    145.7160
  1021.0000      0.0000    506.1194      8.3972    148.0359
  1021.2500      0.0000    486.3164      8.4863    148.1375
  1021.5000      0.0000    474.6624      8.6425    146.1190
  1021.7500      0.0000    463.9616      8.8711    143.8001
  1022.0000      0.0000    451.2803      9.1403    142.7469
  1022.2500      0.0000    439.0378      9.3976    142.5121
  1022.5000      0.0000    432.9431      9.6007    141.3418
  1022.7500      0.0000    437.6456      9.7361    138.4497
  1023.0000      0.0000    452.4910      9.8162    134.8897
  1023.2500      0.0000    471.4276      9.8650    132.0280
  1023.5000      0.0000    487.4336      9.9047    129.9091
  1023.7500      0.0000    496.8144      9.9507    127.6948
  1024.0000      0.0000    499.6794     10.0174    125.1789
  1024.2500      0.0000    497.8135     10.1193    123.1562
  1024.5000      0.0000    492.8543     10.2625    122.5391
  1024.7500      0.0000    485.7569     10.4355    123.6393
  1025.0000      0.0000    477.6177     10.6104    126.2071
  1025.2500      0.0000    470.8857     10.7501    129.6887
  1025.5000      0.0000    467.9690     10.8223    133.4196
  1025.7500      0.0000    466.7625     10.8182    136.9126
  1026.0000      0.0000    459.8934     10.7530    140.0450
  1026.2500      0.0000    442.1538     10.6464    142.5857
  1026.5000      0.0000    417.4510     10.5090    143.4167
  1026.7500      0.0000    395.6191     10.3543    140.8412
  1027.0000      0.0000    384.2046     10.2069    134.1715
  1027.2500      0.0000    385.3139     10.0845    124.7680
  1027.5000      0.0000    397.0515      9.9856    115.3141
  1027.7500      0.0000    413.9340      9.9087    108.3146
  1028.0000      0.0000    427.2325      9.8707    105.1065
  1028.2500      0.0000    429.6591      9.8877    105.6171
