~Version Information
VERS.                      2.0: CWLS Log ASCII Standard - VERSION 2.0
WRAP.                       NO: One line per depth step
~Well Information Block
STRT.FT                -8.5000: 
STOP.FT              1214.7500: 
STEP.FT                 0.2500: 
NULL.                -999.2500: 
COMP.          Pioneer Natural Resources: COMPANY
WELL.          Rock Island 44-24 Tr: WELL
FLD.           Purgatorie River: FIELD
LOC.           814' FSL & 761' FEL--: LOCATION
CNTY.               Las Animas: COUNTY
SRVC.          Patterson Wireline: SERVICE COMPANY
DATE.          Fri Apr 28 10:23:18 2006: LOG DATE
UWI.           05 071 08680 00: UNIQUE WELL ID
STAT.                       CO: STATE
~Curve Information Block
DEPT.FT            0 000 00 00: Depth
CCL.                          : Casing Collar Locator
TT3.usec                      : CBL 3' Travel Time
AMP3.mV                       : CBL 3' Amplitude
GR.GAPI                       : Gamma Ray
~Parameter Information Block
~A  Depth       CCL         TT3         AMP3         GR     
# ...
   628.0000      0.0000    703.9242      5.3222     49.0701
   628.2500      0.0000    698.7410      5.3534     48.8494
   628.5000      0.0000    694.6145      5.4718     48.7934
   628.7500      0.0000    698.3727      5.6008     47.9976
   629.0000      0.0000    710.8603      5.6540     45.9641
   629.2500      0.0000    725.4691      5.6383     42.5446
   629.5000      0.0000    733.8210      5.6375     38.1181
   629.7500      0.0000    733.5682      5.7107     33.8053
   630.0000      0.0000    730.7675      5.8413     31.1426
   630.2500      0.0000    734.3613      5.9800     31.0828
   630.5000      0.0000    747.3609      6.1134     33.2024
   630.7500      0.0000    762.9354      6.2843     36.0912
   631.0000      0.0000    770.1882      6.5302     38.6282
   631.2500      0.0000    764.4051      6.7945     40.7300
   631.5000      0.0000    750.6571      6.9285     42.8123
   631.7500      0.0000    737.7977      6.8233     44.7602
   632.0000      0.0000    731.2925      6.5192     45.7794
   632.2500      0.0000    731.7635      6.1564     45.3671
   632.5000      0.0000    737.1832      5.8407     44.1950
   632.7500      0.0000    744.7045      5.5880     43.6824
   633.0000      0.0000    751.6655      5.3712     44.5918
   633.2500      0.0000    756.4963      5.1783     46.2266
   633.5000      0.0000    759.0778      5.0260     47.1220
   633.7500      0.0000    760.1661      4.9372     46.3649
   634.0000      0.0000    760.5670      4.9185     44.0828
   634.2500      0.0000    760.6277      4.9587     40.9357
   634.5000      0.0000    760.0648      5.0432     37.6900
   634.7500      0.0000    757.8800      5.1623     35.3262
   635.0000      0.0000    752.6158      5.3066     34.9485
   635.2500      0.0000    743.6068      5.4610     37.0055
   635.5000      0.0000    732.8553      5.6100     40.6098
   635.7500      0.0000    725.1992      5.7462     43.9045
   636.0000      0.0000    725.0561      5.8714     45.3077
   636.2500      0.0000    732.4432      5.9911     44.5149
   636.5000      0.0000    742.9707      6.1099     42.5178
   636.7500      0.0000    751.7815      6.2272     40.8652
   637.0000      0.0000    756.7364      6.3324     40.7609
   637.2500      0.0000    758.1825      6.4084     42.4676
   637.5000      0.0000    757.1963      6.4461     45.3484
   637.7500      0.0000    754.7950      6.4588     48.5012
   638.0000      0.0000    752.1580      6.4751     51.3821
   638.2500      0.0000    750.4122      6.5144     53.8383
   638.5000      0.0000    749.6526      6.5693     55.7234
   638.7500      0.0000    748.6094      6.6136     56.7884
   639.0000      0.0000    745.8875      6.6260     57.0703
   639.2500      0.0000    741.4109      6.6047     57.3055
   639.5000      0.0000    736.4145      6.5642     58.9944
   639.7500      0.0000    732.4444      6.5193     63.8031
   640.0000      0.0000    730.6861      6.4733     72.1157
   640.2500      0.0000    731.7101      6.4185     81.9505
   640.5000      0.0000    735.2490      6.3507     90.0835
   640.7500      0.0000    740.3423      6.2801     94.6350
   641.0000      0.0000    745.8403      6.2248     96.0184
   641.2500      0.0000    750.6521      6.1928     95.3983
   641.5000      0.0000    753.8939      6.1750     93.3466
   641.7500      0.0000    755.4221      6.1564     90.2780
   642.0000      0.0000    756.0430      6.1308     87.1071
   642.2500      0.0000    756.5541      6.1021     84.7171
   642.5000      0.0000    756.5356      6.0752     83.0752
   642.7500      0.0000    754.6262      6.0487     81.1895
   643.0000      0.0000    750.2321      6.0171     77.9258
   643.2500      0.0000    744.5456      5.9776     73.1000
   643.5000      0.0000    739.6134      5.9356     68.0849
   643.7500      0.0000    736.8510      5.9044     65.1876
   644.0000      0.0000    736.7531      5.8988     66.1651
   644.2500      0.0000    739.5257      5.9251     71.1840
   644.5000      0.0000    745.3955      5.9737     78.8874
   644.7500      0.0000    754.2076      6.0232     87.2580
   645.0000      0.0000    764.7897      6.0514     94.6379
   645.2500      0.0000    774.8647      6.0466    100.2687
   645.5000      0.0000    781.8691      6.0104    104.1766
   645.7500      0.0000    783.9838      5.9544    106.7952
   646.0000      0.0000    780.4894      5.8936    108.5030
   646.2500      0.0000    771.9257      5.8401    109.0973
   646.5000      0.0000    760.4691      5.8003    107.8948
   646.7500      0.0000    749.3865      5.7763    104.6282
   647.0000      0.0000    741.2005      5.7684     99.9284
   647.2500      0.0000    736.4034      5.7725     94.7687
   647.5000      0.0000    733.9690      5.7795     90.0276
   647.7500      0.0000    732.6724      5.7820     86.6865
   648.0000      0.0000    731.8126      5.7821     85.5351
   648.2500      0.0000    731.1765      5.7889     86.1701
   648.5000      0.0000    730.7531      5.8101     86.8439
   648.7500      0.0000    730.5253      5.8483     85.6058
   649.0000      0.0000    730.3584      5.9046     81.4937
   649.2500      0.0000    730.1003      5.9791     75.1064
   649.5000      0.0000    730.0151      6.0685     68.7432
   649.7500      0.0000    731.0656      6.1633     65.6145
   650.0000      0.0000    734.1532      6.2499     67.7683
   650.2500      0.0000    738.7037      6.3144     74.2549
   650.5000      0.0000    742.5427      6.3515     81.6656
   650.7500      0.0000    743.6907      6.3708     86.8819
   651.0000      0.0000    741.8703      6.3912     89.2980
   651.2500      0.0000    737.9576      6.4243     90.3527
   651.5000      0.0000    732.7744      6.4649     91.3570
   651.7500      0.0000    727.0777      6.5017     92.3418
   652.0000      0.0000    721.9899      6.5357     92.9179
   652.2500      0.0000    718.5071      6.5809     93.3439
   652.5000      0.0000    716.7883      6.6457     94.1410
   652.7500      0.0000    716.2934      6.7180     95.0806
   653.0000      0.0000    716.3242      6.7741     95.2770
   653.2500      0.0000    716.3569      6.7976     94.4199
   653.5000      0.0000    716.1591      6.7871     93.6015
   653.7500      0.0000    715.6653      6.7491     94.5006
   654.0000      0.0000    714.8676      6.6904     97.5645
   654.2500      0.0000    714.0305      6.6159    101.2817
   654.5000      0.0000    713.7205      6.5292    103.5181
   654.7500      0.0000    714.1920      6.4308    103.2823
   655.0000      0.0000    714.8151      6.3212    100.9813
   655.2500      0.0000    714.2354      6.2056     97.4589
   655.5000      0.0000    710.8881      6.0940     93.2634
   655.7500      0.0000    703.5310      5.9947     88.7434
   656.0000      0.0000    691.9536      5.9100     84.5306
   656.2500      0.0000    677.7078      5.8398     81.6836
   656.5000      0.0000    664.0800      5.7849     81.0505
   656.7500      0.0000    655.2096      5.7446     82.3295
   657.0000      0.0000    653.6790      5.7118     83.9558
   657.2500      0.0000    657.1111      5.6745     84.1659
   657.5000      0.0000    657.9904      5.6267     82.2076
   657.7500      0.0000    649.0839      5.5733     78.5591
   658.0000      0.0000    629.1974      5.5218     74.3660
   658.2500      0.0000    603.9730      5.4704     71.0032
   658.5000      0.0000    583.0521      5.4081     69.7360
   658.7500      0.0000    575.2551      5.3253     71.0373
   659.0000      0.0000    582.3731      5.2210     74.1354
   659.2500      0.0000    597.5142      5.0971     77.6231
   659.5000      0.0000    612.7427      4.9515     80.6112
   659.7500      0.0000    626.9067      4.7788     83.2150
   660.0000      0.0000    642.3058      4.5809     86.0996
   660.2500      0.0000    656.1589      4.3736     89.9302
   660.5000      0.0000    660.6940      4.1843     95.0822
   660.7500      0.0000    651.1512      4.0407    101.2453
   661.0000      0.0000    630.7031      3.9587    107.0882
   661.2500      0.0000    609.0024      3.9390    110.7412
