~Version Information
VERS.                      2.0: CWLS Log ASCII Standard - VERSION 2.0
WRAP.                       NO: One line per depth step
~Well Information Block
STRT.FT                -9.5000: 
STOP.FT              1304.7500: 
STEP.FT                 0.2500: 
NULL.                -999.2500: 
COMP.          Pioneer Natural Resources: COMPANY
WELL.            Hamburg 43-35: WELL
FLD.           Purgatorie River: FIELD
LOC.           2444' FSL & 950' FEL--: LOCATION
PROV.                       CO: PROVINCE
CNTY.               Las Animas: COUNTRY
SRVC.          Patterson Wireline: SERVICE COMPANY
DATE.          Thu Dec 08 14:29:45 2005: LOG DATE
UWI.           08 071 08607 00: UNIQUE WELL ID
~Curve Information Block
DEPT.FT            0 000 00 00: Depth
CCL.                          : Casing Collar Locator
TT3.usec                      : CBL 3' Travel Time
AMP3.mV                       : CBL 3' Amplitude
GR.GAPI                       : Gamma Ray
~Parameter Information Block
~A  Depth       CCL         TT3         AMP3         GR     
# ...
   828.0000      0.0000    740.6767     11.9062     89.7269
   828.2500      0.0000    740.7081     12.0324     85.7929
   828.5000      0.0000    740.7263     12.1163     84.4858
   828.7500      0.0000    740.7128     12.1584     85.3953
   829.0000      0.0000    740.6790     12.1610     87.8879
   829.2500      0.0000    740.6470     12.1318     92.1084
   829.5000      0.0000    740.6134     12.0875     99.0940
   829.7500      0.0000    740.5497     12.0440    109.9208
   830.0000      0.0000    740.4449     11.9991    124.6115
   830.2500      0.0000    740.3314     11.9281    141.3317
   830.5000      0.0000    740.2603     11.8026    156.5922
   830.7500      0.0000    740.2559     11.6203    166.9864
   831.0000      0.0000    740.2985     11.4150    171.1006
   831.2500      0.0000    740.3504     11.2364    169.5556
   831.5000      0.0000    740.4016     11.1165    163.5040
   831.7500      0.0000    740.4889     11.0554    153.8360
   832.0000      0.0000    740.6634     11.0296    141.8754
   832.2500      0.0000    740.9343     11.0093    129.9495
   832.5000      0.0000    741.2538     10.9740    120.5006
   832.7500      0.0000    741.5593     10.9162    114.7693
   833.0000      0.0000    741.8111     10.8371    112.7850
   833.2500      0.0000    741.9912     10.7447    114.2740
   833.5000      0.0000    742.0921     10.6549    118.6985
   833.7500      0.0000    742.1224     10.5859    124.5575
   834.0000      0.0000    742.1048     10.5467    129.6841
   834.2500      0.0000    742.0559     10.5344    132.5676
   834.5000      0.0000    741.9720     10.5421    133.0991
   834.7500      0.0000    741.8500     10.5644    132.3181
   835.0000      0.0000    741.7260     10.5977    131.7851
   835.2500      0.0000    741.6754     10.6370    132.7338
   835.5000      0.0000    741.7466     10.6720    135.5257
   835.7500      0.0000    741.8840     10.6828    140.0772
   836.0000      0.0000    741.9108     10.6445    146.1550
   836.2500      0.0000    741.5466     10.5424    152.5860
   836.5000      0.0000    740.3444     10.3799    157.1777
   836.7500      0.0000    737.6373     10.1712    158.6605
   837.0000      0.0000    732.8657      9.9329    158.2955
   837.2500      0.0000    726.3740      9.6891    158.7542
   837.5000      0.0000    719.8008      9.4773    161.6538
   837.7500      0.0000    715.0562      9.3360    166.5631
   838.0000      0.0000    712.6042      9.2842    171.9789
   838.2500      0.0000    711.1339      9.3147    176.7961
   838.5000      0.0000    709.1459      9.4007    180.8101
   838.7500      0.0000    706.4869      9.5084    183.8930
   839.0000      0.0000    704.2103      9.6119    185.0396
   839.2500      0.0000    703.5605      9.7042    182.8887
   839.5000      0.0000    705.4451      9.7996    177.4684
   839.7500      0.0000    710.3079      9.9219    171.1082
   840.0000      0.0000    717.7438     10.0823    167.2768
   840.2500      0.0000    726.2202     10.2655    168.2033
   840.5000      0.0000    733.7059     10.4403    173.3481
   840.7500      0.0000    738.8895     10.5847    180.0779
   841.0000      0.0000    741.7418     10.6968    185.8108
   841.2500      0.0000    743.0270     10.7859    189.5693
   841.5000      0.0000    743.5341     10.8576    191.8019
   841.7500      0.0000    743.7388     10.9068    193.2182
   842.0000      0.0000    743.8521     10.9227    193.8504
   842.2500      0.0000    743.9487     10.9005    193.1472
   842.5000      0.0000    744.0510     10.8516    190.9758
   842.7500      0.0000    744.1655     10.8057    188.2029
   843.0000      0.0000    744.2822     10.7993    186.0428
   843.2500      0.0000    744.3829     10.8504    185.1343
   843.5000      0.0000    744.4739     10.9417    185.2990
   843.7500      0.0000    744.5950     11.0361    185.6303
   844.0000      0.0000    744.7755     11.1124    184.6077
   844.2500      0.0000    744.9880     11.1924    180.6066
   844.5000      0.0000    745.1562     11.3352    172.8173
   844.7500      0.0000    745.1914     11.6009    161.8950
   845.0000      0.0000    745.0220     12.0065    149.8817
   845.2500      0.0000    744.6256     12.5040    139.4219
   845.5000      0.0000    744.0697     13.0008    132.5406
   845.7500      0.0000    743.5020     13.4097    129.7462
   846.0000      0.0000    743.0941     13.6902    130.2361
   846.2500      0.0000    743.0095     13.8545    132.9140
   846.5000      0.0000    743.4841     13.9403    136.8050
   846.7500      0.0000    745.0067     13.9800    140.3698
   847.0000      0.0000    748.6060     13.9654    141.0157
   847.2500      0.0000    756.4111     13.8192    136.0228
   847.5000      0.0000    771.9485     13.4347    124.5236
   847.7500      0.0000    798.4490     12.8140    108.8702
   848.0000      0.0000    835.0601     12.1644     93.8028
   848.2500      0.0000    874.9960     11.7876     83.7214
   848.5000      0.0000    909.0761     11.8518     80.5458
   848.7500      0.0000    930.6144     12.3067     83.9554
   849.0000     -2.0000    935.6779     13.0076     92.9878
   849.2500      2.0000    920.0364     13.8617    106.8587
   849.5000      0.0000    878.5671     14.8608    124.3336
   849.7500      0.0000    809.5709     16.0313    142.8111
   850.0000      0.0000    720.6351     17.3674    158.7503
   850.2500      0.0000    628.5046     18.7776    169.7042
   850.5000      0.0000    548.8476     20.0788    175.9922
   850.7500      0.0000    486.0967     21.0626    179.7594
   851.0000      0.0000    437.2786     21.5685    182.0778
   851.2500      0.0000    404.1454     21.5055    181.6395
   851.5000      0.0000    395.6217     20.8674    176.9052
   851.7500      0.0000    418.4142     19.7684    168.8082
   852.0000      0.0000    468.8926     18.4248    160.4080
   852.2500      0.0000    534.3214     17.0619    154.2716
   852.5000      0.0000    600.1772     15.8314    150.8903
   852.7500      0.0000    656.0331     14.7970    149.1576
   853.0000      0.0000    696.9304     13.9641    147.5568
   853.2500      0.0000    722.4903     13.3055    144.9143
   853.5000      0.0000    735.7471     12.7759    140.5410
   853.7500      0.0000    741.3240     12.3302    134.2374
   854.0000      0.0000    743.2296     11.9436    126.5976
   854.2500      0.0000    743.8040     11.6084    119.2148
   854.5000      0.0000    744.0052     11.3145    114.1103
   854.7500      0.0000    744.1093     11.0427    112.7490
   855.0000      0.0000    744.1423     10.7815    115.3262
   855.2500      0.0000    744.0931     10.5382    120.3551
   855.5000      0.0000    743.9622     10.3280    124.7807
   855.7500      0.0000    743.7859     10.1532    125.3175
   856.0000      0.0000    743.6227      9.9977    120.4813
   856.2500      0.0000    743.5206      9.8465    111.5549
   856.5000      0.0000    743.4865      9.7098    101.6875
   856.7500      0.0000    743.4850      9.6212     93.9337
   857.0000      0.0000    743.4741      9.6027     89.5319
   857.2500      0.0000    743.4377      9.6388     87.3930
   857.5000      0.0000    743.3853      9.6892     85.1897
   857.7500      0.0000    743.3340      9.7244     81.4562
   858.0000      0.0000    743.2993      9.7420     77.0400
   858.2500      0.0000    743.2866      9.7524     74.5433
   858.5000      0.0000    743.2750      9.7586     76.2136
   858.7500      0.0000    743.1819      9.7533     82.0813
   859.0000      0.0000    742.7908      9.7338     89.6850
   859.2500      0.0000    741.6169      9.7203     95.6017
   859.5000      0.0000    738.8514      9.7542     97.8058
   859.7500      0.0000    733.7080      9.8695     96.9177
   860.0000      0.0000    726.2026     10.0572     95.0567
   860.2500      0.0000    717.6384     10.2606     93.5737
   860.5000      0.0000    710.0059     10.4088     92.1255
   860.7500      0.0000    704.7006     10.4575     89.7274
   861.0000      0.0000    701.8467     10.4026     86.1865
   861.2500      0.0000    700.7129     10.2716     82.2986
