~Version Information
VERS.                      2.0: CWLS Log ASCII Standard - VERSION 2.0
WRAP.                       NO: One line per depth step
~Well Information Block
STRT.FT               305.0000: 
STOP.FT              1376.5000: 
STEP.FT                 0.1000: 
NULL.                -999.2500: 
COMP.          Pioneer Natural Resources: COMPANY
WELL.               LPGC 32-32: WELL
FLD.           Purgatoire River: FIELD
LOC.           1937' FNL & 1661' FEL: LOCATION
PROV.                 Colorado: PROVINCE
CNTY.               Las Animas: COUNTRY
SRVC.                Patterson: SERVICE COMPANY
DATE.          Mon Jan 30 07:33:36 2006: LOG DATE
UWI.           05 071 08641 00: UNIQUE WELL ID
~Curve Information Block
DEPT.FT            0 000 00 00: Depth
DCAL.in                       : CDL Caliper
RHOB.g/cc                     : CDL Bulk Density
RHOC.g/cc                     : CDL Density Correction
DPOR.pu                       : CDL Density Porosity
GR.GAPI                       : Gamma Ray
NPOR.pu                       : Neutron Porosity
~Parameter Information Block
~A  Depth       DCAL        RHOB        RHOC        DPOR         GR         NPOR    
# ...
   516.2000      8.1695      2.5341      0.1076      7.0225    151.5642     21.7974
   516.3000      8.2018      2.5255      0.1456      7.5450    144.0723     20.3101
   516.4000      8.2018      2.4786      0.1152     10.3902    136.1822     18.5536
   516.5000      8.2196      2.3744      0.0422     16.7014    132.3110     16.5936
   516.6000      8.2196      2.2248     -0.0589     25.7716    129.4338     14.8888
   516.7000      8.2196      2.0557     -0.0910     36.0156    123.5026     13.8113
   516.8000      8.2254      1.8914     -0.1490     45.9762    116.1165     13.1923
   516.9000      8.2254      1.7517     -0.1646     54.4435    110.4221     12.8697
   517.0000      8.2572      1.6485     -0.1342     60.6975    106.2857     13.0111
   517.1000      8.2572      1.5824     -0.1247     64.7014    103.3947     13.5574
   517.2000      8.2572      1.5486     -0.0518     66.7521    103.8999     14.3143
   517.3000      8.3571      1.5521     -0.0221     66.5412    106.0956     15.3566
   517.4000      8.3571      1.6030      0.1199     63.4547    104.5660     16.6601
   517.5000      8.4044      1.6887      0.2473     58.2579    101.3741     17.8592
   517.6000      8.4044      1.7830      0.3046     52.5427    101.5137     18.6408
   517.7000      8.4044      1.8742      0.3097     47.0158    102.7131     19.1330
   517.8000      8.4254      1.9559      0.3187     42.0648    102.7273     19.6327
   517.9000      8.4254      2.0083      0.2439     38.8902    103.8037     20.2218
   518.0000      8.4423      2.0148      0.1544     38.4972    106.6264     20.6973
   518.1000      8.4423      1.9830      0.1157     40.4265    107.6546     20.5058
   518.2000      8.4423      1.9315      0.0844     43.5427    105.2573     19.5759
   518.3000      8.4199      1.8780     -0.0152     46.7902    102.8170     18.6347
   518.4000      8.4199      1.8309     -0.0010     49.6406    101.6605     17.9434
   518.5000      8.3837      1.7796     -0.0150     52.7539    100.5574     17.2115
   518.6000      8.3837      1.7122     -0.0112     56.8379     98.3639     16.3392
   518.7000      8.3837      1.6310     -0.0134     61.7548     92.7355     15.4721
   518.8000      8.3778      1.5484     -0.0067     66.7630     87.3972     14.6312
   518.9000      8.3778      1.4823     -0.0160     70.7679     86.9878     13.5121
   519.0000      8.4036      1.4403      0.0521     73.3172     86.5181     12.0846
   519.1000      8.4036      1.4057      0.0915     75.4146     80.7001     10.8652
   519.2000      8.4036      1.3563      0.1307     78.4044     71.5261     10.1767
   519.3000      8.4163      1.2929      0.0531     82.2491     63.6806      9.9806
   519.4000      8.4163      1.2370      0.0721     85.6371     58.1678     10.1330
   519.5000      8.4210      1.2067      0.0936     87.4700     54.4446     10.3941
   519.6000      8.4210      1.2058      0.1366     87.5254     53.3603     10.5605
   519.7000      8.4210      1.2324      0.1337     85.9134     52.2624     10.6922
   519.8000      8.4211      1.2892      0.1936     82.4737     48.3936     11.0062
   519.9000      8.4211      1.3790      0.1876     77.0329     45.3176     11.6426
   520.0000      8.4339      1.4976      0.2516     69.8442     47.3648     12.7180
   520.1000      8.4339      1.6312      0.2978     61.7475     53.2837     14.2736
   520.2000      8.4339      1.7616      0.3665     53.8410     58.2125     16.0562
   520.3000      8.5286      1.8747      0.3858     46.9875     59.3507     17.8758
   520.4000      8.5286      1.9659      0.3952     41.4600     58.2869     19.7900
   520.5000      8.7316      2.0399      0.4083     36.9732     60.5452     21.6344
   520.6000      8.7316      2.1065      0.3617     32.9401     71.5499     23.0264
   520.7000      8.7316      2.1670      0.3247     29.2747     89.8111     23.8756
   520.8000      8.7738      2.2124      0.2577     26.5232    103.2447     24.6299
   520.9000      8.7738      2.2447      0.1409     24.5656    102.5815     25.4211
   521.0000      8.4675      2.2743      0.1527     22.7691     97.4231     25.6616
   521.1000      8.4675      2.3021      0.1584     21.0848     97.5637     25.0989
   521.2000      8.4675      2.3278      0.1910     19.5246    101.2548     24.1206
   521.3000      8.3696      2.3504      0.1569     18.1604    106.0819     23.3593
   521.4000      8.3696      2.3632      0.1450     17.3810    111.7160     23.4000
   521.5000      8.3776      2.3657      0.0984     17.2321    118.6533     24.1435
   521.6000      8.3776      2.3620      0.1103     17.4521    127.6736     24.8325
   521.7000      8.3776      2.3559      0.0744     17.8224    136.8028     25.0709
   521.8000      8.3699      2.3484      0.0812     18.2764    140.8212     24.9452
   521.9000      8.3699      2.3376      0.0697     18.9321    139.7702     24.5877
   522.0000      8.3840      2.3331      0.0765     19.2062    136.9600     24.3340
   522.1000      8.3840      2.3445      0.1161     18.5179    133.3098     24.5560
   522.2000      8.3840      2.3600      0.0926     17.5736    132.2032     25.2243
   522.3000      8.3773      2.3662      0.0674     17.1991    138.2019     25.8155
   522.4000      8.3773      2.3707      0.0812     16.9245    148.0389     25.9694
   522.5000      8.4164      2.3947      0.0399     15.4727    153.9671     26.0275
   522.6000      8.4164      2.4420      0.1018     12.6069    155.6578     26.4550
   522.7000      8.4164      2.4870      0.1099      9.8795    155.3399     27.1147
   522.8000      8.4244      2.5089      0.0950      8.5505    150.5096     27.4522
   522.9000      8.4244      2.5141      0.0625      8.2376    142.9867     27.3324
   523.0000      8.4233      2.5190      0.0291      7.9413    139.3386     27.2389
   523.1000      8.4233      2.5396     -0.0206      6.6927    139.1808     27.5639
   523.2000      8.4233      2.5794      0.0061      4.2817    138.8123     27.9413
   523.3000      8.4233      2.6136      0.0771      2.2064    137.3358     27.6740
   523.4000      8.4233      2.6197      0.0594      1.8341    134.0997     26.8854
   523.5000      8.4234      2.6093     -0.0345      2.4683    126.5742     26.4206
   523.6000      8.4234      2.5968      0.0578      3.2213    117.3037     26.5581
   523.7000      8.4234      2.5795      0.0106      4.2708    115.0569     26.9075
   523.8000      8.3709      2.5595     -0.0024      5.4821    119.4774     27.0668
   523.9000      8.3709      2.5426     -0.0238      6.5099    124.3565     26.8476
   524.0000      8.3640      2.5335     -0.0082      7.0633    128.2327     26.4715
   524.1000      8.3640      2.5412     -0.0475      6.5960    131.0283     26.0539
   524.2000      8.3640      2.5633      0.0963      5.2573    129.6662     25.1603
   524.3000      8.3639      2.5765      0.0719      4.4568    123.3918     24.0830
   524.4000      8.3639      2.5630      0.0736      5.2729    118.8525     23.7407
   524.5000      8.3733      2.5207      0.0520      7.8345    120.1927     24.1125
   524.6000      8.3733      2.4655     -0.0236     11.1836    124.2825     24.4275
   524.7000      8.3733      2.4197     -0.0080     13.9586    127.3149     24.1495
   524.8000      8.3771      2.3834      0.0070     16.1600    129.4626     23.4299
   524.9000      8.3771      2.3500     -0.0235     18.1820    132.2111     22.8925
   525.0000      8.3847      2.3325     -0.0021     19.2433    135.7252     22.8394
   525.1000      8.3847      2.3430      0.0146     18.6077    140.1918     22.8679
   525.2000      8.3847      2.3709      0.0459     16.9171    145.0227     22.4057
   525.3000      8.3987      2.3977      0.0950     15.2933    146.5836     21.4969
   525.4000      8.3987      2.4217      0.1262     13.8350    144.4277     20.6712
   525.5000      8.4102      2.4493      0.2034     12.1662    143.9096     20.3355
   525.6000      8.4102      2.4765      0.2833     10.5132    145.4296     20.2907
   525.7000      8.4102      2.5003      0.3096      9.0709    144.5879     20.1071
