~Version Information
 VERS.                                  2.0 : CWLS LAS VERSION
 WRAP.                                   NO : WRAPING MODE
 SWARE .                  MController 2.5.1 : SOFTWARE VERSION
~Well Information
 WELL.                    Sparrowhawk 22-12 : WELL
 COMP.  Pioneer Natural Resources USA, Inc. : COMPANY
 FLD.                      Purgatoire River : FIELD
 LOC.             SE/NE Sec. 12, T32S, R66W : LOCATION
 DATE.                03/22/2006-03/23/2006 : DATE(S) LOGGED
 SRVC.                  Entrada GeoSciences : SERVICE COMPANY
 STAT.                             Colorado : STATE
 CNTY.                           Las Animas : COUNTY
 CTRY.                        United States : COUNTRY
 API.                          05-071-08484 : API NUMBER
 STRT.FT                             533.00 : START DEPTH
 STOP.FT                            2380.00 : STOP DEPTH
 STEP.FT                               1.00 : DEPTH INCREMENT
 NULL.                                -9999 : NULL VALUE
~Curve information
 DEPTH.FT                                   :
 ROP.MIN/FT                                 :
 GAS.UNITS                                  :
~ASCII Log data
# ...
     2133.00         0.60        884.3 
     2134.00         0.50       1084.1 
     2135.00         0.47       1145.4 
     2136.00         0.47       1065.1 
     2137.00         0.47        934.4 
     2138.00         0.47        839.2 
     2139.00         0.52        752.2 
     2140.00         0.53        685.4 
     2141.00         0.53        641.7 
     2142.00         0.53        612.4 
     2143.00         0.50        595.7 
     2144.00         0.53        587.8 
     2145.00         0.55        578.8 
     2146.00         0.53        578.8 
     2147.00         0.47        571.1 
     2148.00         0.50        567.0 
     2149.00         0.53        567.0 
     2150.00         0.50        561.5 
     2151.00         0.53        555.6 
     2152.00         0.58        556.2 
     2153.00         0.47        553.0 
     2154.00         0.47        545.4 
     2155.00         0.40        544.5 
     2156.00         0.47        526.3 
     2157.00         0.40        518.4 
     2158.00         0.55        497.3 
     2159.00         0.37        482.4 
     2160.00         0.33        480.9 
     2161.00         0.40        497.9 
     2162.00         0.30        549.8 
     2163.00         0.30        623.3 
     2164.00         0.20        691.0 
     2165.00         0.30        821.6 
     2166.00         0.33        983.9 
     2167.00         0.30       1094.1 
     2168.00         0.27       1142.7 
     2169.00         0.32       1144.8 
     2170.00         0.37       1075.0 
     2171.00         0.37        965.5 
     2172.00         0.37        872.3 
     2173.00         0.40        783.5 
     2174.00         0.43        711.2 
     2175.00         0.53        650.5 
     2176.00         0.57        602.8 
     2177.00         0.45        583.7 
     2178.00         0.43        574.4 
     2179.00         0.40        570.6 
     2180.00         0.40        571.7 
     2181.00         0.40        564.7 
     2182.00         0.40        563.2 
     2183.00         0.27        559.1 
     2184.00         0.30        558.0 
     2185.00         0.43        554.1 
     2186.00         0.42        533.9 
     2187.00         0.53        506.7 
     2188.00         0.60        479.7 
     2189.00         0.47        477.7 
     2190.00         0.50        520.2 
     2191.00         0.57        642.0 
     2192.00         0.55        852.1 
     2193.00         0.50       1102.0 
     2194.00         0.43       1216.3 
     2195.00         0.40       1222.4 
     2196.00         0.43       1124.0 
     2197.00         0.47        966.4 
     2198.00         0.43        844.5 
     2199.00         0.38        769.2 
     2200.00         0.37        712.9 
     2201.00         0.33        670.7 
     2202.00         0.33        642.6 
     2203.00         0.30        619.8 
     2204.00         0.30        606.6 
     2205.00         0.27        589.6 
     2206.00         0.27        582.3 
     2207.00         0.17        580.8 
     2208.00         0.20        572.0 
     2209.00         0.20        569.1 
     2210.00         0.17        570.3 
     2211.00         0.35        561.8 
     2212.00         0.27        561.8 
     2213.00         0.33        551.5 
     2214.00         0.27        548.3 
     2215.00         0.47        545.9 
     2216.00         0.47        521.3 
     2217.00         0.32        515.2 
     2218.00         0.23        511.4 
     2219.00         0.37        508.4 
     2220.00         0.40        512.2 
     2221.00         0.40        523.4 
     2222.00         0.33        567.0 
     2223.00         0.37        647.3 
     2224.00         0.43        792.6 
     2225.00         0.40        984.5 
     2226.00         0.42       1204.5 
     2227.00         0.37       1345.5 
     2228.00         0.30       1384.1 
     2229.00         0.30       1368.3 
     2230.00         0.30       1289.5 
     2231.00         0.30       1166.4 
     2232.00         0.30       1034.6 
     2233.00         0.30        934.1 
     2234.00         0.30        852.1 
     2235.00         0.30        798.8 
     2236.00         0.30        749.8 
     2237.00         0.35        709.4 
     2238.00         0.37        672.5 
     2239.00         0.33        650.8 
     2240.00         0.33        633.2 
     2241.00         0.33        621.5 
     2242.00         0.33        615.4 
     2243.00         0.37        611.3 
     2244.00         0.33        606.9 
     2245.00         0.33        603.4 
     2246.00         0.37        499.9 
     2247.00         0.57        529.2 
     2248.00         0.52        627.7 
     2249.00         0.47        777.7 
     2250.00         0.53       1040.5 
     2251.00         0.53       1359.8 
     2252.00         0.53       1509.5 
     2253.00         0.50       1483.1 
     2254.00         0.50       1280.4 
     2255.00         0.52       1046.0 
     2256.00         0.47        889.9 
     2257.00         0.47        780.9 
     2258.00         0.50        703.0 
     2259.00         0.47        653.8 
     2260.00         0.50        617.7 
     2261.00         0.55        610.4 
     2262.00         0.57        603.7 
     2263.00         0.53        591.9 
     2264.00         0.53        583.4 
     2265.00         0.53        574.7 
     2266.00         0.47        570.6 
     2267.00         0.50        569.1 
     2268.00         0.48        563.5 
     2269.00         0.50        561.2 
     2270.00         0.47        561.8 
     2271.00         0.53        558.5 
     2272.00         0.53        553.9 
     2273.00         0.53        555.9 
     2274.00         0.48        560.3 
     2275.00         0.37        558.2 
     2276.00         0.43        798.5 
     2277.00         0.47        978.4 
     2278.00         0.53       1248.5 
     2279.00         0.50       1732.2 
     2280.00         0.47       2108.9 
     2281.00         0.45       2169.9 
     2282.00         0.67       1873.1 
     2283.00         0.50       1515.4 
     2284.00         0.40       1248.8 
     2285.00         0.33       1057.2 
     2286.00         0.33        922.4 
     2287.00         0.33        818.4 
     2288.00         0.33        751.9 
     2289.00         0.38        694.2 
     2290.00         0.37        660.5 
     2291.00         0.33        635.9 
     2292.00         0.33        624.2 
     2293.00         0.37        612.4 
     2294.00         0.37        606.9 
     2295.00         0.37        601.6 
     2296.00         0.37        597.5 
     2297.00         0.33        591.1 
     2298.00         0.37        576.1 
     2299.00         0.38        587.2 
     2300.00         0.37        584.3 
     2301.00         0.40        581.4 
     2302.00         0.37        581.1 
     2303.00         0.40        578.5 
     2304.00         0.33        580.2 
     2305.00         0.53        579.3 
     2306.00         0.73        507.3 
     2307.00         0.40        503.8 
     2308.00         0.40        516.9 
     2309.00         0.37        555.6 
     2310.00         0.40        608.6 
     2311.00         0.38        653.5 
     2312.00         0.33        676.9 
     2313.00         0.33        698.3 
     2314.00         0.37        716.4 
     2315.00         0.33        719.1 
     2316.00         0.40        721.4 
     2317.00         0.37        704.7 
     2318.00         0.37        683.6 
     2319.00         0.37        662.8 
     2320.00         0.42        644.1 
     2321.00         0.40        621.2 
     2322.00         0.37        615.1 
     2323.00         0.40        604.2 
     2324.00         0.40        594.9 
     2325.00         0.57        594.9 
     2326.00         0.53        594.3 
     2327.00         0.43        591.4 
     2328.00         0.28        590.8 
     2329.00         0.50        586.4 
     2330.00         0.40        578.8 
     2331.00         0.43        573.2 
     2332.00         0.47        576.1 
