~Version Information
VERS.                      2.0: CWLS Log ASCII Standard - VERSION 2.0
WRAP.                       NO: One line per depth step
~Well Information Block
STRT.FT               665.0000: 
STOP.FT              2193.5000: 
STEP.FT                 0.1000: 
NULL.                -999.2500: 
COMP.          Pioneer Natural Resources: COMPANY
WELL.          Bear Cub Federal 11-23: WELL
FLD.           Purgatoire River: FIELD
LOC.           1225' FNL & 1268' FWL--: LOCATION
CNTY.               Las Animas: COUNTY
SRVC.                Patterson: SERVICE COMPANY
DATE.          Tue Jun 20 09:14:02 2006: LOG DATE
UWI.           05 071 08509 00: UNIQUE WELL ID
STAT.                 Colorado: STATE
~Curve Information Block
DEPT.FT            0 000 00 00: Depth
DCAL.in                       : CDL Caliper
RHOB.g/cc                     : CDL Bulk Density
RHOC.g/cc                     : CDL Density Correction
DPOR.pu                       : CDL Density Porosity
NPOR.pu                       : Neutron Porosity
GR.GAPI                       : Gamma Ray
~Parameter Information Block
~A  Depth       DCAL        RHOB        RHOC        DPOR        NPOR         GR     
# ...
  1855.4000      7.9937      2.5105      0.0746      8.4557     22.2360    114.8438
  1855.5000      7.9946      2.5041      0.0515      8.8451     22.0497    111.9195
  1855.6000      7.9946      2.5083      0.0503      8.5857     21.6380    112.6068
  1855.7000      7.9946      2.5234      0.0733      7.6700     21.3613    114.1995
  1855.8000      7.9956      2.5381      0.0911      6.7846     21.4730    114.8722
  1855.9000      7.9956      2.5412      0.0780      6.5942     21.9698    116.4366
  1856.0000      7.9967      2.5299      0.0916      7.2777     22.6304    116.3206
  1856.1000      7.9967      2.5091      0.1071      8.5410     23.0459    111.4846
  1856.2000      7.9967      2.4910      0.0547      9.6360     22.9197    104.6503
  1856.3000      7.9975      2.4862      0.0717      9.9294     22.4601    101.3194
  1856.4000      7.9975      2.4854      0.0952      9.9772     22.1165    101.2903
  1856.5000      7.9977      2.4705      0.0898     10.8809     22.0153    101.9398
  1856.6000      7.9977      2.4373      0.0668     12.8910     22.0438    104.7152
  1856.7000      7.9977      2.4004     -0.0146     15.1245     21.9475    110.6861
  1856.8000      7.9984      2.3674      0.0684     17.1247     21.4665    116.9894
  1856.9000      7.9984      2.3325      0.0206     19.2405     20.7892    119.4292
  1857.0000      8.0045      2.3042      0.0067     20.9554     20.3731    117.4151
  1857.1000      8.0045      2.2873      0.0650     21.9791     20.3735    112.4764
  1857.2000      8.0045      2.2689      0.0831     23.0980     20.5560    106.4883
  1857.3000      8.0202      2.2508      0.0421     24.1916     20.6323    103.8551
  1857.4000      8.0202      2.2562      0.0469     23.8650     20.4335    105.0856
  1857.5000      8.0339      2.2901      0.1672     21.8146     20.0168    105.2332
  1857.6000      8.0339      2.3323      0.1586     19.2520     19.8801    102.6484
  1857.7000      8.0339      2.3697      0.2034     16.9879     20.2219     99.1031
  1857.8000      8.0251      2.3974      0.1979     15.3090     20.5343     95.5026
  1857.9000      8.0251      2.4182      0.1857     14.0509     20.4337     93.2513
  1858.0000      7.9977      2.4424      0.1935     12.5841     20.0948     94.5602
  1858.1000      7.9977      2.4713      0.1843     10.8314     19.9008     97.5516
  1858.2000      7.9977      2.4964      0.1432      9.3064     20.2363     98.6435
  1858.3000      7.9768      2.5096      0.1624      8.5110     21.0419     98.9341
  1858.4000      7.9768      2.5095      0.1280      8.5136     21.7881    102.1883
  1858.5000      7.9712      2.5116      0.1121      8.3871     22.1918    106.2281
  1858.6000      7.9712      2.5306      0.1174      7.2383     22.2046    105.6641
  1858.7000      7.9712      2.5564      0.1553      5.6700     21.9168    102.2693
  1858.8000      7.9700      2.5645      0.1525      5.1840     21.8706    100.8724
  1858.9000      7.9700      2.5470      0.1207      6.2446     22.3137    102.1295
  1859.0000      7.9649      2.5220      0.0868      7.7566     22.5848    102.7787
  1859.1000      7.9649      2.5070      0.0748      8.6653     22.1653    100.1634
  1859.2000      7.9649      2.5002      0.0688      9.0798     21.5300     98.4896
  1859.3000      7.9597      2.4899      0.0444      9.7022     21.3099    101.6659
  1859.4000      7.9597      2.4781      0.0635     10.4154     21.5547    105.6180
  1859.5000      7.9577      2.4813      0.0583     10.2242     21.7758    108.7077
  1859.6000      7.9577      2.5049      0.0856      8.7919     21.6452    110.6460
  1859.7000      7.9577      2.5321      0.1023      7.1431     21.5448    107.0844
  1859.8000      7.9541      2.5494      0.1004      6.0951     21.8065     98.9742
  1859.9000      7.9541      2.5604      0.1347      5.4278     22.1790     93.0439
  1860.0000      7.9466      2.5613      0.1339      5.3745     22.3396     92.2310
  1860.1000      7.9466      2.5486      0.1003      6.1471     22.2529     92.7158
  1860.2000      7.9466      2.5362      0.0976      6.8954     22.0242     92.1112
  1860.3000      7.9431      2.5330      0.0752      7.0936     21.7530     94.7824
  1860.4000      7.9431      2.5299      0.0948      7.2766     21.4412    101.8053
  1860.5000      7.9482      2.5237      0.0469      7.6573     21.1115    106.4034
  1860.6000      7.9482      2.5223      0.0988      7.7384     20.9467    105.3907
  1860.7000      7.9482      2.5230      0.0911      7.6966     21.2147    101.7045
  1860.8000      7.9543      2.5200      0.0843      7.8768     21.8019     98.2040
  1860.9000      7.9543      2.5225      0.0390      7.7262     22.1883     98.7804
  1861.0000      7.9556      2.5396      0.0573      6.6879     22.0037    103.2586
  1861.1000      7.9556      2.5641      0.0929      5.2066     21.5357    104.6426
  1861.2000      7.9556      2.5824      0.0847      4.0963     21.2761    101.0919
  1861.3000      7.9557      2.5850      0.0815      3.9385     21.3084     98.4249
  1861.4000      7.9557      2.5702      0.0517      4.8355     21.6019    100.0062
  1861.5000      7.9524      2.5504      0.0449      6.0335     22.0264    102.7896
  1861.6000      7.9524      2.5378      0.0258      6.7988     22.3236    101.3677
  1861.7000      7.9524      2.5321      0.0642      7.1481     22.5695     95.7412
  1861.8000      7.9456      2.5315      0.0296      7.1844     22.7460     92.3190
  1861.9000      7.9456      2.5387      0.0600      6.7452     22.6823     93.3487
  1862.0000      7.9426      2.5443      0.0754      6.4088     22.6760     94.4289
  1862.1000      7.9426      2.5366      0.0589      6.8702     22.8797     92.1185
  1862.2000      7.9426      2.5199      0.0517      7.8831     23.1417     87.8066
  1862.3000      7.9444      2.5008      0.0573      9.0404     23.3908     85.2990
  1862.4000      7.9444      2.4904     -0.0002      9.6754     23.4222     87.4337
  1862.5000      7.9462      2.5053      0.0328      8.7675     23.1158     93.7847
  1862.6000      7.9462      2.5406      0.1029      6.6324     22.8620    100.5984
  1862.7000      7.9462      2.5754      0.0831      4.5185     23.0674    103.6712
  1862.8000      7.9466      2.6021      0.1056      2.9007     23.5096    101.7029
  1862.9000      7.9466      2.6174      0.1115      1.9766     23.7635     96.4827
  1863.0000      7.9448      2.6203      0.1190      1.8017     23.8787     91.8787
  1863.1000      7.9448      2.6158      0.1410      2.0729     23.9847     90.8151
  1863.2000      7.9448      2.6085      0.1087      2.5181     23.8740     92.4481
  1863.3000      7.9411      2.6015      0.1176      2.9412     23.4735     94.1688
  1863.4000      7.9411      2.5926      0.1308      3.4787     23.2072     94.4965
  1863.5000      7.9337      2.5792      0.0934      4.2898     23.4811     94.2294
  1863.6000      7.9337      2.5634      0.0932      5.2475     24.0738     94.8992
  1863.7000      7.9337      2.5480      0.0381      6.1813     24.3781     97.5170
  1863.8000      7.9226      2.5347      0.0699      6.9900     24.1340    100.3842
  1863.9000      7.9226      2.5267      0.0273      7.4738     23.6905    101.1895
  1864.0000      7.9136      2.5292      0.1021      7.3202     23.5067     98.3200
  1864.1000      7.9136      2.5401      0.0630      6.6611     23.5941     91.9243
  1864.2000      7.9136      2.5570      0.0841      5.6351     23.6472     85.5122
  1864.3000      7.9099      2.5727      0.1330      4.6855     23.6287     83.5439
  1864.4000      7.9099      2.5795      0.0741      4.2709     23.6192     87.2788
  1864.5000      7.9116      2.5822      0.0837      4.1067     23.4703     92.5883
  1864.6000      7.9116      2.5837      0.1040      4.0161     23.2517     95.1997
  1864.7000      7.9116      2.5858      0.1101      3.8939     23.2701     97.7525
  1864.8000      7.9147      2.5895      0.1189      3.6684     23.6036    103.0042
  1864.9000      7.9147      2.5920      0.1134      3.5143     23.8892    105.4058
