~Version Information
VERS.                      2.0: CWLS Log ASCII Standard - VERSION 2.0
WRAP.                       NO: One line per depth step
~Well Information Block
STRT.FT               310.0000: 
STOP.FT              2298.0000: 
STEP.FT                 0.2500: 
NULL.                -999.2500: 
COMP.          Pioneer Natural Resources: COMPANY
WELL.               Relay 12-7: WELL
FLD.           Purgatoire River: FIELD
LOC.           1999' FNL & 848' FWL: LOCATION
PROV.                 Colorado: PROVINCE
CNTY.               Las Animas: COUNTRY
SRVC.                Patterson: SERVICE COMPANY
DATE.          Fri Dec 16 17:39:57 2005: LOG DATE
UWI.           05 071 08453 00: UNIQUE WELL ID
~Curve Information Block
DEPT.FT            0 000 00 00: Depth
SN.Ohm-m                      : IEL Short Normal
SP.mV                         : IEL Spontaneous Potential
DIR.Ohm-m                     : IEL Induction Resistivity
GR.GAPI                       : Gamma Ray
~Parameter Information Block
~A  Depth        SN          SP         DIR          GR     
# ...
  1214.5000      4.6391    -96.7671      0.0449     48.7306
  1214.7500      4.5242    -87.1495      0.0399     48.6070
  1215.0000      4.3152    -77.0533      0.0382     51.4956
  1215.2500      4.1220    -65.8005      0.0394     54.9794
  1215.5000      4.0624    -52.7612      0.0435     60.6459
  1215.7500      4.1949    -38.0636      0.0513     63.8308
  1216.0000      4.6521    -22.7437      0.0638     67.6387
  1216.2500      5.6895     -8.3413      0.0837     70.1328
  1216.5000      7.5470      3.7559      0.1159     74.7022
  1216.7500     10.1231     12.8241      0.1702     78.2340
  1217.0000     12.7609     18.9204      0.2658     83.1918
  1217.2500     14.6710     22.6446      0.4400     85.5595
  1217.5000     15.5594     24.7762      0.7861     87.2912
  1217.7500     15.6991     26.0065      1.6345     87.5726
  1218.0000     15.5592     26.8395      5.0297     87.4907
  1218.2500     15.4541     27.5969 100000.0000     87.2270
  1218.5000     15.4393     28.4294 100000.0000     86.1991
  1218.7500     15.4708     29.3121 100000.0000     84.9620
  1219.0000     15.5781     30.0843 100000.0000     82.5208
  1219.2500     15.8227     30.5735 100000.0000     80.8673
  1219.5000     16.1786     30.7340 100000.0000     79.1315
  1219.7500     16.5248     30.6778 100000.0000     78.8158
  1220.0000     16.8101     30.5846 100000.0000     79.5377
  1220.2500     17.1676     30.5879 100000.0000     80.3802
  1220.5000     17.7120     30.7304 100000.0000     81.4063
  1220.7500     18.3350     30.9891 100000.0000     81.8473
  1221.0000     18.8600     31.3200 100000.0000     82.8106
  1221.2500     19.2728     31.6821 100000.0000     84.2642
  1221.5000     19.7206     32.0334 100000.0000     88.3081
  1221.7500     20.3591     32.3174 100000.0000     92.0690
  1222.0000     21.1792     32.4713 100000.0000     98.0169
  1222.2500     22.0704     32.4603 100000.0000    101.0948
  1222.5000     23.0594     32.3095 100000.0000    102.7246
  1222.7500     24.2740     32.0945 100000.0000    101.4992
  1223.0000     25.8258     31.8957 100000.0000     97.1178
  1223.2500     27.8959     31.7588 100000.0000     93.4544
  1223.5000     30.7586     31.6902 100000.0000     87.8963
  1223.7500     34.6218     31.6762 100000.0000     84.2177
  1224.0000     39.4148     31.7009     93.7596     78.6967
  1224.2500     44.6591     31.7511     30.1963     75.3090
  1224.5000     49.5324     31.8165     20.0365     71.4553
  1224.7500     53.1760     31.8893     16.5059     69.8827
  1225.0000     55.1109     31.9663     15.0964     68.7225
  1225.2500     55.4067     32.0480     14.5804     68.6316
  1225.5000     54.4131     32.1364     14.4772     69.7548
  1225.7500     52.3588     32.2317     14.5965     71.4733
  1226.0000     49.2389     32.3333     14.9076     75.3779
  1226.2500     44.9969     32.4427     15.4654     78.7282
  1226.5000     39.8411     32.5636     16.3489     84.6052
  1226.7500     34.4987     32.6966     17.6100     88.6772
  1227.0000     29.9739     32.8341     19.2326     93.7454
  1227.2500     26.8770     32.9597     21.1069     95.7096
  1227.5000     25.1672     33.0547     23.0381     95.9627
  1227.7500     24.4893     33.1058     24.8088     94.3420
  1228.0000     24.5786     33.1111     26.2691     89.4524
  1228.2500     25.5610     33.0810     27.3938     84.8315
  1228.5000     27.8999     33.0344     28.2642     76.8290
  1228.7500     31.7704     32.9929     28.9961     71.5820
  1229.0000     36.5353     32.9761     29.6607     65.1836
  1229.2500     41.0344     33.0014     30.2337     62.4189
  1229.5000     44.2848     33.0786     30.5897     60.7900
  1229.7500     45.9062     33.2012     30.5538     61.2031
  1230.0000     46.0991     33.3427     29.9928     63.3046
  1230.2500     45.2365     33.4688     28.8939     65.1712
  1230.5000     43.4478     33.5564     27.3715     68.4974
  1230.7500     40.6526     33.6038     25.6042     71.6928
  1231.0000     36.9039     33.6278     23.7628     79.4826
  1231.2500     32.5733     33.6536     21.9757     86.9477
  1231.5000     28.2265     33.7031     20.3269    100.2235
  1231.7500     24.3151     33.7861     18.8624    109.0413
  1232.0000     20.9627     33.8978     17.5945    119.9959
  1232.2500     18.1319     34.0220     16.5069    125.0473
  1232.5000     15.9365     34.1398     15.5649    128.9723
  1232.7500     14.5593     34.2377     14.7321    129.3602
  1233.0000     13.9549     34.3132     13.9848    127.3601
  1233.2500     13.8506     34.3743     13.3174    125.0123
  1233.5000     13.9289     34.4307     12.7368    121.3764
  1233.7500     13.9894     34.4831     12.2516    119.4256
  1234.0000     14.0359     34.5188     11.8656    117.2841
  1234.2500     14.1261     34.5215     11.5772    116.1416
  1234.5000     14.1893     34.4846     11.3828    114.6010
  1234.7500     14.1468     34.4202     11.2785    113.8307
  1235.0000     14.0176     34.3543     11.2590    113.9069
  1235.2500     13.7577     34.3160     11.3139    115.3530
  1235.5000     13.2913     34.3246     11.4251    119.5347
  1235.7500     12.8322     34.3818     11.5682    122.6322
  1236.0000     12.8154     34.4718     11.7191    125.3288
  1236.2500     13.3375     34.5694     11.8624    125.0838
  1236.5000     14.0008     34.6525     11.9968    122.3734
  1236.7500     14.4053     34.7129     12.1330    120.1836
  1237.0000     14.4851     34.7606     12.2876    118.3201
  1237.2500     14.3851     34.8186     12.4753    118.6510
  1237.5000     14.2572     34.9104     12.7054    121.1851
  1237.7500     14.2219     35.0464     12.9808    123.2796
  1238.0000     14.3803     35.2169     13.2996    125.0300
  1238.2500     14.7189     35.3969     13.6547    124.6912
  1238.5000     15.0781     35.5583     14.0308    122.6244
  1238.7500     15.3472     35.6818     14.4054    121.1874
  1239.0000     15.5749     35.7583     14.7582    120.1501
  1239.2500     15.8385     35.7852     15.0887    120.1902
  1239.5000     16.1829     35.7645     15.4280    120.3262
  1239.7500     16.6417     35.7039     15.8314    119.7159
  1240.0000     17.1849     35.6157     16.3549    116.8306
  1240.2500     17.7439     35.5111     17.0328    113.5008
  1240.5000     18.2753     35.3956     17.8687    107.4148
  1240.7500     18.7885     35.2694     18.8382    103.8499
  1241.0000     19.3963     35.1327     19.8974    101.1065
  1241.2500     20.2422     34.9898     20.9939    101.0651
  1241.5000     21.3242     34.8486     22.0791    101.8605
  1241.7500     22.4863     34.7177     23.1153    101.6835
  1242.0000     23.5338     34.6021     24.0717     99.3725
  1242.2500     24.3374     34.5001     24.9119     96.6210
  1242.5000     24.9632     34.4027     25.5844     91.3380
  1242.7500     25.6029     34.2972     26.0342     87.3959
  1243.0000     26.2516     34.1725     26.2389     81.3979
  1243.2500     26.6522     34.0263     26.2483     77.6211
  1243.5000     26.6566     33.8677     26.1868     72.9035
  1243.7500     26.3925     33.7142     26.2016     71.0354
  1244.0000     26.0417     33.5830     26.3926     71.3003
  1244.2500     25.7128     33.4822     26.7711     73.5016
  1244.5000     25.4788     33.4060     27.2640     78.1636
  1244.7500     25.3573     33.3387     27.7504     80.9049
  1245.0000     25.3091     33.2657     28.1062     83.1609
  1245.2500     25.2987     33.1774     28.2407     83.2783
  1245.5000     25.3350     33.0603     28.1206     81.6281
  1245.7500     25.4455     32.8916     27.7817     79.5804
  1246.0000     25.6365     32.6520     27.3193     75.8553
  1246.2500     25.9630     32.3440     26.8531     73.5629
  1246.5000     26.5353     31.9947     26.4845     71.2770
  1246.7500     27.3186     31.6429     26.2707     70.5954
  1247.0000     28.0394     31.3235     26.2257     70.4962
  1247.2500     28.4157     31.0586     26.3322     71.0094
  1247.5000     28.4808     30.8553     26.5482     72.8589
  1247.7500     28.5348     30.7110     26.8006     74.6209
