~Version Information
VERS.                      2.0: CWLS Log ASCII Standard - VERSION 2.0
WRAP.                       NO: One line per depth step
~Well Information Block
STRT.FT               430.0000: 
STOP.FT              2074.0000: 
STEP.FT                 0.1000: 
NULL.                -999.2500: 
COMP.          Pioneer Natural Resources: COMPANY
WELL.             Fleming 11-2: WELL
FLD.           Purgatoire River: FIELD
LOC.           534' FNL & 160' FWL: LOCATION
CNTY.               Las Animas: COUNTY
SRVC.                Patterson: SERVICE COMPANY
DATE.          Tue Jun 27 10:07:47 2006: LOG DATE
UWI.           05 071 08491 00: UNIQUE WELL ID
STAT.                 Colorado: STATE
~Curve Information Block
DEPT.FT            0 000 00 00: Depth
DCAL.in                       : CDL Caliper
RHOB.g/cc                     : CDL Bulk Density
RHOC.g/cc                     : CDL Density Correction
DPOR.pu                       : CDL Density Porosity
GR.GAPI                       : Gamma Ray
NPOR.pu                       : Neutron Porosity
~Parameter Information Block
~A  Depth       DCAL        RHOB        RHOC        DPOR         GR         NPOR    
# ...
   756.4000      7.9207      2.6618      0.0385     -0.7146    103.2041     28.9903
   756.5000      7.9202      2.6762      0.0857     -1.5858    103.8777     28.2093
   756.6000      7.9202      2.6777      0.0585     -1.6782     97.5306     27.3157
   756.7000      7.9202      2.6657      0.0605     -0.9487     90.8626     27.0876
   756.8000      7.9194      2.6372      0.0021      0.7756     91.3218     27.5015
   756.9000      7.9194      2.6011     -0.0207      2.9645     97.4186     27.7596
   757.0000      7.9183      2.5751      0.0100      4.5376     99.0463     27.4936
   757.1000      7.9183      2.5674     -0.0738      5.0080     91.9911     26.8732
   757.2000      7.9183      2.5812     -0.0094      4.1722     82.6439     26.0536
   757.3000      7.9160      2.6076      0.0387      2.5686     77.4950     25.3626
   757.4000      7.9160      2.6239      0.0551      1.5814     76.2189     25.3479
   757.5000      7.9088      2.6198      0.0298      1.8308     74.5035     25.6928
   757.6000      7.9088      2.6048      0.0136      2.7404     71.9248     25.5500
   757.7000      7.9088      2.5933     -0.0005      3.4338     70.8352     24.9154
   757.8000      7.8913      2.5937      0.0167      3.4098     69.9334     24.3900
   757.9000      7.8913      2.5965      0.0737      3.2397     68.2337     24.0523
   758.0000      7.8708      2.5909      0.0223      3.5835     66.9629     23.8443
   758.1000      7.8708      2.5815      0.0350      4.1519     64.6716     24.0058
   758.2000      7.8708      2.5774     -0.0148      4.4012     60.5436     24.0727
   758.3000      7.8621      2.5928      0.0012      3.4695     58.5727     23.2828
   758.4000      7.8621      2.6250      0.0731      1.5123     60.9408     21.9988
   758.5000      7.8636      2.6428      0.1530      0.4372     63.8907     20.8159
   758.6000      7.8636      2.6312      0.0879      1.1407     65.8228     19.9149
   758.7000      7.8636      2.6079      0.1055      2.5515     68.6963     19.6957
   758.8000      7.8662      2.5925      0.0615      3.4876     69.9872     20.2327
   758.9000      7.8662      2.5909      0.1052      3.5828     68.3347     20.8071
   759.0000      7.8678      2.5896      0.0986      3.6604     68.7003     20.8919
   759.1000      7.8678      2.5763      0.0400      4.4645     72.8607     21.0907
   759.2000      7.8678      2.5573      0.0496      5.6204     77.3458     22.1524
   759.3000      7.8688      2.5420      0.0143      6.5464     79.9510     23.7623
   759.4000      7.8688      2.5344      0.0577      7.0043     81.9925     25.0616
   759.5000      7.8684      2.5271      0.0572      7.4505     85.7841     25.5298
   759.6000      7.8684      2.5179      0.0047      8.0080     90.8532     25.4224
   759.7000      7.8684      2.5209      0.0195      7.8254     95.0504     25.3546
   759.8000      7.8668      2.5368      0.0259      6.8603     95.7119     25.6931
   759.9000      7.8668      2.5542      0.0595      5.8047     93.1739     26.5903
   760.0000      7.8622      2.5766      0.0511      4.4512     90.2154     27.7952
   760.1000      7.8622      2.6076      0.1137      2.5674     86.5479     28.2620
   760.2000      7.8622      2.6340      0.0915      0.9708     81.4092     27.6675
   760.3000      7.8545      2.6506      0.0980     -0.0375     74.7561     27.0613
   760.4000      7.8545      2.6653      0.0987     -0.9281     66.0946     26.8044
   760.5000      7.8449      2.6790      0.1179     -1.7599     57.8476     26.4780
   760.6000      7.8449      2.6903      0.0975     -2.4411     53.2074     25.7157
   760.7000      7.8449      2.6985      0.0650     -2.9413     52.1451     24.4812
   760.8000      7.8362      2.6959      0.0464     -2.7813     52.2689     23.6724
   760.9000      7.8362      2.6787      0.0421     -1.7416     52.1798     23.7949
   761.0000      7.8407      2.6618      0.0407     -0.7152     52.7396     23.8150
   761.1000      7.8407      2.6619      0.0052     -0.7196     54.5313     22.9617
   761.2000      7.8407      2.6720      0.0366     -1.3307     55.8502     21.9577
   761.3000      7.8686      2.6674      0.0416     -1.0554     55.7336     21.7422
   761.4000      7.8686      2.6413      0.0074      0.5272     57.2978     21.9447
   761.5000      7.9136      2.6072     -0.0024      2.5942     64.4963     21.8645
   761.6000      7.9136      2.5762     -0.0303      4.4708     73.1921     21.7582
   761.7000      7.9136      2.5558     -0.0982      5.7098     77.2079     21.9632
   761.8000      7.9456      2.5457      0.0007      6.3209     83.2058     22.2558
   761.9000      7.9456      2.5364     -0.0042      6.8845     97.2596     22.2950
   762.0000      7.9470      2.5281      0.0309      7.3897    108.7122     21.8848
   762.1000      7.9470      2.5247      0.0000      7.5969    107.4392     20.8500
   762.2000      7.9470      2.5228      0.0214      7.7077    100.6461     19.4824
   762.3000      7.9309      2.5180      0.0306      7.9986     99.4574     18.6627
   762.4000      7.9309      2.5067      0.0151      8.6831    105.0065     18.7794
   762.5000      7.9058      2.4816      0.0616     10.2066    111.7632     19.3425
   762.6000      7.9058      2.4367      0.0756     12.9262    115.0527     19.9030
   762.7000      7.9058      2.3813     -0.0092     16.2875    116.4263     20.1591
   762.8000      7.9006      2.3250      0.0113     19.6998    119.4601     19.6770
   762.9000      7.9006      2.2625     -0.0312     23.4859    119.9748     18.7662
   763.0000      7.9179      2.1952     -0.0346     27.5612    116.0970     18.5388
   763.1000      7.9179      2.1258     -0.0361     31.7682    115.7154     19.2038
   763.2000      7.9179      2.0472     -0.0690     36.5349    122.6702     20.0405
   763.3000      7.9463      1.9701     -0.0959     41.2061    131.7727     20.6975
   763.4000      7.9463      1.9189     -0.0578     44.3080    136.3266     21.2804
   763.5000      7.9781      1.8982     -0.0109     45.5666    135.1555     21.8465
   763.6000      7.9781      1.9015      0.0311     45.3638    129.6870     22.5445
   763.7000      7.9781      1.9337      0.0186     43.4118    122.4916     23.3895
   763.8000      8.0029      1.9911      0.0873     39.9304    115.6305     23.6715
   763.9000      8.0029      2.0498      0.1022     36.3780    110.5352     23.1416
   764.0000      8.0322      2.1008      0.1020     33.2845    109.1676     22.4471
   764.1000      8.0322      2.1531      0.1799     30.1132    113.0470     22.0567
   764.2000      8.0322      2.1987      0.2309     27.3523    122.8035     22.3058
   764.3000      8.0668      2.2242      0.2292     25.8062    132.9452     23.2653
   764.4000      8.0668      2.2445      0.1812     24.5761    136.3640     24.2944
   764.5000      8.0918      2.2813      0.2429     22.3456    134.1920     24.7679
   764.6000      8.0918      2.3288      0.2818     19.4676    129.4389     25.0235
   764.7000      8.0918      2.3826      0.2165     16.2042    126.1190     25.4644
   764.8000      8.1150      2.4571      0.3164     11.6884    129.7276     25.5643
   764.9000      8.1150      2.5412      0.4525      6.5952    137.0849     25.0974
   765.0000      8.1449      2.5957      0.4902      3.2907    140.2648     24.5412
   765.1000      8.1449      2.5996      0.4655      3.0526    136.1471     24.0889
   765.2000      8.1449      2.5598      0.4414      5.4650    130.4989     23.5997
   765.3000      8.1643      2.4969      0.2865      9.2764    131.6818     23.2274
   765.4000      8.1643      2.4385      0.1396     12.8166    137.7985     23.1189
   765.5000      8.1702      2.3965      0.0877     15.3662    140.7725     23.1264
   765.6000      8.1702      2.3580      0.0621     17.6954    139.0236     23.1075
   765.7000      8.1702      2.3094      0.0592     20.6397    140.5412     23.0557
   765.8000      8.1690      2.2478      0.0127     24.3763    148.1159     22.7508
   765.9000      8.1690      2.1706      0.0040     29.0524    153.8285     21.9342
