~Version Information
VERS.                      2.0: CWLS Log ASCII Standard - VERSION 2.0
WRAP.                       NO: One line per depth step
~Well Information Block
STRT.FT               550.0000: 
STOP.FT              1664.0000: 
STEP.FT                 0.2500: 
NULL.                -999.2500: 
COMP.          Pioneer Natural Resources: COMPANY
WELL.          Stock Canyon 34-33: WELL
FLD.           Purgatorie River: FIELD
LOC.           980' FSL & 2191' FEL: LOCATION
PROV.                 Colorado: PROVINCE
CNTY.               Las Animas: COUNTRY
SRVC.                Patterson: SERVICE COMPANY
DATE.          Mon Dec 05 09:58:03 2005: LOG DATE
UWI.                          : UNIQUE WELL ID
~Curve Information Block
DEPT.FT            0 000 00 00: Depth
SN.Ohm-m                      : IEL Short Normal
SP.mV                         : IEL Spontaneous Potential
DIR.Ohm-m                     : IEL Induction Resistivity
GR.GAPI                       : Gamma Ray
~Parameter Information Block
~A  Depth        SN          SP         DIR          GR     
# ...
   918.5000   2000.0000   2000.0000     36.6947     70.5435
   918.7500   2000.0000   2000.0000     37.2952     69.0881
   919.0000   2000.0000   2000.0000     37.5268     68.4438
   919.2500   2000.0000   2000.0000     37.5986     68.1495
   919.5000   2000.0000   2000.0000     37.7923     67.1568
   919.7500   2000.0000   2000.0000     38.3386     66.5303
   920.0000   2000.0000   2000.0000     39.3432     66.9395
   920.2500   2000.0000   2000.0000     40.7836     68.3712
   920.5000   2000.0000   2000.0000     42.5549     71.1528
   920.7500   2000.0000   2000.0000     44.5115     72.2753
   921.0000   2000.0000   2000.0000     46.4610     71.3353
   921.2500   2000.0000   2000.0000     48.1289     68.8262
   921.5000   2000.0000   2000.0000     49.2176     63.3146
   921.7500   2000.0000   2000.0000     49.6299     59.4397
   922.0000   2000.0000   2000.0000     49.6655     54.5589
   922.2500   2000.0000   2000.0000     49.9149     52.1148
   922.5000   2000.0000   2000.0000     50.9145     49.4303
   922.7500   2000.0000   2000.0000     52.8538     48.2367
   923.0000   2000.0000   2000.0000     55.4586     47.5448
   923.2500   2000.0000   2000.0000     58.0941     47.8667
   923.5000   2000.0000   2000.0000     60.1021     49.1884
   923.7500   2000.0000   2000.0000     61.1843     50.3248
   924.0000   2000.0000   2000.0000     61.4708     51.9780
   924.2500   2000.0000   2000.0000     61.2674     52.8508
   924.5000   2000.0000   2000.0000     60.8109     53.6607
   924.7500   2000.0000   2000.0000     60.2233     54.0071
   925.0000   2000.0000   2000.0000     59.5758     54.6650
   925.2500   2000.0000   2000.0000     58.9068     55.2294
   925.5000   2000.0000   2000.0000     58.1704     55.8890
   925.7500   2000.0000   2000.0000     57.1784     56.1325
   926.0000   2000.0000   2000.0000     55.6572     56.7398
   926.2500   2000.0000   2000.0000     53.4719     57.6355
   926.5000   2000.0000   2000.0000     50.8578     59.3768
   926.7500   2000.0000   2000.0000     48.3956     60.1194
   927.0000   2000.0000   2000.0000     46.7187     59.5851
   927.2500   2000.0000   2000.0000     46.2315     58.0785
   927.5000   2000.0000   2000.0000     47.0025     55.0120
   927.7500   2000.0000   2000.0000     48.7749     53.2232
   928.0000   2000.0000   2000.0000     51.0476     51.8387
   928.2500   2000.0000   2000.0000     53.2344     51.8007
   928.5000   2000.0000   2000.0000     54.8600     52.6097
   928.7500   2000.0000   2000.0000     55.6372     53.5712
   929.0000   2000.0000   2000.0000     55.4150     55.6966
   929.2500   2000.0000   2000.0000     54.1259     57.4920
   929.5000   2000.0000   2000.0000     51.8447     60.1381
   929.7500   2000.0000   2000.0000     48.8623     61.4455
   930.0000   2000.0000   2000.0000     45.6511     62.4279
   930.2500   2000.0000   2000.0000     42.7204     62.5298
   930.5000   2000.0000   2000.0000     40.4796     62.1558
   930.7500   2000.0000   2000.0000     39.1834     61.7043
   931.0000   2000.0000   2000.0000     38.9422     60.9240
   931.2500   2000.0000   2000.0000     39.7404     60.4345
   931.5000   2000.0000   2000.0000     41.4417     59.9133
   931.7500   2000.0000   2000.0000     43.7913     59.7995
   932.0000   2000.0000   2000.0000     46.4475     60.0634
   932.2500   2000.0000   2000.0000     49.0550     60.5070
   932.5000   2000.0000   2000.0000     51.3263     61.4171
   932.7500   2000.0000   2000.0000     53.0841     62.0285
   933.0000   2000.0000   2000.0000     54.2636     62.5714
   933.2500   2000.0000   2000.0000     54.9060     62.4298
   933.5000   2000.0000   2000.0000     55.1474     61.1196
   933.7500   2000.0000   2000.0000     55.1778     59.5106
   934.0000   2000.0000   2000.0000     55.1783     56.4626
   934.2500   2000.0000   2000.0000     55.2563     54.3999
   934.5000   2000.0000   2000.0000     55.4187     51.6351
   934.7500   2000.0000   2000.0000     55.5822     49.9565
   935.0000   2000.0000   2000.0000     55.6371     47.4875
   935.2500   2000.0000   2000.0000     55.5242     45.9674
   935.5000   2000.0000   2000.0000     55.2826     44.4687
   935.7500   2000.0000   2000.0000     55.0171     44.3421
   936.0000   2000.0000   2000.0000     54.8033     45.6444
   936.2500   2000.0000   2000.0000     54.6225     47.3966
   936.5000   2000.0000   2000.0000     54.4057     50.9365
   936.7500   2000.0000   2000.0000     54.1584     53.4514
   937.0000   2000.0000   2000.0000     54.0295     56.3277
   937.2500   2000.0000   2000.0000     54.2081     57.1408
   937.5000   2000.0000   2000.0000     54.7284     56.8335
   937.7500   2000.0000   2000.0000     55.3389     56.2374
   938.0000   2000.0000   2000.0000     55.5503     55.8743
   938.2500   2000.0000   2000.0000     54.8947     56.1610
   938.5000   2000.0000   2000.0000     53.2516     56.7526
   938.7500   2000.0000   2000.0000     50.9690     56.7621
   939.0000   2000.0000   2000.0000     48.6582     56.0380
   939.2500   2000.0000   2000.0000     46.8760     55.4175
   939.5000   2000.0000   2000.0000     45.9500     54.9755
   939.7500   2000.0000   2000.0000     45.9787     55.1143
   940.0000   2000.0000   2000.0000     46.8942     55.6852
   940.2500   2000.0000   2000.0000     48.4993     56.1420
   940.5000   2000.0000   2000.0000     50.4634     56.9381
   940.7500   2000.0000   2000.0000     52.3243     57.5824
   941.0000   2000.0000   2000.0000     53.5607     58.5412
   941.2500   2000.0000   2000.0000     53.7644     58.9174
   941.5000   2000.0000   2000.0000     52.8574     58.5917
   941.7500   2000.0000   2000.0000     51.2025     57.5687
   942.0000   2000.0000   2000.0000     49.4770     54.8902
   942.2500   2000.0000   2000.0000     48.3729     52.7813
   942.5000   2000.0000   2000.0000     48.3431     50.2480
   942.7500   2000.0000   2000.0000     49.4942     49.4170
   943.0000   2000.0000   2000.0000     51.5868     49.3934
   943.2500   2000.0000   2000.0000     54.1177     49.8576
   943.5000   2000.0000   2000.0000     56.5046     50.6984
   943.7500   2000.0000   2000.0000     58.3265     51.1535
   944.0000   2000.0000   2000.0000     59.4429     51.5161
   944.2500   2000.0000   2000.0000     59.9282     51.4413
   944.5000   2000.0000   2000.0000     59.9394     50.7125
   944.7500   2000.0000   2000.0000     59.6199     50.0108
   945.0000   2000.0000   2000.0000     59.0552     49.5659
   945.2500   2000.0000   2000.0000     58.2456     50.1283
   945.5000   2000.0000   2000.0000     57.0967     51.9779
   945.7500   2000.0000   2000.0000     55.4839     53.2485
   946.0000   2000.0000   2000.0000     53.3842     54.3973
   946.2500   2000.0000   2000.0000     50.9838     54.5722
   946.5000   2000.0000   2000.0000     48.6363     53.9822
   946.7500   2000.0000   2000.0000     46.7054     52.9660
   947.0000   2000.0000   2000.0000     45.4392     50.6146
   947.2500   2000.0000   2000.0000     44.9413     48.8146
   947.5000   2000.0000   2000.0000     45.1845     46.4515
   947.7500   2000.0000   2000.0000     46.0119     45.3238
   948.0000   2000.0000   2000.0000     47.1391     44.2364
   948.2500   2000.0000   2000.0000     48.2217     43.7063
   948.5000   2000.0000   2000.0000     48.9801     42.7440
   948.7500   2000.0000   2000.0000     49.2849     41.8065
   949.0000   2000.0000   2000.0000     49.1103     40.1623
   949.2500   2000.0000   2000.0000     48.4411     39.3068
   949.5000   2000.0000   2000.0000     47.2751     38.9825
   949.7500   2000.0000   2000.0000     45.7298     39.5132
   950.0000   2000.0000   2000.0000     44.1041     41.3116
   950.2500   2000.0000   2000.0000     42.7750     42.9241
   950.5000   2000.0000   2000.0000     42.0054     45.1597
   950.7500   2000.0000   2000.0000     41.8172     46.1254
   951.0000   2000.0000   2000.0000     41.9825     46.7930
   951.2500   2000.0000   2000.0000     42.1340     46.9837
   951.5000   2000.0000   2000.0000     41.9310     47.0880
   951.7500   2000.0000   2000.0000     41.1831     46.9160
