~Version Information
VERS.                      2.0: CWLS Log ASCII Standard - VERSION 2.0
WRAP.                       NO: One line per depth step
~Well Information Block
STRT.FT               665.0000: 
STOP.FT              2193.5000: 
STEP.FT                 0.1000: 
NULL.                -999.2500: 
COMP.          Pioneer Natural Resources: COMPANY
WELL.          Bear Cub Federal 11-23: WELL
FLD.           Purgatoire River: FIELD
LOC.           1225' FNL & 1268' FWL--: LOCATION
CNTY.               Las Animas: COUNTY
SRVC.                Patterson: SERVICE COMPANY
DATE.          Tue Jun 20 09:14:02 2006: LOG DATE
UWI.           05 071 08509 00: UNIQUE WELL ID
STAT.                 Colorado: STATE
~Curve Information Block
DEPT.FT            0 000 00 00: Depth
DCAL.in                       : CDL Caliper
RHOB.g/cc                     : CDL Bulk Density
RHOC.g/cc                     : CDL Density Correction
DPOR.pu                       : CDL Density Porosity
NPOR.pu                       : Neutron Porosity
GR.GAPI                       : Gamma Ray
~Parameter Information Block
~A  Depth       DCAL        RHOB        RHOC        DPOR        NPOR         GR     
# ...
  1759.4000      8.0213      2.5332      0.0501      7.0785     20.8995     70.6292
  1759.5000      8.0304      2.5151      0.0497      8.1748     20.9958     73.8317
  1759.6000      8.0304      2.5162      0.0242      8.1092     21.1106     77.6976
  1759.7000      8.0304      2.5329      0.0530      7.0962     21.2642     79.3122
  1759.8000      8.0376      2.5505      0.0873      6.0327     21.4411     77.2115
  1759.9000      8.0376      2.5526      0.1144      5.9048     21.4949     73.5596
  1760.0000      8.0442      2.5406      0.0369      6.6321     21.1777     71.0237
  1760.1000      8.0442      2.5354      0.0515      6.9453     20.7257     70.0091
  1760.2000      8.0442      2.5470      0.0911      6.2447     20.5015     71.2978
  1760.3000      8.0561      2.5570      0.1198      5.6337     20.5609     74.6869
  1760.4000      8.0561      2.5545      0.0408      5.7907     20.7529     76.4117
  1760.5000      8.0699      2.5525      0.0788      5.9117     20.9055     74.1756
  1760.6000      8.0699      2.5548      0.0967      5.7701     21.0696     70.2519
  1760.7000      8.0699      2.5588      0.0596      5.5274     21.3285     67.6938
  1760.8000      8.0801      2.5699      0.0726      4.8533     21.7216     69.1125
  1760.9000      8.0801      2.5768      0.1429      4.4381     22.2396     76.4660
  1761.0000      8.0861      2.5589      0.0887      5.5213     22.6604     85.0682
  1761.1000      8.0861      2.5271      0.0585      7.4474     22.8358     88.3528
  1761.2000      8.0861      2.5128      0.0519      8.3157     22.8600     88.0676
  1761.3000      8.0877      2.5243      0.1032      7.6184     22.7545     88.5188
  1761.4000      8.0877      2.5394      0.1088      6.7023     22.6265     90.3807
  1761.5000      8.0821      2.5394      0.1015      6.7031     22.7009     92.3328
  1761.6000      8.0821      2.5231      0.1268      7.6929     22.9994     93.4451
  1761.7000      8.0821      2.5013      0.0664      9.0102     23.3244     94.2509
  1761.8000      8.0688      2.4936      0.0550      9.4789     23.4388     95.0460
  1761.9000      8.0688      2.5054      0.0609      8.7610     23.2999     95.1838
  1762.0000      8.0539      2.5209      0.1104      7.8243     23.1190     96.4331
  1762.1000      8.0539      2.5207      0.1080      7.8378     23.0772    100.1109
  1762.2000      8.0539      2.5023      0.0849      8.9505     23.0974    101.9288
  1762.3000      8.0427      2.4855      0.0263      9.9721     22.9120    101.9028
  1762.4000      8.0427      2.4873      0.0433      9.8610     22.5386    103.1959
  1762.5000      8.0371      2.4981      0.0872      9.2039     22.3802    103.3649
  1762.6000      8.0371      2.5050      0.0743      8.7852     22.6109    100.7438
  1762.7000      8.0371      2.5127      0.0866      8.3195     22.8434     98.4491
  1762.8000      8.0330      2.5229      0.1301      7.7003     22.8506     96.9255
  1762.9000      8.0330      2.5280      0.1034      7.3948     22.8003     94.6188
  1763.0000      8.0267      2.5236      0.0893      7.6598     22.9210     94.3836
  1763.1000      8.0267      2.5125      0.0450      8.3333     23.3501    100.0935
  1763.2000      8.0267      2.5045      0.0740      8.8189     23.7784    108.8335
  1763.3000      8.0195      2.5103      0.0376      8.4691     23.7757    112.5372
  1763.4000      8.0195      2.5286      0.0821      7.3548     23.6167    109.4139
  1763.5000      8.0141      2.5426      0.0720      6.5066     23.7781    107.1640
  1763.6000      8.0141      2.5420      0.0698      6.5440     24.0623    112.1483
  1763.7000      8.0141      2.5390      0.0562      6.7246     24.1593    119.6720
  1763.8000      8.0111      2.5454      0.0985      6.3407     24.3237    121.1498
  1763.9000      8.0111      2.5522      0.1116      5.9299     24.9147    118.0538
  1764.0000      8.0044      2.5502      0.0962      6.0496     25.6799    118.2834
  1764.1000      8.0044      2.5483      0.0965      6.1626     25.9665    121.8254
  1764.2000      8.0044      2.5566      0.1110      5.6582     25.7735    121.8587
  1764.3000      7.9964      2.5693      0.1269      4.8882     25.6231    118.4541
  1764.4000      7.9964      2.5773      0.1022      4.4034     25.6149    117.9380
  1764.5000      7.9933      2.5820      0.1092      4.1239     25.5296    118.8097
  1764.6000      7.9933      2.5872      0.1082      3.8087     25.3077    116.0266
  1764.7000      7.9933      2.5916      0.1152      3.5369     25.3528    115.4038
  1764.8000      7.9931      2.5905      0.0857      3.6076     25.9077    118.2135
  1764.9000      7.9931      2.5825      0.0993      4.0912     26.6511    116.0608
  1765.0000      7.9894      2.5772      0.0356      4.4126     27.0634    110.5156
  1765.1000      7.9894      2.5846      0.0971      3.9614     26.9335    108.7856
  1765.2000      7.9894      2.5955      0.0734      3.3022     26.7336    111.0337
  1765.3000      7.9809      2.5935      0.0787      3.4235     26.8501    113.1813
  1765.4000      7.9809      2.5801      0.0577      4.2337     27.0840    111.9526
  1765.5000      7.9740      2.5704      0.0631      4.8259     27.2020    108.1925
  1765.6000      7.9740      2.5735      0.0706      4.6354     27.2369    106.5590
  1765.7000      7.9740      2.5870      0.0910      3.8177     27.3273    105.6618
  1765.8000      7.9695      2.6002      0.0780      3.0188     27.4101    100.8627
  1765.9000      7.9695      2.6007      0.0938      2.9899     27.5105     94.3245
  1766.0000      7.9687      2.5864      0.0529      3.8522     27.7872     90.0567
  1766.1000      7.9687      2.5712      0.0688      4.7761     28.0737     90.9378
  1766.2000      7.9687      2.5682      0.0446      4.9571     28.2374     97.2038
  1766.3000      7.9755      2.5792      0.0813      4.2926     28.4134    101.6177
  1766.4000      7.9755      2.5956      0.1006      3.2949     28.5398     99.3557
  1766.5000      7.9873      2.6100      0.0851      2.4262     28.5079     96.3469
  1766.6000      7.9873      2.6157      0.1312      2.0814     28.3808     97.3378
  1766.7000      7.9873      2.6072      0.0998      2.5934     27.9727     99.2115
  1766.8000      7.9949      2.5942      0.1142      3.3821     27.2148     98.7260
  1766.9000      7.9949      2.5938      0.0363      3.4078     26.5982     98.8744
  1767.0000      7.9960      2.6075      0.0910      2.5760     26.4617    103.7588
  1767.1000      7.9960      2.6197      0.0821      1.8359     26.5161    109.2347
  1767.2000      7.9960      2.6204      0.1102      1.7934     26.4019    110.7817
  1767.3000      7.9955      2.6118      0.0753      2.3177     26.0931    110.9590
  1767.4000      7.9955      2.6023      0.1007      2.8898     25.7835    109.9307
  1767.5000      7.9941      2.5983      0.1103      3.1333     25.7824    106.2389
  1767.6000      7.9941      2.5969      0.0924      3.2183     26.1261    103.6749
  1767.7000      7.9941      2.5924      0.0844      3.4929     26.4416    106.5205
  1767.8000      7.9906      2.5867      0.0834      3.8360     26.5283    111.8641
  1767.9000      7.9906      2.5800      0.0909      4.2402     26.4785    113.8849
  1768.0000      7.9853      2.5670      0.0610      5.0273     26.2099    112.2862
  1768.1000      7.9853      2.5529      0.0635      5.8868     25.8865    109.1290
  1768.2000      7.9853      2.5451      0.0436      6.3596     25.7856    105.1051
  1768.3000      7.9807      2.5437      0.0706      6.4437     25.8249    103.4406
  1768.4000      7.9807      2.5469      0.0242      6.2459     25.8786    108.0175
  1768.5000      7.9780      2.5534      0.0567      5.8566     26.0525    115.7311
  1768.6000      7.9780      2.5609      0.0481      5.4009     26.2406    120.8282
  1768.7000      7.9780      2.5668      0.0730      5.0413     26.1817    120.4140
  1768.8000      7.9767      2.5669      0.0832      5.0358     26.1512    114.0618
  1768.9000      7.9767      2.5664      0.0662      5.0655     26.4025    107.9810
