~Version Information
 VERS.                                  2.0 : CWLS LAS VERSION
 WRAP.                                   NO : WRAPING MODE
 SWARE .                 MController 2.5.0E : SOFTWARE VERSION
~Well Information
 WELL.                      Black Cat 13-23 : WELL
 COMP.     Pioneer Natural Resources USA Inc: COMPANY
 FLD.                      Purgatorie River : FIELD
 LOC.                 NW/SW Sec32 T32S R67W : LOCATION
 DATE.                           7/30-31/05 : DATE(S) LOGGED
 SRVC.       Blanco Geological Services LLC : SERVICE COMPANY
 STAT.                                   CO : STATE
 CNTY.                           Las Animas : COUNTY
 CTRY.                                  USA : COUNTRY
 API.                       05-071-08450-00 : API NUMBER
 STRT.FT                             327.00 : START DEPTH
 STOP.FT                            2850.00 : STOP DEPTH
 STEP.FT                               1.00 : DEPTH INCREMENT
 NULL.                                -9999 : NULL VALUE
~Curve information
 DEPTH.FT                                   :
 ROP.MIN/FT                                 :
 GAS.UNITS                                  :
~ASCII Log data
# ...
      1527.0         0.27         43.5 
      1528.0         0.32         42.7 
      1529.0         0.27         43.9 
      1530.0         0.23         46.2 
      1531.0         9.48        137.9 
      1532.0         0.07        137.9 
      1533.0         0.07        136.2 
      1534.0         0.10        136.2 
      1535.0         0.10        136.2 
      1536.0         0.23        120.7 
      1537.0         0.20         86.8 
      1538.0         0.13         86.8 
      1539.0         0.17         53.6 
      1540.0         0.20         36.7 
      1541.0         0.17         36.7 
      1542.0         0.17         27.8 
      1543.0         0.20         26.8 
      1544.0         0.17         26.8 
      1545.0         0.17         27.4 
      1546.0         0.17         28.8 
      1547.0         0.17         28.8 
      1548.0         0.20         32.8 
      1549.0         0.23         32.8 
      1550.0         0.27         34.6 
      1551.0         0.22         35.3 
      1552.0         0.17         35.3 
      1553.0         0.10         35.5 
      1554.0         0.20         34.5 
      1555.0         0.13         34.5 
      1556.0         0.20         35.2 
      1557.0         0.17         34.6 
      1558.0         0.13         33.2 
      1559.0         0.17         33.2 
      1560.0         0.17         32.2 
      1561.0         7.97         79.9 
      1562.0         0.13         88.0 
      1563.0         0.13         88.6 
      1564.0         0.45         87.6 
      1565.0         0.27         59.4 
      1566.0         0.33         33.7 
      1567.0         0.37         27.9 
      1568.0         0.43         23.3 
      1569.0         0.47         23.7 
      1570.0         0.37         23.3 
      1571.0         0.37         24.7 
      1572.0         0.27         26.0 
      1573.0         0.17         26.0 
      1574.0         0.28         28.5 
      1575.0         0.23         28.5 
      1576.0         0.23         28.2 
      1577.0         0.20         29.2 
      1578.0         0.17         30.6 
      1579.0         0.20         32.0 
      1580.0         0.20         33.9 
      1581.0         0.13         33.9 
      1582.0         0.13         34.6 
      1583.0         0.13         34.6 
      1584.0         0.10         35.3 
      1585.0         0.40         37.7 
      1586.0         0.33         38.4 
      1587.0         0.17         40.4 
      1588.0         0.13         39.5 
      1589.0         0.10         39.5 
      1590.0         0.20         37.9 
      1591.0         8.45         59.5 
      1592.0         0.23         25.8 
      1593.0         0.23         25.1 
      1594.0         0.20         24.7 
      1595.0         0.23         25.4 
      1596.0         0.30         24.0 
      1597.0         0.75         26.1 
      1598.0         0.43         30.5 
      1599.0         0.23         33.5 
      1600.0         0.27         33.8 
      1601.0         0.30         33.5 
      1602.0         0.23         33.2 
      1603.0         0.33         32.7 
      1604.0         0.53         31.7 
      1605.0         0.53         29.9 
      1606.0         0.42         27.3 
      1607.0         0.23         24.9 
      1608.0         0.27         25.3 
      1609.0         0.27         25.5 
      1610.0         0.27         25.8 
      1611.0         0.30         25.7 
      1612.0         0.23         28.2 
      1613.0         0.23         29.7 
      1614.0         0.23         31.3 
      1615.0         0.23         31.4 
      1616.0         0.20         34.3 
      1617.0         0.13         34.3 
      1618.0         0.10         36.3 
      1619.0         0.10         36.3 
      1620.0         0.17         38.6 
      1621.0         7.45         60.9 
      1622.0         0.40         40.1 
      1623.0         0.60         48.1 
      1624.0         0.57         38.2 
      1625.0         0.63         28.1 
      1626.0         0.58         28.3 
      1627.0         0.70         29.6 
      1628.0         0.73         27.5 
      1629.0         0.67         27.0 
      1630.0         0.77         25.2 
      1631.0         0.23         24.0 
      1632.0         0.13         23.2 
      1633.0         0.25         24.4 
      1634.0         0.17         24.4 
      1635.0         0.17         25.6 
      1636.0         0.17         28.5 
      1637.0         0.13         28.5 
      1638.0         0.13         29.7 
      1639.0         0.20         29.7 
      1640.0         0.17         31.8 
      1641.0         0.23         31.7 
      1642.0         0.17         31.6 
      1643.0         0.10         33.7 
      1644.0         0.13         33.7 
      1645.0         0.13         35.3 
      1646.0         0.23         34.9 
      1647.0         0.23         36.2 
      1648.0         0.37         35.7 
      1649.0         1.42         35.4 
      1650.0         0.70         31.0 
      1651.0         3.28         28.8 
      1652.0         0.57         30.3 
      1653.0         0.27         29.7 
      1654.0         0.33         26.4 
      1655.0         0.33         28.0 
      1656.0         0.55         29.8 
      1657.0         0.57         29.4 
      1658.0         0.53         26.9 
      1659.0         0.63         25.3 
      1660.0         0.53         24.6 
      1661.0         0.57         26.0 
      1662.0         0.45         27.8 
      1663.0         0.30         28.6 
      1664.0         0.10         28.4 
      1665.0         0.43         28.4 
      1666.0         0.23         28.6 
      1667.0         0.20         29.5 
      1668.0         0.17         29.5 
      1669.0         0.17         30.2 
      1670.0         0.13         30.9 
      1671.0         0.20         30.9 
      1672.0         0.20         30.4 
      1673.0         0.20         31.4 
      1674.0         0.27         31.3 
      1675.0         0.30         33.3 
      1676.0         0.28         34.3 
      1677.0         0.33         34.4 
      1678.0         0.40         36.7 
      1679.0         0.10         36.7 
      1680.0         0.93         37.8 
      1681.0         7.07         45.4 
      1682.0         1.38         26.0 
      1683.0         0.10         25.1 
      1684.0         0.10         25.1 
      1685.0         0.43         26.1 
      1686.0         0.57         27.2 
      1687.0         0.50         27.0 
      1688.0         0.47         28.0 
      1689.0         0.27         25.9 
      1690.0         0.33         27.9 
      1691.0         0.45         27.3 
      1692.0         0.33         28.1 
      1693.0         0.60         30.8 
      1694.0         0.63         33.8 
      1695.0         0.40         35.2 
      1696.0         0.50         31.7 
      1697.0         0.37         27.4 
      1698.0         0.45         26.9 
      1699.0         0.37         26.7 
      1700.0         0.43         29.5 
      1701.0         0.40         32.0 
      1702.0         0.40         33.9 
      1703.0         0.40         35.3 
      1704.0         0.33         35.5 
      1705.0         0.43         37.4 
      1706.0         0.20         39.0 
      1707.0         0.13         39.0 
      1708.0         0.18         38.5 
      1709.0         0.13         38.8 
      1710.0         0.13         38.8 
      1711.0         9.47         67.5 
      1712.0         0.55         29.4 
      1713.0         0.73         33.5 
      1714.0         0.43         41.2 
      1715.0         0.53         43.8 
      1716.0         0.57         39.2 
      1717.0         0.53         33.9 
      1718.0         0.42         28.1 
      1719.0         0.47         27.7 
      1720.0         0.30         26.8 
      1721.0         0.27         27.8 
      1722.0         0.40         26.7 
      1723.0         0.40         26.9 
      1724.0         0.33         28.8 
      1725.0         0.27         29.2 
      1726.0         0.20         30.1 
