~Version Information
VERS.                      2.0: CWLS Log ASCII Standard - VERSION 2.0
WRAP.                       NO: One line per depth step
~Well Information Block
STRT.FT               260.0000: 
STOP.FT              1230.0000: 
STEP.FT                 0.2500: 
NULL.                -999.2500: 
COMP.          Pioneer Natural Resources: COMPANY
WELL.             Mahalo 12-20: WELL
FLD.           Purgatoire River: FIELD
LOC.           1689' FNL & 479' FWL: LOCATION
CNTY.               Las Animas: COUNTY
SRVC.                Patterson: SERVICE COMPANY
DATE.          Thu Feb 23 20:25:01 2006: LOG DATE
UWI.           05 071 08700 00: UNIQUE WELL ID
STAT.                 Colorado: STATE
~Curve Information Block
DEPT.FT            0 000 00 00: Depth
SN.Ohm-m                      : IEL Short Normal
SP.mV                         : IEL Spontaneous Potential
DIR.Ohm-m                     : IEL Induction Resistivity
GR.GAPI                       : Gamma Ray
~Parameter Information Block
~A  Depth        SN          SP         DIR          GR     
# ...
   494.5000   2000.0000   2000.0000     12.8890    148.2117
   494.7500   2000.0000   2000.0000     13.4967    141.6922
   495.0000   2000.0000   2000.0000     14.1437    131.8773
   495.2500   2000.0000   2000.0000     14.7880    125.0782
   495.5000   2000.0000   2000.0000     15.4072    113.9285
   495.7500   2000.0000   2000.0000     16.0052    105.9390
   496.0000   2000.0000   2000.0000     16.5977     94.1078
   496.2500   2000.0000   2000.0000     17.1892     87.1150
   496.5000   2000.0000   2000.0000     17.7634     79.0785
   496.7500   2000.0000   2000.0000     18.2980     75.6148
   497.0000   2000.0000   2000.0000     18.7852     72.9176
   497.2500   2000.0000   2000.0000     19.2342     72.3807
   497.5000   2000.0000   2000.0000     19.6506     73.2730
   497.7500   2000.0000   2000.0000     20.0123     75.3976
   498.0000   2000.0000   2000.0000     20.2707     81.7988
   498.2500   2000.0000   2000.0000     20.3819     88.2668
   498.5000   2000.0000   2000.0000     20.3439    100.0189
   498.7500   2000.0000   2000.0000     20.2050    108.0022
   499.0000   2000.0000   2000.0000     20.0329    118.4781
   499.2500   2000.0000   2000.0000     19.8738    124.1296
   499.5000   2000.0000   2000.0000     19.7336    130.9078
   499.7500   2000.0000   2000.0000     19.5895    134.4424
   500.0000   2000.0000   2000.0000     19.4180    137.7912
   500.2500   2000.0000   2000.0000     19.2127    138.0800
   500.5000   2000.0000   2000.0000     18.9855    134.6174
   500.7500   2000.0000   2000.0000     18.7573    129.7870
   501.0000   2000.0000   2000.0000     18.5514    120.6790
   501.2500   2000.0000   2000.0000     18.3890    115.2103
   501.5000   2000.0000   2000.0000     18.2832    110.6651
   501.7500   2000.0000   2000.0000     18.2325    110.6912
   502.0000   2000.0000   2000.0000     18.2176    114.4445
   502.2500   2000.0000   2000.0000     18.2049    118.0907
   502.5000   2000.0000   2000.0000     18.1552    122.4725
   502.7500   2000.0000   2000.0000     18.0314    123.3706
   503.0000   2000.0000   2000.0000     17.8035    121.2442
   503.2500   2000.0000   2000.0000     17.4526    118.5168
   503.5000   2000.0000   2000.0000     16.9748    115.4089
   503.7500   2000.0000   2000.0000     16.3857    115.4807
   504.0000   2000.0000   2000.0000     15.7194    119.6151
   504.2500   2000.0000   2000.0000     15.0200    124.3564
   504.5000   2000.0000   2000.0000     14.3280    132.0457
   504.7500   2000.0000   2000.0000     13.6702    136.3710
   505.0000   2000.0000   2000.0000     13.0585    141.3544
   505.2500   2000.0000   2000.0000     12.4968    144.3087
   505.5000   2000.0000   2000.0000     11.9870    149.1304
   505.7500   2000.0000   2000.0000     11.5303    152.7130
   506.0000   2000.0000   2000.0000     11.1248    158.6780
   506.2500   2000.0000   2000.0000     10.7634    163.0840
   506.5000   2000.0000   2000.0000     10.4355    169.6985
   506.7500   2000.0000   2000.0000     10.1321    173.1973
   507.0000   2000.0000   2000.0000      9.8499    175.4192
   507.2500   2000.0000   2000.0000      9.5920    174.4329
   507.5000   2000.0000   2000.0000      9.3640    169.9153
   507.7500   2000.0000   2000.0000      9.1697    166.0705
   508.0000   2000.0000   2000.0000      9.0090    161.5914
   508.2500   2000.0000   2000.0000      8.8804    160.3997
   508.5000   2000.0000   2000.0000      8.7837    160.9430
   508.7500   2000.0000   2000.0000      8.7203    161.7384
   509.0000   2000.0000   2000.0000      8.6915    161.8039
   509.2500   2000.0000   2000.0000      8.6957    160.9212
   509.5000   2000.0000   2000.0000      8.7269    159.3129
   509.7500   2000.0000   2000.0000      8.7760    158.7936
   510.0000   2000.0000   2000.0000      8.8355    159.1129
   510.2500   2000.0000   2000.0000      8.9033    159.5839
   510.5000   2000.0000   2000.0000      8.9850    159.7687
   510.7500   2000.0000   2000.0000      9.0914    159.5763
   511.0000   2000.0000   2000.0000      9.2352    159.6639
   511.2500   2000.0000   2000.0000      9.4272    160.1306
   511.5000   2000.0000   2000.0000      9.6757    160.3760
   511.7500   2000.0000   2000.0000      9.9863    159.4948
   512.0000   2000.0000   2000.0000     10.3615    156.6478
   512.2500   2000.0000   2000.0000     10.7991    154.2955
   512.5000   2000.0000   2000.0000     11.2904    150.0557
   512.7500   2000.0000   2000.0000     11.8202    145.7076
   513.0000   2000.0000   2000.0000     12.3691    134.8253
   513.2500   2000.0000   2000.0000     12.9189    124.4625
   513.5000   2000.0000   2000.0000     13.4602    106.3063
   513.7500   2000.0000   2000.0000     13.9984     94.4830
   514.0000   2000.0000   2000.0000     14.5543     80.3911
   514.2500   2000.0000   2000.0000     15.1564     74.5167
   514.5000   2000.0000   2000.0000     15.8284     71.2276
   514.7500   2000.0000   2000.0000     16.5786     72.1368
   515.0000   2000.0000   2000.0000     17.3938     76.3820
   515.2500   2000.0000   2000.0000     18.2385     79.8600
   515.5000   2000.0000   2000.0000     19.0598     84.1290
   515.7500   2000.0000   2000.0000     19.7977     85.8431
   516.0000   2000.0000   2000.0000     20.4020     87.3254
   516.2500   2000.0000   2000.0000     20.8499     88.5364
   516.5000   2000.0000   2000.0000     21.1541     92.1580
   516.7500   2000.0000   2000.0000     21.3561     95.8904
   517.0000   2000.0000   2000.0000     21.5084    101.8985
   517.2500   2000.0000   2000.0000     21.6584    104.6251
   517.5000   2000.0000   2000.0000     21.8403    104.7633
   517.7500   2000.0000   2000.0000     22.0729    102.1444
   518.0000   2000.0000   2000.0000     22.3608     95.6448
   518.2500   2000.0000   2000.0000     22.6955     90.6192
   518.5000   2000.0000   2000.0000     23.0643     83.1856
   518.7500   2000.0000   2000.0000     23.4661     78.7741
   519.0000   2000.0000   2000.0000     23.9195     73.7327
   519.2500   2000.0000   2000.0000     24.4513     71.5373
   519.5000   2000.0000   2000.0000     25.0681     69.2308
   519.7500   2000.0000   2000.0000     25.7297     67.7350
   520.0000   2000.0000   2000.0000     26.3444     65.2776
   520.2500   2000.0000   2000.0000     26.7851     63.8079
   520.5000   2000.0000   2000.0000     26.9209     62.3868
   520.7500   2000.0000   2000.0000     26.6626     62.0382
   521.0000   2000.0000   2000.0000     26.0077     62.4619
   521.2500   2000.0000   2000.0000     25.0507     63.6222
   521.5000   2000.0000   2000.0000     23.9379     67.5780
   521.7500   2000.0000   2000.0000     22.8023     72.2736
   522.0000   2000.0000   2000.0000     21.7248     82.6616
   522.2500   2000.0000   2000.0000     20.7338     91.1780
   522.5000   2000.0000   2000.0000     19.8267    104.2286
   522.7500   2000.0000   2000.0000     18.9907    111.9950
   523.0000   2000.0000   2000.0000     18.2145    121.6213
   523.2500   2000.0000   2000.0000     17.4873    127.0662
   523.5000   2000.0000   2000.0000     16.7938    134.6155
   523.7500   2000.0000   2000.0000     16.1151    139.1517
   524.0000   2000.0000   2000.0000     15.4360    143.6782
   524.2500   2000.0000   2000.0000     14.7554    144.0900
   524.5000   2000.0000   2000.0000     14.0878    140.5371
   524.7500   2000.0000   2000.0000     13.4573    136.6698
   525.0000   2000.0000   2000.0000     12.8874    132.2961
   525.2500   2000.0000   2000.0000     12.3961    132.1715
   525.5000   2000.0000   2000.0000     11.9966    136.8479
   525.7500   2000.0000   2000.0000     11.6990    141.8179
   526.0000   2000.0000   2000.0000     11.5087    147.8963
   526.2500   2000.0000   2000.0000     11.4216    148.9816
   526.5000   2000.0000   2000.0000     11.4202    145.4809
   526.7500   2000.0000   2000.0000     11.4756    141.2056
   527.0000   2000.0000   2000.0000     11.5577    136.0855
   527.2500   2000.0000   2000.0000     11.6490    135.5915
   527.5000   2000.0000   2000.0000     11.7528    139.9103
   527.7500   2000.0000   2000.0000     11.8889    144.5860
