~Version Information
 VERS.                                  2.0 : CWLS LAS VERSION
 WRAP.                                   NO : WRAPING MODE
 SWARE .                 MController 2.5.0J : SOFTWARE VERSION
~Well Information
 WELL.                    McClaren 13 34 TR : WELL
 COMP.    Pioneer Natural Resources USA Inc : COMPANY
 FLD.                      Purgatoire River : FIELD
 LOC.                NW/SW Sec 34 T32S R67W : LOCATION
 DATE.                             07/12/05 : DATE(S) LOGGED
 SRVC.       BLANCO Geological Services LLC : SERVICE COMPANY
 STAT.                                   CO : STATE
 CNTY.                           Las Animas : COUNTY
 CTRY.                                  USA : COUNTRY
 API.                       05-071-08437-00 : API NUMBER
 STRT.FT                             595.00 : START DEPTH
 STOP.FT                            1555.00 : STOP DEPTH
 STEP.FT                               1.00 : DEPTH INCREMENT
 NULL.                                -9999 : NULL VALUE
~Curve information
 DEPTH.FT                                   :
 ROP.MIN/FT                                 :
 GAS.UNITS                                  :
~ASCII Log data
# ...
      1195.0         0.23        688.6 
      1196.0         2.82       1558.8 
      1197.0         0.30        989.8 
      1198.0         0.43        889.8 
      1199.0         0.37        787.6 
      1200.0         0.23        754.9 
      1201.0         0.30        742.5 
      1202.0         0.13        732.4 
      1203.0         0.50        728.9 
      1204.0         0.62        717.1 
      1205.0         0.50        707.6 
      1206.0         0.33        701.6 
      1207.0         0.17        696.2 
      1208.0         0.13        691.4 
      1209.0         0.23        689.5 
      1210.0         0.23        686.0 
      1211.0         0.23        687.6 
      1212.0         0.23        688.2 
      1213.0         0.23        687.3 
      1214.0         0.20        687.3 
      1215.0         0.17        687.9 
      1216.0         0.37        694.0 
      1217.0         0.45        696.8 
      1218.0         0.40        696.5 
      1219.0         0.27        694.9 
      1220.0         0.17        683.8 
      1221.0         0.17        671.4 
      1222.0         0.13        665.7 
      1223.0         0.17        661.9 
      1224.0         0.23        663.8 
      1225.0         0.23        670.1 
      1226.0         1.98       1212.6 
      1227.0         0.33       1176.7 
      1228.0         0.17       1040.9 
      1229.0         0.20        983.4 
      1230.0         0.23        919.0 
      1231.0         0.13        852.3 
      1232.0         0.17        822.5 
      1233.0         0.23        788.8 
      1234.0         0.27        754.6 
      1235.0         0.27        734.9 
      1236.0         0.23        724.1 
      1237.0         0.10        718.7 
      1238.0         0.13        715.5 
      1239.0         0.18        712.7 
      1240.0         0.17        709.2 
      1241.0         0.17        706.6 
      1242.0         0.20        704.1 
      1243.0         0.20        699.7 
      1244.0         0.23        695.5 
      1245.0         0.20        693.3 
      1246.0         0.23        691.7 
      1247.0         0.23        690.1 
      1248.0         0.20        690.8 
      1249.0         0.20        688.6 
      1250.0         0.17        687.9 
      1251.0         0.17        687.3 
      1252.0         0.20        683.8 
      1253.0         0.20        673.0 
      1254.0         0.28        659.7 
      1255.0         0.23        652.7 
      1256.0         2.68       1231.9 
      1257.0         0.53       1024.0 
      1258.0         0.33        853.0 
      1259.0         0.30        784.4 
      1260.0         0.23        744.4 
      1261.0         0.27        722.8 
      1262.0         0.27        715.5 
      1263.0         0.23        710.1 
      1264.0         0.23        705.4 
      1265.0         0.23        702.8 
      1266.0         0.20        700.6 
      1267.0         0.20        696.2 
      1268.0         0.25        692.4 
      1269.0         0.20        687.9 
      1270.0         0.20        686.0 
      1271.0         0.20        683.2 
      1272.0         0.20        682.5 
      1273.0         0.20        682.2 
      1274.0         0.23        679.0 
      1275.0         0.23        679.4 
      1276.0         0.17        679.4 
      1277.0         0.30        680.3 
      1278.0         0.30        679.0 
      1279.0         0.17        673.6 
      1280.0         0.17        670.1 
      1281.0         0.13        664.1 
      1282.0         0.17        659.0 
      1283.0         0.18        654.3 
      1284.0         0.17        651.1 
      1285.0         0.13        651.4 
      1286.0         3.02       1367.1 
      1287.0         0.27       1043.4 
      1288.0         0.40        937.1 
      1289.0         0.33        820.3 
      1290.0         0.23        756.2 
      1291.0         0.37        731.7 
      1292.0         0.50        700.9 
      1293.0         0.40        690.1 
      1294.0         0.37        683.8 
      1295.0         0.32        684.1 
      1296.0         0.27        691.4 
      1297.0         0.20        692.7 
      1298.0         0.13        692.0 
      1299.0         0.20        688.9 
      1300.0         0.23        687.0 
      1301.0         0.23        684.4 
      1302.0         0.23        681.6 
      1303.0         0.23        678.4 
      1304.0         0.23        677.8 
      1305.0         0.23        684.1 
      1306.0         0.20        695.2 
      1307.0         0.22        707.0 
      1308.0         0.13        708.6 
      1309.0         0.13        705.4 
      1310.0         0.13        703.2 
      1311.0         0.13        694.3 
      1312.0         0.10        687.3 
      1313.0         0.13        684.1 
      1314.0         0.10        681.9 
      1315.0         0.13        681.9 
      1316.0         3.15       1431.5 
      1317.0         0.33       1045.9 
      1318.0         0.30        905.6 
      1319.0         0.27        810.7 
      1320.0         0.27        777.1 
      1321.0         0.23        753.3 
      1322.0         0.27        742.8 
      1323.0         0.22        738.7 
      1324.0         0.23        731.7 
      1325.0         0.27        725.4 
      1326.0         0.27        719.7 
      1327.0         0.17        716.5 
      1328.0         0.23        716.8 
      1329.0         0.30        717.8 
      1330.0         0.27        716.5 
      1331.0         0.30        714.6 
      1332.0         0.23        709.2 
      1333.0         0.23        702.5 
      1334.0         0.22        698.1 
      1335.0         0.20        697.1 
      1336.0         0.20        699.3 
      1337.0         0.23        707.9 
      1338.0         0.27        713.9 
      1339.0         0.27        717.8 
      1340.0         0.20        719.0 
      1341.0         0.20        714.9 
      1342.0         0.23        701.6 
      1343.0         0.20        687.3 
      1344.0         0.17        678.7 
      1345.0         0.17        677.8 
      1346.0         3.38       1401.1 
      1347.0         0.38        915.2 
      1348.0         0.33        844.4 
      1349.0         0.40        795.8 
      1350.0         0.50        758.1 
      1351.0         0.40        734.9 
      1352.0         0.23        722.2 
      1353.0         0.40        722.2 
      1354.0         0.52        721.6 
      1355.0         0.27        716.2 
      1356.0         0.23        720.0 
      1357.0         0.27        723.8 
      1358.0         0.27        721.2 
      1359.0         0.23        717.4 
      1360.0         0.27        713.0 
      1361.0         0.30        713.9 
      1362.0         0.37        714.6 
      1363.0         0.43        719.7 
      1364.0         0.37        723.2 
      1365.0         0.38        731.1 
      1366.0         0.30        732.0 
      1367.0         0.30        733.0 
      1368.0         0.13        732.0 
      1369.0         0.20        729.8 
      1370.0         0.17        731.1 
      1371.0         0.13        730.5 
      1372.0         0.20        727.9 
      1373.0         0.23        716.5 
      1374.0         0.17        699.3 
      1375.0         0.20        694.3 
      1376.0         3.32       1458.2 
      1377.0         0.43       1130.0 
      1378.0         0.32        939.0 
      1379.0         0.30        866.3 
      1380.0         0.23        837.4 
      1381.0         0.17        817.4 
      1382.0         0.23        803.1 
      1383.0         0.27        787.6 
      1384.0         0.27        780.6 
      1385.0         0.23        779.0 
      1386.0         0.27        778.7 
      1387.0         0.27        776.5 
      1388.0         0.27        773.0 
      1389.0         0.27        767.6 
      1390.0         0.27        761.6 
      1391.0         0.25        752.0 
      1392.0         0.27        745.0 
      1393.0         0.57        739.3 
      1394.0         0.27        738.4 
