~Version Information
VERS.                      2.0: CWLS Log ASCII Standard - VERSION 2.0
WRAP.                       NO: One line per depth step
~Well Information Block
STRT.FT               440.0000: 
STOP.FT              1702.7000: 
STEP.FT                 0.1000: 
NULL.                -999.2500: 
COMP.          Pioneer Natural Resources: COMPANY
WELL.          Culver 14-12 Tr: WELL
FLD.           Purgatoire River: FIELD
LOC.           915' FSL & 1048' FWL--: LOCATION
STAT.                 Colorado: State
CNTY.               Las Animas: COUNTY
CTRY. USA : Country
SECT. 12 : Section
TOWN. 32S : Township
RANG. 66W : Range
SRVC.                Patterson: SERVICE COMPANY
DATE.          Wed Sep 28 10:00:59 2005: LOG DATE
API.           05 071 08520 00: UNIQUE WELL ID
~Curve Information Block
DEPT.FT            0 000 00 00: Depth
DCAL.in                       : CDL Caliper
RHOB.g/cc                     : CDL Bulk Density
RHOC.g/cc                     : CDL Density Correction
DPOR.pu                       : CDL Density Porosity
NPOR.pu                       : Neutron Porosity
GR.GAPI                       : Gamma Ray
~Parameter Information Block
~A  Depth       DCAL        RHOB        RHOC        DPOR        NPOR         GR     
# ...
   766.4000      8.1050      2.5962      0.0465      3.2610     26.8680    136.5315
   766.5000      8.0991      2.5962      0.0139      3.2589     26.9765    139.8944
   766.6000      8.0991      2.5885      0.0422      3.7250     26.9796    141.7252
   766.7000      8.0991      2.5725      0.0108      4.6981     26.5980    139.6570
   766.8000      8.0986      2.5575      0.0608      5.6055     26.1146    134.2708
   766.9000      8.0986      2.5529      0.0403      5.8844     25.8237    130.2110
   767.0000      8.0987      2.5616      0.0050      5.3584     25.7241    125.7395
   767.1000      8.0987      2.5753      0.0435      4.5252     25.8357    120.7389
   767.2000      8.0987      2.5796      0.0429      4.2678     26.0609    117.7772
   767.3000      8.0965      2.5786      0.0188      4.3279     25.8954    115.9420
   767.4000      8.0965      2.5897      0.0139      3.6546     25.1685    116.2912
   767.5000      8.0944      2.6071      0.0943      2.6020     24.4441    118.1555
   767.6000      8.0944      2.6173      0.0070      1.9789     24.1152    117.3272
   767.7000      8.0944      2.6244      0.0868      1.5522     24.1322    116.9572
   767.8000      8.0948      2.6247      0.0618      1.5312     24.5579    119.7584
   767.9000      8.0948      2.6140      0.0281      2.1814     25.4060    119.5632
   768.0000      8.0960      2.5972      0.0467      3.1974     26.2121    113.0196
   768.1000      8.0960      2.5828      0.0284      4.0699     26.4744    105.0543
   768.2000      8.0960      2.5810     -0.0112      4.1819     26.2378    102.3577
   768.3000      8.0966      2.5870      0.0509      3.8200     26.1154    105.3293
   768.4000      8.0966      2.5845      0.0065      3.9698     26.4307    107.2938
   768.5000      8.0971      2.5727      0.0128      4.6857     26.8273    105.6401
   768.6000      8.0971      2.5626     -0.0123      5.2978     27.3533    104.6625
   768.7000      8.0971      2.5629     -0.0080      5.2804     28.1583    107.0381
   768.8000      8.0979      2.5706      0.0138      4.8135     28.4522    109.8371
   768.9000      8.0979      2.5730      0.0030      4.6675     27.7287    111.2570
   769.0000      8.0970      2.5676      0.0068      4.9911     26.8768    112.9313
   769.1000      8.0970      2.5673     -0.0205      5.0140     26.6706    113.1901
   769.2000      8.0970      2.5724      0.0518      4.7021     26.9066    109.3728
   769.3000      8.0948      2.5650      0.0283      5.1489     27.1962    104.5940
   769.4000      8.0948      2.5452      0.0050      6.3535     27.3166    105.8666
   769.5000      8.0925      2.5330     -0.0182      7.0906     27.1633    113.7541
   769.6000      8.0925      2.5295      0.0391      7.3037     26.9566    119.8576
   769.7000      8.0925      2.5130      0.0193      8.3034     26.5847    119.1355
   769.8000      8.0914      2.4776     -0.0026     10.4495     25.6121    116.7361
   769.9000      8.0914      2.4443     -0.0318     12.4692     24.5564    116.6504
   770.0000      8.0932      2.4375     -0.0462     12.8793     24.2234    115.1116
   770.1000      8.0932      2.4584      0.0006     11.6120     24.4918    113.6319
   770.2000      8.0932      2.4860      0.0227      9.9396     24.8101    116.3105
   770.3000      8.0977      2.5117      0.0224      8.3826     25.0228    116.9740
   770.4000      8.0977      2.5424      0.1023      6.5190     25.2111    113.0016
   770.5000      8.1062      2.5664      0.1517      5.0696     25.3050    113.3532
   770.6000      8.1062      2.5721      0.1114      4.7207     25.2786    118.8627
   770.7000      8.1062      2.5846      0.1303      3.9620     25.0968    120.0763
   770.8000      8.1105      2.6194      0.2413      1.8519     25.1037    116.6654
   770.9000      8.1105      2.6408      0.2803      0.5586     25.9892    113.9435
   771.0000      8.0917      2.6157      0.1466      2.0779     27.4064    115.4376
   771.1000      8.0917      2.5659      0.0488      5.0950     28.4395    122.8887
   771.2000      8.0917      2.5320      0.0434      7.1486     28.9771    131.0394
   771.3000      8.0623      2.5299      0.0313      7.2783     29.0017    131.9617
   771.4000      8.0623      2.5498      0.0748      6.0736     28.0878    126.5256
   771.5000      8.0497      2.5685      0.1034      4.9367     26.4909    121.5140
   771.6000      8.0497      2.5755      0.0768      4.5160     24.9030    119.3127
   771.7000      8.0497      2.5847      0.0711      3.9592     23.4761    119.9807
   771.8000      8.0533      2.6020      0.1597      2.9100     22.3084    122.4761
   771.9000      8.0533      2.6190      0.1338      1.8812     21.5309    125.6147
   772.0000      8.0600      2.6349      0.1453      0.9151     20.9983    129.0293
   772.1000      8.0600      2.6454      0.1199      0.2778     20.4793    130.0878
   772.2000      8.0600      2.6454      0.0629      0.2760     19.6876    127.2538
   772.3000      8.0652      2.6396      0.0772      0.6290     18.6131    123.2689
   772.4000      8.0652      2.6327      0.0318      1.0506     17.7467    119.6990
   772.5000      8.0703      2.6278      0.0656      1.3479     17.5150    116.2126
   772.6000      8.0703      2.6251      0.0441      1.5117     17.8941    113.2753
   772.7000      8.0703      2.6225      0.0336      1.6651     18.5850    108.6978
   772.8000      8.0780      2.6117      0.0371      2.3238     19.2139     99.8593
   772.9000      8.0780      2.5842      0.0078      3.9871     19.6010     89.3574
   773.0000      8.0874      2.5387     -0.0003      6.7468     20.1367     81.5202
   773.1000      8.0874      2.4758     -0.0009     10.5579     21.1292     76.6418
   773.2000      8.0874      2.3987     -0.0325     15.2310     22.0377     74.8558
   773.3000      8.0934      2.3069     -0.0783     20.7950     22.3548     77.1915
   773.4000      8.0934      2.1965     -0.1293     27.4839     22.2937     80.8789
   773.5000      8.0974      2.0723     -0.1616     35.0149     21.9223     82.3852
   773.6000      8.0974      1.9440     -0.1658     42.7869     20.7862     82.4084
   773.7000      8.0974      1.8151     -0.1825     50.6003     18.6458     81.8265
   773.8000      8.1062      1.6809     -0.1597     58.7343     15.9172     79.9598
   773.9000      8.1062      1.5476     -0.2016     66.8116     13.2232     76.1301
   774.0000      8.1307      1.4435     -0.1643     73.1216     10.7044     70.3515
   774.1000      8.1307      1.3910     -0.0862     76.3045      8.3864     64.4264
   774.2000      8.1307      1.3795      0.0422     77.0024      6.6283     59.9013
   774.3000      8.1823      1.3801      0.0567     76.9654      5.6775     58.4523
   774.4000      8.1823      1.3841      0.0442     76.7236      5.4114     61.6479
   774.5000      8.2559      1.4067      0.0431     75.3523      5.5722     65.0695
   774.6000      8.2559      1.4565      0.0779     72.3342      5.7861     64.7615
   774.7000      8.2559      1.5224      0.1118     68.3394      5.7822     63.3208
   774.8000      8.3118      1.5924      0.1126     64.0956      5.7150     63.3343
   774.9000      8.3118      1.6632      0.1607     59.8045      5.9344     65.8551
   775.0000      8.3169      1.7334      0.1540     55.5493      6.5232     70.1584
   775.1000      8.3169      1.8053      0.1940     51.1910      7.3237     73.2152
   775.2000      8.3169      1.8799      0.2033     46.6703      8.2883     75.4185
   775.3000      8.2882      1.9484      0.1941     42.5187      9.3572     78.9251
   775.4000      8.2882      1.9944      0.1914     39.7305     10.2014     82.5703
   775.5000      8.2529      2.0004      0.1708     39.3721     10.6996     85.8668
   775.6000      8.2529      1.9559      0.1264     42.0669     11.2295     89.4693
   775.7000      8.2529      1.8688      0.0268     47.3452     11.8204     92.5246
   775.8000      8.2300      1.7666     -0.0278     53.5404     12.1079     94.6373
   775.9000      8.2300      1.6769     -0.0373     58.9768     11.9616     94.4605
