~Version Information
VERS.                      2.0: CWLS Log ASCII Standard - VERSION 2.0
WRAP.                       NO: One line per depth step
~Well Information Block
STRT.FT                -7.2500: 
STOP.FT              1196.2500: 
STEP.FT                 0.2500: 
NULL.                -999.2500: 
COMP.          Pioneer Natural Resources: COMPANY
WELL.             Mahalo 12-20: WELL
FLD.           Purgatorie River: FIELD
LOC.           1689' FNL & 479' FWL--: LOCATION
CNTY.               Las Animas: COUNTY
SRVC.          Patterson Wireline: SERVICE COMPANY
DATE.          Tue Mar 14 15:40:32 2006: LOG DATE
UWI.           05 071 08700 00: UNIQUE WELL ID
STAT.                       CO: STATE
~Curve Information Block
DEPT.FT            0 000 00 00: Depth
CCL.                          : Casing Collar Locator
TT3.usec                      : CBL 3' Travel Time
AMP3.mV                       : CBL 3' Amplitude
GR.GAPI                       : Gamma Ray
~Parameter Information Block
~A  Depth       CCL         TT3         AMP3         GR     
# ...
   930.7500      0.0000    675.3625      4.4301     58.4281
   931.0000      0.0000    670.6371      4.4213     56.4397
   931.2500      0.0000    672.7255      4.4334     54.5526
   931.5000      0.0000    679.3741      4.4632     53.7157
   931.7500      0.0000    686.4948      4.5085     54.5920
   932.0000      0.0000    691.9705      4.5654     57.4965
   932.2500      0.0000    696.0152      4.6283     62.3451
   932.5000      0.0000    699.1732      4.6924     68.5639
   932.7500      0.0000    701.3156      4.7535     75.2495
   933.0000      0.0000    702.0737      4.8060     81.4816
   933.2500      0.0000    701.3590      4.8449     86.5565
   933.5000      0.0000    699.5721      4.8706     90.0567
   933.7500      0.0000    697.6956      4.8890     91.7478
   934.0000      0.0000    696.8427      4.9053     91.6137
   934.2500      0.0000    697.0565      4.9181     90.4008
   934.5000      0.0000    696.1543      4.9233     89.8159
   934.7500      0.0000    689.4773      4.9212     91.3319
   935.0000      0.0000    670.9454      4.9177     94.5838
   935.2500      0.0000    636.1030      4.9183     97.4398
   935.5000      0.0000    586.5858      4.9232     97.8424
   935.7500      0.0000    531.8730      4.9288     95.5548
   936.0000      0.0000    484.5713      4.9327     92.3288
   936.2500      0.0000    452.6128      4.9366     90.5030
   936.5000      0.0000    435.9218      4.9420     91.2020
   936.7500      0.0000    429.5697      4.9473     93.6730
   937.0000      0.0000    428.5898      4.9499     96.2269
   937.2500      0.0000    430.3647      4.9526     97.6296
   937.5000      0.0000    434.8486      4.9635     97.6804
   937.7500      0.0000    444.5330      4.9870     96.9930
   938.0000      0.0000    464.1609      5.0167     96.4630
   938.2500      0.0000    498.2221      5.0382     96.6670
   938.5000      0.0000    545.9989      5.0353     97.3822
   938.7500      0.0000    598.6187      4.9940     97.6539
   939.0000      0.0000    643.0518      4.9058     96.4213
   939.2500      0.0000    670.5305      4.7750     93.2450
   939.5000      0.0000    681.3435      4.6268     88.6199
   939.7500      0.0000    682.4797      4.5027     83.7154
   940.0000      0.0000    681.9101      4.4418     79.6831
   940.2500      0.0000    684.4493      4.4583     77.0138
   940.5000      0.0000    691.0895      4.5394     75.3552
   940.7500      0.0000    700.9144      4.6628     73.8119
   941.0000      0.0000    713.1019      4.8129     71.4761
   941.2500      0.0000    727.0239      4.9803     67.9879
   941.5000      0.0000    741.1778      5.1529     63.8906
   941.7500      0.0000    753.3329      5.3130     60.4866
   942.0000      0.0000    761.9662      5.4445     59.2002
   942.2500      0.0000    766.6266      5.5418     60.9977
   942.5000      0.0000    766.7478      5.6102     66.2622
   942.7500      0.0000    761.4021      5.6587     74.7043
   943.0000      0.0000    750.7780      5.6933     84.9401
   943.2500      0.0000    737.1599      5.7170     94.4453
   943.5000      0.0000    724.2067      5.7287    100.5002
   943.7500      0.0000    715.8774      5.7152    101.4194
   944.0000      0.0000    715.4551      5.6566     97.1510
   944.2500      0.0000    723.8304      5.5610     89.2388
   944.5000      0.0000    738.1376      5.4850     80.1936
   944.7500      0.0000    752.7173      5.4883     72.4308
   945.0000     -2.0000    762.4179      5.5640     67.5051
   945.2500      0.0000    766.1348      5.6380     66.0359
   945.5000      2.0000    768.4485      5.6349     67.8910
   945.7500      0.0000    776.7657      5.5378     72.2676
   946.0000      0.0000    793.5879      5.4043     77.8297
   946.2500      0.0000    810.9180      5.3399     83.1263
   946.5000      0.0000    815.6248      5.4245     87.1460
   946.7500      0.0000    801.8337      5.6303     89.5897
   947.0000      0.0000    775.8806      5.8283     90.7269
   947.2500      0.0000    749.1473      5.9054     91.2149
   947.5000      0.0000    729.2077      5.8597     91.9188
   947.7500      0.0000    717.9792      5.7648     93.2845
   948.0000      0.0000    714.2930      5.6770     94.7178
   948.2500      0.0000    715.8873      5.6030     95.1762
   948.5000      0.0000    720.2079      5.5292     94.5795
   948.7500      0.0000    725.0467      5.4491     94.0502
   949.0000      0.0000    729.1022      5.3658     94.4912
   949.2500      0.0000    731.9907      5.2834     95.4663
   949.5000      0.0000    733.6282      5.2052     95.7622
   949.7500      0.0000    733.0795      5.1337     94.6334
   950.0000      0.0000    728.0330      5.0718     92.3923
   950.2500      0.0000    716.1157      5.0221     90.1895
   950.5000      0.0000    697.5848      4.9859     89.2362
   950.7500      0.0000    677.1229      4.9588     89.8304
   951.0000      0.0000    662.3036      4.9301     91.1591
   951.2500      0.0000    658.6506      4.8917     92.4969
   951.5000      0.0000    665.2954      4.8479     94.4673
   951.7500      0.0000    675.9856      4.8148     98.2997
   952.0000      0.0000    684.6090      4.8082    103.4335
   952.2500      0.0000    689.3728      4.8318    106.6584
   952.5000      0.0000    692.1821      4.8746    104.6705
   952.7500      0.0000    695.4568      4.9182     97.3802
   953.0000      0.0000    700.2889      4.9473     88.0338
   953.2500      0.0000    707.0488      4.9592     80.4440
   953.5000      0.0000    716.3870      4.9642     76.8194
   953.7500      0.0000    728.6518      4.9791     77.5707
   954.0000      0.0000    742.4744      5.0184     81.7776
   954.2500      0.0000    754.6711      5.0867     87.5641
   954.5000      0.0000    761.8408      5.1762     92.8318
   954.7500      0.0000    762.0631      5.2721     96.1399
   955.0000      0.0000    755.7678      5.3590     97.0416
   955.2500      0.0000    745.9164      5.4289     95.9762
   955.5000      0.0000    737.4306      5.4839     93.9609
   955.7500      0.0000    735.6115      5.5335     91.9043
   956.0000      0.0000    743.7862      5.5860     89.8379
   956.2500      0.0000    760.9369      5.6393     86.9442
   956.5000      0.0000    781.4910      5.6821     82.5865
   956.7500      0.0000    799.1234      5.7033     77.3116
   957.0000      0.0000    812.1445      5.6993     72.7251
   957.2500      0.0000    824.8802      5.6735     70.3909
   957.5000      0.0000    842.5804      5.6306     70.8525
   957.7500      0.0000    864.8260      5.5748     73.4315
   958.0000      0.0000    884.5881      5.5108     76.6564
   958.2500      0.0000    893.9147      5.4447     79.1295
   958.5000      0.0000    889.9159      5.3821     80.5750
   958.7500      0.0000    875.5306      5.3262     81.9962
   959.0000      0.0000    856.6960      5.2759     84.2562
   959.2500      0.0000    839.6722      5.2270     86.6147
   959.5000      0.0000    828.5901      5.1759     87.5083
   959.7500      0.0000    822.5957      5.1239     86.8986
   960.0000      0.0000    814.7427      5.0773     86.7350
   960.2500      0.0000    795.3621      5.0435     88.4146
   960.5000      0.0000    759.5233      5.0271     90.6877
   960.7500      0.0000    712.4467      5.0299     90.9860
   961.0000      0.0000    666.6436      5.0520     88.2880
   961.2500      0.0000    633.6315      5.0879     83.9330
   961.5000      0.0000    618.6017      5.1240     79.9996
   961.7500      0.0000    620.7813      5.1469     77.6033
   962.0000      0.0000    635.4929      5.1529     76.7475
   962.2500      0.0000    655.7173      5.1487     77.1908
   962.5000      0.0000    674.4221      5.1432     78.8681
   962.7500      0.0000    687.4718      5.1428     81.4844
   963.0000      0.0000    694.6194      5.1494     84.2673
   963.2500      0.0000    697.8847      5.1599     86.5481
   963.5000      0.0000    699.4473      5.1679     88.3673
   963.7500      0.0000    700.8083      5.1652     90.1048
   964.0000      0.0000    703.1266      5.1450     91.6613
