~Version Information
VERS.                      2.0: CWLS Log ASCII Standard - VERSION 2.0
WRAP.                       NO: One line per depth step
~Well Information Block
STRT.FT                -1.5000: 
STOP.FT              2143.7500: 
STEP.FT                 0.2500: 
NULL.                -999.2500: 
COMP.          Pioneer Natural Resources: COMPANY
WELL.              Kermit 32-7: WELL
FLD.           Purgatoire River: FIELD
LOC.           2002' FNL & 2103' FEL: LOCATION
PROV.                 Colorado: PROVINCE
CNTY.               Las Animas: COUNTRY
SRVC.                Patterson: SERVICE COMPANY
DATE.          Wed Jan 18 14:17:49 2006: LOG DATE
UWI.           05 071 08647 00: UNIQUE WELL ID
~Curve Information Block
DEPT.FT            0 000 00 00: Depth
GR.GAPI                       : Gamma Ray
CCL.                          : Casing Collar Locator
TT3.usec                      : CBL 3' Travel Time
AMP3.mV                       : CBL 3' Amplitude
~Parameter Information Block
~A  Depth        GR         CCL         TT3         AMP3    
    -1.5000   -999.2500   -999.2500   -999.2500   -999.2500
    -1.2500   -999.2500   -999.2500   -999.2500   -999.2500
    -1.0000   -999.2500   -999.2500   -999.2500   -999.2500
    -0.7500   -999.2500   -999.2500   1473.0000     -0.0987
    -0.5000   -999.2500   -999.2500   1473.0000     -0.0937
    -0.2500   -999.2500   -999.2500   1473.0000     -0.0870
     0.0000   -999.2500   -999.2500   1473.0000     -0.0856
     0.2500   -999.2500   -999.2500   1473.0000     -0.1083
     0.5000   -999.2500   -999.2500   1473.0000     -0.1189
     0.7500   -999.2500   -999.2500   1473.0000     -0.1194
     1.0000   -999.2500   -999.2500   1473.0000     -0.1112
     1.2500   -999.2500   -999.2500   1473.0000     -0.1004
     1.5000   -999.2500   -999.2500   1473.0000     -0.0923
     1.7500   -999.2500   -999.2500   1473.0000     -0.0889
     2.0000   -999.2500   -999.2500   1473.0000     -0.0896
     2.2500   -999.2500   -999.2500   1473.0000     -0.0938
     2.5000   -999.2500   -999.2500   1473.0000     -0.1019
     2.7500   -999.2500   -999.2500   1473.0000     -0.1125
     3.0000   -999.2500   -999.2500   1473.0000     -0.1216
     3.2500   -999.2500   -999.2500   1473.0000     -0.1254
     3.5000   -999.2500   -999.2500   1473.0000     -0.1231
     3.7500   -999.2500   -999.2500   1473.0000     -0.1162
     4.0000   -999.2500   -999.2500   1473.0000     -0.1069
     4.2500   -999.2500   -999.2500   1473.0000     -0.0977
     4.5000   -999.2500   -999.2500   1473.0000     -0.0907
     4.7500   -999.2500      0.0000   1473.0000     -0.0876
     5.0000   -999.2500      0.0000   1473.0000     -0.0886
     5.2500   -999.2500      0.0000   1473.0000     -0.0922
     5.5000   -999.2500      0.0000   1473.0000     -0.0956
     5.7500   -999.2500      0.0000   1473.0000     -0.0984
     6.0000   -999.2500      0.0000   1473.0000     -0.1018
     6.2500   -999.2500      0.0000   1473.0000     -0.1062
     6.5000   -999.2500      0.0000   1473.0000     -0.1095
     6.7500   -999.2500      0.0000   1473.0000     -0.1095
     7.0000   -999.2500      0.0000   1473.0000     -0.1059
     7.2500   -999.2500      0.0000   1473.0000     -0.1009
     7.5000   -999.2500      0.0000   1473.0000     -0.0964
     7.7500   -999.2500      0.0000   1473.0000     -0.0925
     8.0000   -999.2500      0.0000   1473.0000     -0.0888
     8.2500   -999.2500      0.0000   1473.0000     -0.0866
     8.5000   -999.2500      0.0000   1473.0000     -0.0883
     8.7500   -999.2500      0.0000   1473.0000     -0.0941
     9.0000   -999.2500      0.0000   1473.0000     -0.1016
     9.2500   -999.2500      0.0000   1473.0000     -0.1070
     9.5000     69.4813      0.0000   1473.0000     -0.1083
     9.7500     72.3457      0.0000   1473.0000     -0.1063
    10.0000     75.5451      0.0000   1473.0000     -0.1027
    10.2500     78.4204      0.0000   1473.0000     -0.0983
    10.5000     79.5712      0.0000   1473.0000     -0.0934
    10.7500     77.8868      0.0000   1473.0000     -0.0883
    11.0000     73.8800      0.0000   1473.0000     -0.0839
    11.2500     69.4743      0.0000   1473.0000     -0.0808
    11.5000     66.3223      0.0000   1473.0000     -0.0792
    11.7500     64.7704      0.0000   1473.0000     -0.0801
    12.0000     64.4997      0.0000   1473.0000     -0.0843
    12.2500     65.4742      0.0000   1472.9561     -0.0909
    12.5000     67.8956      0.0000   1472.6693     -0.0975
    12.7500     71.6174      0.0000   1471.2397     -0.1020
    13.0000     76.0389      0.0000   1465.6301     -0.1050
    13.2500     80.5360      0.0000   1448.6040     -0.1088
    13.5000     84.7671      0.0000   1408.6672     -0.1140
    13.7500     88.5886      0.0000   1336.3679     -0.1152
    14.0000     92.0555      0.0000   1235.2262     -0.0924
    14.2500     95.8615      0.0000   1124.1744      0.0202
    14.5000    101.2491      0.0000   1022.4943      0.4380
    14.7500    108.3325      0.0000    931.7919      1.7135
    15.0000    114.2664      0.0000    837.4327      4.8939
    15.2500    114.4408      0.0000    726.7598     11.2711
    15.5000    106.6770      0.0000    602.5636     21.4225
    15.7500     93.6737      0.0000    481.5916     34.1040
    16.0000     80.5831      0.0000    383.3545     46.3798
    16.2500     70.8495      0.0000    318.3333     55.3963
    16.5000     64.8807      0.0000    283.8374     60.1419
    16.7500     61.7755      0.0000    269.3589     61.4652
    17.0000     61.3097      0.0000    264.6791     60.7744
    17.2500     64.3327      3.0000    263.7911     58.9914
    17.5000     71.6982      2.7640    264.4034     56.4003
    17.7500     82.5894      0.0000    266.1080     53.0378
    18.0000     93.4181      0.0000    268.8835     49.1301
    18.2500     99.1483      0.0000    272.3513     45.2200
    18.5000     97.3946      0.0000    276.1523     41.8488
    18.7500     91.6719      0.0000    281.4471     39.1081
    19.0000     89.3706      0.0000    292.3519     36.5867
    19.2500     95.4533      0.0000    315.1496     33.7499
    19.5000    107.7607      0.0000    354.4348     30.3548
    19.7500    118.3319      0.0000    408.2464     26.6081
    20.0000    119.7219      0.0000    466.3922     23.0213
    20.2500    110.6663      0.0000    514.4967     20.0813
    20.5000     95.9661      0.0000    541.5295     17.9964
    20.7500     81.5970      0.0000    544.9713     16.6866
    21.0000     70.6145      0.0000    530.1935     15.9336
    21.2500     62.9713      0.0000    506.5175     15.5234
    21.5000     57.5841      0.0000    483.3079     15.3077
    21.7500     54.0102      0.0000    466.4648     15.2052
    22.0000     52.6476      0.0000    456.4569     15.1736
    22.2500     53.7090      0.0000    450.1223     15.1866
    22.5000     56.1801      0.0000    444.6540     15.2257
    22.7500     58.1675      0.0000    439.5864     15.2792
    23.0000     58.5689      0.0000    435.7024     15.3405
    23.2500     58.2426      0.0000    433.4483     15.4023
    23.5000     59.0997      0.0000    432.7102     15.4554
    23.7500     61.9190      0.0000    433.4239     15.4931
    24.0000     65.4007      0.0000    435.9708     15.5165
    24.2500     67.5243      0.0000    440.8301     15.5329
    24.5000     67.4911      0.0000    447.6982     15.5492
    24.7500     66.1129      0.0000    454.8783     15.5652
    25.0000     64.7492      0.0000    459.8607     15.5753
    25.2500     64.3419      0.0000    461.0371     15.5727
    25.5000     65.1578      0.0000    459.1967     15.5537
    25.7500     66.7437      0.0000    457.3915     15.5181
    26.0000     68.0660      0.0000    459.0337     15.4686
    26.2500     68.2777      0.0000    465.9406     15.4100
    26.5000     67.5604      0.0000    477.9578     15.3494
    26.7500     66.9480      0.0000    493.5369     15.2951
    27.0000     67.3017      0.0000    510.3148     15.2542
    27.2500     68.6902      0.0000    526.6992     15.2303
    27.5000     70.6953      0.0000    543.9807     15.2203
    27.7500     72.8171      0.0000    565.0731     15.2143
    28.0000     74.3263      0.0000    589.5466     15.2012
    28.2500     74.2316      0.0000    611.2138     15.1782
    28.5000     72.0688      0.0000    621.3839     15.1548
    28.7500     68.7356      0.0000    613.4008     15.1496
    29.0000     66.1261      0.0000    585.6771     15.1809
    29.2500     65.7766      0.0000    543.9318     15.2621
    29.5000     67.9035      0.0000    499.9923     15.3991
    29.7500     71.6297      0.0000    464.7059     15.5747
    30.0000     75.7448      0.0000    442.4638     15.7096
    30.2500     78.9722      0.0000    435.2361     15.6353
    30.5000     79.7892      0.0000    448.0999     15.1529
    30.7500     76.9697      0.0000    484.4854     14.1992
    31.0000     71.0078      0.0000    537.3825     12.9798
    31.2500     64.4989      0.0000    590.9877     11.8772
    31.5000     60.2420      0.0000    632.0181     11.1818
    31.7500     58.9260      0.0000    657.3961     10.9236
