~Version Information
 VERS.                                  2.0 : CWLS LAS VERSION
 WRAP.                                   NO : WRAPING MODE
 SWARE .                 MController 2.5.0N : SOFTWARE VERSION
~Well Information
 WELL.                       ALABASTER 11-8 : WELL
 COMP.    PIONEER NATURAL RESOURCES USA INC : COMPANY
 FLD.                      PURGATOIRE RIVER : FIELD
 LOC.                 NW/NW SEC 8 T33S R66W : LOCATION
 DATE.                             01/18/06 : DATE(S) LOGGED
 SRVC.       BLANCO GEOLOGICAL SERVICES LLC : SERVICE COMPANY
 STAT.                             COLORADO : STATE
 CNTY.                           LAS ANIMAS : COUNTY
 CTRY.                                  USA : COUNTRY
 API.                       05-071-08642-00 : API NUMBER
 STRT.FT                             555.00 : START DEPTH
 STOP.FT                            2045.00 : STOP DEPTH
 STEP.FT                               1.00 : DEPTH INCREMENT
 NULL.                                -9999 : NULL VALUE
~Curve information
 DEPTH.FT                                   :
 ROP.MIN/FT                                 :
 GAS.UNITS                                  :
~ASCII Log data
# ...
      1755.0         0.23         25.9 
      1756.0         0.23         26.3 
      1757.0         0.20         26.1 
      1758.0         0.17         25.3 
      1759.0         0.20         25.2 
      1760.0         0.23         24.2 
      1761.0         0.28         24.5 
      1762.0         0.30         24.8 
      1763.0         0.27         25.7 
      1764.0         0.17         24.4 
      1765.0         0.17         23.9 
      1766.0         1.90         39.2 
      1767.0         0.30          4.7 
      1768.0         0.13          4.6 
      1769.0         0.35          4.5 
      1770.0         0.33          4.7 
      1771.0         0.33          6.8 
      1772.0         0.30         14.6 
      1773.0         0.27         16.4 
      1774.0         0.17         17.1 
      1775.0         0.20         18.1 
      1776.0         0.37         20.1 
      1777.0         0.27         21.8 
      1778.0         0.20         22.3 
      1779.0         0.23         22.9 
      1780.0         0.20         24.8 
      1781.0         0.28         26.3 
      1782.0         0.23         27.6 
      1783.0         0.30         28.2 
      1784.0         0.27         29.8 
      1785.0         0.27         30.2 
      1786.0         0.23         29.7 
      1787.0         0.27         29.5 
      1788.0         0.23         28.4 
      1789.0         0.27         27.6 
      1790.0         0.23         26.4 
      1791.0         0.23         25.6 
      1792.0         0.13         25.9 
      1793.0         0.13         26.1 
      1794.0         0.07         27.4 
      1795.0         0.13         31.4 
      1796.0         3.63         41.8 
      1797.0         0.33         14.6 
      1798.0         0.30         15.4 
      1799.0         0.20         16.2 
      1800.0         0.17         17.1 
      1801.0         0.30         19.2 
      1802.0         0.23         19.3 
      1803.0         0.27         23.8 
      1804.0         0.27         26.8 
      1805.0         0.23         30.4 
      1806.0         0.17         35.0 
      1807.0         0.17         37.4 
      1808.0         0.30         40.1 
      1809.0         0.27         42.9 
      1810.0         0.32         42.0 
      1811.0         0.27         42.0 
      1812.0         0.33         41.5 
      1813.0         0.27         39.1 
      1814.0         0.37         36.3 
      1815.0         0.27         34.2 
      1816.0         0.30         34.4 
      1817.0         0.30         31.9 
      1818.0         0.30         29.5 
      1819.0         0.30         28.8 
      1820.0         0.27         27.0 
      1821.0         0.28         25.7 
      1822.0         0.27         24.3 
      1823.0         0.23         23.7 
      1824.0         0.37         28.8 
      1825.0         0.37         36.8 
      1826.0         1.10         34.2 
      1827.0         0.47          4.8 
      1828.0         0.42          4.7 
      1829.0         0.37          4.8 
      1830.0         0.37          5.4 
      1831.0         0.20         12.7 
      1832.0         0.23         19.6 
      1833.0         0.27         21.5 
      1834.0         0.23         21.1 
      1835.0         0.27         19.2 
      1836.0         0.30         22.6 
      1837.0         0.30         25.2 
      1838.0         0.30         26.0 
      1839.0         0.30         26.9 
      1840.0         0.32         26.7 
      1841.0         0.30         27.1 
      1842.0         0.37         27.7 
      1843.0         0.37         30.5 
      1844.0         0.33         31.0 
      1845.0         0.30         32.1 
      1846.0         0.30         32.5 
      1847.0         0.23         32.9 
      1848.0         0.17         33.4 
      1849.0         0.27         34.6 
      1850.0         0.20         34.9 
      1851.0         0.27         32.0 
      1852.0         0.22         32.5 
      1853.0         0.17         34.1 
      1854.0         0.13         36.2 
      1855.0         0.17         42.2 
      1856.0         1.37         58.2 
      1857.0         0.37          6.3 
      1858.0         0.37          4.9 
      1859.0         0.27          4.7 
      1860.0         0.30          5.1 
      1861.0         0.32          4.8 
      1862.0         0.20          5.8 
      1863.0         0.17         12.9 
      1864.0         0.27         23.3 
      1865.0         0.40         27.9 
      1866.0         0.43         31.7 
      1867.0         0.37         37.7 
      1868.0         0.20         39.2 
      1869.0         0.13         39.2 
      1870.0         0.10         34.0 
      1871.0         0.20         38.5 
      1872.0         0.27         45.0 
      1873.0         0.23         45.9 
      1874.0         0.25         41.9 
      1875.0         0.17         45.0 
      1876.0         0.23         48.5 
      1877.0         0.27         48.2 
      1878.0         0.30         46.6 
      1879.0         0.40         45.1 
      1880.0         0.33         43.1 
      1881.0         0.30         40.9 
      1882.0         0.33         37.3 
      1883.0         0.20         36.7 
      1884.0         0.10         37.0 
      1885.0         0.23         45.0 
      1886.0         1.72         62.5 
      1887.0         0.43          5.0 
      1888.0         0.13          4.6 
      1889.0         0.20          4.7 
      1890.0         0.30         12.4 
      1891.0         0.23         24.3 
      1892.0         0.20         24.9 
      1893.0         0.17         23.8 
      1894.0         0.20         28.4 
      1895.0         0.35         36.7 
      1896.0         0.27         39.0 
      1897.0         0.27         38.4 
      1898.0         0.23         36.9 
      1899.0         0.23         34.7 
      1900.0         0.23         30.6 
      1901.0         0.23         31.9 
      1902.0         0.20         31.9 
      1903.0         0.23         30.2 
      1904.0         0.23         27.9 
      1905.0         0.20         26.3 
      1906.0         0.23         27.8 
      1907.0         0.23         27.6 
      1908.0         0.27         26.9 
      1909.0         0.25         27.1 
      1910.0         0.27         26.5 
      1911.0         0.27         26.7 
      1912.0         0.30         26.7 
      1913.0         0.23         29.9 
      1914.0         0.20         29.9 
      1915.0         0.23         32.2 
      1916.0         1.30         54.8 
      1917.0         0.45          6.2 
      1918.0         0.40          5.1 
      1919.0         0.30          4.8 
      1920.0         0.30          4.8 
      1921.0         0.27          4.7 
      1922.0         0.27          4.6 
      1923.0         0.30          4.7 
      1924.0         0.23          5.8 
      1925.0         0.23         22.7 
      1926.0         0.30         31.6 
      1927.0         0.27         32.0 
      1928.0         0.27         33.5 
      1929.0         0.32         34.1 
      1930.0         0.23         34.5 
      1931.0         0.27         36.0 
      1932.0         0.27         38.1 
      1933.0         0.27         40.5 
      1934.0         0.27         44.0 
      1935.0         0.30         46.7 
      1936.0         0.30         46.0 
      1937.0         0.30         44.9 
      1938.0         0.27         40.7 
      1939.0         0.30         38.2 
      1940.0         0.30         36.2 
      1941.0         0.32         34.2 
      1942.0         0.37         31.4 
      1943.0         0.33         29.9 
      1944.0         0.37         29.3 
      1945.0         0.33         34.2 
      1946.0         1.50         49.9 
      1947.0         0.45          6.0 
      1948.0         0.37          4.7 
      1949.0         0.30          4.7 
      1950.0         0.33          4.8 
      1951.0         0.37         22.1 
      1952.0         0.37         27.5 
      1953.0         0.47         29.3 
      1954.0         0.50         30.2 
