~Version Information
VERS.                      2.0: CWLS Log ASCII Standard - VERSION 2.0
WRAP.                       NO: One line per depth step
~Well Information Block
STRT.FT               245.0000: 
STOP.FT              1273.7000: 
STEP.FT                 0.1000: 
NULL.                -999.2500: 
COMP.          Pioneer Natural Resources: COMPANY
WELL.                 Ray 34-6: WELL
FLD.           Purgatoire River: FIELD
LOC.           684' FSL & 2254' FEL--: LOCATION
CNTY.               Las Animas: COUNTY
SRVC.                Patterson: SERVICE COMPANY
DATE.          Fri May 26 09:17:30 2006: LOG DATE
UWI.           05 071 08695 00: UNIQUE WELL ID
STAT.                 Colorado: STATE
~Curve Information Block
DEPT.FT            0 000 00 00: Depth
DCAL.in                       : CDL Caliper
RHOB.g/cc                     : CDL Bulk Density
RHOC.g/cc                     : CDL Density Correction
DPOR.pu                       : CDL Density Porosity
NPOR.pu                       : Neutron Porosity
GR.GAPI                       : Gamma Ray
~Parameter Information Block
~A  Depth       DCAL        RHOB        RHOC        DPOR        NPOR         GR     
# ...
   379.4000      8.5377      2.3200      0.1634     19.9982     24.0714    126.6454
   379.5000      8.5604      2.3203      0.0981     19.9831     24.5403    125.0020
   379.6000      8.5604      2.3541      0.1975     17.9363     24.8534    121.6063
   379.7000      8.5604      2.3976      0.3234     15.2943     25.2061    117.4576
   379.8000      8.5440      2.3936      0.2833     15.5381     25.4604    116.8607
   379.9000      8.5440      2.3193      0.1509     20.0447     25.3753    122.5448
   380.0000      8.4535      2.1935      0.0636     27.6651     25.1092    127.9332
   380.1000      8.4535      2.0427     -0.0253     36.8051     24.7649    124.8830
   380.2000      8.4535      1.8905     -0.0573     46.0306     24.1694    114.9273
   380.3000      8.3861      1.7600     -0.0918     53.9392     23.1232    105.8891
   380.4000      8.3861      1.6696     -0.0861     59.4200     21.7034    102.0046
   380.5000      8.3802      1.6287     -0.1285     61.8968     20.2524    102.2088
   380.6000      8.3802      1.6381     -0.1484     61.3265     18.9000    103.2869
   380.7000      8.3802      1.6791     -0.0473     58.8453     17.7762    103.0516
   380.8000      8.4197      1.7181     -0.0373     56.4804     17.0057    102.8351
   380.9000      8.4197      1.7383      0.0183     55.2530     16.4106    107.0353
   381.0000      8.4813      1.7464      0.0883     54.7641     16.0050    112.6911
   381.1000      8.4813      1.7574      0.1384     54.0961     15.9927    110.8228
   381.2000      8.4813      1.7706      0.1896     53.2983     16.2849    102.3001
   381.3000      8.5065      1.7673      0.1330     53.4951     16.5172     96.8077
   381.4000      8.5065      1.7380      0.0943     55.2714     16.3826     96.1241
   381.5000      8.4638      1.6799      0.0188     58.7954     15.8768     94.9563
   381.6000      8.4638      1.5930     -0.0811     64.0589     14.9888     91.0053
   381.7000      8.4638      1.4972     -0.1559     69.8689     13.7368     86.9163
   381.8000      8.3954      1.4245     -0.1697     74.2733     12.5326     86.0687
   381.9000      8.3954      1.3868     -0.0801     76.5548     11.6979     85.5752
   382.0000      8.3635      1.3750     -0.0444     77.2720     11.1252     79.2353
   382.1000      8.3635      1.3864      0.0071     76.5836     10.6485     68.5836
   382.2000      8.3635      1.4190      0.0737     74.6040     10.1876     59.8277
   382.3000      8.3653      1.4573      0.1036     72.2860      9.8745     55.5100
   382.4000      8.3653      1.4865      0.1157     70.5179      9.7970     55.8499
   382.5000      8.3575      1.5117      0.0792     68.9907      9.8083     58.8800
   382.6000      8.3575      1.5511      0.1031     66.5975     10.0075     61.9724
   382.7000      8.3575      1.6081      0.1556     63.1482     10.4882     67.0162
   382.8000      8.3373      1.6673      0.1390     59.5580     10.9148     75.0966
   382.9000      8.3373      1.7237      0.1093     56.1390     11.0851     81.7688
   383.0000      8.3218      1.7852      0.1328     52.4131     11.3163     83.9925
   383.1000      8.3218      1.8505      0.1821     48.4538     11.8971     84.5329
   383.2000      8.3218      1.9092      0.1739     44.8972     12.6342     87.7650
   383.3000      8.2995      1.9593      0.1407     41.8578     13.2650     94.3356
   383.4000      8.2995      2.0125      0.1504     38.6335     13.7826    103.0836
   383.5000      8.2692      2.0824      0.1830     34.3994     14.2974    111.7074
   383.6000      8.2692      2.1661      0.2057     29.3245     14.9387    116.4777
   383.7000      8.2692      2.2365      0.2575     25.0624     15.7095    116.0278
   383.8000      8.2542      2.2674      0.1922     23.1864     16.5260    113.4594
   383.9000      8.2542      2.2691      0.1207     23.0830     17.3453    112.6111
   384.0000      8.2519      2.2738      0.1101     22.8019     18.1386    115.8413
   384.1000      8.2519      2.2949      0.0801     21.5204     18.7694    122.7451
   384.2000      8.2519      2.3169      0.1344     20.1893     19.1119    130.4718
   384.3000      8.2517      2.3205      0.1062     19.9711     19.4232    137.4522
   384.4000      8.2517      2.3082      0.1049     20.7136     19.9595    141.0943
   384.5000      8.2513      2.2826      0.1167     22.2663     20.4713    139.5867
   384.6000      8.2513      2.2293      0.0990     25.4944     20.4909    134.6861
   384.7000      8.2513      2.1485     -0.0102     30.3955     19.9986    129.8813
   384.8000      8.2463      2.0623      0.0221     35.6200     19.2580    128.0090
   384.9000      8.2463      1.9833      0.0026     40.4047     18.2997    130.0068
   385.0000      8.2391      1.9130      0.0016     44.6646     17.1413    135.7474
   385.1000      8.2391      1.8541     -0.0258     48.2348     15.9628    142.8241
   385.2000      8.2391      1.8083     -0.0793     51.0151     14.9512    146.5277
   385.3000      8.2329      1.7667     -0.0307     53.5355     14.0375    147.7800
   385.4000      8.2329      1.7152     -0.0286     56.6536     13.0003    150.3475
   385.5000      8.2299      1.6526      0.0179     60.4478     11.8479    148.7186
   385.6000      8.2299      1.5905      0.0104     64.2119     10.8785    139.7478
   385.7000      8.2299      1.5476      0.0063     66.8138     10.2550    133.9123
   385.8000      8.2274      1.5376      0.0083     67.4183      9.7193    137.2468
   385.9000      8.2274      1.5566      0.0478     66.2688      9.1239    141.1665
   386.0000      8.2099      1.5883      0.0357     64.3467      8.7563    137.4227
   386.1000      8.2099      1.6199      0.0064     62.4278      8.7541    129.5715
   386.2000      8.2099      1.6578      0.0064     60.1347      8.8632    122.8655
   386.3000      8.1798      1.7298      0.0265     55.7708      8.9506    116.6062
   386.4000      8.1798      1.8495      0.1899     48.5129      9.1428    109.8180
   386.5000      8.1653      1.9904      0.2641     39.9730      9.5114    101.9779
   386.6000      8.1653      2.1226      0.2870     31.9655     10.0004     95.0987
   386.7000      8.1653      2.2387      0.2795     24.9248     10.5984     94.6870
   386.8000      8.1663      2.3395      0.2547     18.8197     11.3464     98.7568
   386.9000      8.1663      2.4237      0.2336     13.7162     12.3026     98.9437
   387.0000      8.1690      2.4893      0.2117      9.7395     13.3575     93.4878
   387.1000      8.1690      2.5316      0.2027      7.1756     14.3316     87.2652
   387.2000      8.1690      2.5515      0.0896      5.9677     15.2690     84.8990
   387.3000      8.1697      2.5550      0.1014      5.7553     16.2555     85.4977
   387.4000      8.1697      2.5448      0.0732      6.3777     17.2840     84.6989
   387.5000      8.1700      2.5349     -0.0093      6.9737     18.1576     82.7788
   387.6000      8.1700      2.5337      0.0908      7.0481     18.5390     82.6885
   387.7000      8.1700      2.5307      0.0156      7.2294     18.5880     85.4683
   387.8000      8.1703      2.5322      0.0206      7.1413     18.8209     90.0848
   387.9000      8.1703      2.5458      0.0696      6.3166     19.3613     93.7951
   388.0000      8.1708      2.5591      0.0498      5.5093     19.9550     94.7785
   388.1000      8.1708      2.5671      0.0605      5.0223     20.3598     95.0450
   388.2000      8.1708      2.5815      0.0314      4.1538     20.4810     97.7942
   388.3000      8.1702      2.6042      0.0518      2.7733     20.5250    101.4081
   388.4000      8.1702      2.6214      0.0504      1.7325     20.8255    102.6613
   388.5000      8.1689      2.6247      0.0503      1.5330     21.4153    102.5723
   388.6000      8.1689      2.6128      0.0858      2.2530     22.0405    105.7700
   388.7000      8.1689      2.5878      0.0319      3.7703     22.6001    113.0031
   388.8000      8.1681      2.5648      0.0236      5.1624     23.2192    116.8895
   388.9000      8.1681      2.5580     -0.0110      5.5781     23.8716    115.3083
