~Version Information
VERS.                      2.0: CWLS Log ASCII Standard - VERSION 2.0
WRAP.                       NO: One line per depth step
~Well Information Block
STRT.FT               420.0000: 
STOP.FT              2888.7500: 
STEP.FT                 0.2500: 
NULL.                -999.2500: 
COMP.          Pioneer Natural Resources: COMPANY
WELL.          Touchstone 11-32: WELL
FLD.           Purgatoire River: FIELD
LOC.           853' FNL & 407' FWL--: LOCATION
CNTY.               Las Animas: COUNTY
SRVC.                Patterson: SERVICE COMPANY
DATE.          Thu Feb 23 14:02:36 2006: LOG DATE
UWI.           05 071 08564 00: UNIQUE WELL ID
STAT.                 Colorado: STATE
~Curve Information Block
DEPT.FT            0 000 00 00: Depth
SN.Ohm-m                      : IEL Short Normal
SP.mV                         : IEL Spontaneous Potential
DIR.Ohm-m                     : IEL Induction Resistivity
GR.GAPI                       : Gamma Ray
~Parameter Information Block
~A  Depth        SN          SP         DIR          GR     
# ...
   922.5000   2000.0000   1974.0000     16.2157    138.0066
   922.7500   2000.0000   1974.0000     15.9401    135.7259
   923.0000   2000.0000   1974.0000     15.6941    132.9657
   923.2500   2000.0000   1974.0000     15.4839    131.7213
   923.5000   2000.0000   1974.0000     15.3055    131.2736
   923.7500   2000.0000   1974.0000     15.1502    132.0354
   924.0000   2000.0000   1974.0000     15.0106    134.1765
   924.2500   2000.0000   1974.0000     14.8827    135.5271
   924.5000   2000.0000   1974.0000     14.7668    136.3828
   924.7500   2000.0000   1974.0000     14.6644    136.2316
   925.0000   2000.0000   1974.0000     14.5753    136.1701
   925.2500   2000.0000   1974.0000     14.4973    137.0559
   925.5000   2000.0000   1974.0000     14.4274    140.2177
   925.7500   2000.0000   1974.0000     14.3644    143.0677
   926.0000   2000.0000   1974.0000     14.3098    146.9638
   926.2500   2000.0000   1974.0000     14.2670    148.5877
   926.5000   2000.0000   1974.0000     14.2388    149.1759
   926.7500   2000.0000   1974.0000     14.2266    148.4994
   927.0000   2000.0000   1974.0000     14.2331    146.1940
   927.2500   2000.0000   1974.0000     14.2645    143.7652
   927.5000   2000.0000   1974.0000     14.3332    138.5868
   927.7500   2000.0000   1974.0000     14.4556    134.2806
   928.0000   2000.0000   1974.0000     14.6491    127.5562
   928.2500   2000.0000   1974.0000     14.9256    123.6030
   928.5000   2000.0000   1974.0000     15.2870    119.1141
   928.7500   2000.0000   1974.0000     15.7210    116.9351
   929.0000   2000.0000   1974.0000     16.2021    113.9356
   929.2500   2000.0000   1974.0000     16.6952    111.5304
   929.5000   2000.0000   1974.0000     17.1617    107.2679
   929.7500   2000.0000   1974.0000     17.5645    104.8436
   930.0000   2000.0000   1974.0000     17.8732    104.0955
   930.2500   2000.0000   1974.0000     18.0661    106.2847
   930.5000   2000.0000   1974.0000     18.1304    112.5295
   930.7500   2000.0000   1974.0000     18.0594    116.9858
   931.0000   2000.0000   1974.0000     17.8527    121.7160
   931.2500   2000.0000   1974.0000     17.5243    123.4191
   931.5000   2000.0000   1974.0000     17.1110    125.2341
   931.7500   2000.0000   1974.0000     16.6716    126.6694
   932.0000   2000.0000   1974.0000     16.2733    129.0111
   932.2500   2000.0000   1974.0000     15.9718    130.2846
   932.5000   2000.0000   1974.0000     15.7972    131.7447
   932.7500   2000.0000   1974.0000     15.7502    132.6446
   933.0000   2000.0000   1974.0000     15.8075    133.5338
   933.2500   2000.0000   1974.0000     15.9370    133.1888
   933.5000   2000.0000   1974.0000     16.1125    130.6396
   933.7500   2000.0000   1974.0000     16.3234    127.9291
   934.0000   2000.0000   1974.0000     16.5726    123.8316
   934.2500   2000.0000   1974.0000     16.8666    121.9213
   934.5000   2000.0000   1974.0000     17.2042    120.7016
   934.7500   2000.0000   1974.0000     17.5714    120.4951
   935.0000   2000.0000   1974.0000     17.9424    119.7804
   935.2500   2000.0000   1974.0000     18.2866    118.6108
   935.5000   2000.0000   1974.0000     18.5763    116.2054
   935.7500   2000.0000   1974.0000     18.7940    114.8607
   936.0000   2000.0000   1974.0000     18.9337    114.3851
   936.2500   2000.0000   1974.0000     18.9991    115.3065
   936.5000   2000.0000   1974.0000     18.9980    117.9167
   936.7500   2000.0000   1974.0000     18.9389    119.8362
   937.0000   2000.0000   1974.0000     18.8309    122.2510
   937.2500   2000.0000   1974.0000     18.6830    123.5128
   937.5000   2000.0000   1974.0000     18.5012    125.1010
   937.7500   2000.0000   1974.0000     18.2831    125.9760
   938.0000   2000.0000   1974.0000     18.0198    126.8223
   938.2500   2000.0000   1974.0000     17.7042    127.0515
   938.5000   2000.0000   1974.0000     17.3419    127.2449
   938.7500   2000.0000   1974.0000     16.9522    127.5492
   939.0000   2000.0000   1974.0000     16.5608    128.3312
   939.2500   2000.0000   1974.0000     16.1901    128.8215
   939.5000   2000.0000   1974.0000     15.8565    129.0972
   939.7500   2000.0000   1974.0000     15.5729    128.9750
   940.0000   2000.0000   1974.0000     15.3539    128.5346
   940.2500   2000.0000   1974.0000     15.2162    128.0393
   940.5000   2000.0000   1974.0000     15.1768    126.6534
   940.7500   2000.0000   1974.0000     15.2509    125.2107
   941.0000   2000.0000   1974.0000     15.4512    122.4596
   941.2500   2000.0000   1974.0000     15.7909    120.1781
   941.5000   2000.0000   1974.0000     16.2841    115.2523
   941.7500   2000.0000   1974.0000     16.9419    110.5371
   942.0000   2000.0000   1974.0000     17.7653    101.9671
   942.2500   2000.0000   1974.0000     18.7380     96.4039
   942.5000   2000.0000   1974.0000     19.8241     90.4319
   942.7500   2000.0000   1974.0000     20.9708     89.0042
   943.0000   2000.0000   1974.0000     22.1111     91.5360
   943.2500   2000.0000   1974.0000     23.1648     95.9243
   943.5000   2000.0000   1974.0000     24.0407    104.0014
   943.7500   2000.0000   1974.0000     24.6471    108.6632
   944.0000   2000.0000   1974.0000     24.9116    113.4857
   944.2500   2000.0000   1974.0000     24.8054    115.8658
   944.5000   2000.0000   1974.0000     24.3585    119.3980
   944.7500   2000.0000   1974.0000     23.6566    121.6022
   945.0000   2000.0000   1974.0000     22.8159    123.6408
   945.2500   2000.0000   1974.0000     21.9477    123.9926
   945.5000   2000.0000   1974.0000     21.1300    123.8425
   945.7500   2000.0000   1974.0000     20.3984    123.7816
   946.0000   2000.0000   1974.0000     19.7543    123.8942
   946.2500   2000.0000   1974.0000     19.1817    124.0341
   946.5000   2000.0000   1974.0000     18.6660    124.4135
   946.7500   2000.0000   1974.0000     18.2054    124.8249
   947.0000   2000.0000   1974.0000     17.8110    125.5539
   947.2500   2000.0000   1974.0000     17.4968    125.9847
   947.5000   2000.0000   1974.0000     17.2670    126.3920
   947.7500   2000.0000   1974.0000     17.1108    126.5201
   948.0000   2000.0000   1974.0000     17.0059    126.8372
   948.2500   2000.0000   1974.0000     16.9283    127.4272
   948.5000   2000.0000   1974.0000     16.8613    129.0707
   948.7500   2000.0000   1974.0000     16.7986    130.4816
   949.0000   2000.0000   1974.0000     16.7425    132.5255
   949.2500   2000.0000   1974.0000     16.6989    133.5998
   949.5000   2000.0000   1974.0000     16.6744    134.5688
   949.7500   2000.0000   1974.0000     16.6750    134.7204
   950.0000   2000.0000   1974.0000     16.7053    134.0274
   950.2500   2000.0000   1974.0000     16.7677    132.8390
   950.5000   2000.0000   1974.0000     16.8620    130.1992
   950.7500   2000.0000   1974.0000     16.9859    128.4218
   951.0000   2000.0000   1974.0000     17.1359    126.8661
   951.2500   2000.0000   1974.0000     17.3068    126.7780
   951.5000   2000.0000   1974.0000     17.4922    127.2689
   951.7500   2000.0000   1974.0000     17.6859    127.2520
   952.0000   2000.0000   1974.0000     17.8845    125.9040
   952.2500   2000.0000   1974.0000     18.0853    124.2063
   952.5000   2000.0000   1974.0000     18.2823    121.3602
   952.7500   2000.0000   1974.0000     18.4648    119.8861
   953.0000   2000.0000   1974.0000     18.6246    118.7892
   953.2500   2000.0000   1974.0000     18.7682    118.5216
   953.5000   2000.0000   1974.0000     18.9215    117.7282
   953.7500   2000.0000   1974.0000     19.1200    116.4056
   954.0000   2000.0000   1974.0000     19.3924    113.1936
   954.2500   2000.0000   1974.0000     19.7481    110.7495
   954.5000   2000.0000   1974.0000     20.1744    107.8151
   954.7500   2000.0000   1974.0000     20.6399    106.8464
   955.0000   2000.0000   1974.0000     21.1015    107.2330
   955.2500   2000.0000   1974.0000     21.5158    108.6877
   955.5000   2000.0000   1974.0000     21.8553    112.0580
   955.7500   2000.0000   1974.0000     22.1203    114.3902
