~Version Information
VERS.                      2.0: CWLS Log ASCII Standard - VERSION 2.0
WRAP.                       NO: One line per depth step
~Well Information Block
STRT.FT               538.0000: 
STOP.FT              1769.0000: 
STEP.FT                 0.1000: 
NULL.                -999.2500: 
COMP.          Pioneer Natural Resources: COMPANY
WELL.            Dude 43-34 Tr: WELL
FLD.           Purgatoire River: FIELD
LOC.           2083' FSL & 1042' FEL: LOCATION
PROV.                 Colorado: PROVINCE
CNTY.               Las Animas: COUNTRY
SRVC.                Patterson: SERVICE COMPANY
DATE.          Thu Jan 26 07:02:09 2006: LOG DATE
UWI.           05 071 08676 00: UNIQUE WELL ID
~Curve Information Block
DEPT.FT            0 000 00 00: Depth
DCAL.in                       : CDL Caliper
RHOB.g/cc                     : CDL Bulk Density
RHOC.g/cc                     : CDL Density Correction
DPOR.pu                       : CDL Density Porosity
GR.GAPI                       : Gamma Ray
~Parameter Information Block
~A  Depth       DCAL        RHOB        RHOC        DPOR         GR     
# ...
  1758.8000      7.9343      2.1238      0.0442     31.8921   -999.2500
  1758.9000      7.9343      2.1068     -0.0183     32.9203   -999.2500
  1759.0000      7.9287      2.1111      0.0039     32.6596   -999.2500
  1759.1000      7.9287      2.1421      0.0631     30.7804   -999.2500
  1759.2000      7.9287      2.2082      0.0673     26.7781   -999.2500
  1759.3000      7.9368      2.3108      0.2202     20.5562   -999.2500
  1759.4000      7.9368      2.4291      0.2349     13.3860   -999.2500
  1759.5000      7.9413      2.5269      0.2548      7.4583   -999.2500
  1759.6000      7.9413      2.5666      0.2457      5.0571   -999.2500
  1759.7000      7.9413      2.5432      0.1190      6.4700   -999.2500
  1759.8000      7.8685      2.4969      0.0655      9.2809   -999.2500
  1759.9000      7.8685      2.4710      0.0169     10.8491   -999.2500
  1760.0000      7.8700      2.4802      0.0441     10.2925   -999.2500
  1760.1000      7.8700      2.5106      0.0552      8.4485   -999.2500
  1760.2000      7.8700      2.5419      0.1025      6.5518   -999.2500
  1760.3000      7.9024      2.5710      0.0908      4.7890   -999.2500
  1760.4000      7.9024      2.6018      0.1318      2.9206   -999.2500
  1760.5000      7.9079      2.6196      0.1782      1.8414   -999.2500
  1760.6000      7.9079      2.6083      0.1462      2.5274   -999.2500
  1760.7000      7.9079      2.5726      0.1135      4.6888   -999.2500
  1760.8000      7.9193      2.5273      0.0633      7.4374   -999.2500
  1760.9000      7.9193      2.4895      0.0409      9.7273   -999.2500
  1761.0000      7.9131      2.4660      0.0698     11.1523   -999.2500
  1761.1000      7.9131      2.4382      0.1083     12.8380   -999.2500
  1761.2000      7.9131      2.3913      0.0619     15.6765   -999.2500
  1761.3000      7.8981      2.3391      0.0783     18.8428   -999.2500
  1761.4000      7.8981      2.2949      0.0627     21.5230   -999.2500
  1761.5000      7.8570      2.2414      0.1458     24.7609   -999.2500
  1761.6000      7.8570      2.1536      0.0584     30.0853   -999.2500
  1761.7000      7.8570      2.0478      0.0386     36.4949   -999.2500
  1761.8000      7.8464      1.9581      0.0637     41.9363   -999.2500
  1761.9000      7.8464      1.8919      0.0294     45.9484   -999.2500
  1762.0000      7.8673      1.8596     -0.0054     47.9052   -999.2500
  1762.1000      7.8673      1.8778      0.0351     46.7987   -999.2500
  1762.2000      7.8673      1.9310      0.1001     43.5771   -999.2500
  1762.3000      7.9381      1.9926      0.0951     39.8433   -999.2500
  1762.4000      7.9381      2.0644      0.1470     35.4895   -999.2500
  1762.5000      7.9574      2.1667      0.1871     29.2921   -999.2500
  1762.6000      7.9574      2.3069      0.3090     20.7943   -999.2500
  1762.7000      7.9574      2.4591      0.3557     11.5699   -999.2500
  1762.8000      8.0817      2.5810      0.3216      4.1812   -999.2500
  1762.9000      8.0817      2.6506      0.2653     -0.0358   -999.2500
  1763.0000      7.9440      2.6747      0.2445     -1.4997   -999.2500
  1763.1000      7.9440      2.6695      0.2223     -1.1817   -999.2500
  1763.2000      7.9440      2.6499      0.1612      0.0047   -999.2500
  1763.3000      7.7752      2.6266      0.1434      1.4189   -999.2500
  1763.4000      7.7752      2.6030      0.0826      2.8504   -999.2500
  1763.5000      7.7517      2.5812      0.0644      4.1715   -999.2500
  1763.6000      7.7517      2.5603      0.1004      5.4380   -999.2500
  1763.7000      7.7517      2.5400      0.0455      6.6668   -999.2500
  1763.8000      7.8312      2.5309      0.0460      7.2155   -999.2500
  1763.9000      7.8312      2.5362      0.0500      6.8954   -999.2500
  1764.0000      7.8339      2.5492      0.0497      6.1076   -999.2500
  1764.1000      7.8339      2.5678      0.0775      4.9802   -999.2500
  1764.2000      7.8339      2.5858      0.1229      3.8906   -999.2500
  1764.3000      7.8105      2.5932      0.1206      3.4404   -999.2500
  1764.4000      7.8105      2.5909      0.1303      3.5832   -999.2500
  1764.5000      7.8147      2.5850      0.1160      3.9380   -999.2500
  1764.6000      7.8147      2.5813      0.0785      4.1631   -999.2500
  1764.7000      7.8147      2.5840      0.1057      3.9992   -999.2500
  1764.8000      7.8288      2.5925      0.1108      3.4863   -999.2500
  1764.9000      7.8288      2.6030      0.1148      2.8456   -999.2500
  1765.0000      7.8139      2.6102      0.1360      2.4150   -999.2500
  1765.1000      7.8139      2.6126      0.1225      2.2664   -999.2500
  1765.2000      7.8139      2.6185      0.0989      1.9097   -999.2500
  1765.3000      7.8232      2.6443      0.1007      0.3477   -999.2500
  1765.4000      7.8232      2.7171      0.0992     -4.0695   -999.2500
  1765.5000      7.8080      2.7255      0.0643     -4.5753   -999.2500
  1765.6000      7.8080      2.2667      0.4886     23.2333   -999.2500
  1765.7000      7.8080      1.2835      0.0000     82.8183   -999.2500
  1765.8000      7.7960      0.4347      0.0000    134.2583   -999.2500
  1765.9000      7.7960      0.0825   -999.2500    155.6051   -999.2500
  1766.0000      7.3767      0.0085   -999.2500    160.0907   -999.2500
  1766.1000      7.3767      0.0005   -999.2500    160.5781   -999.2500
  1766.2000      7.3767      0.0000   -999.2500    160.6061   -999.2500
  1766.3000      4.6591      0.0000   -999.2500    160.6061   -999.2500
  1766.4000      4.6591   -999.2500   -999.2500   -999.2500   -999.2500
  1766.5000      4.2923   -999.2500   -999.2500   -999.2500   -999.2500
  1766.6000      4.2923   -999.2500   -999.2500   -999.2500   -999.2500
  1766.7000      4.2923   -999.2500   -999.2500   -999.2500   -999.2500
  1766.8000   -999.2500   -999.2500   -999.2500   -999.2500   -999.2500
  1766.9000   -999.2500   -999.2500   -999.2500   -999.2500   -999.2500
  1767.0000   -999.2500   -999.2500   -999.2500   -999.2500   -999.2500
  1767.1000   -999.2500   -999.2500   -999.2500   -999.2500   -999.2500
  1767.2000   -999.2500   -999.2500   -999.2500   -999.2500   -999.2500
  1767.3000   -999.2500   -999.2500   -999.2500   -999.2500   -999.2500
  1767.4000   -999.2500   -999.2500   -999.2500   -999.2500   -999.2500
  1767.5000   -999.2500   -999.2500   -999.2500   -999.2500   -999.2500
  1767.6000   -999.2500   -999.2500   -999.2500   -999.2500   -999.2500
  1767.7000   -999.2500   -999.2500   -999.2500   -999.2500   -999.2500
  1767.8000   -999.2500   -999.2500   -999.2500   -999.2500   -999.2500
  1767.9000   -999.2500   -999.2500   -999.2500   -999.2500   -999.2500
  1768.0000   -999.2500   -999.2500   -999.2500   -999.2500   -999.2500
  1768.1000   -999.2500   -999.2500   -999.2500   -999.2500   -999.2500
  1768.2000   -999.2500   -999.2500   -999.2500   -999.2500   -999.2500
  1768.3000   -999.2500   -999.2500   -999.2500   -999.2500   -999.2500
  1768.4000   -999.2500   -999.2500   -999.2500   -999.2500   -999.2500
  1768.5000   -999.2500   -999.2500   -999.2500   -999.2500   -999.2500
  1768.6000   -999.2500   -999.2500   -999.2500   -999.2500   -999.2500
  1768.7000   -999.2500   -999.2500   -999.2500   -999.2500   -999.2500
  1768.8000   -999.2500   -999.2500   -999.2500   -999.2500   -999.2500
  1768.9000   -999.2500   -999.2500   -999.2500   -999.2500   -999.2500
  1769.0000   -999.2500   -999.2500   -999.2500   -999.2500   -999.2500
