~Version Information
VERS.                      2.0: CWLS Log ASCII Standard - VERSION 2.0
WRAP.                       NO: One line per depth step
~Well Information Block
STRT.FT               400.0000: 
STOP.FT              2232.0000: 
STEP.FT                 0.2500: 
NULL.                -999.2500: 
COMP.          Evergreen Operating Corporation: COMPANY
WELL.                Croc 42-9: WELL
FLD.           Purgatorie River: FIELD
LOC.           2262' FNL & 238' FEL: LOCATION
STAT.                 Colorado: State
CNTY.               Las Animas: COUNTY
CTRY. USA : Country
SECT. 9 : Section
TOWN. 32S : Township
RANG. 66W : Range
SRVC.                Patterson: SERVICE COMPANY
DATE.          Wed Jul 21 23:25:54 2004: LOG DATE
API.           05 071 08106 00: UNIQUE WELL ID
~Curve Information Block
DEPT.FT            0 000 00 00: Depth
SN.Ohm-m                      : IEL Short Normal
SP.mV                         : IEL Spontaneous Potential
DIR.Ohm-m                     : IEL Induction Resistivity
GR.GAPI                       : Gamma Ray
~Parameter Information Block
~A  Depth        SN          SP         DIR          GR     
# ...
   634.5000     33.2432     23.5825     22.0420     95.9002
   634.7500     28.7665     23.7284     21.1680    108.8034
   635.0000     25.3573     23.8623     20.3152    126.8690
   635.2500     23.0602     23.9729     19.5087    136.2197
   635.5000     21.8007     24.0695     18.7740    145.1278
   635.7500     21.3807     24.1685     18.1300    147.9811
   636.0000     21.4926     24.2813     17.5872    149.1392
   636.2500     21.8323     24.4116     17.1493    148.9358
   636.5000     22.2004     24.5565     16.8141    148.4023
   636.7500     22.5184     24.7085     16.5735    147.7532
   637.0000     22.8053     24.8590     16.4123    145.1823
   637.2500     23.1350     24.9990     16.3100    141.9892
   637.5000     23.5705     25.1132     16.2473    135.3877
   637.7500     24.0933     25.1793     16.2118    130.4101
   638.0000     24.5810     25.1794     16.1998    123.3325
   638.2500     24.8845     25.1155     16.2127    119.6377
   638.5000     24.9244     25.0126     16.2521    116.7648
   638.7500     24.6965     24.9065     16.3151    116.9379
   639.0000     24.2196     24.8265     16.3906    119.9934
   639.2500     23.5320     24.7843     16.4602    123.2160
   639.5000     22.6909     24.7732     16.5022    128.1110
   639.7500     21.7188     24.7784     16.5010    130.4788
   640.0000     20.6274     24.7871     16.4538    132.2372
   640.2500     19.4995     24.7900     16.3698    132.7793
   640.5000     18.4898     24.7786     16.2637    133.7795
   640.7500     17.7853     24.7468     16.1494    134.5203
   641.0000     17.5582     24.6940     16.0390    134.7547
   641.2500     17.8862     24.6233     15.9427    134.1722
   641.5000     18.7043     24.5355     15.8697    133.2975
   641.7500     19.8293     24.4261     15.8262    133.4211
   642.0000     21.0207     24.2873     15.8143    134.4838
   642.2500     22.0488     24.1136     15.8325    134.9912
   642.5000     22.7772     23.9102     15.8799    134.4485
   642.7500     23.1981     23.6975     15.9599    133.3650
   643.0000     23.3783     23.5057     16.0822    131.7106
   643.2500     23.4077     23.3650     16.2592    131.1270
   643.5000     23.3763     23.2993     16.4994    131.4995
   643.7500     23.3249     23.3195     16.8046    132.7254
   644.0000     23.2471     23.4133     17.1723    136.0253
   644.2500     23.1440     23.5378     17.6025    138.8095
   644.5000     23.0119     23.6290     18.0990    142.3995
   644.7500     22.8307     23.6325     18.6582    143.4313
   645.0000     22.6411     23.5337     19.2537    142.1050
   645.2500     22.5953     23.3622     19.8321    139.6118
   645.5000     22.8948     23.1699     20.3353    134.8819
   645.7500     23.6829     23.0051     20.7386    131.8327
   646.0000     24.9812     22.8988     21.0710    127.8431
   646.2500     26.6899     22.8583     21.3978    125.2809
   646.5000     28.6154     22.8653     21.7811    120.7416
   646.7500     30.5014     22.8837     22.2523    117.0935
   647.0000     32.0835     22.8803     22.8059    111.7417
   647.2500     33.1662     22.8375     23.4056    109.4351
   647.5000     33.6755     22.7517     23.9920    109.3286
   647.7500     33.6792     22.6230     24.4903    111.3148
   648.0000     33.3586     22.4504     24.8246    115.5304
   648.2500     32.8963     22.2355     24.9406    117.8928
   648.5000     32.3787     21.9905     24.8289    119.3254
   648.7500     31.8149     21.7364     24.5330    118.6173
   649.0000     31.2056     21.4895     24.1344    115.6091
   649.2500     30.5796     21.2512     23.7237    113.1854
   649.5000     29.9899     21.0139     23.3773    110.9366
   649.7500     29.4860     20.7709     23.1478    111.2566
   650.0000     29.0798     20.5211     23.0631    114.4992
   650.2500     28.7637     20.2697     23.1250    117.6886
   650.5000     28.5745     20.0271     23.3084    122.4430
   650.7500     28.5939     19.8047     23.5672    125.1762
   651.0000     28.8728     19.6166     23.8502    128.5999
   651.2500     29.3888     19.4859     24.1224    130.2950
   651.5000     30.0729     19.4412     24.3781    131.2608
   651.7500     30.8509     19.4951     24.6383    130.6279
   652.0000     31.6537     19.6254     24.9383    128.2919
   652.2500     32.4236     19.7814     25.3141    126.3325
   652.5000     33.1723     19.9088     25.7968    123.1605
   652.7500     34.0235     19.9698     26.4127    120.8053
   653.0000     35.1253     19.9469     27.1862    116.8985
   653.2500     36.5075     19.8442     28.1389    114.2760
   653.5000     38.0299     19.6879     29.2798    110.8145
   653.7500     39.4410     19.5202     30.5809    108.9500
   654.0000     40.5257     19.3860     31.9485    106.7733
   654.2500     41.2407     19.3148     33.2153    105.7588
   654.5000     41.7051     19.3117     34.1833    104.9531
   654.7500     42.0892     19.3629     34.7048    104.4960
   655.0000     42.5054     19.4570     34.7422    102.0201
   655.2500     42.9308     19.6049     34.3515     97.9234
   655.5000     43.2206     19.8391     33.6142     87.8259
   655.7500     43.2706     20.1955     32.5881     79.9757
   656.0000     43.1631     20.6938     31.3124     70.6775
   656.2500     42.9890     21.3278     29.8409     67.9934
   656.5000     42.5018     22.0665     28.2592     69.7056
   656.7500     41.1728     22.8633     26.6663     73.5242
   657.0000     38.7337     23.6710     25.1431     80.3517
   657.2500     35.5577     24.4567     23.7343     84.2047
   657.5000     32.4344     25.2069     22.4532     88.0149
   657.7500     30.0193     25.9157     21.2979     89.7331
   658.0000     28.4443     26.5706     20.2642     92.7700
   658.2500     27.3682     27.1489     19.3479     95.7977
   658.5000     26.3878     27.6240     18.5393    101.9177
   658.7500     25.3601     27.9762     17.8178    106.7093
   659.0000     24.3734     28.2000     17.1561    114.2410
   659.2500     23.5840     28.3073     16.5322    118.9640
   659.5000     23.1293     28.3239     15.9416    124.5739
   659.7500     23.0783     28.2858     15.3991    126.9041
   660.0000     23.3812     28.2341     14.9287    128.1906
   660.2500     23.8657     28.2035     14.5499    127.8766
   660.5000     24.3201     28.2058     14.2695    126.6253
   660.7500     24.6076     28.2241     14.0809    125.9248
   661.0000     24.7050     28.2293     13.9703    125.7089
   661.2500     24.6579     28.2069     13.9257    125.9677
   661.5000     24.5346     28.1699     13.9439    126.1132
   661.7500     24.4172     28.1441     14.0314    125.6594
   662.0000     24.3882     28.1489     14.2000    124.2437
   662.2500     24.4947     28.1943     14.4605    123.2705
   662.5000     24.7210     28.2908     14.8201    122.6602
   662.7500     25.0103     28.4455     15.2813    122.9959
   663.0000     25.3205     28.6422     15.8438    123.9079
   663.2500     25.6669     28.8372     16.5035    124.0311
   663.5000     26.1182     28.9872     17.2528    122.6601
   663.7500     26.7541     29.0791     18.0845    120.8046
   664.0000     27.6289     29.1313     19.0012    117.3071
   664.2500     28.7849     29.1717     20.0236    114.8439
   664.5000     30.3268     29.2205     21.1922    111.2780
   664.7500     32.5096     29.2869     22.5603    109.0834
   665.0000     35.6685     29.3727     24.1837    106.2058
   665.2500     39.8888     29.4738     26.1155    104.7140
   665.5000     44.7319     29.5821     28.4005    103.3847
   665.7500     49.4316     29.6880     31.0603    103.0676
   666.0000     53.3648     29.7834     34.0579    103.0797
   666.2500     56.2861     29.8630     37.2493    103.2823
   666.5000     58.2361     29.9232     40.3547    103.8242
   666.7500     59.3823     29.9613     43.0045    104.1343
   667.0000     59.9469     29.9747     44.8919    103.7604
   667.2500     60.1706     29.9635     45.9462    102.6287
   667.5000     60.2217     29.9336     46.3687     99.9642
   667.7500     60.1146     29.8928     46.4897     98.2708
