~Version Information
VERS.                      2.0: CWLS Log ASCII Standard - VERSION 2.0
WRAP.                       NO: One line per depth step
~Well Information Block
STRT.FT               -16.2500: 
STOP.FT               938.7500: 
STEP.FT                 0.2500: 
NULL.                -999.2500: 
COMP.          XTO Energy Inc.: COMPANY
WELL.          Golden Eagle 20-04: WELL
FLD.           Purgatrorie River: FIELD
LOC.           702' FNL & 487' FWL--: LOCATION
STAT.                       CO: PROVINCE
CNTY.               Las Animas: COUNTY
CTRY. USA : Country
SECT. 20 : Section 
TOWN. 33S : Township
RANG. 67W : Range
SRVC.          Patterson Wireline: SERVICE COMPANY
DATE.          Mon Dec 05 10:32:54 2005: LOG DATE
API.           05 071 08599 00: UNIQUE WELL ID
~Curve Information Block
DEPT.FT            0 000 00 00: Depth
CCL.                          : Casing Collar Locator
TT3.usec                      : CBL 3' Travel Time
AMP3.mV                       : CBL 3' Amplitude
GR.GAPI                       : Gamma Ray
~Parameter Information Block
~A  Depth       CCL         TT3         AMP3         GR     
# ...
   184.7500      0.0000    593.0177     10.0200    149.6576
   185.0000      0.0000    619.8369      9.1494    149.9905
   185.2500      0.0000    638.2943      8.2854    149.5715
   185.5000      0.0000    648.2900      7.5478    148.4665
   185.7500      0.0000    652.6172      6.9991    147.2587
   186.0000      0.0000    654.1920      6.6503    146.7694
   186.2500      0.0000    654.7220      6.4680    147.1289
   186.5000      0.0000    654.8775      6.3851    147.3284
   186.7500      0.0000    654.8717      6.3244    146.1534
   187.0000      0.0000    654.8153      6.2336    143.5222
   187.2500      0.0000    654.8149      6.1226    140.6718
   187.5000      0.0000    654.9260      6.0688    138.9970
   187.7500      0.0000    655.0116      6.1587    138.6906
   188.0000      0.0000    654.4893      6.4069    138.4735
   188.2500      0.0000    652.0083      6.7440    136.8400
   188.5000      0.0000    645.5013      7.0865    133.5230
   188.7500      0.0000    633.3234      7.3953    129.4237
   189.0000      0.0000    616.3598      7.6637    125.4838
   189.2500      0.0000    598.8690      7.8815    122.3659
   189.5000      0.0000    585.7579      8.0349    120.9650
   189.7500      0.0000    578.2111      8.1288    122.2081
   190.0000      0.0000    572.8547      8.1976    126.0093
   190.2500      0.0000    565.9097      8.2909    130.9716
   190.5000      0.0000    557.4956      8.4398    135.3109
   190.7500      0.0000    551.7052      8.6088    137.7950
   191.0000      0.0000    553.4645      8.6783    137.8398
   191.2500      0.0000    565.2833      8.5008    135.2044
   191.5000      0.0000    585.4658      8.0087    129.9543
   191.7500      0.0000    608.5971      7.2774    122.5025
   192.0000      0.0000    628.5074      6.4781    113.3999
   192.2500      0.0000    641.6961      5.7651    103.3362
   192.5000      0.0000    648.3972      5.2057     93.4351
   192.7500      0.0000    650.9327      4.7925     85.1154
   193.0000      0.0000    651.5785      4.4835     79.4480
   193.2500      0.0000    651.6210      4.2195     76.7449
   193.5000      0.0000    651.5102      3.9351     76.6681
   193.7500      0.0000    651.3123      3.5932     78.4763
   194.0000      0.0000    651.0168      3.2161     81.2402
   194.2500      0.0000    650.6544      2.8712     84.1705
   194.5000      0.0000    650.2825      2.6184     86.9990
   194.7500      0.0000    649.9456      2.4711     89.9800
   195.0000      0.0000    649.6642      2.4025     93.3480
   195.2500      0.0000    649.4505      2.3845     96.7335
   195.5000      0.0000    649.3202      2.4147     98.9730
   195.7500      0.0000    649.2864      2.5027     98.4318
   196.0000      0.0000    649.3417      2.6328     93.9728
   196.2500      0.0000    649.4406      2.7471     86.0876
   196.5000      0.0000    649.5068      2.7768     76.9355
   196.7500      0.0000    649.4678      2.6939     68.9357
   197.0000      0.0000    649.2979      2.5315     63.3495
   197.2500      0.0000    649.0393      2.3573     60.1898
   197.5000      0.0000    648.7869      2.2287     59.0675
   197.7500      0.0000    648.6429      2.1703     59.7934
   198.0000      0.0000    648.6673      2.1817     62.2470
   198.2500      0.0000    648.8544      2.2553     65.9401
   198.5000      0.0000    649.1469      2.3821     69.8836
   198.7500      0.0000    649.4634      2.5424     72.8673
   199.0000      0.0000    649.7190      2.7008     73.9414
   199.2500      0.0000    649.8489      2.8165     72.7735
   199.5000      0.0000    649.8402      2.8597     69.6156
   199.7500      0.0000    649.7479      2.8199     65.1409
   200.0000      0.0000    649.6604      2.7022     60.4591
   200.2500      0.0000    649.6312      2.5201     56.9215
   200.5000      0.0000    649.6445      2.2925     55.3013
   200.7500      0.0000    649.6434      2.0439     55.0848
   201.0000      0.0000    649.5814      1.8050     54.9608
   201.2500      0.0000    649.4545      1.6085     54.0879
   201.5000      0.0000    649.2989      1.4805     52.7080
   201.7500      0.0000    649.1611      1.4348     51.6077
   202.0000      0.0000    649.0647      1.4736     51.3114
   202.2500      0.0000    648.9983      1.5887     51.8263
   202.5000      0.0000    648.9349      1.7499     52.8010
   202.7500      0.0000    648.8591      1.8997     53.7953
   203.0000      0.0000    648.7775      1.9788     54.6768
   203.2500      0.0000    648.7040      1.9695     55.7715
   203.5000      0.0000    648.6456      1.9122     57.2496
   203.7500      0.0000    648.6082      1.8725     58.4841
   204.0000      0.0000    648.6091      1.8938     58.7123
   204.2500      0.0000    648.6676      1.9777     58.3971
   204.5000      0.0000    648.7832      2.0982     59.3018
   204.7500      0.0000    648.9358      2.2260     63.2538
   205.0000      0.0000    649.1109      2.3440     71.2205
   205.2500      0.0000    649.3126      2.4539     83.1307
   205.5000      0.0000    649.5510      2.5773     97.7606
   205.7500      0.0000    649.8353      2.7517    112.7413
   206.0000      0.0000    650.1898      3.0204    125.2722
   206.2500      0.0000    650.6540      3.4249    133.3768
   206.5000      0.0000    651.2355      4.0095    136.7321
   206.7500      0.0000    651.8727      4.8254    136.4381
   207.0000      0.0000    652.4657      5.9013    134.1531
   207.2500      0.0000    652.9447      7.1779    131.4750
   207.5000      0.0000    653.2974      8.4785    129.7589
   207.7500      0.0000    653.5458      9.5766    129.9195
   208.0000      0.0000    653.7197     10.3192    132.0874
   208.2500      0.0000    653.8401     10.6923    135.4872
   208.5000      0.0000    653.9064     10.7887    138.9461
   208.7500      0.0000    653.9030     10.7341    141.8528
   209.0000      0.0000    653.8299     10.6310    144.4935
   209.2500      0.0000    653.7171     10.5315    147.1393
   209.5000      0.0000    653.6045     10.4333    149.0424
   209.7500      0.0000    653.5150     10.3052    148.9398
   210.0000      0.0000    653.4546     10.1379    146.5066
   210.2500      0.0000    653.4266      9.9771    142.9381
   210.5000      0.0000    653.4377      9.8976    140.2457
   210.7500      0.0000    653.4935      9.9389    140.1100
   211.0000      0.0000    653.5932     10.0697    142.6894
   211.2500      0.0000    653.7292     10.2200    146.0195
   211.5000      0.0000    653.8906     10.3464    147.1932
   211.7500      0.0000    654.0694     10.4701    144.7600
   212.0000      0.0000    654.2643     10.6527    139.9547
   212.2500      0.0000    654.4712     10.9313    135.5736
   212.5000      0.0000    654.6701     11.2755    133.7179
   212.7500      0.0000    654.8300     11.6054    134.1898
   213.0000      0.0000    654.9223     11.8491    134.5983
   213.2500      0.0000    654.9250     11.9816    132.3682
   213.5000      0.0000    654.8228     12.0124    127.2414
   213.7500      0.0000    654.6154     11.9449    121.8347
   214.0000      0.0000    654.3294     11.7546    119.4460
   214.2500      0.0000    654.0182     11.4081    121.1905
   214.5000      0.0000    653.7426     10.8979    125.2654
   214.7500      0.0000    653.5378     10.2584    128.8688
   215.0000      0.0000    653.3911      9.5546    130.3976
   215.2500      0.0000    653.2413      8.8656    129.7493
   215.5000      0.0000    653.0032      8.2743    127.3495
   215.7500      0.0000    652.6165      7.8413    123.7091
   216.0000      0.0000    652.1130      7.5647    119.6305
   216.2500      0.0000    651.6348      7.3700    115.8716
   216.5000      0.0000    651.3504      7.1511    112.3988
   216.7500      0.0000    651.3192      6.8318    108.5876
   217.0000      0.0000    651.4412      6.4032    104.3477
   217.2500      0.0000    651.5494      5.9199    100.6937
   217.5000      0.0000    651.5435      5.4602     99.1937
   217.7500      0.0000    651.4341      5.0810    101.1064
   218.0000      0.0000    651.2879      4.8123    106.8230
