~Version Information
VERS.                      2.0: CWLS Log ASCII Standard - VERSION 2.0
WRAP.                       NO: One line per depth step
~Well Information Block
STRT.FT               555.0000: 
STOP.FT              2322.2500: 
STEP.FT                 0.2500: 
NULL.                -999.2500: 
COMP.          Pioneer Natural Resources: COMPANY
WELL.          Fittipaldi 21-12: WELL
FLD.           Purgatoire River: FIELD
LOC.           207' FNL & 2110' FWL--: LOCATION
CNTY.               Las Animas: COUNTY
SRVC.                Patterson: SERVICE COMPANY
DATE.          Tue Mar 21 10:27:48 2006: LOG DATE
UWI.           05 071 08492 00: UNIQUE WELL ID
STAT.                 Colorado: STATE
~Curve Information Block
DEPT.FT            0 000 00 00: Depth
SN.Ohm-m                      : IEL Short Normal
SP.mV                         : IEL Spontaneous Potential
DIR.Ohm-m                     : IEL Induction Resistivity
GR.GAPI                       : Gamma Ray
~Parameter Information Block
~A  Depth        SN          SP         DIR          GR     
   555.0000   2000.0000   1990.0000 100000.0000    115.3812
   555.2500   2000.0000   1990.0000 100000.0000    114.8526
   555.5000   2000.0000   1990.0000 100000.0000    114.4402
   555.7500   2000.0000   1990.0000 100000.0000    114.3949
   556.0000   2000.0000   1990.0000 100000.0000    114.1762
   556.2500   2000.0000   1990.0000 100000.0000    113.4390
   556.5000   2000.0000   1990.0000 100000.0000    111.3193
   556.7500   2000.0000   1990.0000 100000.0000    109.9024
   557.0000   2000.0000   1990.0000 100000.0000    109.3755
   557.2500   2000.0000   1990.0000 100000.0000    110.5632
   557.5000   2000.0000   1990.0000 100000.0000    114.2016
   557.7500   2000.0000   1990.0000 100000.0000    117.1743
   558.0000   2000.0000   1990.0000 100000.0000    121.4639
   558.2500   2000.0000   1990.0000 100000.0000    123.9886
   558.5000   2000.0000   1990.0000 100000.0000    127.1347
   558.7500   2000.0000   1990.0000 100000.0000     85.6981
   559.0000   2000.0000   1990.0000 100000.0000     86.1011
   559.2500   2000.0000   1990.0000 100000.0000     85.7854
   559.5000   2000.0000   1990.0000 100000.0000     85.0652
   559.7500   2000.0000   1990.0000 100000.0000     84.6238
   560.0000   2000.0000   1990.0000 100000.0000     83.5977
   560.2500   2000.0000   1990.0000 100000.0000     82.3554
   560.5000   2000.0000   1990.0000 100000.0000     79.9241
   560.7500   2000.0000   1990.0000 100000.0000     78.4077
   561.0000   2000.0000   1990.0000 100000.0000     76.6628
   561.2500   2000.0000   1990.0000 100000.0000     75.7195
   561.5000   2000.0000   1990.0000 100000.0000     74.5465
   561.7500   2000.0000   1990.0000 100000.0000     74.0910
   562.0000   2000.0000   1990.0000 100000.0000     74.0527
   562.2500   2000.0000   1990.0000 100000.0000     74.3631
   562.5000   2000.0000   1990.0000 100000.0000     75.2837
   562.7500   2000.0000   1990.0000 100000.0000     76.3418
   563.0000   2000.0000   1990.0000 100000.0000     78.7168
   563.2500   2000.0000   1990.0000 100000.0000     80.6825
   563.5000   2000.0000   1990.0000 100000.0000     84.0523
   563.7500   2000.0000   1990.0000 100000.0000     86.7901
   564.0000   2000.0000   1990.0000 100000.0000     92.1925
   564.2500   2000.0000   1990.0000 100000.0000     96.8335
   564.5000   2000.0000   1990.0000 100000.0000    105.4990
   564.7500   2000.0000   1990.0000 100000.0000    112.4544
   565.0000   2000.0000   1990.0000 100000.0000    124.1072
   565.2500   2000.0000   1990.0000 100000.0000    131.8546
   565.5000   2000.0000   1990.0000 100000.0000    141.9707
   565.7500   2000.0000   1990.0000 100000.0000    147.3517
   566.0000   2000.0000   1990.0000 100000.0000    153.4458
   566.2500   2000.0000   1990.0000 100000.0000    156.2470
   566.5000   2000.0000   1990.0000     10.7488    158.5254
   566.7500   2000.0000   1990.0000      4.4182    158.8141
   567.0000   2000.0000   1990.0000      3.3002    157.6801
   567.2500   2000.0000   1990.0000      3.3481    156.0385
   567.5000   2000.0000   1990.0000      4.3920    152.2671
   567.7500   2000.0000   1990.0000      7.8070    148.8072
   568.0000   2000.0000   1990.0000     26.8614    142.4659
   568.2500   2000.0000   1990.0000 100000.0000    137.9876
   568.5000   2000.0000   1990.0000 100000.0000    131.8357
   568.7500   2000.0000   1990.0000 100000.0000    128.3649
   569.0000   2000.0000   1990.0000 100000.0000    124.2082
   569.2500   2000.0000   1990.0000     41.0384    122.2761
   569.5000   2000.0000   1990.0000     15.7232    120.8642
   569.7500   2000.0000   1990.0000     10.6359    120.6121
   570.0000   2000.0000   1990.0000      8.9497    119.8579
   570.2500   2000.0000   1990.0000      8.5118    118.3559
   570.5000   2000.0000   1990.0000      8.7291    114.6253
   570.7500   2000.0000   1990.0000      9.3590    111.7913
   571.0000   2000.0000   1990.0000     10.2373    107.9377
   571.2500   2000.0000   1990.0000     11.1823    105.6893
   571.5000   2000.0000   1990.0000     11.9927    102.4517
   571.7500   2000.0000   1990.0000     12.5422    100.3081
   572.0000   2000.0000   1990.0000     12.8934     97.5234
   572.2500   2000.0000   1990.0000     13.2881     96.4032
   572.5000   2000.0000   1990.0000     14.0276     96.3906
   572.7500   2000.0000   1990.0000     15.3611     97.3681
   573.0000   2000.0000   1990.0000     17.3721     99.1620
   573.2500   2000.0000   1990.0000     19.7688     99.5973
   573.5000   2000.0000   1990.0000     21.7190     97.5965
   573.7500   2000.0000   1990.0000     22.3131     94.0722
   574.0000   2000.0000   1990.0000     21.5040     85.9332
   574.2500   2000.0000   1990.0000     20.0806     79.3819
   574.5000   2000.0000   1990.0000     18.8141     69.3194
   574.7500   2000.0000   1990.0000     18.0841     63.1204
   575.0000   2000.0000   1990.0000     17.9901     55.5164
   575.2500   2000.0000   1990.0000     18.4925     52.0586
   575.5000   2000.0000   1990.0000     19.4593     49.8188
   575.7500   2000.0000   1990.0000     20.6710     50.2790
   576.0000   2000.0000   1990.0000     21.8561     53.3351
   576.2500   2000.0000   1990.0000     22.7808     56.4504
   576.5000   2000.0000   1990.0000     23.3353     61.9423
   576.7500   2000.0000   1990.0000     23.5406     65.8212
   577.0000   2000.0000   1990.0000     23.4843     71.5880
   577.2500   2000.0000   1990.0000     23.2607     75.1834
   577.5000   2000.0000   1990.0000     22.9503     79.6757
   577.7500   2000.0000   1990.0000     22.6221     81.7100
   578.0000   2000.0000   1990.0000     22.3338     83.0437
   578.2500   2000.0000   1990.0000     22.1263     83.0854
   578.5000   2000.0000   1990.0000     22.0199     83.0971
   578.7500   2000.0000   1990.0000     22.0189     83.7091
   579.0000   2000.0000   1990.0000     22.1174     85.5292
   579.2500   2000.0000   1990.0000     22.3009     86.7112
   579.5000   2000.0000   1990.0000     22.5406     87.3016
   579.7500   2000.0000   1990.0000     22.7910     86.6933
   580.0000   2000.0000   1990.0000     22.9968     84.6467
   580.2500   2000.0000   1990.0000     23.1097     82.9405
   580.5000   2000.0000   1990.0000     23.1043     80.7402
   580.7500   2000.0000   1990.0000     22.9827     80.0448
   581.0000   2000.0000   1990.0000     22.7654     80.8261
   581.2500   2000.0000   1990.0000     22.4759     82.7625
   581.5000   2000.0000   1990.0000     22.1292     87.9367
   581.7500   2000.0000   1990.0000     21.7339     92.7507
   582.0000   2000.0000   1990.0000     21.3003    100.8557
   582.2500   2000.0000   1990.0000     20.8458    105.7121
   582.5000   2000.0000   1990.0000     20.3917    110.4379
   582.7500   2000.0000   1990.0000     19.9546    111.5346
   583.0000   2000.0000   1990.0000     19.5413    110.7564
   583.2500   2000.0000   1990.0000     19.1497    109.3817
   583.5000   2000.0000   1990.0000     18.7740    107.3068
   583.7500   2000.0000   1990.0000     18.4125    106.5466
   584.0000   2000.0000   1990.0000     18.0729    107.2132
   584.2500   2000.0000   1990.0000     17.7724    108.9430
   584.5000   2000.0000   1990.0000     17.5296    112.4049
   584.7500   2000.0000   1990.0000     17.3534    114.4140
   585.0000   2000.0000   1990.0000     17.2352    116.3831
   585.2500   2000.0000   1990.0000     17.1527    117.2043
   585.5000   2000.0000   1990.0000     17.0826    117.9285
   585.7500   2000.0000   1990.0000     17.0174    117.9304
   586.0000   2000.0000   1990.0000     16.9706    117.0580
   586.2500   2000.0000   1990.0000     16.9684    115.9556
   586.5000   2000.0000   1990.0000     17.0338    113.4008
   586.7500   2000.0000   1990.0000     17.1763    110.8514
   587.0000   2000.0000   1990.0000     17.3919    105.7855
   587.2500   2000.0000   1990.0000     17.6714    102.0878
   587.5000   2000.0000   1990.0000     18.0072     97.1157
   587.7500   2000.0000   1990.0000     18.3951     94.4886
   588.0000   2000.0000   1990.0000     18.8295     91.6381
   588.2500   2000.0000   1990.0000     19.3003     90.3956
