~Version Information
VERS.                      2.0: CWLS Log ASCII Standard - VERSION 2.0
WRAP.                       NO: One line per depth step
~Well Information Block
STRT.FT               350.0000: 
STOP.FT              2808.2500: 
STEP.FT                 0.2500: 
NULL.                -999.2500: 
COMP.          Pioneer Natural Resources: COMPANY
WELL.          Grey Goose 33-30: WELL
FLD.           Purgatoire River: FIELD
LOC.           2136' FSL & 2065' FEL--: LOCATION
STAT.                 Colorado: State
CNTY.               Las Animas: COUNTY
CTRY. USA : Country
SECT. 30 : Section
TOWN. 32S : Township
RANG. 67W : Range
SRVC.                Patterson: SERVICE COMPANY
DATE.          Fri Nov 04 09:00:45 2005: LOG DATE
API.           05 071 08546 00: UNIQUE WELL ID
~Curve Information Block
DEPT.FT            0 000 00 00: Depth
DIR.Ohm-m                     : IEL Induction Resistivity
SN.Ohm-m                      : IEL Short Normal
SP.mV                         : IEL Spontaneous Potential
GR.GAPI                       : Gamma Ray
~Parameter Information Block
~A  Depth       DIR          SN          SP          GR     
# ...
  1623.0000     50.2206     64.1527    -60.9042     52.6565
  1623.2500     52.2624     65.4135    -61.0942     51.9542
  1623.5000     54.0910     66.4396    -61.3747     51.4797
  1623.7500     55.5166     67.1710    -61.7364     51.9104
  1624.0000     56.3869     67.6005    -62.1488     54.1135
  1624.2500     56.6075     67.7714    -62.5747     56.4459
  1624.5000     56.1627     67.7553    -62.9858     60.2725
  1624.7500     55.1322     67.6273    -63.3733     62.4753
  1625.0000     53.6869     67.4500    -63.7516     64.7816
  1625.2500     52.0534     67.2691    -64.1534     65.6206
  1625.5000     50.4616     67.1106    -64.6183     66.0314
  1625.7500     49.1043     66.9782    -65.1775     65.9546
  1626.0000     48.1255     66.8524    -65.8380     65.5158
  1626.2500     47.6269     66.6965    -66.5718     64.8248
  1626.5000     47.6674     66.4803    -67.3104     62.5167
  1626.7500     48.2372     66.2121    -67.9496     59.8550
  1627.0000     49.2060     65.9282    -68.3609     54.2652
  1627.2500     50.2605     65.6007    -68.4120     49.8012
  1627.5000     50.8905     65.0212    -67.9871     42.8539
  1627.7500     50.5049     63.8018    -67.0074     38.6653
  1628.0000     48.7042     61.5663    -65.4450     34.2244
  1628.2500     45.5422     58.2213    -63.3288     33.2576
  1628.5000     41.5204     54.0767    -60.7410     36.3307
  1628.7500     37.3028     49.6863    -57.8066     42.3249
  1629.0000     33.4134     45.5319    -54.6772     58.0709
  1629.2500     30.1173     41.8181    -51.5137     72.3987
  1629.5000     27.4644     38.5156    -48.4690     95.8829
  1629.7500     25.3849     35.5464    -45.6740    109.8818
  1630.0000     23.7682     32.9131    -43.2271    124.6722
  1630.2500     22.5095     30.6922    -41.1885    130.1323
  1630.5000     21.5316     28.9564    -39.5806    134.1334
  1630.7500     20.7900     27.7209    -38.3912    135.8151
  1631.0000     20.2697     26.9439    -37.5816    138.3303
  1631.2500     19.9740     26.5546    -37.0956    139.5538
  1631.5000     19.9124     26.4770    -36.8692    138.9524
  1631.7500     20.0899     26.6426    -36.8391    136.3465
  1632.0000     20.5004     26.9949    -36.9488    129.7069
  1632.2500     21.1235     27.4917    -37.1523    124.3333
  1632.5000     21.9212     28.1053    -37.4151    116.0725
  1632.7500     22.8354     28.8170    -37.7125    110.6710
  1633.0000     23.7876     29.6057    -38.0274    102.6287
  1633.2500     24.6876     30.4408    -38.3469     97.3206
  1633.5000     25.4542     31.2823    -38.6594     89.8917
  1633.7500     26.0469     32.0878    -38.9531     85.6484
  1634.0000     26.4865     32.8202    -39.2158     80.5435
  1634.2500     26.8430     33.4504    -39.4359     77.7611
  1634.5000     27.1954     33.9613    -39.6035     74.1035
  1634.7500     27.5912     34.3529    -39.7131     72.0965
  1635.0000     28.0350     34.6474    -39.7650     70.3783
  1635.2500     28.5032     34.8851    -39.7670     70.3899
  1635.5000     28.9655     35.1084    -39.7348     72.1332
  1635.7500     29.3906     35.3419    -39.6922     74.2043
  1636.0000     29.7392     35.5822    -39.6699     77.8706
  1636.2500     29.9659     35.8054    -39.7040     79.8675
  1636.5000     30.0380     35.9844    -39.8335     80.4146
  1636.7500     29.9592     36.1068    -40.0971     78.4810
  1637.0000     29.7734     36.1838    -40.5305     72.6710
  1637.2500     29.5497     36.2491    -41.1637     68.0502
  1637.5000     29.3612     36.3458    -42.0187     62.1895
  1637.7500     29.2694     36.5102    -43.1080     59.6542
  1638.0000     29.3142     36.7619    -44.4336     57.6985
  1638.2500     29.5049     37.1028    -45.9862     57.1086
  1638.5000     29.8148     37.5170    -47.7432     56.7048
  1638.7500     30.1865     37.9726    -49.6663     56.7869
  1639.0000     30.5553     38.4314    -51.6981     57.5689
  1639.2500     30.8824     38.8639    -53.7572     58.2774
  1639.5000     31.1761     39.2555    -55.7384     58.8528
  1639.7500     31.4794     39.6013    -57.5172     58.7397
  1640.0000     31.8360     39.8958    -58.9610     58.2955
  1640.2500     32.2603     40.1289    -59.9478     58.2323
  1640.5000     32.7325     40.2942    -60.3875     58.8865
  1640.7500     33.2141     40.4000    -60.2414     59.8057
  1641.0000     33.6638     40.4720    -59.5346     61.5399
  1641.2500     34.0429     40.5438    -58.3574     62.6458
  1641.5000     34.3228     40.6411    -56.8553     63.9441
  1641.7500     34.5011     40.7775    -55.2093     64.5322
  1642.0000     34.6183     40.9738    -53.6101     64.8224
  1642.2500     34.7498     41.2898    -52.2307     64.4561
  1642.5000     34.9739     41.8287    -51.2013     63.0121
  1642.7500     35.3362     42.6896    -50.5929     61.5603
  1643.0000     35.8352     43.8878    -50.4106     58.7615
  1643.2500     36.4325     45.3094    -50.5995     56.5124
  1643.5000     37.0751     46.7523    -51.0619     52.8840
  1643.7500     37.7089     48.0286    -51.6800     50.6936
  1644.0000     38.2733     49.0432    -52.3394     48.5718
  1644.2500     38.6916     49.7946    -52.9470     48.3223
  1644.5000     38.8844     50.3252    -53.4400     49.8020
  1644.7500     38.8107     50.6794    -53.7867     51.5728
  1645.0000     38.5009     50.8876    -53.9801     54.0523
  1645.2500     38.0441     50.9655    -54.0291     55.0488
  1645.5000     37.5415     50.9133    -53.9501     56.0414
  1645.7500     37.0685     50.7146    -53.7604     57.3590
  1646.0000     36.6693     50.3359    -53.4752     61.7368
  1646.2500     36.3653     49.7341    -53.1056     66.0613
  1646.5000     36.1607     48.8783    -52.6599     72.5935
  1646.7500     36.0392     47.7792    -52.1440     75.6823
  1647.0000     35.9649     46.5067    -51.5635     77.5584
  1647.2500     35.8910     45.1822    -50.9242     77.2914
  1647.5000     35.7701     43.9433    -50.2336     75.8224
  1647.7500     35.5596     42.9004    -49.5009     74.9615
  1648.0000     35.2263     42.1032    -48.7371     75.1382
  1648.2500     34.7575     41.5305    -47.9550     76.5792
  1648.5000     34.1695     41.1084    -47.1694     80.2504
  1648.7500     33.5035     40.7428    -46.3970     83.0187
  1649.0000     32.8101     40.3553    -45.6567     86.4724
  1649.2500     32.1314     39.9065    -44.9685     87.8792
  1649.5000     31.4918     39.4020    -44.3535     88.4559
  1649.7500     30.8992     38.8800    -43.8314     87.8423
  1650.0000     30.3554     38.3909    -43.4189     85.3218
  1650.2500     29.8690     37.9788    -43.1276     82.5801
  1650.5000     29.4585     37.6672    -42.9622     77.6126
  1650.7500     29.1426     37.4570    -42.9201     74.4568
  1651.0000     28.9281     37.3345    -42.9912     70.6314
  1651.2500     28.8089     37.2811    -43.1593     68.4953
  1651.5000     28.7781     37.2768    -43.4033     65.3848
  1651.7500     28.8362     37.3035    -43.7001     63.4761
  1652.0000     28.9863     37.3543    -44.0267     61.7598
  1652.2500     29.2204     37.4417    -44.3625     61.9212
  1652.5000     29.5108     37.5916    -44.6915     64.1846
  1652.7500     29.8150     37.8273    -45.0030     66.3126
  1653.0000     30.0931     38.1568    -45.2926     68.3604
  1653.2500     30.3250     38.5695    -45.5605     68.0104
  1653.5000     30.5163     39.0389    -45.8110     64.9082
  1653.7500     30.6873     39.5259    -46.0502     62.0878
  1654.0000     30.8505     39.9866    -46.2844     58.8682
  1654.2500     30.9979     40.3845    -46.5192     58.1216
  1654.5000     31.1078     40.7011    -46.7590     58.8987
  1654.7500     31.1684     40.9362    -47.0072     60.1111
  1655.0000     31.1943     41.1014    -47.2665     62.2918
  1655.2500     31.2236     41.2189    -47.5403     63.9569
  1655.5000     31.2991     41.3227    -47.8320     67.0318
  1655.7500     31.4503     41.4528    -48.1464     69.6355
  1656.0000     31.6889     41.6393    -48.4885     74.7088
  1656.2500     32.0137     41.8857    -48.8638     79.0600
