~Version Information
VERS.                      2.0: CWLS Log ASCII Standard - VERSION 2.0
WRAP.                       NO: One line per depth step
~Well Information Block
STRT.FT               547.0000: 
STOP.FT              1685.5000: 
STEP.FT                 0.2500: 
NULL.                -999.2500: 
COMP.          Pioneer Natural Resources: COMPANY
WELL.           Pedri 42-33 Tr: WELL
FLD.           Purgatorie River: FIELD
LOC.           1933' FNL & 662' FEL: LOCATION
PROV.                 Colorado: PROVINCE
CNTY.               Las Animas: COUNTRY
SRVC.                Patterson: SERVICE COMPANY
DATE.          Mon Dec 19 10:09:44 2005: LOG DATE
UWI.                          : UNIQUE WELL ID
~Curve Information Block
DEPT.FT            0 000 00 00: Depth
DIR.Ohm-m                     : IEL Induction Resistivity
GR.GAPI                       : Gamma Ray
~Parameter Information Block
~A  Depth       DIR          GR     
# ...
  1383.2500     44.9196     43.6069
  1383.5000     45.2476     42.7532
  1383.7500     45.4405     42.0781
  1384.0000     45.4978     41.1577
  1384.2500     45.4645     40.4154
  1384.5000     45.3949     38.8077
  1384.7500     45.3137     37.4198
  1385.0000     45.2066     35.0297
  1385.2500     45.0425     33.3808
  1385.5000     44.8035     31.3575
  1385.7500     44.5020     30.7224
  1386.0000     44.1794     31.2720
  1386.2500     43.8872     32.6016
  1386.5000     43.6597     35.5986
  1386.7500     43.4795     37.8877
  1387.0000     43.2598     40.9545
  1387.2500     42.8651     42.2810
  1387.5000     42.1701     42.7854
  1387.7500     41.1183     42.2622
  1388.0000     39.7266     40.7328
  1388.2500     38.0365     39.4398
  1388.5000     36.0727     37.3115
  1388.7500     33.8523     36.0150
  1389.0000     31.4257     34.8547
  1389.2500     28.8956     34.7996
  1389.5000     26.3935     35.6404
  1389.7500     24.0387     36.5822
  1390.0000     21.9105     38.4282
  1390.2500     20.0388     40.3618
  1390.5000     18.4110     46.0427
  1390.7500     16.9881     52.7580
  1391.0000     15.7257     67.7320
  1391.2500     14.5925     80.2334
  1391.5000     13.5766    100.3700
  1391.7500     12.6791    113.1671
  1392.0000     11.9021    129.1827
  1392.2500     11.2403    136.9990
  1392.5000     10.6804    144.6099
  1392.7500     10.2067    147.8533
  1393.0000      9.8067    151.9236
  1393.2500      9.4730    154.6634
  1393.5000      9.2006    158.1084
  1393.7500      8.9852    159.0967
  1394.0000      8.8228    158.0735
  1394.2500      8.7112    156.3849
  1394.5000      8.6498    154.2065
  1394.7500      8.6376    153.6085
  1395.0000      8.6709    153.7943
  1395.2500      8.7427    154.3328
  1395.5000      8.8440    155.7155
  1395.7500      8.9675    157.1389
  1396.0000      9.1096    159.9879
  1396.2500      9.2719    162.1284
  1396.5000      9.4589    164.7765
  1396.7500      9.6764    165.4391
  1397.0000      9.9299    164.1978
  1397.2500     10.2221    162.3085
  1397.5000     10.5513    159.2084
  1397.7500     10.9126    157.4151
  1398.0000     11.3024    155.1615
  1398.2500     11.7238    153.7991
  1398.5000     12.1851    151.3801
  1398.7500     12.6923    148.8692
  1399.0000     13.2393    143.1403
  1399.2500     13.8024    138.6915
  1399.5000     14.3424    133.3654
  1399.7500     14.8132    131.4204
  1400.0000     15.1764    130.1180
  1400.2500     15.4169    129.4682
  1400.5000     15.5506    128.1649
  1400.7500     15.6150    127.2070
  1401.0000     15.6484    126.1469
  1401.2500     15.6686    125.9120
  1401.5000     15.6675    126.3097
  1401.7500     15.6200    126.9216
  1402.0000     15.5017    128.1306
  1402.2500     15.3020    129.2227
  1402.5000     15.0266    131.7275
  1402.7500     14.6931    134.0887
  1403.0000     14.3247    138.2892
  1403.2500     13.9456    141.1449
  1403.5000     13.5795    145.0000
  1403.7500     13.2491    147.1045
  1404.0000     12.9752    149.1334
  1404.2500     12.7733    149.2758
  1404.5000     12.6508    147.0215
  1404.7500     12.6068    144.1138
  1405.0000     12.6359    139.3372
  1405.2500     12.7313    137.0775
  1405.5000     12.8871    136.2884
  1405.7500     13.0984    137.3850
  1406.0000     13.3623    140.0537
  1406.2500     13.6814    141.4148
  1406.5000     14.0663    141.4975
  1406.7500     14.5331    140.2044
  1407.0000     15.0929    137.2938
  1407.2500     15.7416    135.3474
  1407.5000     16.4564    132.2599
  1407.7500     17.2073    129.3517
  1408.0000     17.9772    123.0798
  1408.2500     18.7779    118.2807
  1408.5000     19.6530    112.0702
  1408.7500     20.6681    109.0715
  1409.0000     21.8968    105.4027
  1409.2500     23.3997    102.6720
  1409.5000     25.1975     97.7618
  1409.7500     27.2428     94.5867
  1410.0000     29.4123     91.6320
  1410.2500     31.5387     91.3540
  1410.5000     33.4720     92.9315
  1410.7500     35.1216     94.6069
  1411.0000     36.4462     97.1223
  1411.2500     37.4198     98.5486
  1411.5000     38.0171    100.3202
  1411.7500     38.2249    101.3571
  1412.0000     38.0548    102.2368
  1412.2500     37.5483    101.5478
  1412.5000     36.7799     97.3921
  1412.7500     35.8612     92.7268
  1413.0000     34.9292     84.4723
  1413.2500     34.1111     79.0930
  1413.5000     33.4813     72.4838
  1413.7500     33.0403     69.7772
  1414.0000     32.7159     69.3927
  1414.2500     32.3770     71.9255
  1414.5000     31.8529     79.6736
  1414.7500     30.9711     86.7847
  1415.0000     29.6187     98.2399
  1415.2500     27.7964    104.8938
  1415.5000     25.6248    111.2926
  1415.7500     23.2972    112.6628
  1416.0000     21.0149    111.1779
  1416.2500     18.9353    109.0483
  1416.5000     17.1459    106.0975
  1416.7500     15.6658    104.6742
  1417.0000     14.4657    102.9271
  1417.2500     13.4947    101.8129
  1417.5000     12.7018    100.7898
  1417.7500     12.0457    101.3064
  1418.0000     11.4953    104.9087
  1418.2500     11.0253    109.1150
  1418.5000     10.6138    117.0481
  1418.7500     10.2430    122.7878
  1419.0000      9.9024    131.3913
  1419.2500      9.5909    136.6280
  1419.5000      9.3141    142.4895
  1419.7500      9.0790    144.6622
  1420.0000      8.8902    145.9374
  1420.2500      8.7483    146.0773
  1420.5000      8.6519    145.1961
  1420.7500      8.5974    143.3793
  1421.0000      8.5796    139.0568
  1421.2500      8.5909    136.3688
  1421.5000      8.6231    135.0262
  1421.7500      8.6683    136.1780
  1422.0000      8.7184    139.1683
  1422.2500      8.7629    140.6398
  1422.5000      8.7893    140.9512
  1422.7500      8.7858    140.1289
  1423.0000      8.7474    138.5650
  1423.2500      8.6788    138.1432
  1423.5000      8.5929    139.8599
  1423.7500      8.5043    143.2652
  1424.0000      8.4235    152.2906
  1424.2500      8.3546    160.5826
  1424.5000      8.2970    174.6199
  1424.7500      8.2500    183.4158
  1425.0000      8.2155    192.4845
  1425.2500      8.1976    194.1163
  1425.5000      8.1995    189.0491
  1425.7500      8.2224    181.7312
  1426.0000      8.2649    168.3770
  1426.2500      8.3237    159.8871
  1426.5000      8.3956    149.9064
  1426.7500      8.4803    145.3878
  1427.0000      8.5803    140.7747
  1427.2500      8.6984    138.0625
  1427.5000      8.8328    133.4663
  1427.7500      8.9757    130.4091
  1428.0000      9.1160    127.2390
  1428.2500      9.2436    126.3079
  1428.5000      9.3508    125.3831
  1428.7500      9.4292    124.0164
  1429.0000      9.4696    120.2369
  1429.2500      9.4642    117.2249
  1429.5000      9.4128    114.0164
  1429.7500      9.3247    113.7447
  1430.0000      9.2155    116.3870
  1430.2500      9.1004    119.3866
  1430.5000      8.9887    123.7654
  1430.7500      8.8835    125.8204
  1431.0000      8.7833    127.1777
  1431.2500      8.6849    126.8634
  1431.5000      8.5840    124.5848
  1431.7500      8.4764    122.2647
  1432.0000      8.3610    118.8612
  1432.2500      8.2439    117.1988
  1432.5000      8.1375    115.6970
  1432.7500      8.0566    115.0892
  1433.0000      8.0112    114.1469
  1433.2500      8.0013    113.0426
  1433.5000      8.0175    110.0965
  1433.7500      8.0454    107.5318
  1434.0000      8.0736    104.5737
  1434.2500      8.0991    104.3347
  1434.5000      8.1263    106.6453
  1434.7500      8.1620    108.6916
  1435.0000      8.2091    110.4110
  1435.2500      8.2648    110.7635
  1435.5000      8.3228    111.8748
  1435.7500      8.3778    113.4851
  1436.0000      8.4290    116.1994
  1436.2500      8.4790    117.4468
  1436.5000      8.5304    118.3519
  1436.7500      8.5807    118.7985
  1437.0000      8.6220    119.9363
  1437.2500      8.6460    120.9205
  1437.5000      8.6526    121.9111
  1437.7500      8.6543    121.8359
  1438.0000      8.6714    120.6553
  1438.2500      8.7209    119.6094
  1438.5000      8.8090    118.9406
  1438.7500      8.9300    119.8125
