~Version Information
VERS.                      2.0: CWLS Log ASCII Standard - VERSION 2.0
WRAP.                       NO: One line per depth step
~Well Information Block
STRT.FT                -4.0000: 
STOP.FT               675.2500: 
STEP.FT                 0.2500: 
NULL.                -999.2500: 
COMP.          Pioneer Natural Resources: COMPANY
WELL.          Razor Clam 23-27: WELL
FLD.           Purgatoire River: FIELD
LOC.           2499' FSL & 2636' FWL: LOCATION
CNTY.               Las Animas: COUNTY
SRVC.                         : SERVICE COMPANY
DATE.          Thu Mar 09 13:15:19 2006: LOG DATE
UWI.           05 071 08667 00: UNIQUE WELL ID
STAT.                       CO: STATE
~Curve Information Block
DEPT.FT            0 000 00 00: Depth
GR.GAPI                       : Gamma Ray
CCL.                          : Casing Collar Locator
TT3.usec                      : CBL 3' Travel Time
AMP3.mV                       : CBL 3' Amplitude
~Parameter Information Block
~A  Depth        GR         CCL         TT3         AMP3    
# ...
   431.5000     90.0839      0.0000    692.5840     10.3241
   431.7500     83.6687      0.0000    723.1932      9.7136
   432.0000     75.0927      0.0000    747.7031      9.3796
   432.2500     66.4956      0.0000    761.0979      9.3736
   432.5000     59.6817      0.0000    766.1172      9.5930
   432.7500     55.6769      0.0000    769.4036      9.8701
   433.0000     54.9977      1.0449    777.7167     10.0723
   433.2500     57.5161      1.8417    793.6351     10.1391
   433.5000     62.0383      0.0000    811.6304     10.0798
   433.7500     66.5030      0.0000    820.0962      9.9840
   434.0000     68.9165      0.0000    810.7969     10.0057
   434.2500     68.4064      0.0000    786.8245     10.2588
   434.5000     65.6923      0.0000    760.0735     10.7102
   434.7500     62.4822      0.0000    741.7404     11.2088
   435.0000     60.1643      0.0000    735.9730     11.6121
   435.2500     59.1210      0.0000    740.1535     11.8582
   435.5000     59.3530      0.0000    748.3681     11.9493
   435.7500     61.2664      0.0000    754.8721     11.9282
   436.0000     65.2208      0.0000    756.5024     11.8682
   436.2500     70.4129      0.0000    753.6339     11.8463
   436.5000     74.8618      0.0000    749.3876     11.9050
   436.7500     76.7756      0.0000    747.4695     12.0347
   437.0000     75.7691      0.0000    749.6754     12.1858
   437.2500     72.7616      0.0000    754.8456     12.3054
   437.5000     69.0703      0.0000    760.0673     12.3847
   437.7500     65.7674      0.0000    762.9514     12.4649
   438.0000     63.4931      0.0000    763.0440     12.5761
   438.2500     62.2607      0.0000    761.6216     12.6853
   438.5000     61.4058      0.0000    760.3462     12.7390
   438.7500     60.2509      0.0000    759.8940     12.7415
   439.0000     58.8918      0.0000    759.7972     12.7467
   439.2500     57.8537      0.0000    759.5426     12.7765
   439.5000     57.1260      0.0000    759.2758     12.7837
   439.7500     56.3085      0.0000    759.1707     12.7033
   440.0000     55.6057      0.0000    758.7839     12.5214
   440.2500     55.7926      0.0000    757.5351     12.2977
   440.5000     57.2122      0.0000    755.2615     12.1313
   440.7500     59.5411      0.0000    751.8823     12.0879
   441.0000     62.6014      0.0000    747.1926     12.1508
   441.2500     66.9494      0.0000    741.5385     12.2467
   441.5000     73.6230      0.0000    736.1467     12.3135
   441.7500     83.3266      0.0000    732.2629     12.3317
   442.0000     95.5093      0.0000    730.1854     12.3036
   442.2500    107.9836      0.0000    729.3254     12.2345
   442.5000    117.7332      0.0000    728.9149     12.1372
   442.7500    122.5514      0.0000    728.5101     12.0361
   443.0000    122.0577      0.0000    728.0322     11.9630
   443.2500    117.4389      0.0000    727.5823     11.9446
   443.5000    110.6940      0.0000    727.2681     11.9757
   443.7500    103.8917      0.0000    727.1245     12.0077
   444.0000     98.2275      0.0000    727.0996     11.9853
   444.2500     93.3494      0.0000    727.0925     11.8959
   444.5000     87.9756      0.0000    727.0366     11.7740
   444.7500     81.4790      0.0000    726.9588     11.6655
   445.0000     74.7533      0.0000    726.9550     11.5993
   445.2500     69.4732      0.0000    727.1146     11.5754
   445.5000     66.5977      0.0000    727.4447     11.5584
   445.7500     65.5561      0.0000    727.8391     11.4963
   446.0000     64.9148      0.0000    728.1276     11.3629
   446.2500     63.7728      0.0000    728.1953     11.1837
   446.5000     62.2690      0.0000    728.0658     11.0186
   446.7500     60.9300      0.0000    727.8950     10.9199
   447.0000     60.0631      0.0000    727.9284     10.8952
   447.2500     59.7392      0.0000    728.5216     10.8956
   447.5000     59.8083      0.0000    730.1356     10.8439
   447.7500     59.8582      0.0000    733.1100     10.6946
   448.0000     59.5116      0.0000    737.2726     10.4643
   448.2500     58.9024      0.0000    741.7849     10.1977
   448.5000     58.7093      0.0000    745.4438      9.9209
   448.7500     59.6440      0.0000    747.2775      9.6454
   449.0000     62.0311      0.0000    747.2191      9.3945
   449.2500     65.8827      0.0000    746.2565      9.2026
   449.5000     71.0219      0.0000    745.3713      9.0999
   449.7500     76.9006      0.0000    744.1596      9.1021
   450.0000     82.5279      0.0000    741.2231      9.1955
   450.2500     86.9384      0.0000    736.1015      9.3326
   450.5000     89.9304      0.0000    730.0060      9.4641
   450.7500     92.3528      0.0000    724.4247      9.5783
   451.0000     95.4973      0.0000    719.8871      9.6967
   451.2500     99.9961      0.0000    716.4195      9.8405
   451.5000    105.3871      0.0000    714.2166     10.0192
   451.7500    110.8994      0.0000    713.2397     10.2439
   452.0000    116.3434      0.0000    712.9273     10.5275
   452.2500    121.8443      0.0000    712.9303     10.8693
   452.5000    126.8091      0.0000    713.6622     11.2411
   452.7500    129.6151      0.0000    715.7126     11.5844
   453.0000    128.6375      0.0000    718.9664     11.8298
   453.2500    123.6647      0.0000    722.5263     11.9405
   453.5000    116.2178      0.0000    725.4216     11.9431
   453.7500    108.4441      0.0000    727.2379     11.9055
   454.0000    101.7958      0.0000    728.1302     11.8857
   454.2500     96.7070      0.0000    728.4418     11.9025
   454.5000     93.1571      0.0000    728.4217     11.9473
   454.7500     91.1618      0.0000    728.1885     12.0126
   455.0000     90.7615      0.0000    727.8074     12.1018
   455.2500     91.8295      0.0000    727.3475     12.2084
   455.5000     94.0272      0.0000    726.8989     12.2974
   455.7500     96.6277      0.0000    726.5563     12.3288
   456.0000     98.2766      0.0000    726.4042     12.2955
   456.2500     97.6045      0.0000    726.4894     12.2214
   456.5000     94.6723      0.0000    726.7859     12.1328
   456.7500     91.5021      0.0000    727.1850     12.0469
   457.0000     90.6738      0.0000    727.5478     11.9793
   457.2500     93.4506      0.0000    727.7820     11.9459
   457.5000     99.2124      0.0000    727.8694     11.9534
   457.7500    106.1009      0.0000    727.8333     11.9980
   458.0000    111.9295      0.0000    727.6825     12.0765
   458.2500    115.1355      0.0000    727.3546     12.1872
   458.5000    115.5272      0.0000    726.6646     12.3097
   458.7500    114.0474      0.0000    725.3780     12.3930
   459.0000    111.6512      0.0000    723.5330     12.3804
   459.2500    108.4904      0.0000    721.7601     12.2575
   459.5000    104.3228      0.0000    721.0206     12.0789
   459.7500     99.5897      0.0000    721.7608     11.9432
   460.0000     95.7208      0.0000    723.4402     11.9321
   460.2500     93.9101      0.0000    725.0694     12.0635
   460.5000     93.7319      0.0000    726.0538     12.2887
   460.7500     93.5331      0.0000    726.4095     12.5209
   461.0000     92.1391      0.0000    726.3897     12.6848
   461.2500     89.6544      0.0000    726.0814     12.7638
   461.5000     86.6969      0.0000    725.2026     12.8073
   461.7500     83.5236      0.0000    723.1029     12.8841
   462.0000     80.1461      0.0000    719.1003     13.0228
   462.2500     76.9892      0.0000    713.1970     13.1955
   462.5000     75.0570      0.0000    706.6022     13.3589
   462.7500     75.2831      0.0000    701.3733     13.4968
   463.0000     77.7464      0.0000    699.3517     13.6037
   463.2500     81.4601      0.0000    701.2533     13.6504
   463.5000     84.8252      0.0000    706.3398     13.6023
   463.7500     86.4657      0.0000    712.6907     13.4647
   464.0000     86.0449      0.0000    717.9513     13.2798
   464.2500     84.4501      0.0000    720.0994     13.0712
   464.5000     83.1615      0.0000    717.5576     12.7976
   464.7500     83.3503      0.0000    709.4280     12.3567
