~Version Information
 VERS.                                  2.0 : CWLS LAS VERSION
 WRAP.                                   NO : WRAPING MODE
 SWARE .                 MController 2.5.0N : SOFTWARE VERSION
~Well Information
 WELL.                       Beringer 33-18 : WELL
 COMP.       Pioneer Natural Resources, USA : COMPANY
 FLD.                       Purgatory River : FIELD
 LOC.                 NW/SE Sec18 T34S R34W : LOCATION
 DATE.                              3/26/06 : DATE(S) LOGGED
 SRVC.      Blanco Geological Services, LLC : SERVICE COMPANY
 STAT.                             Colorado : STATE
 CNTY.                           Las Animas : COUNTY
 CTRY.                                  USA : COUNTRY
 API.                       05-071-08725-00 : API NUMBER
 STRT.FT                             178.00 : START DEPTH
 STOP.FT                             850.00 : STOP DEPTH
 STEP.FT                               1.00 : DEPTH INCREMENT
 NULL.                                -9999 : NULL VALUE
~Curve information
 DEPTH.FT                                   :
 ROP.MIN/FT                                 :
 GAS.UNITS                                  :
~ASCII Log data
# ...
       582.0         0.30         18.5 
       583.0         0.33         18.0 
       584.0         0.33         17.4 
       585.0         0.33         16.8 
       586.0         0.20         16.4 
       587.0         0.15         16.6 
       588.0         0.33         16.4 
       589.0         0.37         16.9 
       590.0         0.40         62.9 
       591.0         0.37         91.2 
       592.0         3.42         93.9 
       593.0         0.43         31.9 
       594.0         0.50        110.8 
       595.0         0.43         93.6 
       596.0         0.48         73.2 
       597.0         0.47         53.8 
       598.0         0.47         51.7 
       599.0         0.43         42.9 
       600.0         0.47         39.4 
       601.0         0.43         36.5 
       602.0         0.47         34.4 
       603.0         0.47         33.6 
       604.0         0.52         32.4 
       605.0         0.50         31.1 
       606.0         0.50         29.6 
       607.0         0.50         29.7 
       608.0         0.53         29.2 
       609.0         0.43         28.9 
       610.0         0.55         27.9 
       611.0         0.47         26.5 
       612.0         0.50         26.3 
       613.0         0.63         27.6 
       614.0         0.53         26.9 
       615.0         0.43         26.2 
       616.0         0.40         23.9 
       617.0         0.45         24.1 
       618.0         0.47         23.6 
       619.0         0.40         22.7 
       620.0         0.33         23.8 
       621.0         0.33         25.1 
       622.0         6.27       1410.1 
       623.0         0.27        504.5 
       624.0         0.33        474.9 
       625.0         0.40        510.2 
       626.0         0.30        554.4 
       627.0         0.33        565.2 
       628.0         0.40        615.4 
       629.0         0.45        610.3 
       630.0         0.40        555.1 
       631.0         0.43        542.9 
       632.0         0.40        535.2 
       633.0         0.37        518.7 
       634.0         0.47        528.1 
       635.0         0.53        525.7 
       636.0         0.42        514.0 
       637.0         0.50        499.8 
       638.0         0.50        490.7 
       639.0         0.53        475.2 
       640.0         0.53        464.4 
       641.0         0.50        459.0 
       642.0         0.47        451.3 
       643.0         0.58        443.9 
       644.0         0.53        440.0 
       645.0         0.63        160.6 
       646.0         0.73        155.2 
       647.0         0.33        147.2 
       648.0         0.43        148.3 
       649.0         0.30        150.3 
       650.0         0.38        148.0 
       651.0         0.30        140.8 
       652.0         3.38        137.6 
       653.0         0.30       1148.4 
       654.0         0.27       1132.2 
       655.0         0.40        866.0 
       656.0         0.43        560.8 
       657.0         0.27        497.1 
       658.0         0.30        504.9 
       659.0         0.30        506.2 
       660.0         0.37        498.1 
       661.0         0.28        461.7 
       662.0         0.20        440.0 
       663.0         0.20        146.3 
       664.0         0.20        137.5 
       665.0         0.20        133.6 
       666.0         0.27        144.5 
       667.0         0.40        262.3 
       668.0         0.33        336.7 
       669.0         0.30        406.2 
       670.0         0.37        449.3 
       671.0         0.33        449.5 
       672.0         0.23        436.3 
       673.0         0.25        418.1 
       674.0         0.23        403.8 
       675.0         0.33        389.3 
       676.0         0.50        399.2 
       677.0         0.43        444.7 
       678.0         0.43        458.7 
       679.0         0.50        460.7 
       680.0         0.53        434.0 
       681.0         0.65        411.6 
       682.0         3.52        387.0 
       683.0         0.43       1463.0 
       684.0         0.60       2032.1 
       685.0         0.47       1241.0 
       686.0         0.47        996.4 
       687.0         0.57        793.3 
       688.0         0.55        777.4 
       689.0         0.50        716.8 
       690.0         0.50        685.4 
       691.0         0.53        683.1 
       692.0         0.53        674.3 
       693.0         0.53        658.2 
       694.0         0.45        647.4 
       695.0         0.23        642.7 
       696.0         0.33        635.2 
       697.0         0.43        637.9 
       698.0         0.43        720.1 
       699.0         0.50        840.4 
       700.0         0.73        879.5 
       701.0         0.82        856.6 
       702.0         0.77        831.7 
       703.0         0.73        767.3 
       704.0         0.67        722.5 
       705.0         0.60        759.6 
       706.0         0.62        760.2 
       707.0         0.63        808.8 
       708.0         0.70        821.9 
       709.0         0.63        804.4 
       710.0         0.53        785.5 
       711.0         0.50        763.6 
       712.0         4.23       1688.1 
       713.0         0.53       1403.7 
       714.0         0.63        994.1 
       715.0         0.43        901.4 
       716.0         0.47        862.0 
       717.0         0.43        795.3 
       718.0         0.52        831.7 
       719.0         0.47        843.8 
       720.0         0.50        871.1 
       721.0         0.47        868.7 
       722.0         0.47        845.1 
       723.0         0.50        831.0 
       724.0         0.58        821.6 
       725.0         0.53        811.1 
       726.0         0.57        808.8 
       727.0         0.53        782.1 
       728.0         0.60        773.0 
       729.0         0.53        769.3 
       730.0         0.62        755.5 
       731.0         0.60        740.4 
       732.0         0.57        730.3 
       733.0         0.53        741.0 
       734.0         0.60        717.1 
       735.0         0.53        669.6 
       736.0         0.55        702.0 
       737.0         0.47        706.7 
       738.0         0.47        707.0 
       739.0         0.50        707.3 
       740.0         0.40        715.8 
       741.0         0.47        720.5 
       742.0         2.92        720.1 
       743.0         0.33        431.7 
       744.0         0.30       2078.9 
       745.0         0.33       2011.9 
       746.0         0.42       1481.6 
       747.0         0.37       1138.3 
       748.0         0.47        961.7 
       749.0         0.40        847.8 
       750.0         0.40        837.7 
       751.0         0.40        808.4 
       752.0         0.47        781.8 
       753.0         0.50        762.6 
       754.0         0.52        750.5 
       755.0         0.40        759.6 
       756.0         0.40        760.2 
       757.0         0.43        777.1 
       758.0         0.47        777.4 
       759.0         0.53        767.7 
       760.0         0.50        740.7 
       761.0         0.55        740.4 
       762.0         0.50        735.0 
       763.0         0.57        723.5 
       764.0         0.60        721.8 
       765.0         0.57        718.5 
       766.0         0.57        701.3 
       767.0         0.65        644.0 
       768.0         0.57        633.2 
       769.0         0.63        632.2 
       770.0         0.57        628.5 
       771.0         0.53        630.2 
       772.0         3.08       1393.3 
       773.0         0.37       1665.5 
       774.0         0.40       1410.8 
       775.0         0.45       1005.9 
       776.0         0.37        897.7 
       777.0         0.43        837.7 
       778.0         0.47        828.3 
       779.0         0.47        791.9 
       780.0         0.40        751.5 
       781.0         0.47        734.0 
