~Version Information
VERS.                      2.0: CWLS Log ASCII Standard - VERSION 2.0
WRAP.                       NO: One line per depth step
~Well Information Block
STRT.FT                 0.0000: 
STOP.FT              3428.7500: 
STEP.FT                 0.2500: 
NULL.                -999.2500: 
COMP.          Pioneer Natural Resources: COMPANY
WELL.          Cordillera 34-7: WELL
FLD.           Purgatorie River: FIELD
LOC.           598' FSL & 1770' FEL: LOCATION
PROV.                 Colorado: PROVINCE
CNTY.               Las Animas: COUNTRY
SRVC.                Patterson: SERVICE COMPANY
DATE.          Fri Nov 18 07:55:32 2005: LOG DATE
UWI.                          : UNIQUE WELL ID
~Curve Information Block
DEPT.FT            0 000 00 00: Depth
AMP3.mV                       : CBL 3' Amplitude
CCL.                          : Casing Collar Locator
GR.GAPI                       : Gamma Ray
TT3.usec                      : CBL 3' Travel Time
~Parameter Information Block
~A  Depth       AMP3        CCL          GR         TT3     
# ...
   234.5000      6.2197      0.0000     80.6181    868.6507
   234.7500      6.2017      0.0000     85.3263    883.6874
   235.0000      6.2166      0.0000     88.7736    887.6065
   235.2500      6.2484      0.0000     89.7837    876.9462
   235.5000      6.2873      0.0000     88.4341    856.0214
   235.7500      6.3175      0.0000     86.0559    833.7155
   236.0000      6.3153      0.0000     83.9384    816.8054
   236.2500      6.2707      0.0000     82.3903    806.9189
   236.5000      6.2041      0.0000     81.2942    802.2458
   236.7500      6.1540      0.0000     80.9195    800.4520
   237.0000      6.1424      0.0000     81.6459    800.2965
   237.2500      6.1530      0.0000     83.2250    801.8062
   237.5000      6.1409      0.0000     84.8058    805.3585
   237.7500      6.0739      0.0000     85.5440    810.0509
   238.0000      5.9712      0.0000     84.9385    813.4210
   238.2500      5.8853      0.0000     82.8745    815.3829
   238.5000      5.8333      0.0000     79.6804    823.9400
   238.7500      5.7646      0.0000     75.9777    853.1240
   239.0000      5.6237      0.0000     72.3234    909.9958
   239.2500      5.4264      0.0000     69.1549    984.4167
   239.5000      5.2469      0.0000     66.9418   1055.6157
   239.7500      5.1433      0.0000     66.1297   1108.2252
   240.0000      5.1173      2.0000     66.9599   1139.5710
   240.2500      5.1353     -2.0000     69.2084   1154.1366
   240.5000      5.1668      0.0000     71.8794   1155.1696
   240.7500      5.2158      0.0000     73.5430   1141.0212
   241.0000      5.3475      0.0000     73.5003   1107.0386
   241.2500      5.6690      0.0000     72.3870   1051.5237
   241.5000      6.2371      0.0000     71.2532    981.5176
   241.7500      6.9626      0.0000     70.2897    911.9515
   242.0000      7.6359      0.0000     68.7690    857.1940
   242.2500      8.0704      0.0000     66.0863    822.9490
   242.5000      8.2227      0.0000     62.6277    805.8506
   242.7500      8.1868      0.0000     59.5817    798.9824
   243.0000      8.0960      0.0000     57.9588    796.7717
   243.2500      8.0343      0.0000     57.8444    796.2853
   243.5000      8.0185      0.0000     58.5015    796.4185
   243.7500      8.0292      0.0000     59.0221    796.9553
   244.0000      8.0414      0.0000     59.0216    798.0755
   244.2500      8.0398      0.0000     58.8783    800.0407
   244.5000      8.0259      0.0000     59.1537    802.7539
   244.7500      8.0087      0.0000     59.8926    805.3756
   245.0000      7.9831      0.0000     61.0233    806.6423
   245.2500      7.9254      0.0000     63.1631    805.9197
   245.5000      7.8257      0.0000     67.0349    803.8482
   245.7500      7.7142      0.0000     71.9046    801.7310
   246.0000      7.6376      0.0000     75.4550    800.4673
   246.2500      7.6139      0.0000     75.6692    800.2336
   246.5000      7.6240      0.0000     72.4594    800.9376
   246.7500      7.6428      0.0000     67.3715    802.6254
   247.0000      7.6640      0.0000     62.2684    805.3373
   247.2500      7.6921      0.0000     58.4147    808.7754
   247.5000      7.7240      0.0000     56.3029    812.5237
   247.7500      7.7485      0.0000     56.0524    816.6801
   248.0000      7.7588      0.0000     58.0088    821.7559
   248.2500      7.7587      0.0000     62.5986    827.6219
   248.5000      7.7557      0.0000     69.1969    833.0121
   248.7500      7.7538      0.0000     75.5194    836.3792
   249.0000      7.7516      0.0000     79.0019    837.0323
   249.2500      7.7457      0.0000     79.0507    835.5555
   249.5000      7.7367      0.0000     77.5895    833.5215
   249.7500      7.7302      0.0000     77.2816    832.5674
   250.0000      7.7330      0.0000     79.6413    833.1122
   250.2500      7.7495      0.0000     84.7521    833.9692
   250.5000      7.7800      0.0000     91.8501    833.6806
   250.7500      7.8181      0.0000     99.6760    832.1777
   251.0000      7.8492      0.0000    106.8956    830.8488
   251.2500      7.8566      0.0000    112.8165    831.2005
   251.5000      7.8368      0.0000    117.7141    833.8541
   251.7500      7.8033      0.0000    122.3410    838.5580
   252.0000      7.7751      0.0000    127.0659    844.5286
   252.2500      7.7625      0.0000    131.3137    850.6790
   252.5000      7.7649      0.0000    133.7674    855.7050
   252.7500      7.7782      0.0000    133.2673    858.0639
   253.0000      7.7982      0.0000    129.8199    856.4931
   253.2500      7.8193      0.0000    124.7695    851.1614
   253.5000      7.8342      0.0000    119.7385    844.3024
   253.7500      7.8370      0.0000    115.3571    839.2545
   254.0000      7.8280      0.0000    111.3160    838.0241
   254.2500      7.8122      0.0000    107.6860    838.9645
   254.5000      7.7957      0.0000    105.5680    837.5469
   254.7500      7.7818      0.0000    105.8476    830.8132
   255.0000      7.7709      0.0000    107.7257    820.7454
   255.2500      7.7624      0.0000    109.2130    812.2527
   255.5000      7.7567      0.0000    108.9550    808.5928
   255.7500      7.7562      0.0000    107.1127    809.7308
   256.0000      7.7633      0.0000    104.7483    814.4910
   256.2500      7.7761      0.0000    102.8007    823.1585
   256.5000      7.7879      0.0000    101.4695    837.2915
   256.7500      7.7913      0.0000    100.3271    856.6285
   257.0000      7.7817      0.0000     99.0701    876.6342
   257.2500      7.7581      0.0000     97.9918    890.3772
   257.5000      7.7204      0.0000     97.5268    893.6741
   257.7500      7.6686      0.0000     97.5610    887.9894
   258.0000      7.6072      0.0000     97.3982    878.1946
   258.2500      7.5497      0.0000     96.2882    868.6660
   258.5000      7.5132      0.0000     94.2045    862.0034
   258.7500      7.5068      0.0000     92.3890    859.6401
   259.0000      7.5262      0.0000     92.6072    861.6638
   259.2500      7.5596      0.0000     95.2813    866.1071
   259.5000      7.5970      0.0000     98.8408    869.4246
   259.7500      7.6326      0.0000    101.4609    868.1046
   260.0000      7.6616      0.0000    102.9465    860.2383
   260.2500      7.6788      0.0000    104.4601    846.5363
   260.5000      7.6831      0.0000    106.9840    830.3296
   260.7500      7.6816      0.0000    110.3220    815.9258
   261.0000      7.6855      0.0000    113.0751    806.2111
   261.2500      7.7029      0.0000    113.6834    801.6365
   261.5000      7.7338      0.0000    112.0065    801.0638
   261.7500      7.7713      0.0000    109.6759    802.8242
   262.0000      7.8047      0.0000    108.6098    804.9932
   262.2500      7.8229      0.0000    109.4586    805.7203
   262.5000      7.8184      0.0000    111.5447    804.1943
   262.7500      7.7904      0.0000    113.8352    801.1812
   263.0000      7.7467      0.0000    115.6848    798.1956
   263.2500      7.7021      0.0000    116.6579    796.2170
   263.5000      7.6740      0.0000    115.9810    795.2859
   263.7500      7.6758      0.0000    112.8832    794.9783
   264.0000      7.7156      0.0000    107.7284    794.9257
   264.2500      7.7944      0.0000    102.2123    794.9756
   264.5000      7.9032      0.0000     98.0056    795.1150
   264.7500      8.0198      0.0000     95.5155    795.3588
   265.0000      8.1167      0.0000     94.1967    795.6799
   265.2500      8.1778      0.0000     93.6523    796.0067
   265.5000      8.2070      0.0000     94.0999    796.2509
   265.7500      8.2213      0.0000     95.8899    796.3363
   266.0000      8.2340      0.0000     98.6864    796.2222
   266.2500      8.2464      0.0000    101.3775    795.9305
   266.5000      8.2530      0.0000    102.9519    795.5568
   266.7500      8.2493      0.0000    103.0336    795.2265
   267.0000      8.2337      0.0000    101.5523    795.0189
   267.2500      8.2052      0.0000     98.8018    794.9288
   267.5000      8.1612      0.0000     95.9699    794.8983
   267.7500      8.1019      0.0000     94.6399    794.8759
