~Version Information
 VERS.                                  2.0 : CWLS LAS VERSION
 WRAP.                                   NO : WRAPING MODE
 SWARE .                 MController 2.5.0J : SOFTWARE VERSION
~Well Information
 WELL.                     Manville 42-14Tr : WELL
 COMP.    Pioneer Natural Resources USA Inc : COMPANY
 FLD.                      Purgatoire River : FIELD
 LOC.                 SE/NE SEC14 T32S R66W : LOCATION
 DATE.                             09/18/05 : DATE(S) LOGGED
 SRVC.       Blanco Geological Services LLC : SERVICE COMPANY
 STAT.                             Colorado : STATE
 CNTY.                           Las Animas : COUNTY
 CTRY.                                  USA : COUNTRY
 API.                       05-071-08522-00 : API NUMBER
 STRT.FT                             889.00 : START DEPTH
 STOP.FT                            1780.00 : STOP DEPTH
 STEP.FT                               1.00 : DEPTH INCREMENT
 NULL.                                -9999 : NULL VALUE
~Curve information
 DEPTH.FT                                   :
 ROP.MIN/FT                                 :
 GAS.UNITS                                  :
~ASCII Log data
# ...
      1289.0         0.27        186.4 
      1290.0         0.23        183.5 
      1291.0         0.27        172.2 
      1292.0         0.27        161.8 
      1293.0         0.23        155.0 
      1294.0         0.23        139.4 
      1295.0         0.23        118.0 
      1296.0         0.17        109.6 
      1297.0         0.22        103.7 
      1298.0         0.23         97.5 
      1299.0         0.17         92.8 
      1300.0         0.10         92.8 
      1301.0         0.17         91.3 
      1302.0         0.20         89.3 
      1303.0         0.23         87.6 
      1304.0         0.20         85.6 
      1305.0         0.17         83.8 
      1306.0         0.23         80.9 
      1307.0         0.13         80.9 
      1308.0         0.20         81.2 
      1309.0         0.13         81.2 
      1310.0         0.20         82.6 
      1311.0         0.13         82.6 
      1312.0         0.17         83.6 
      1313.0         0.20         84.8 
      1314.0         0.95        109.1 
      1315.0         0.60        202.5 
      1316.0         0.33        288.3 
      1317.0         0.27        309.1 
      1318.0         0.23        305.5 
      1319.0         0.20        286.7 
      1320.0         0.17        264.3 
      1321.0         0.33        259.5 
      1322.0         0.20        191.0 
      1323.0         0.20        187.4 
      1324.0         0.20        180.2 
      1325.0         0.22        177.7 
      1326.0         0.20        172.5 
      1327.0         0.17        171.4 
      1328.0         0.23        158.9 
      1329.0         0.20        154.3 
      1330.0         0.20        150.1 
      1331.0         0.17        143.3 
      1332.0         0.17        139.5 
      1333.0         0.17        139.5 
      1334.0         0.20        138.3 
      1335.0         0.13        133.4 
      1336.0         0.13        131.8 
      1337.0         0.17        128.0 
      1338.0         0.17        128.0 
      1339.0         0.17        124.3 
      1340.0         0.17        121.3 
      1341.0         0.17        121.3 
      1342.0         0.20        119.8 
      1343.0         0.35        110.3 
      1344.0         0.27         95.4 
      1345.0         0.23        102.3 
      1346.0         0.27        129.9 
      1347.0         0.27        170.7 
      1348.0         0.13        190.5 
      1349.0         0.43        251.2 
      1350.0         0.30        263.3 
      1351.0         0.27        251.6 
      1352.0         0.23        234.0 
      1353.0         0.23        203.8 
      1354.0         0.23        177.7 
      1355.0         0.23        157.4 
      1356.0         0.25        138.8 
      1357.0         0.13        129.6 
      1358.0         0.13        121.8 
      1359.0         0.17        116.8 
      1360.0         0.20        113.8 
      1361.0         0.17        114.5 
      1362.0         0.20        114.5 
      1363.0         0.17        114.7 
      1364.0         0.37        111.7 
      1365.0         0.13        111.0 
      1366.0         0.27        110.8 
      1367.0         0.33        109.6 
      1368.0         0.30        105.7 
      1369.0         0.23        104.6 
      1370.0         0.27        102.1 
      1371.0         0.25         99.8 
      1372.0         0.23         98.4 
      1373.0         0.20         92.2 
      1374.0         0.10         88.3 
      1375.0         0.27         78.3 
      1376.0         1.47         90.3 
      1377.0         0.80         93.1 
      1378.0         0.55        175.1 
      1379.0         0.20        197.6 
      1380.0         0.47        253.1 
      1381.0         0.37        266.8 
      1382.0         0.20        234.3 
      1383.0         0.20        225.0 
      1384.0         0.37        220.3 
      1385.0         0.40        161.6 
      1386.0         0.43        128.1 
      1387.0         0.38        103.9 
      1388.0         0.17        105.3 
      1389.0         0.13        105.2 
      1390.0         0.13        103.4 
      1391.0         0.17        100.5 
      1392.0         0.13        100.5 
      1393.0         0.13         99.5 
      1394.0         0.27         93.5 
      1395.0         0.20         92.5 
      1396.0         0.17         93.7 
      1397.0         0.20         93.7 
      1398.0         0.17         94.5 
      1399.0         0.17         95.0 
      1400.0         0.20         91.9 
      1401.0         0.23         96.0 
      1402.0         0.50        101.3 
      1403.0         0.42         89.1 
      1404.0         0.13         67.6 
      1405.0         0.17         62.5 
      1406.0         9.68        124.7 
      1407.0         0.27         77.3 
      1408.0         0.33         92.9 
      1409.0         0.33        114.8 
      1410.0         0.37        135.6 
      1411.0         0.27        135.1 
      1412.0         0.17        135.1 
      1413.0         0.17        131.3 
      1414.0         0.30        126.4 
      1415.0         0.30        122.1 
      1416.0         0.27        120.3 
      1417.0         0.27        116.5 
      1418.0         0.25        116.0 
      1419.0         0.20        107.1 
      1420.0         0.20        104.0 
      1421.0         0.13        101.8 
      1422.0         0.23         96.0 
      1423.0         0.27         93.4 
      1424.0         0.30         92.1 
      1425.0         0.17         92.7 
      1426.0         0.27         93.0 
      1427.0         0.27         92.3 
      1428.0         0.27         92.3 
      1429.0         0.33         91.3 
      1430.0         0.27         90.2 
      1431.0         0.27         89.9 
      1432.0         0.28         88.0 
      1433.0         0.17         87.3 
      1434.0         0.17         84.9 
      1435.0         0.10         84.1 
      1436.0         1.13         77.1 
      1437.0         0.27         73.4 
      1438.0         0.20         96.1 
      1439.0         0.27        122.9 
      1440.0         0.20        135.2 
      1441.0         0.27        156.2 
      1442.0         0.30        167.5 
      1443.0         0.32        156.7 
      1444.0         0.23        155.1 
      1445.0         0.27        130.8 
      1446.0         0.27        122.2 
      1447.0         0.30        108.4 
      1448.0         0.27         98.6 
      1449.0         0.30        100.6 
      1450.0         0.23         99.9 
      1451.0         0.13         99.9 
      1452.0         0.13         98.4 
      1453.0         0.23         97.2 
      1454.0         0.20         92.0 
      1455.0         0.20         90.3 
      1456.0         0.10         89.5 
      1457.0         0.17         88.4 
      1458.0         0.28         87.3 
      1459.0         0.23         86.2 
      1460.0         0.13         88.3 
      1461.0         0.20         89.8 
      1462.0         0.20         89.8 
      1463.0         0.20         89.5 
      1464.0         0.17         87.7 
      1465.0         0.13         85.3 
      1466.0         1.87         84.1 
      1467.0         0.15         94.1 
      1468.0         0.47        147.1 
      1469.0         0.10        164.5 
      1470.0         0.23        183.6 
      1471.0         0.30        190.3 
      1472.0         0.23        192.7 
      1473.0         0.20        192.4 
      1474.0         0.17        192.4 
      1475.0         0.23        191.0 
      1476.0         0.17        177.2 
      1477.0         0.20        170.2 
      1478.0         0.13        154.8 
      1479.0         0.17        139.5 
      1480.0         0.20        136.9 
      1481.0         0.20        120.4 
      1482.0         0.35        108.2 
      1483.0         0.37        107.4 
      1484.0         0.20        107.3 
      1485.0         0.23        107.3 
      1486.0         0.20        105.2 
      1487.0         0.20        101.3 
      1488.0         0.20         97.4 
