~Version Information
VERS.                      2.0: CWLS Log ASCII Standard - VERSION 2.0
WRAP.                       NO: One line per depth step
~Well Information Block
STRT.FT               970.0000: 
STOP.FT              1881.0000: 
STEP.FT                 0.1000: 
NULL.                -999.2500: 
COMP.          Petrogulf Corporation: COMPANY
WELL.             Norton 9-14R: WELL
FLD.           Purgatorie River: FIELD
LOC.           725' FSL & 1103' FWL: LOCATION
PROV.                 Colorado: PROVINCE
CNTY.               Las Animas: COUNTRY
SRVC.                Patterson: SERVICE COMPANY
DATE.          Fri Oct 07 07:52:23 2005: LOG DATE
UWI.                          : UNIQUE WELL ID
~Curve Information Block
DEPT.FT            0 000 00 00: Depth
DCAL.in                       : CDL Caliper
RHOB.g/cc                     : CDL Bulk Density
RHOC.g/cc                     : CDL Density Correction
DPOR.pu                       : CDL Density Porosity
GR.GAPI                       : Gamma Ray
NPOR.pu                       : Neutron Porosity
~Parameter Information Block
~A  Depth       DCAL        RHOB        RHOC        DPOR         GR         NPOR    
# ...
  1085.2000      8.2186      2.0028      0.0042     39.2229    104.5557     32.5883
  1085.3000      8.2035      1.9539      0.0266     42.1888    104.7345     32.5368
  1085.4000      8.2035      1.8952     -0.0159     45.7440    105.0050     32.4446
  1085.5000      8.1810      1.8461     -0.0334     48.7213    105.0354     32.2858
  1085.6000      8.1810      1.8249      0.0256     50.0042    104.2358     32.2336
  1085.7000      8.1810      1.8349     -0.0089     49.4002    104.4820     32.4859
  1085.8000      8.1742      1.8694     -0.0036     47.3115    106.0318     32.8849
  1085.9000      8.1742      1.9195      0.0298     44.2711    108.9965     33.1676
  1086.0000      8.1576      1.9821      0.0848     40.4778    112.5776     33.3257
  1086.1000      8.1576      2.0556      0.1114     36.0267    114.8364     33.4084
  1086.2000      8.1576      2.1353      0.1355     31.1960    115.8849     33.1935
  1086.3000      8.1514      2.2240      0.2077     25.8159    116.8589     32.5730
  1086.4000      8.1514      2.3312      0.1927     19.3191    118.2321     31.9857
  1086.5000      8.1893      2.4456      0.2037     12.3903    121.0646     31.7666
  1086.6000      8.1893      2.5339      0.1178      7.0372    125.6505     31.6664
  1086.7000      8.1893      2.5854      0.0944      3.9167    130.2265     31.5556
  1086.8000      7.9866      2.6149      0.1268      2.1301    133.5834     31.6259
  1086.9000      7.9866      2.6367      0.1184      0.8086    135.6814     31.7127
  1087.0000      7.9522      2.6607      0.1053     -0.6458    137.3539     31.5324
  1087.1000      7.9522      2.6887      0.1358     -2.3482    139.2740     31.1742
  1087.2000      7.9522      2.7100      0.1590     -3.6391    141.9669     30.7143
  1087.3000      7.9554      2.7117      0.1126     -3.7417    144.1693     30.1521
  1087.4000      7.9554      2.6937      0.1014     -2.6471    144.3426     29.7129
  1087.5000      7.9728      2.6748      0.0444     -1.5031    144.2413     29.4621
  1087.6000      7.9728      2.6701      0.0905     -1.2189    146.8457     29.3169
  1087.7000      7.9728      2.6602      0.0921     -0.6157    152.5950     29.3278
  1087.8000      7.9875      2.6239      0.0461      1.5828    156.4454     29.4900
  1087.9000      7.9875      2.5763      0.0127      4.4638    154.0940     29.6580
  1088.0000      7.9975      2.5431      0.0011      6.4769    149.7450     29.7465
  1088.1000      7.9975      2.5290     -0.0054      7.3304    148.6894     29.7105
  1088.2000      7.9975      2.5221      0.0522      7.7488    148.5854     29.6379
  1088.3000      7.9960      2.5119     -0.0115      8.3721    145.2100     29.7417
  1088.4000      7.9960      2.5037     -0.0309      8.8654    141.5671     29.9614
  1088.5000      8.0171      2.5040      0.0610      8.8470    143.4926     29.9917
  1088.6000      8.0171      2.5051      0.0744      8.7842    150.0861     29.7308
  1088.7000      8.0171      2.5037      0.1063      8.8691    154.4801     29.5250
  1088.8000      7.9993      2.5036      0.1142      8.8753    152.1902     29.5003
  1088.9000      7.9993      2.5027      0.1286      8.9275    146.5933     29.4706
  1089.0000      8.0076      2.4969      0.0941      9.2761    143.4526     29.5250
  1089.1000      8.0076      2.4843      0.0938     10.0434    143.8070     29.8230
  1089.2000      8.0076      2.4621      0.0770     11.3860    145.1015     30.2980
  1089.3000      8.1194      2.4268      0.0805     13.5251    144.9490     30.7579
  1089.4000      8.1194      2.3829      0.0415     16.1883    143.4504     31.1156
  1089.5000      8.1332      2.3505     -0.0337     18.1536    143.7278     31.2113
  1089.6000      8.1332      2.3405      0.0521     18.7581    146.9903     30.8323
  1089.7000      8.1332      2.3368      0.0381     18.9805    150.2114     30.3445
  1089.8000      8.1534      2.3298      0.0569     19.4059    149.0262     30.3440
  1089.9000      8.1534      2.3270      0.0484     19.5746    141.4953     30.7831
  1090.0000      8.2021      2.3286      0.0698     19.4789    133.5170     31.1963
  1090.1000      8.2021      2.3268      0.0494     19.5897    133.3394     31.4979
  1090.2000      8.2021      2.3264      0.0505     19.6120    137.9158     31.8984
  1090.3000      8.1095      2.3411      0.0429     18.7223    138.2311     32.2396
  1090.4000      8.1095      2.3765      0.0683     16.5765    134.6124     32.3240
  1090.5000      8.0510      2.4284      0.0972     13.4293    133.1689     32.1736
  1090.6000      8.0510      2.4817      0.1523     10.1977    135.4714     31.7358
  1090.7000      8.0510      2.5250      0.1181      7.5745    137.1490     31.2559
  1090.8000      8.0107      2.5649      0.0702      5.1600    135.5184     30.9618
  1090.9000      8.0107      2.5992      0.0962      3.0785    134.1278     30.6647
  1091.0000      7.9813      2.6142      0.0168      2.1722    135.8652     30.3393
  1091.1000      7.9813      2.6171      0.0357      1.9956    138.5957     30.3793
  1091.2000      7.9813      2.6248      0.0143      1.5267    139.4692     30.6935
  1091.3000      7.9831      2.6376      0.0833      0.7488    137.7315     30.6427
  1091.4000      7.9831      2.6454      0.0858      0.2790    134.4349     30.1246
  1091.5000      7.9333      2.6397      0.0775      0.6238    132.8052     29.4417
  1091.6000      7.9333      2.6194      0.0656      1.8559    135.2281     28.7898
  1091.7000      7.9333      2.5946      0.0727      3.3578    140.4151     28.3927
  1091.8000      7.9265      2.5755      0.0357      4.5138    144.7074     28.3164
  1091.9000      7.9265      2.5592      0.1006      5.5045    145.5462     28.2178
  1092.0000      7.9152      2.5383      0.0192      6.7683    142.4127     27.9464
  1092.1000      7.9152      2.5186      0.0573      7.9651    138.9038     27.6920
  1092.2000      7.9152      2.5077      0.0655      8.6222    137.4016     27.6401
  1092.3000      7.9247      2.5159      0.0462      8.1289    135.0314     28.0326
  1092.4000      7.9247      2.5500      0.0993      6.0578    131.1493     28.7554
  1092.5000      7.9093      2.6016      0.1318      2.9336    127.5981     29.3352
  1092.6000      7.9093      2.6621      0.1603     -0.7305    124.7064     29.7532
  1092.7000      7.9093      2.7238      0.1631     -4.4724    122.2650     30.1786
  1092.8000      7.8945      2.7808      0.1930     -7.9300    119.3113     30.3609
  1092.9000      7.8945      2.8382      0.1920    -11.4084    114.7064     30.1127
  1093.0000      7.8832      2.8957      0.2241    -14.8929    109.3632     29.6459
  1093.1000      7.8832      2.9385      0.2054    -17.4841    104.7715     29.1776
  1093.2000      7.8832      2.9569      0.2072    -18.5978    101.5577     28.6623
  1093.3000      7.8377      2.9567      0.0941    -18.5899     98.9180     28.2845
  1093.4000      7.8377      2.9375      0.1181    -17.4232     95.3371     28.2834
  1093.5000      7.9093      2.8917     -0.0218    -14.6503     90.6728     28.3374
  1093.6000      7.9093      2.8383     -0.0701    -11.4148     86.4788     28.0644
  1093.7000      7.9093      2.7934     -0.0261     -8.6928     84.7413     27.6295
  1093.8000      7.9057      2.7513     -0.0166     -6.1395     85.1246     27.2405
  1093.9000      7.9057      2.7237      0.0213     -4.4642     86.7129     26.9605
  1094.0000      7.7667      2.7285      0.1257     -4.7546     90.9541     27.0950
  1094.1000      7.7667      2.7531      0.2275     -6.2501     97.4005     27.7186
  1094.2000      7.7667      2.7703      0.3126     -7.2906    103.6825     28.4399
  1094.3000      7.7290      2.7651      0.3172     -6.9736    109.0871     28.9900
  1094.4000      7.7290      2.7363      0.2312     -5.2293    112.9570     29.3639
  1094.5000      7.8247      2.6956      0.1511     -2.7614    114.8139     29.6230
  1094.6000      7.8247      2.6576      0.1314     -0.4596    115.3818     29.8891
  1094.7000      7.8247      2.6223      0.0912      1.6802    115.5387     30.1179
