~Version Information
VERS.                      2.0: CWLS Log ASCII Standard - VERSION 2.0
WRAP.                       NO: One line per depth step
~Well Information Block
STRT.FT               555.0000: 
STOP.FT              1158.0000: 
STEP.FT                 0.1000: 
NULL.                -999.2500: 
COMP.          Pioneer Natural Resources: COMPANY
WELL.              Draco 31-21: WELL
FLD.           Purgatoire River: FIELD
LOC.           491' FNL & 2446' FEL: LOCATION
CNTY.               Las Animas: COUNTY
SRVC.                Patterson: SERVICE COMPANY
DATE.          Wed Feb 01 07:01:32 2006: LOG DATE
UWI.           05 071 08672 00: UNIQUE WELL ID
STAT.                 Colorado: STATE
~Curve Information Block
DEPT.FT            0 000 00 00: Depth
DCAL.in                       : CDL Caliper
RHOB.g/cc                     : CDL Bulk Density
RHOC.g/cc                     : CDL Density Correction
DPOR.pu                       : CDL Density Porosity
GR.GAPI                       : Gamma Ray
NPOR.pu                       : Neutron Porosity
~Parameter Information Block
~A  Depth       DCAL        RHOB        RHOC        DPOR         GR         NPOR    
# ...
   987.0000      7.8612      2.4775      0.0339     10.4530     46.1522     20.0540
   987.1000      7.8612      2.4709      0.0221     10.8521     43.5672     20.1341
   987.2000      7.8612      2.4592     -0.0072     11.5622     41.1300     20.5878
   987.3000      7.8605      2.4566      0.0205     11.7193     45.2585     20.8807
   987.4000      7.8605      2.4686      0.0133     10.9924     51.9689     20.8771
   987.5000      7.8612      2.4907      0.0332      9.6573     51.9660     20.6048
   987.6000      7.8612      2.5085      0.0750      8.5735     49.4228     20.3514
   987.7000      7.8612      2.5096      0.0466      8.5083     51.5050     20.3025
   987.8000      7.8601      2.4963      0.0798      9.3149     54.5949     20.4838
   987.9000      7.8601      2.4821      0.0261     10.1748     55.0833     20.7372
   988.0000      7.8587      2.4805      0.0082     10.2707     55.9075     21.0365
   988.1000      7.8587      2.4900      0.0598      9.6950     59.7874     21.5924
   988.2000      7.8587      2.4956      0.0545      9.3553     65.2921     22.1298
   988.3000      7.8601      2.4921      0.0170      9.5723     72.3137     22.2502
   988.4000      7.8601      2.4885      0.0231      9.7898     79.4904     21.9084
   988.5000      7.8607      2.4916      0.0134      9.5993     81.6257     21.2123
   988.6000      7.8607      2.5010     -0.0004      9.0284     80.0286     20.6400
   988.7000      7.8607      2.5139      0.0303      8.2461     80.4587     20.8650
   988.8000      7.8591      2.5229      0.0354      7.7012     84.7176     21.8528
   988.9000      7.8591      2.5198      0.0383      7.8936     88.8048     23.0137
   989.0000      7.8604      2.5027      0.0203      8.9295     89.6185     24.5651
   989.1000      7.8604      2.4783      0.0046     10.4046     91.1253     26.6199
   989.2000      7.8604      2.4478     -0.0181     12.2524     96.6839     28.0765
   989.3000      7.8606      2.3943      0.0060     15.4969    103.9776     28.4861
   989.4000      7.8606      2.3077     -0.0512     20.7426    112.0147     28.7217
   989.5000      7.8614      2.2005     -0.0621     27.2403    121.6531     29.2034
   989.6000      7.8614      2.0821     -0.0921     34.4182    126.4315     30.0321
   989.7000      7.8614      1.9531     -0.0952     42.2355    118.8095     31.1307
   989.8000      7.8824      1.8236     -0.1519     50.0836    103.9605     31.7585
   989.9000      7.8824      1.7050     -0.1774     57.2707     92.4573     31.5634
   990.0000      7.8666      1.5936     -0.1358     64.0235     86.8329     31.3816
   990.1000      7.8666      1.4922     -0.1618     70.1667     83.2692     32.1358
   990.2000      7.8666      1.4212     -0.1465     74.4701     78.4386     33.1788
   990.3000      7.8664      1.3933     -0.0591     76.1623     72.7235     33.4794
   990.4000      7.8664      1.4115     -0.0228     75.0600     69.1842     33.5372
   990.5000      7.8699      1.4764      0.0219     71.1254     69.3693     33.9716
   990.6000      7.8699      1.5757      0.0701     65.1107     73.5228     34.3746
   990.7000      7.8699      1.6926      0.0739     58.0272     79.8249     34.4030
   990.8000      7.8702      1.8229      0.1205     50.1295     84.1451     34.3288
   990.9000      7.8702      1.9568      0.1983     42.0134     87.8355     34.3203
   991.0000      7.8744      2.0756      0.2231     34.8145     93.4037     34.2889
   991.1000      7.8744      2.1792      0.2284     28.5343     99.7039     34.3671
   991.2000      7.8744      2.2763      0.1885     22.6490    108.1891     34.4840
   991.3000      7.8794      2.3609      0.2267     17.5228    117.1362     34.0722
   991.4000      7.8794      2.4227      0.1537     13.7762    121.7116     33.1257
   991.5000      7.8701      2.4598      0.1027     11.5256    122.3937     32.1966
   991.6000      7.8701      2.4724      0.1211     10.7642    122.7509     31.5220
   991.7000      7.8701      2.4683      0.0758     11.0149    126.4283     31.3429
   991.8000      7.8674      2.4615      0.0724     11.4267    134.5243     31.5217
   991.9000      7.8674      2.4557      0.0582     11.7781    141.0696     31.6791
   992.0000      7.8666      2.4517      0.0296     12.0164    139.7767     31.6196
   992.1000      7.8666      2.4549      0.0301     11.8225    133.3755     31.1973
   992.2000      7.8666      2.4615      0.0631     11.4221    129.4413     30.3637
   992.3000      7.8662      2.4599      0.0695     11.5218    127.5605     29.4028
   992.4000      7.8662      2.4494      0.0348     12.1564    122.4392     28.8095
   992.5000      7.8665      2.4418      0.0358     12.6195    119.9879     28.8046
   992.6000      7.8665      2.4433      0.0630     12.5297    128.2005     28.9420
   992.7000      7.8665      2.4528      0.0374     11.9540    142.2264     28.9300
   992.8000      7.8690      2.4710      0.0475     10.8485    151.2565     29.2358
   992.9000      7.8690      2.5036      0.0421      8.8715    148.3741     29.6661
   993.0000      7.8673      2.5483      0.1054      6.1655    135.5898     29.1079
   993.1000      7.8673      2.5832      0.1689      4.0512    119.6242     27.7942
   993.2000      7.8673      2.5934      0.1531      3.4314    102.8903     27.0151
   993.3000      7.8675      2.5904      0.1549      3.6107     90.6940     27.0591
   993.4000      7.8675      2.5911      0.1238      3.5674     88.3734     27.4466
   993.5000      7.8690      2.5939      0.1714      3.4005     90.5045     27.9492
   993.6000      7.8690      2.5890      0.1009      3.6986     91.9002     28.1001
   993.7000      7.8690      2.5812      0.0880      4.1723     92.9997     27.0448
   993.8000      7.8661      2.5816      0.0730      4.1464     92.8249     25.1707
   993.9000      7.8661      2.5861      0.1111      3.8700     89.1776     24.4151
   994.0000      7.8652      2.5781      0.1054      4.3572     87.5248     25.4447
   994.1000      7.8652      2.5600      0.0700      5.4560     91.3770     26.4643
   994.2000      7.8652      2.5539      0.0764      5.8238     95.5504     26.1849
   994.3000      7.8640      2.5680      0.1204      4.9726     97.1376     25.5820
   994.4000      7.8640      2.5890      0.1410      3.6975     97.0950     25.8830
   994.5000      7.8676      2.6085      0.1515      2.5155     98.5987     26.6264
   994.6000      7.8676      2.6309      0.2042      1.1578    101.1500     26.9649
   994.7000      7.8676      2.6526      0.2549     -0.1588     98.3930     26.8594
   994.8000      7.8759      2.6630      0.1995     -0.7890     90.8783     26.1956
   994.9000      7.8759      2.6661      0.1746     -0.9747     86.1442     25.5761
   995.0000      7.8841      2.6728      0.1678     -1.3831     84.5925     25.7166
   995.1000      7.8841      2.6798      0.1880     -1.8056     83.3052     26.1254
   995.2000      7.8841      2.6720      0.2508     -1.3359     81.9473     26.5047
   995.3000      7.9113      2.6538      0.1496     -0.2284     79.8093     27.1796
   995.4000      7.9113      2.6468      0.1946      0.1943     80.0431     27.8954
   995.5000      7.9192      2.6454      0.2230      0.2762     85.8356     28.0553
   995.6000      7.9192      2.6362      0.0802      0.8385     92.2830     27.6187
   995.7000      7.9192      2.6278      0.1013      1.3464     94.0381     26.8470
   995.8000      7.9197      2.6154      0.1555      2.0993     93.7460     26.1801
   995.9000      7.9197      2.5832      0.1088      4.0504     96.4522     26.1590
   996.0000      7.9203      2.5372      0.0983      6.8347     98.8348     26.8903
   996.1000      7.9203      2.4955      0.0892      9.3635     94.7097     27.7532
   996.2000      7.9203      2.4663      0.0660     11.1350     88.4219     28.0452
   996.3000      7.9291      2.4466      0.0703     12.3269     89.0027     28.0841
   996.4000      7.9291      2.4388      0.0436     12.7975     92.4311     28.3541
   996.5000      7.9299      2.4555      0.0897     11.7868     91.3428     28.4451
