~Version Information
VERS.                      2.0: CWLS Log ASCII Standard - VERSION 2.0
WRAP.                       NO: One line per depth step
~Well Information Block
STRT.FT               800.0000: 
STOP.FT              3500.0000: 
STEP.FT                 0.1000: 
NULL.                -999.2500: 
COMP.          Pioneer Natural Resources: COMPANY
WELL.          Cordillera 34-7: WELL
FLD.           Purgatoire River: FIELD
LOC.           598' FSL & 1770' FEL--: LOCATION
PROV.                 Colorado: PROVINCE
CNTY.               Las Animas: COUNTRY
SRVC.                Patterson: SERVICE COMPANY
DATE.          Fri Oct 28 07:22:44 2005: LOG DATE
UWI.           05 071 08552 00: UNIQUE WELL ID
~Curve Information Block
DEPT.FT            0 000 00 00: Depth
DCAL.in                       : CDL Caliper
RHOB.g/cc                     : CDL Bulk Density
RHOC.g/cc                     : CDL Density Correction
DPOR.pu                       : CDL Density Porosity
NPOR.pu                       : Neutron Porosity
GR.GAPI                       : Gamma Ray
~Parameter Information Block
~A  Depth       DCAL        RHOB        RHOC        DPOR        NPOR         GR     
# ...
  2048.0000      8.0768      2.4768      0.0528     10.4953     31.3671    118.9187
  2048.1000      8.0768      2.5151      0.1141      8.1760     31.3457    121.6802
  2048.2000      8.0768      2.5443      0.1378      6.4069     30.9874    127.9556
  2048.3000      8.0843      2.5556      0.1321      5.7217     30.6993    134.0209
  2048.4000      8.0843      2.5593      0.1263      5.4963     30.1896    138.6941
  2048.5000      8.0941      2.5573      0.1467      5.6198     29.6079    140.5196
  2048.6000      8.0941      2.5415      0.1445      6.5767     29.6817    137.1644
  2048.7000      8.0941      2.5130      0.1074      8.3035     30.5032    131.3582
  2048.8000      8.0997      2.4836      0.0653     10.0835     31.2945    127.1577
  2048.9000      8.0997      2.4597      0.0447     11.5309     31.7243    127.6635
  2049.0000      8.0997      2.4340      0.0432     13.0898     32.1667    134.6602
  2049.1000      8.0997      2.3971     -0.0007     15.3292     32.5945    144.8646
  2049.2000      8.0997      2.3475      0.0143     18.3321     32.8640    152.8606
  2049.3000      8.0980      2.2938     -0.0320     21.5879     32.9805    156.0638
  2049.4000      8.0980      2.2535     -0.0093     24.0301     32.9915    155.0802
  2049.5000      8.0958      2.2312     -0.0090     25.3818     33.1664    148.3956
  2049.6000      8.0958      2.2062      0.0138     26.8990     33.5708    134.4596
  2049.7000      8.0958      2.1560      0.0317     29.9370     33.9881    120.6640
  2049.8000      8.0934      2.0785      0.0528     34.6336     34.4759    114.9897
  2049.9000      8.0934      1.9903      0.0615     39.9824     35.3161    114.0376
  2050.0000      8.0932      1.9115      0.0829     44.7573     36.2273    109.4305
  2050.1000      8.0932      1.8390      0.1220     49.1516     36.7323    100.6786
  2050.2000      8.0932      1.7492      0.1175     54.5954     36.8664     91.5296
  2050.3000      8.0899      1.6423      0.0440     61.0737     36.7635     82.2996
  2050.4000      8.0899      1.5479      0.0394     66.7917     36.3435     73.7842
  2050.5000      8.0810      1.4861      0.0345     70.5399     35.5734     68.0872
  2050.6000      8.0810      1.4580      0.0368     72.2425     34.9045     64.6380
  2050.7000      8.0810      1.4635      0.0504     71.9073     34.7280     60.9376
  2050.8000      8.0626      1.5054      0.0413     69.3681     34.7104     56.7760
  2050.9000      8.0626      1.5731      0.0978     65.2668     34.4374     55.3337
  2051.0000      8.0368      1.6371      0.1033     61.3877     34.1810     58.7665
  2051.1000      8.0368      1.6743      0.1542     59.1316     34.3323     67.3433
  2051.2000      8.0368      1.6806      0.1450     58.7545     34.8178     79.5293
  2051.3000      8.0170      1.6617      0.1385     59.8961     35.3667     90.0519
  2051.4000      8.0170      1.6288      0.0772     61.8881     35.7603     91.2124
  2051.5000      8.0078      1.5973      0.0224     63.8029     36.0879     83.5575
  2051.6000      8.0078      1.5740     -0.0134     65.2098     36.4939     76.0136
  2051.7000      8.0078      1.5608     -0.0626     66.0106     36.5917     70.7495
  2051.8000      8.0045      1.5744     -0.0959     65.1904     36.0788     66.0491
  2051.9000      8.0045      1.6309     -0.0248     61.7641     35.0460     64.5753
  2052.0000      8.0057      1.7179      0.0655     56.4904     33.9502     69.1191
  2052.1000      8.0057      1.8053      0.1556     51.1925     33.4862     78.5837
  2052.2000      8.0057      1.8748      0.1918     46.9833     33.4819     89.2513
  2052.3000      8.0079      1.9340      0.1923     43.3915     33.2148     96.8074
  2052.4000      8.0079      2.0039      0.2068     39.1563     32.8199     98.1819
  2052.5000      8.0065      2.0928      0.1937     33.7681     32.6654     95.2913
  2052.6000      8.0065      2.1893      0.1664     27.9209     32.4460     96.6190
  2052.7000      8.0065      2.2739      0.1389     22.7929     31.9824    105.7795
  2052.8000      8.0041      2.3343      0.1175     19.1321     31.2819    116.4649
  2052.9000      8.0041      2.3733      0.1323     16.7717     30.1000    122.4298
  2053.0000      7.9995      2.4053      0.0972     14.8283     28.6377    125.0902
  2053.1000      7.9995      2.4421      0.1187     12.6001     27.5204    128.1945
  2053.2000      7.9995      2.4741      0.1630     10.6578     27.0989    127.3871
  2053.3000      7.9922      2.4898      0.1085      9.7062     27.1982    119.8616
  2053.4000      7.9922      2.4978      0.1072      9.2266     27.3608    113.3250
  2053.5000      7.9873      2.5068      0.0830      8.6771     27.0225    113.1088
  2053.6000      7.9873      2.5174      0.0981      8.0375     25.7860    116.7554
  2053.7000      7.9873      2.5266      0.0942      7.4803     24.2539    120.7623
  2053.8000      7.9871      2.5322      0.0738      7.1378     23.6723    121.3919
  2053.9000      7.9871      2.5376      0.0353      6.8119     24.1033    116.2568
  2054.0000      7.9879      2.5442      0.0638      6.4143     24.6301    109.8271
  2054.1000      7.9879      2.5442      0.0899      6.4150     24.9050    108.8084
  2054.2000      7.9879      2.5376      0.0577      6.8106     25.0314    114.4233
  2054.3000      7.9883      2.5395      0.0257      6.6961     25.1269    120.7744
  2054.4000      7.9883      2.5540      0.0230      5.8168     25.4798    121.5369
  2054.5000      7.9876      2.5668      0.0304      5.0411     26.0135    116.8737
  2054.6000      7.9876      2.5697      0.0454      4.8680     26.1908    112.9967
  2054.7000      7.9876      2.5669      0.0590      5.0350     26.1157    113.3316
  2054.8000      7.9856      2.5625      0.0608      5.3040     26.4169    112.4694
  2054.9000      7.9856      2.5633      0.0217      5.2524     26.7339    109.2814
  2055.0000      7.9844      2.5757      0.0760      4.5016     26.3042    108.8615
  2055.1000      7.9844      2.5933      0.0643      3.4337     25.5686    111.6017
  2055.2000      7.9844      2.6111      0.0748      2.3581     25.6166    116.5920
  2055.3000      7.9873      2.6303      0.0793      1.1919     26.4188    120.5188
  2055.4000      7.9873      2.6439      0.0994      0.3718     27.1149    118.4399
  2055.5000      7.9898      2.6393      0.0896      0.6505     27.3182    112.3069
  2055.6000      7.9898      2.6226      0.0243      1.6597     27.0247    105.9140
  2055.7000      7.9898      2.6076      0.0705      2.5675     26.4843     97.9650
  2055.8000      7.9902      2.5938      0.0471      3.4066     26.0942     89.0975
  2055.9000      7.9902      2.5838      0.0064      4.0104     25.7733     83.9449
  2056.0000      7.9917      2.5909      0.0162      3.5824     25.1919     83.1555
  2056.1000      7.9917      2.6158     -0.0174      2.0717     24.5697     82.9975
  2056.2000      7.9917      2.6377      0.0292      0.7433     24.2121     82.0141
  2056.3000      7.9942      2.6364      0.0227      0.8238     23.6069     82.8181
  2056.4000      7.9942      2.6203      0.0481      1.7983     22.4515     85.9591
  2056.5000      7.9954      2.6164      0.0479      2.0334     21.3530     89.6479
  2056.6000      7.9954      2.6303      0.0768      1.1953     20.6856     94.8474
  2056.7000      7.9954      2.6385      0.1151      0.6973     20.4342    102.4790
  2056.8000      7.9945      2.6306      0.0860      1.1765     20.5834    108.1811
  2056.9000      7.9945      2.6244      0.0644      1.5497     20.8113    105.7991
  2057.0000      7.9927      2.6337      0.0803      0.9891     20.8643     97.2512
  2057.1000      7.9927      2.6443      0.0913      0.3442     20.8530     89.4087
  2057.2000      7.9927      2.6391      0.0768      0.6618     20.8517     83.5869
  2057.3000      7.9904      2.6235      0.0415      1.6056     20.5814     75.7194
  2057.4000      7.9904      2.6150      0.0266      2.1236     20.0050     68.2915
  2057.5000      7.9890      2.6213      0.0588      1.7410     19.6412     69.4172
