~Version Information
VERS.                      2.0: CWLS Log ASCII Standard - VERSION 2.0
WRAP.                       NO: One line per depth step
~Well Information Block
STRT.FT               330.0000: 
STOP.FT              1972.5000: 
STEP.FT                 0.1000: 
NULL.                -999.2500: 
COMP.          Pioneer Natural Resources: COMPANY
WELL.           Willys 32-8 Tr: WELL
FLD.           Purgatoire River: FIELD
LOC.           1843' FNL & 2355' FEL: LOCATION
CNTY.               Las Animas: COUNTY
SRVC.                Patterson: SERVICE COMPANY
DATE.          Thu Feb 09 10:31:59 2006: LOG DATE
UWI.           05 071 08688 00: UNIQUE WELL ID
STAT.                 Colorado: STATE
~Curve Information Block
DEPT.FT            0 000 00 00: Depth
DCAL.in                       : CDL Caliper
RHOB.g/cc                     : CDL Bulk Density
RHOC.g/cc                     : CDL Density Correction
DPOR.pu                       : CDL Density Porosity
GR.GAPI                       : Gamma Ray
~Parameter Information Block
~A  Depth       DCAL        RHOB        RHOC        DPOR         GR     
# ...
   979.6000      8.6820      1.2985      0.0899     81.9092     35.4542
   979.7000      8.6820      1.2628      0.1138     84.0734     40.3905
   979.8000      8.4533      1.2233      0.0369     86.4682     42.6327
   979.9000      8.4533      1.2043      0.0748     87.6209     41.8872
   980.0000      8.3694      1.2221      0.0988     86.5385     38.7527
   980.1000      8.3694      1.2718      0.1835     83.5285     36.4337
   980.2000      8.3694      1.3367      0.2375     79.5969     38.4636
   980.3000      8.3139      1.4117      0.2614     75.0513     42.4219
   980.4000      8.3139      1.5084      0.2267     69.1900     44.5161
   980.5000      8.3648      1.6286      0.2814     61.9053     46.3731
   980.6000      8.3648      1.7628      0.2659     53.7689     50.1434
   980.7000      8.3648      1.9065      0.3252     45.0632     54.9332
   980.8000      8.4059      2.0369      0.3719     37.1554     61.5872
   980.9000      8.4059      2.1290      0.3267     31.5772     72.4730
   981.0000      8.4080      2.1945      0.3403     27.6055     86.9688
   981.1000      8.4080      2.2563      0.2452     23.8619    101.6327
   981.2000      8.4080      2.3119      0.2324     20.4915    115.3525
   981.3000      8.5278      2.3417      0.1510     18.6838    127.8081
   981.4000      8.5278      2.3384      0.0315     18.8847    136.5106
   981.5000      8.2340      2.3123      0.0493     20.4649    141.9576
   981.6000      8.2340      2.2797      0.0435     22.4440    143.4651
   981.7000      8.2340      2.2601      0.0678     23.6319    136.8154
   981.8000      7.9987      2.2640      0.0495     23.3957    124.8406
   981.9000      7.9987      2.2830      0.1295     22.2420    117.6013
   982.0000      7.9412      2.3108      0.0948     20.5589    119.2401
   982.1000      7.9412      2.3582      0.1105     17.6866    124.3134
   982.2000      7.9412      2.4228      0.2416     13.7671    128.2915
   982.3000      7.9456      2.4813      0.2179     10.2217    129.9863
   982.4000      7.9456      2.5213      0.2187      7.7980    127.8957
   982.5000      7.9401      2.5461      0.1319      6.2946    123.1849
   982.6000      7.9401      2.5617      0.0904      5.3520    118.1656
   982.7000      7.9401      2.5692      0.0493      4.8958    112.2285
   982.8000      7.9380      2.5657      0.0732      5.1104    107.5351
   982.9000      7.9380      2.5555      0.0407      5.7281    107.9373
   983.0000      7.9376      2.5463      0.0750      6.2849    111.4752
   983.1000      7.9376      2.5366      0.0352      6.8699    115.0744
   983.2000      7.9376      2.5331      0.0176      7.0837    117.6114
   983.3000      7.9267      2.5432      0.0852      6.4726    119.5507
   983.4000      7.9267      2.5554      0.0690      5.7362    121.5743
   983.5000      7.9058      2.5630      0.0663      5.2719    125.0876
   983.6000      7.9058      2.5750      0.0642      4.5430    126.8978
   983.7000      7.9058      2.5895      0.1082      3.6645    122.5756
   983.8000      7.9229      2.5940      0.1082      3.3939    121.4227
   983.9000      7.9229      2.5882      0.1019      3.7450    131.0808
   984.0000      7.9199      2.5883      0.0774      3.7391    141.4599
   984.1000      7.9199      2.6247     -0.0095      1.5333    143.7299
   984.2000      7.9199      2.7185      0.0255     -4.1486    143.6428
   984.3000      7.9137      2.8414      0.1496    -11.6009    147.4122
   984.4000      7.9137      2.9390      0.2418    -17.5156    152.6563
   984.5000      7.9246      2.9903      0.2179    -20.6263    149.3152
   984.6000      7.9246      3.0156      0.1491    -22.1567    135.6540
   984.7000      7.9246      3.0273      0.1546    -22.8656    123.8469
   984.8000      7.9238      3.0055      0.1427    -21.5462    119.1998
   984.9000      7.9238      2.9398     -0.0770    -17.5662    116.6303
   985.0000      7.8864      2.8514     -0.0970    -12.2058    113.4450
   985.1000      7.8864      2.7612     -0.1210     -6.7382    110.3765
   985.2000      7.8864      2.6749     -0.0309     -1.5092    108.9860
   985.3000      7.8874      2.5901     -0.0421      3.6275    112.0319
   985.4000      7.8874      2.5034     -0.0103      8.8833    119.0031
   985.5000      7.9705      2.4228     -0.0006     13.7669    126.6183
   985.6000      7.9705      2.3645     -0.0161     17.3053    133.1193
   985.7000      7.9705      2.3290     -0.0006     19.4569    135.6394
   985.8000      8.0015      2.3079     -0.0484     20.7337    134.7634
   985.9000      8.0015      2.2939     -0.0015     21.5797    136.5313
   986.0000      8.0101      2.2674     -0.0083     23.1861    144.2088
   986.1000      8.0101      2.2126      0.0552     26.5085    156.3935
   986.2000      8.0101      2.1334      0.0530     31.3119    167.9838
   986.3000      8.0555      2.0376      0.0658     37.1163    171.7773
   986.4000      8.0555      1.9254      0.1456     43.9168    166.9775
   986.5000      8.1394      1.7920      0.0675     52.0010    162.1584
   986.6000      8.1394      1.6450      0.0195     60.9102    161.9750
   986.7000      8.1394      1.5165     -0.0768     68.6943    162.2017
   986.8000      8.2527      1.4455     -0.0588     72.9999    157.9370
   986.9000      8.2527      1.4444     -0.0284     73.0651    147.3058
   987.0000      8.1745      1.5046      0.0420     69.4154    133.4383
   987.1000      8.1745      1.6181      0.1401     62.5412    124.4642
   987.2000      8.1745      1.7760      0.2332     52.9702    122.1932
   987.3000      8.2843      1.9512      0.3472     42.3504    118.3133
   987.4000      8.2843      2.1066      0.3968     32.9343    110.5803
   987.5000      8.4074      2.2349      0.3765     25.1589    105.2914
   987.6000      8.4074      2.3460      0.3580     18.4235    103.1100
   987.7000      8.4074      2.4318      0.2925     13.2269    103.6063
   987.8000      8.2232      2.4873      0.2294      9.8600    108.1009
   987.9000      8.2232      2.5236      0.1545      7.6612    114.6930
   988.0000      8.1390      2.5428      0.1349      6.4974    121.4861
   988.1000      8.1390      2.5380      0.0915      6.7871    125.7742
   988.2000      8.1390      2.5201      0.0185      7.8723    126.4747
   988.3000      8.0278      2.5173     -0.0616      8.0450    128.7442
   988.4000      8.0278      2.5368      0.0380      6.8620    134.0384
   988.5000      7.9545      2.5570      0.0301      5.6378    138.0222
   988.6000      7.9545      2.5677      0.0093      4.9866    137.1724
   988.7000      7.9545      2.5803      0.0307      4.2227    131.4673
   988.8000      8.0145      2.5929      0.0415      3.4595    124.6131
   988.9000      8.0145      2.5829      0.0915      4.0675    118.7469
   989.0000      8.0088      2.5422      0.0161      6.5324    113.5056
   989.1000      8.0088      2.5010     -0.0441      9.0315    110.3089
   989.2000      8.0088      2.4911     -0.0131      9.6329    110.3267
   989.3000      7.9365      2.5126     -0.0086      8.3294    111.4069
   989.4000      7.9365      2.5349      0.0496      6.9787    113.2366
   989.5000      7.9170      2.5262      0.0158      7.5010    116.3735
   989.6000      7.9170      2.4987     -0.0388      9.1683    121.7322
   989.7000      7.9170      2.4817      0.0257     10.2007    131.5845
   989.8000      7.9337      2.4671      0.0567     11.0858    140.3132
   989.9000      7.9337      2.4297      0.0516     13.3498    139.0403
   990.0000      7.9750      2.3690      0.0221     17.0303    128.8544
   990.1000      7.9750      2.3108     -0.0127     20.5576    119.9478
   990.2000      7.9750      2.2779      0.0178     22.5520    121.1942
   990.3000      8.0143      2.2715     -0.0125     22.9385    133.4790
   990.4000      8.0143      2.2914     -0.0081     21.7331    151.5161
   990.5000      7.9902      2.3430      0.0384     18.6043    163.4046
   990.6000      7.9902      2.4204      0.1806     13.9126    162.2935
   990.7000      7.9902      2.5091      0.2509      8.5395    153.9572
