~Version Information
VERS.                      2.0: CWLS Log ASCII Standard - VERSION 2.0
WRAP.                       NO: One line per depth step
~Well Information Block
STRT.FT                 0.0000: 
STOP.FT              2792.7500: 
STEP.FT                 0.2500: 
NULL.                -999.2500: 
COMP.          Pioneer Natural Resources: COMPANY
WELL.          Black Cat 13-32: WELL
FLD.           Purgatorie River: FIELD
LOC.           1865' FSL & 1120' FWL: LOCATION
PROV.                 Colorado: PROVINCE
CNTY.               Las Animas: COUNTRY
SRVC.                Patterson: SERVICE COMPANY
DATE.          Fri Aug 19 09:19:21 2005: LOG DATE
UWI.                          : UNIQUE WELL ID
~Curve Information Block
DEPT.FT            0 000 00 00: Depth
CCL.                          : Casing Collar Locator
TT3.usec                      : CBL 3' Travel Time
AMP3.mV                       : CBL 3' Amplitude
GR.GAPI                       : Gamma Ray
~Parameter Information Block
~A  Depth       CCL         TT3         AMP3         GR     
# ...
  1273.0000      0.0000    654.9171      4.4135     69.2252
  1273.2500      0.0000    679.0883      4.4351     69.4128
  1273.5000      0.0000    687.0880      4.4782     69.3359
  1273.7500      0.0000    688.6801      4.5179     68.6901
  1274.0000      0.0000    688.3793      4.5368     67.5684
  1274.2500      0.0000    686.3194      4.5477     66.2557
  1274.5000      0.0000    680.2641      4.5661     64.8736
  1274.7500      0.0000    667.8320      4.5840     63.4408
  1275.0000      0.0000    648.5374      4.5845     62.2312
  1275.2500      0.0000    621.6765      4.5643     61.8473
  1275.5000      0.0000    586.8301      4.5321     62.8274
  1275.7500      0.0000    554.6812      4.4994     65.2648
  1276.0000      0.0000    548.2375      4.4652     68.8402
  1276.2500      0.0000    578.6334      4.4098     72.9559
  1276.5000      0.0000    624.0286      4.3179     76.6067
  1276.7500      0.0000    649.3253      4.2012     78.4388
  1277.0000      0.0000    647.7234      4.1007     77.5051
  1277.2500      0.0000    643.9451      4.0633     74.1678
  1277.5000      0.0000    658.4925      4.0900     70.1076
  1277.7500      0.0000    686.5004      4.1217     67.2743
  1278.0000      0.0000    710.0652      4.0892     66.6980
  1278.2500      0.0000    719.0043      3.9727     68.0586
  1278.5000      0.0000    716.0630      3.8136     70.1949
  1278.7500      0.0000    710.4235      3.6750     72.1466
  1279.0000      0.0000    709.2248      3.6022     73.9212
  1279.2500      0.0000    709.2672      3.6069     76.1569
  1279.5000      0.0000    699.4174      3.6704     78.9694
  1279.7500      0.0000    679.1053      3.7652     81.5420
  1280.0000      0.0000    667.8437      3.8803     83.0973
  1280.2500      0.0000    680.0867      4.0233     83.7899
  1280.5000      0.0000    701.6109      4.1943     84.1916
  1280.7500      0.0000    707.6669      4.3615     84.2767
  1281.0000      0.0000    687.5839      4.4801     83.4325
  1281.2500      0.0000    651.8845      4.5405     81.2101
  1281.5000      0.0000    629.5283      4.5684     77.6743
  1281.7500      0.0000    640.4753      4.5813     73.3553
  1282.0000      0.0000    669.6311      4.5748     69.2213
  1282.2500      0.0000    690.6256      4.5496     66.4107
  1282.5000      0.0000    700.3022      4.5293     65.6300
  1282.7500      0.0000    708.3870      4.5388     66.7560
  1283.0000      0.0000    712.5278      4.5794     68.9749
  1283.2500      0.0000    701.8037      4.6340     71.1532
  1283.5000      0.0000    677.0706      4.6751     72.1364
  1283.7500      0.0000    658.3062      4.6745     71.1173
  1284.0000      0.0000    663.2208      4.6273     68.1344
  1284.2500      0.0000    684.7333      4.5644     64.1837
  1284.5000      0.0000    703.0409      4.5240     60.5885
  1284.7500      0.0000    708.1489      4.5067     58.3087
  1285.0000      0.0000    704.1207      4.4682     57.9772
  1285.2500      0.0000    700.5120      4.3467     60.0407
  1285.5000      0.0000    700.9474      4.1228     64.0991
  1285.7500      0.0000    698.8530      3.9231     68.2828
  1286.0000      0.0000    687.4548      3.9417     70.2161
  1286.2500      0.0000    672.5800      4.1197     69.0615
  1286.5000      0.0000    666.8083      4.1954     66.2083
  1286.7500      0.0000    671.4905      4.1296     63.6821
  1287.0000      0.0000    675.0786      4.0790     62.2956
  1287.2500      2.0000    671.7385      4.0941     61.5595
  1287.5000      0.0000    669.8772      4.1235     60.8035
  1287.7500     -2.0000    677.4219      4.1338     59.8515
  1288.0000      2.0000    690.5259      4.1164     58.7459
  1288.2500      0.0000    698.6470      4.1030     57.2311
  1288.5000      0.0000    697.8203      4.2140     54.9606
  1288.7500      0.0000    693.6634      4.5083     52.4667
  1289.0000      0.0000    689.0822      4.7761     51.6044
  1289.2500      0.0000    679.4106      4.8105     54.5436
  1289.5000      0.0000    663.2148      4.7467     62.3940
  1289.7500      0.0000    647.5444      4.7757     74.8451
  1290.0000      0.0000    638.5059      4.8613     90.3988
  1290.2500      0.0000    635.3778      4.9093    106.5264
  1290.5000      0.0000    635.1670      4.9053    120.4457
  1290.7500      0.0000    637.0299      4.8466    130.8113
  1291.0000      0.0000    642.3252      4.6904    138.5897
  1291.2500      0.0000    651.1711      4.4033    145.7806
  1291.5000      0.0000    658.9547      4.0024    153.1775
  1291.7500      0.0000    661.2463      3.5228    159.3355
  1292.0000      0.0000    661.8397      3.0039    161.4400
  1292.2500      0.0000    666.6625      2.5089    157.1640
  1292.5000      0.0000    673.9269      2.0967    146.2001
  1292.7500      0.0000    679.9177      1.7810    130.6055
  1293.0000      0.0000    686.5995      1.5432    113.6821
  1293.2500      0.0000    696.5499      1.3631     98.0804
  1293.5000      0.0000    706.4881      1.2332     84.7870
  1293.7500      0.0000    712.4614      1.1525     73.7836
  1294.0000      0.0000    717.9888      1.1133     65.2931
  1294.2500      0.0000    729.2064      1.1026     60.1219
  1294.5000      0.0000    744.7413      1.1139     58.9349
  1294.7500      0.0000    756.9353      1.1556     61.3250
  1295.0000      0.0000    762.3037      1.2437     65.6297
  1295.2500      0.0000    770.5681      1.3863     69.8410
  1295.5000      0.0000    802.6761      1.5760     72.9009
  1295.7500      0.0000    859.5701      1.7971     75.2552
  1296.0000      0.0000    895.1935      2.0312     78.3784
  1296.2500      0.0000    871.4337      2.2635     83.7514
  1296.5000      0.0000    817.8753      2.5004     91.7355
  1296.7500      0.0000    779.9169      2.7504    101.0270
  1297.0000      0.0000    761.7727      2.9892    109.4876
  1297.2500      0.0000    748.3986      3.1892    115.7588
  1297.5000      0.0000    731.9551      3.3459    119.8147
  1297.7500      0.0000    709.8741      3.4514    122.0284
  1298.0000      0.0000    677.7816      3.4988    122.6200
  1298.2500      0.0000    629.6183      3.5005    122.3770
  1298.5000      0.0000    569.4258      3.4736    122.9701
  1298.7500      0.0000    515.9803      3.4283    125.5760
  1299.0000      0.0000    484.3192      3.3807    129.2716
  1299.2500      0.0000    474.1028      3.3541    131.3159
  1299.5000      0.0000    481.8073      3.3570    129.3985
  1299.7500      0.0000    510.9063      3.3776    123.7140
  1300.0000      0.0000    562.5682      3.4097    116.7378
  1300.2500      0.0000    622.4520      3.4609    111.0670
  1300.5000      0.0000    669.9617      3.5367    107.6868
  1300.7500      0.0000    698.7784      3.6454    105.9378
  1301.0000      0.0000    715.3594      3.7875    104.4348
  1301.2500      0.0000    724.7925      3.9172    102.0972
  1301.5000      0.0000    727.6137      3.9721     99.0307
  1301.7500      0.0000    720.4946      3.9515     96.6681
  1302.0000      0.0000    694.3625      3.9148     96.8238
  1302.2500      0.0000    642.1367      3.9105    100.3126
  1302.5000      0.0000    574.4391      3.9413    106.0994
  1302.7500      0.0000    515.7808      3.9897    111.7133
  1303.0000      0.0000    482.4573      4.0530    114.9383
  1303.2500      0.0000    477.8336      4.1398    115.3447
  1303.5000      0.0000    503.0607      4.2386    114.1014
  1303.7500      0.0000    554.3664      4.3150    112.5994
  1304.0000      0.0000    610.6005      4.3448    111.6581
  1304.2500      0.0000    641.2689      4.3261    111.6783
  1304.5000      0.0000    631.6097      4.2726    112.7640
  1304.7500      0.0000    588.9013      4.2102    114.4902
  1305.0000      0.0000    533.2730      4.1682    116.0068
  1305.2500      0.0000    488.3453      4.1661    116.7388
  1305.5000      0.0000    466.7761      4.2014    116.9972
  1305.7500      0.0000    467.7737      4.2522    117.7463
  1306.0000      0.0000    489.9254      4.2922    119.6157
  1306.2500      0.0000    533.2598      4.3086    122.0631
