~Version Information
VERS.                      2.0: CWLS Log ASCII Standard - VERSION 2.0
WRAP.                       NO: One line per depth step
~Well Information Block
STRT.FT                -6.7500: 
STOP.FT              1250.5000: 
STEP.FT                 0.2500: 
NULL.                -999.2500: 
COMP.          Pioneer Natural Resources: COMPANY
WELL.          Irish Eyes 33-21: WELL
FLD.           Purgatorie River: FIELD
LOC.           1379' FSL & 2544' FEL--: LOCATION
PROV.                       CO: PROVINCE
CNTY.               Las Animas: COUNTRY
SRVC.          Patterson Wireline: SERVICE COMPANY
DATE.          Mon Jan 23 11:57:23 2006: LOG DATE
UWI.           05 071 08658 00: UNIQUE WELL ID
~Curve Information Block
DEPT.FT            0 000 00 00: Depth
CCL.                          : Casing Collar Locator
TT3.usec                      : CBL 3' Travel Time
AMP3.mV                       : CBL 3' Amplitude
GR.GAPI                       : Gamma Ray
~Parameter Information Block
~A  Depth       CCL         TT3         AMP3         GR     
# ...
   227.7500      0.0000    435.0569     24.1402     68.6327
   228.0000      0.0000    419.6472     24.8168     65.3918
   228.2500      0.0000    387.2118     25.8525     64.5942
   228.5000      0.0000    353.2007     27.1439     65.8635
   228.7500      0.0000    328.6360     28.4999     68.3055
   229.0000      0.0000    315.3060     29.7304     70.8069
   229.2500      0.0000    309.7880     30.6825     72.3209
   229.5000      0.0000    308.5780     31.2365     72.2964
   229.7500      0.0000    309.9707     31.3144     70.9891
   230.0000      0.0000    313.3092     30.9267     69.3625
   230.2500      0.0000    317.6010     30.2291     68.7536
   230.5000      0.0000    321.0471     29.4981     70.3259
   230.7500      0.0000    322.4220     28.9659     74.2429
   231.0000      0.0000    322.9088     28.6232     79.2259
   231.2500      0.0000    326.2430     28.1904     83.2736
   231.5000      0.0000    336.2114     27.3444     85.1454
   231.7500      0.0000    352.8846     26.0201     85.2284
   232.0000      0.0000    370.6624     24.4791     84.9210
   232.2500      0.0000    381.3031     23.0523     85.1608
   232.5000      0.0000    380.6654     21.8630     85.6778
   232.7500      0.0000    372.1243     20.8565     85.6271
   233.0000      0.0000    362.6600     20.0060     84.6792
   233.2500      0.0000    357.3160     19.3666     83.2807
   233.5000      2.0000    358.8221     18.9708     81.9296
   233.7500     -2.0000    371.2086     18.7819     80.5293
   234.0000      0.0000    400.7402     18.7606     78.7362
   234.2500      0.0000    449.2101     18.9848     76.6582
   234.5000      0.0000    503.6507     19.6993     74.7831
   234.7500      0.0000    537.0209     21.1356     73.4680
   235.0000      0.0000    527.6578     23.1498     73.0529
   235.2500      0.0000    479.9109     25.1222     74.2268
   235.5000      0.0000    420.8304     26.4006     77.4773
   235.7500      0.0000    377.0206     26.8102     82.0166
   236.0000      0.0000    358.2230     26.6378     85.7099
   236.2500      0.0000    359.3195     26.2434     86.3849
   236.5000      0.0000    370.6349     25.8216     83.4582
   236.7500      0.0000    386.4667     25.4207     78.5275
   237.0000      0.0000    408.8156     25.0268     74.3680
   237.2500      0.0000    442.8969     24.6191     73.0928
   237.5000      0.0000    485.6222     24.2038     75.0033
   237.7500      0.0000    520.5478     23.8158     78.8885
   238.0000      0.0000    530.3616     23.4841     83.1244
   238.2500      0.0000    515.2096     23.2049     86.4929
   238.5000      0.0000    494.6231     22.9535     88.3475
   238.7500      0.0000    490.7139     22.7170     88.4678
   239.0000      0.0000    510.2776     22.5074     87.0136
   239.2500      0.0000    539.9755     22.3473     84.5912
   239.5000      0.0000    556.5219     22.2493     82.2141
   239.7500      0.0000    546.1507     22.2063     80.9899
   240.0000      0.0000    518.1305     22.1965     81.5194
   240.2500      0.0000    497.2208     22.1945     83.3778
   240.5000      0.0000    501.0966     22.1823     85.3240
   240.7500      0.0000    526.1871     22.1522     86.3005
   241.0000      0.0000    552.7673     22.1122     86.2482
   241.2500      0.0000    559.1328     22.0905     85.8591
   241.5000      0.0000    534.2938     22.1285     85.6358
   241.7500      0.0000    484.6777     22.2548     85.3052
   242.0000      0.0000    429.5216     22.4683     84.0155
   242.2500      0.0000    386.5443     22.7499     80.9906
   242.5000      0.0000    361.4933     23.0962     76.2864
   242.7500      0.0000    349.9709     23.5369     71.3135
   243.0000      0.0000    345.0466     24.1141     68.5075
   243.2500      0.0000    341.9232     24.8398     69.7342
   243.5000      0.0000    338.3712     25.6695     74.5671
   243.7500      0.0000    333.8449     26.5193     80.4484
   244.0000      0.0000    328.6187     27.3172     84.8851
   244.2500      0.0000    323.1919     28.0443     87.2870
   244.5000      0.0000    318.0648     28.7267     88.5292
   244.7500      0.0000    313.7431     29.3919     89.3266
   245.0000      0.0000    310.6123     30.0390     89.7267
   245.2500      0.0000    308.6999     30.6408     89.8562
   245.5000      0.0000    307.7440     31.1433     90.2552
   245.7500      0.0000    307.5674     31.4489     91.3288
   246.0000      0.0000    308.3889     31.4278     92.9784
   246.2500      0.0000    310.8067     30.9890     94.8076
   246.5000      0.0000    315.3702     30.1619     96.2673
   246.7500      0.0000    321.9249     29.1086     96.6308
   247.0000      0.0000    329.2946     28.0554     95.2633
   247.2500      0.0000    335.8216     27.1987     92.2159
   247.5000      0.0000    340.3970     26.6331     88.5662
   247.7500      0.0000    343.0184     26.3199     85.8932
   248.0000      0.0000    344.8220     26.1124     85.1469
   248.2500      0.0000    348.1762     25.8439     85.9977
   248.5000      0.0000    357.0112     25.4294     87.2905
   248.7500      0.0000    375.9001     24.9023     87.9831
   249.0000      0.0000    406.5015     24.3650     87.5693
   249.2500      0.0000    444.7018     23.9155     85.8736
   249.5000      0.0000    484.8422     23.6010     82.8820
   249.7500      0.0000    528.1204     23.4141     78.8160
   250.0000      0.0000    581.5464     23.3193     74.0808
   250.2500      0.0000    645.6234     23.2820     69.0427
   250.5000      0.0000    708.5912     23.2595     64.0716
   250.7500      0.0000    756.3853     23.1774     59.7897
   251.0000      0.0000    784.2649     22.9563     56.9842
   251.2500      0.0000    797.0177     22.5869     56.1723
   251.5000      0.0000    801.8867     22.1600     57.1995
   251.7500      0.0000    803.2161     21.8109     59.2038
   252.0000      0.0000    801.2642     21.6369     61.1105
   252.2500      0.0000    793.1165     21.6590     62.2139
   252.5000      0.0000    774.1099     21.8235     62.2927
   252.7500      0.0000    740.5343     22.0249     61.5277
   253.0000      0.0000    693.6180     22.1511     60.7319
   253.2500      0.0000    640.3102     22.1489     61.3762
   253.5000      0.0000    587.8476     22.0585     64.6526
   253.7500      0.0000    539.7538     21.9737     70.1717
   254.0000      0.0000    499.5152     21.9564     75.8559
   254.2500      0.0000    472.5403     21.9989     79.4499
   254.5000      0.0000    458.9586     22.0711     80.0799
   254.7500      0.0000    449.9622     22.1750     78.3132
   255.0000      0.0000    438.7861     22.3343     75.2897
   255.2500      0.0000    431.9897     22.5475     72.3222
   255.5000      0.0000    443.8729     22.7722     70.7546
   255.7500      0.0000    481.7519     22.9503     71.2942
   256.0000      0.0000    540.6411     23.0414     73.4149
   256.2500      0.0000    608.7832     23.0543     75.7082
   256.5000      0.0000    672.5296     23.0585     76.8301
   256.7500      0.0000    717.6399     23.1404     76.1927
   257.0000      0.0000    733.3818     23.3294     74.2685
   257.2500      0.0000    719.4249     23.5826     72.5015
   257.5000      0.0000    686.5365     23.8495     72.3931
   257.7500      0.0000    646.9329     24.1316     74.1613
   258.0000      0.0000    603.2273     24.4643     76.5858
   258.2500      0.0000    550.1528     24.8596     78.3610
   258.5000      0.0000    487.5909     25.2868     79.1217
   258.7500      0.0000    426.3241     25.7035     79.0992
   259.0000      0.0000    378.9945     26.0842     78.4015
   259.2500      0.0000    350.0710     26.4096     76.9215
   259.5000      0.0000    336.2818     26.6497     74.6856
   259.7500      0.0000    332.1668     26.7762     72.1347
   260.0000      0.0000    332.8470     26.7956     69.9539
   260.2500      0.0000    334.1656     26.7684     68.3967
   260.5000      0.0000    333.2617     26.7900     66.7371
   260.7500      0.0000    329.5459     26.9339     63.6385
   261.0000      0.0000    324.6098     27.1974     58.2863
