~Version Information
VERS.                      2.0: CWLS Log ASCII Standard - VERSION 2.0
WRAP.                       NO: One line per depth step
~Well Information Block
STRT.FT               875.0000: 
STOP.FT              2053.0000: 
STEP.FT                 0.1000: 
NULL.                -999.2500: 
COMP.          Pioneer Natural Resources: COMPANY
WELL.          Woodstock 43-19: WELL
FLD.           Purgatoire River: FIELD
LOC.           2195' FSL & 250' FEL: LOCATION
CNTY.               Las Animas: COUNTY
SRVC.                Patterson: SERVICE COMPANY
DATE.          Thu Feb 02 12:45:04 2006: LOG DATE
UWI.           05 071 08677 00: UNIQUE WELL ID
STAT.                 Colorado: STATE
~Curve Information Block
DEPT.FT            0 000 00 00: Depth
DCAL.in                       : CDL Caliper
RHOB.g/cc                     : CDL Bulk Density
RHOC.g/cc                     : CDL Density Correction
DPOR.pu                       : CDL Density Porosity
GR.GAPI                       : Gamma Ray
NPOR.pu                       : Neutron Porosity
~Parameter Information Block
~A  Depth       DCAL        RHOB        RHOC        DPOR         GR         NPOR    
# ...
  2036.6000      7.8204      2.6192      0.0760      1.8677   -999.2500     22.3845
  2036.7000      7.8204      2.6330      0.0843      1.0294   -999.2500     21.9456
  2036.8000      7.8231      2.6450      0.1514      0.3007   -999.2500     22.9208
  2036.9000      7.8231      2.6394      0.1604      0.6424   -999.2500     25.1894
  2037.0000      7.8305      2.6193      0.1007      1.8635   -999.2500     26.7594
  2037.1000      7.8305      2.6010      0.0651      2.9668   -999.2500     26.3730
  2037.2000      7.8305      2.5852      0.0181      3.9287   -999.2500     25.1935
  2037.3000      7.8682      2.5598      0.0166      5.4663   -999.2500     24.3097
  2037.4000      7.8682      2.5296      0.0028      7.2966   -999.2500     23.7450
  2037.5000      7.8561      2.5118      0.0140      8.3779   -999.2500     23.3093
  2037.6000      7.8561      2.5162      0.0055      8.1105   -999.2500     23.0217
  2037.7000      7.8561      2.5382      0.0795      6.7788   -999.2500     23.2057
  2037.8000      7.8389      2.5609      0.0866      5.4023   -999.2500     24.1249
  2037.9000      7.8389      2.5722      0.1274      4.7166   -999.2500     25.3865
  2038.0000      7.8121      2.5731      0.0991      4.6585   -999.2500     26.6368
  2038.1000      7.8121      2.5770      0.0771      4.4232   -999.2500     28.9637
  2038.2000      7.8121      2.5895      0.0760      3.6652   -999.2500     34.5780
  2038.3000      7.8128      2.5934      0.0921      3.4285   -999.2500     42.6584
  2038.4000      7.8128      2.5688      0.0808      4.9195   -999.2500     48.4420
  2038.5000      7.7999      2.5213      0.0211      7.7991   -999.2500     50.5694
  2038.6000      7.7999      2.4848     -0.0520     10.0138   -999.2500     50.9925
  2038.7000      7.7999      2.4822      0.0048     10.1674   -999.2500     51.0376
  2038.8000      7.8305      2.5038      0.0268      8.8599   -999.2500     51.0402
  2038.9000      7.8305      2.5344      0.0514      7.0041   -999.2500   -999.2500
  2039.0000      7.8424      2.5702      0.0213      4.8348   -999.2500   -999.2500
  2039.1000      7.8424      2.6053      0.0355      2.7083   -999.2500   -999.2500
  2039.2000      7.8424      2.6263      0.0681      1.4392   -999.2500   -999.2500
  2039.3000      7.8581      2.6290      0.0587      1.2751   -999.2500   -999.2500
  2039.4000      7.8581      2.6225      0.0825      1.6678   -999.2500   -999.2500
  2039.5000      7.8502      2.6128      0.0906      2.2574   -999.2500   -999.2500
  2039.6000      7.8502      2.6055      0.0801      2.6982   -999.2500   -999.2500
  2039.7000      7.8502      2.6089      0.1175      2.4917   -999.2500   -999.2500
  2039.8000      7.8660      2.6211      0.0814      1.7494   -999.2500   -999.2500
  2039.9000      7.8660      2.6275      0.1090      1.3664   -999.2500   -999.2500
  2040.0000      7.8094      2.6173      0.0214      1.9809   -999.2500   -999.2500
  2040.1000      7.8094      2.6039      0.0027      2.7951   -999.2500   -999.2500
  2040.2000      7.8094      2.5956      0.0521      3.2977   -999.2500   -999.2500
  2040.3000      7.8206      2.5841      0.0483      3.9926   -999.2500   -999.2500
  2040.4000      7.8206      2.5758      0.0007      4.4998   -999.2500   -999.2500
  2040.5000      7.8440      2.5831      0.0643      4.0571   -999.2500   -999.2500
  2040.6000      7.8440      2.5979      0.0667      3.1564   -999.2500   -999.2500
  2040.7000      7.8440      2.6076      0.0432      2.5725   -999.2500   -999.2500
  2040.8000      7.8480      2.6108      0.0473      2.3738   -999.2500   -999.2500
  2040.9000      7.8480      2.6077      0.0735      2.5621   -999.2500   -999.2500
  2041.0000      7.8126      2.6025      0.0371      2.8758   -999.2500   -999.2500
  2041.1000      7.8126      2.6027      0.0804      2.8693   -999.2500   -999.2500
  2041.2000      7.8126      2.6026      0.0474      2.8734   -999.2500   -999.2500
  2041.3000      7.8118      2.5922      0.0880      3.5034   -999.2500   -999.2500
  2041.4000      7.8118      2.5787      0.0309      4.3192   -999.2500   -999.2500
  2041.5000      7.8195      2.5827      0.0179      4.0790   -999.2500   -999.2500
  2041.6000      7.8195      2.5967      0.0739      3.2330   -999.2500   -999.2500
  2041.7000      7.8195      2.5940      0.0623      3.3962   -999.2500   -999.2500
  2041.8000      7.8400      2.5754      0.0167      4.5216   -999.2500   -999.2500
  2041.9000      7.8400      2.5651     -0.0104      5.1464   -999.2500   -999.2500
  2042.0000      7.8317      2.5748      0.0523      4.5551   -999.2500   -999.2500
  2042.1000      7.8317      2.5875      0.0962      3.7907   -999.2500   -999.2500
  2042.2000      7.8317      2.5852      0.0791      3.9285   -999.2500   -999.2500
  2042.3000      7.8222      2.5775      0.0499      4.3923   -999.2500   -999.2500
  2042.4000      7.8222      2.5850      0.0278      3.9417   -999.2500   -999.2500
  2042.5000      7.8175      2.6072      0.0681      2.5912   -999.2500   -999.2500
  2042.6000      7.8175      2.6226      0.0945      1.6593   -999.2500   -999.2500
  2042.7000      7.8175      2.6289      0.0411      1.2765   -999.2500   -999.2500
  2042.8000      7.8507      2.6410      0.0886      0.5432   -999.2500   -999.2500
  2042.9000      7.8507      2.6434      0.1443      0.3970   -999.2500   -999.2500
  2043.0000      7.8716      2.6193      0.0653      1.8578   -999.2500   -999.2500
  2043.1000      7.8716      2.5941      0.0136      3.3891   -999.2500   -999.2500
  2043.2000      7.8716      2.5905      0.0610      3.6069   -999.2500   -999.2500
  2043.3000      7.8404      2.6004      0.0620      3.0064   -999.2500   -999.2500
  2043.4000      7.8404      2.6151      0.0693      2.1177   -999.2500   -999.2500
  2043.5000      7.8072      2.6265      0.0701      1.4223   -999.2500   -999.2500
  2043.6000      7.8072      2.6232      0.0753      1.6235   -999.2500   -999.2500
  2043.7000      7.8072      2.6079      0.0555      2.5528   -999.2500   -999.2500
  2043.8000      7.8109      2.5949      0.0681      3.3394   -999.2500   -999.2500
  2043.9000      7.8109      2.5968      0.0603      3.2252   -999.2500   -999.2500
  2044.0000      7.8386      2.6169      0.0934      2.0045   -999.2500   -999.2500
  2044.1000      7.8386      2.6407      0.1629      0.5650   -999.2500   -999.2500
  2044.2000      7.8386      2.6486      0.1414      0.0854   -999.2500   -999.2500
  2044.3000      7.8356      2.6372      0.1287      0.7727   -999.2500   -999.2500
  2044.4000      7.8356      2.6129      0.0755      2.2499   -999.2500   -999.2500
  2044.5000      7.8050      2.5872      0.0527      3.8037   -999.2500   -999.2500
  2044.6000      7.8050      2.5768      0.0307      4.4387   -999.2500   -999.2500
  2044.7000      7.8050      2.5898      0.0539      3.6461   -999.2500   -999.2500
  2044.8000      7.8460      2.6095      0.0643      2.4529   -999.2500   -999.2500
  2044.9000      7.8460      2.6108      0.0942      2.3784   -999.2500   -999.2500
  2045.0000      7.8441      2.5949      0.0313      3.3398   -999.2500   -999.2500
  2045.1000      7.8441      2.5866      0.0419      3.8415   -999.2500   -999.2500
  2045.2000      7.8441      2.5965      0.0666      3.2442   -999.2500   -999.2500
  2045.3000      7.8311      2.6111      0.0739      2.3576   -999.2500   -999.2500
  2045.4000      7.8311      2.6183      0.0828      1.9208   -999.2500   -999.2500
  2045.5000      7.8231      2.6199      0.0483      1.8230   -999.2500   -999.2500
  2045.6000      7.8231      2.6194      0.1466      1.8552   -999.2500   -999.2500
  2045.7000      7.8231      2.6237      0.0325      1.5945   -999.2500   -999.2500
  2045.8000      7.8116      2.6457      0.1066      0.2634   -999.2500   -999.2500
  2045.9000      7.8116      2.6608      0.1576     -0.6541   -999.2500   -999.2500
  2046.0000      7.8146      2.6431      0.0846      0.4185   -999.2500   -999.2500
  2046.1000      7.8146      2.6112      0.1100      2.3499   -999.2500   -999.2500
