~Version Information
VERS.                      2.0: CWLS Log ASCII Standard - VERSION 2.0
WRAP.                       NO: One line per depth step
~Well Information Block
STRT.FT               -16.0000: 
STOP.FT              2827.7500: 
STEP.FT                 0.2500: 
NULL.                -999.2500: 
COMP.          Pioneer Natural Resources: COMPANY
WELL.          Touchstone 11-32: WELL
FLD.           Purgatorie River: FIELD
LOC.           853' FNL & 407' FWL--: LOCATION
CNTY.               Las Animas: COUNTY
SRVC.          Patterson Wireline: SERVICE COMPANY
DATE.          Wed Mar 15 10:09:19 2006: LOG DATE
UWI.           05 071 08564 00: UNIQUE WELL ID
STAT.                       CO: STATE
~Curve Information Block
DEPT.FT            0 000 00 00: Depth
CCL.                          : Casing Collar Locator
TT3.usec                      : CBL 3' Travel Time
AMP3.mV                       : CBL 3' Amplitude
GR.GAPI                       : Gamma Ray
~Parameter Information Block
~A  Depth       CCL         TT3         AMP3         GR     
# ...
  1659.0000      0.0000    762.7205      6.2989     91.1045
  1659.2500      0.0000    753.0259      5.4662     83.4192
  1659.5000      0.0000    746.6381      4.6972     76.0282
  1659.7500      0.0000    748.9475      4.0609     69.0642
  1660.0000      0.0000    764.3268      3.5920     63.5889
  1660.2500      0.0000    792.5211      3.2746     60.4572
  1660.5000      0.0000    825.8716      3.0620     59.8052
  1660.7500      0.0000    851.2722      2.9161     61.5459
  1661.0000      0.0000    858.5723      2.8361     65.9078
  1661.2500      0.0000    849.1174      2.8559     73.1583
  1661.5000      0.0000    834.9546      3.0177     82.6987
  1661.7500      0.0000    828.7492      3.3479     92.7121
  1662.0000      0.0000    834.3945      3.8532    101.2407
  1662.2500      0.0000    846.2054      4.5261    107.7095
  1662.5000      0.0000    855.5434      5.3350    112.9941
  1662.7500      0.0000    858.1783      6.2021    117.9429
  1663.0000      0.0000    856.8423      6.9979    122.3904
  1663.2500      0.0000    858.1384      7.5808    125.7285
  1663.5000      0.0000    867.0267      7.8693    127.6206
  1663.7500      0.0000    883.3192      7.8886    127.6565
  1664.0000      0.0000    902.2180      7.7510    124.9987
  1664.2500      0.0000    917.5346      7.5834    119.3018
  1664.5000      0.0000    925.0363      7.4605    112.0711
  1664.7500      0.0000    924.3081      7.3885    106.5219
  1665.0000      0.0000    918.2256      7.3378    105.6245
  1665.2500      0.0000    910.0963      7.2871    110.1703
  1665.5000      0.0000    900.8623      7.2439    118.4713
  1665.7500      0.0000    889.2360      7.2312    127.4096
  1666.0000      0.0000    874.2317      7.2632    133.8382
  1666.2500      0.0000    856.4385      7.3336    135.8341
  1666.5000      0.0000    836.5104      7.4230    133.4724
  1666.7500      0.0000    813.8079      7.5154    128.6115
  1667.0000      0.0000    788.0118      7.6069    123.6607
  1667.2500      0.0000    761.7438      7.7006    120.0566
  1667.5000      0.0000    740.3037      7.7933    117.4940
  1667.7500      0.0000    728.7328      7.8686    114.5456
  1668.0000      0.0000    729.8250      7.9048    110.2137
  1668.2500      0.0000    743.8236      7.8907    104.9488
  1668.5000      0.0000    767.5287      7.8319    100.0542
  1668.7500      0.0000    792.8552      7.7438     96.3820
  1669.0000      0.0000    808.3326      7.6392     93.9093
  1669.2500      0.0000    804.4839      7.5222     92.2286
  1669.5000      0.0000    779.5219      7.3930     90.8720
  1669.7500      0.0000    740.6152      7.2567     89.0913
  1670.0000      0.0000    699.5022      7.1241     85.8580
  1670.2500      0.0000    666.4384      6.9928     80.6427
  1670.5000      0.0000    648.2676      6.8280     74.1169
  1670.7500      0.0000    649.7787      6.5814     67.5302
  1671.0000      0.0000    672.1652      6.2508     61.5077
  1671.2500      0.0000    709.4525      5.9107     55.9841
  1671.5000      0.0000    750.2059      5.6636     51.0679
  1671.7500      0.0000    783.5665      5.5575     47.2663
  1672.0000      0.0000    802.2488      5.5597     44.9172
  1672.2500      2.0000    802.9855      5.6019     43.9709
  1672.5000      0.0000    788.7909      5.6428     44.3500
  1672.7500      0.0000    769.8063      5.6956     46.1520
  1673.0000      0.0000    758.1935      5.8202     49.3457
  1673.2500      0.0000    760.4568      6.0885     53.4363
  1673.5000      0.0000    774.0986      6.5208     57.6069
  1673.7500      0.0000    790.6144      7.0239     61.1979
  1674.0000      0.0000    801.7776      7.4217     64.0197
  1674.2500      0.0000    804.3983      7.5928     66.3836
  1674.5000      0.0000    800.8904      7.5747     69.0260
  1674.7500      0.0000    796.0229      7.5133     72.7005
  1675.0000      0.0000    792.4291      7.5289     77.4058
  1675.2500      0.0000    788.5233      7.6473     82.2033
  1675.5000      0.0000    780.8865      7.8282     86.2117
  1675.7500      0.0000    768.9161      8.0235     89.6235
  1676.0000      0.0000    756.9303      8.2023     93.4221
  1676.2500      0.0000    751.2202      8.3392     98.2459
  1676.5000      0.0000    754.6368      8.4048    103.7162
  1676.7500      0.0000    764.2220      8.3768    108.7856
  1677.0000      0.0000    774.3380      8.2521    112.6397
  1677.2500      0.0000    781.3864      8.0402    115.3860
  1677.5000      0.0000    784.7465      7.7519    117.9828
  1677.7500      0.0000    784.6497      7.4034    121.3458
  1678.0000      0.0000    782.1826      7.0394    125.1877
  1678.2500      0.0000    781.2312      6.7450    127.7133
  1678.5000      0.0000    786.5531      6.6193    126.8133
  1678.7500      0.0000    798.1448      6.7158    121.6847
  1679.0000      0.0000    810.2350      7.0021    113.2403
  1679.2500      0.0000    817.7229      7.3762    103.2412
  1679.5000      0.0000    822.0596      7.7233     93.5010
  1679.7500      0.0000    829.2540      7.9695     85.9451
  1680.0000      0.0000    842.3868      8.1022     82.7800
  1680.2500      0.0000    856.6290      8.1662     85.7845
  1680.5000      0.0000    862.4516      8.2523     94.9907
  1680.7500      0.0000    854.7235      8.4764    108.0565
  1681.0000      0.0000    837.7911      8.9352    121.1793
  1681.2500      0.0000    820.6942      9.6442    130.9938
  1681.5000      0.0000    809.0353     10.4982    136.0423
  1681.7500      0.0000    802.4141     11.2993    136.8705
  1682.0000      0.0000    797.6548     11.8485    135.1231
  1682.2500      0.0000    792.8422     12.0423    132.8854
  1682.5000      0.0000    789.1414     11.9112    132.5115
  1682.7500      0.0000    789.5940     11.5795    135.6275
  1683.0000      0.0000    795.6842     11.1866    141.3433
  1683.2500      0.0000    804.6293     10.8286    146.0558
  1683.5000      0.0000    810.4487     10.5481    146.1150
  1683.7500      0.0000    808.2591     10.3489    141.0480
  1684.0000      0.0000    798.1862     10.2128    134.0765
  1684.2500      0.0000    785.2685     10.1152    129.4232
  1684.5000      0.0000    775.3350     10.0444    128.9498
  1684.7500      0.0000    771.1352     10.0046    131.0083
  1685.0000      0.0000    772.2604     10.0022    132.1993
  1685.2500      0.0000    777.0223     10.0332    130.2418
  1685.5000      0.0000    783.2150     10.0832    125.7521
  1685.7500      0.0000    788.4849     10.1287    121.7573
  1686.0000      0.0000    791.7200     10.1413    121.1414
  1686.2500      0.0000    793.7719     10.1025    123.9500
  1686.5000      0.0000    796.0706     10.0132    127.2816
  1686.7500      0.0000    798.9283      9.8825    127.8815
  1687.0000      0.0000    801.6073      9.7179    124.5446
  1687.2500      0.0000    803.4390      9.5333    118.3969
  1687.5000      0.0000    804.3411      9.3549    111.8717
  1687.7500      0.0000    804.5071      9.2076    107.3687
  1688.0000      0.0000    804.0064      9.0981    105.7841
  1688.2500      0.0000    802.6727      9.0145    105.9155
  1688.5000      0.0000    800.2612      8.9384    105.8766
  1688.7500      0.0000    796.8303      8.8563    105.2312
  1689.0000      0.0000    793.0511      8.7664    105.2658
  1689.2500      0.0000    789.9072      8.6813    107.3370
  1689.5000      0.0000    787.9647      8.6220    111.6490
  1689.7500      0.0000    787.1631      8.6050    117.3387
  1690.0000      0.0000    787.2072      8.6313    122.8576
  1690.2500      0.0000    787.6166      8.6830    126.4242
  1690.5000      0.0000    787.5608      8.7319    126.9882
  1690.7500      0.0000    786.3050      8.7539    124.9091
  1691.0000      0.0000    783.8395      8.7426    121.5126
  1691.2500      0.0000    780.9603      8.7090    118.2864
  1691.5000      0.0000    779.1097      8.6699    116.5391
  1691.7500      0.0000    779.8743      8.6330    116.9365
  1692.0000      0.0000    783.5815      8.5944    118.6664
  1692.2500      0.0000    788.3206      8.5475    119.3885
