~Version Information
VERS.                      2.0: CWLS Log ASCII Standard - VERSION 2.0
WRAP.                       NO: One line per depth step
~Well Information Block
STRT.FT               310.0000: 
STOP.FT              2295.5000: 
STEP.FT                 0.1000: 
NULL.                -999.2500: 
COMP.          Pioneer Natural Resources: COMPANY
WELL.               Relay 12-7: WELL
FLD.           Purgatoire River: FIELD
LOC.           1999' FNL & 848' FWL: LOCATION
PROV.                 Colorado: PROVINCE
CNTY.               Las Animas: COUNTRY
SRVC.                Patterson: SERVICE COMPANY
DATE.          Mon Dec 19 07:37:11 2005: LOG DATE
UWI.           05 071 08453 00: UNIQUE WELL ID
~Curve Information Block
DEPT.FT            0 000 00 00: Depth
DCAL.in                       : CDL Caliper
RHOB.g/cc                     : CDL Bulk Density
RHOC.g/cc                     : CDL Density Correction
DPOR.pu                       : CDL Density Porosity
GR.GAPI                       : Gamma Ray
NPOR.pu                       : Neutron Porosity
~Parameter Information Block
~A  Depth       DCAL        RHOB        RHOC        DPOR         GR         NPOR    
# ...
  2278.0000      7.8289      2.4290      0.0400     13.3922     66.7543     23.5881
  2278.1000      7.8289      2.4238      0.0297     13.7072     67.9662     23.6724
  2278.2000      7.8289      2.4190      0.0011     13.9991     68.0823     23.2872
  2278.3000      7.8255      2.4311      0.0054     13.2666     67.8353     21.7957
  2278.4000      7.8255      2.4506      0.0694     12.0842     67.2018     20.3322
  2278.5000      7.8305      2.4548      0.0379     11.8287     61.9909     20.0515
  2278.6000      7.8305      2.4448      0.0328     12.4340     46.2838     20.5017
  2278.7000      7.8305      2.4354      0.0707     13.0059     23.8860     21.2863
  2278.8000      7.8274      2.4334      0.0307     13.1273      7.5921     22.3973
  2278.9000      7.8274      2.4389      0.0513     12.7913      1.3864     23.2846
  2279.0000      7.8250      2.4451      0.0375     12.4205      0.1397     23.4467
  2279.1000      7.8250      2.4430      0.0785     12.5446      0.0074     23.1077
  2279.2000      7.8250      2.4313      0.0465     13.2573      0.0000     22.1750
  2279.3000      7.8185      2.4168      0.0151     14.1333   -999.2500     20.5221
  2279.4000      7.8185      2.4018      0.0493     15.0445   -999.2500     18.6875
  2279.5000      7.8200      2.3842      0.0274     16.1106   -999.2500     17.5830
  2279.6000      7.8200      2.3719      0.0164     16.8568   -999.2500     17.8703
  2279.7000      7.8200      2.3730      0.0145     16.7877   -999.2500     19.2623
  2279.8000      7.8192      2.3849      0.0187     16.0663   -999.2500     20.2828
  2279.9000      7.8192      2.3969      0.0498     15.3394   -999.2500     20.0855
  2280.0000      7.8142      2.3981      0.0716     15.2681   -999.2500     19.9123
  2280.1000      7.8142      2.3894      0.0562     15.7917   -999.2500     20.8047
  2280.2000      7.8142      2.3827      0.0323     16.2029   -999.2500     22.0881
  2280.3000      7.8083      2.3843      0.0289     16.1002   -999.2500     22.8455
  2280.4000      7.8083      2.3928      0.0461     15.5871   -999.2500     22.7713
  2280.5000      7.8093      2.4025      0.0214     15.0007   -999.2500     22.2452
  2280.6000      7.8093      2.4085      0.0198     14.6378   -999.2500     23.3811
  2280.7000      7.8093      2.4086      0.0368     14.6287   -999.2500     29.3078
  2280.8000      7.8215      2.3990      0.0406     15.2136   -999.2500     39.1264
  2280.9000      7.8215      2.3822     -0.0059     16.2294   -999.2500     46.4040
  2281.0000      7.8199      2.3734      0.0310     16.7662   -999.2500     49.0812
  2281.1000      7.8199      2.3850     -0.0284     16.0598   -999.2500     49.6110
  2281.2000      7.8199      2.4162      0.0632     14.1725   -999.2500     49.6674
  2281.3000      7.8053      2.4486      0.0560     12.2038   -999.2500     49.6706
  2281.4000      7.8053      2.4715      0.0926     10.8195   -999.2500   -999.2500
  2281.5000      7.7944      2.4849      0.1148     10.0042   -999.2500   -999.2500
  2281.6000      7.7944      2.4856      0.1259      9.9632   -999.2500   -999.2500
  2281.7000      7.7944      2.4737      0.0899     10.6825   -999.2500   -999.2500
  2281.8000      7.7850      2.4541      0.0994     11.8705   -999.2500   -999.2500
  2281.9000      7.7850      2.4345      0.0060     13.0586   -999.2500   -999.2500
  2282.0000      7.7785      2.4263      0.0304     13.5597   -999.2500   -999.2500
  2282.1000      7.7785      2.4301      0.0277     13.3273   -999.2500   -999.2500
  2282.2000      7.7785      2.4341      0.0310     13.0877   -999.2500   -999.2500
  2282.3000      7.7734      2.4271      0.0533     13.5107   -999.2500   -999.2500
  2282.4000      7.7734      2.4164     -0.0105     14.1579   -999.2500   -999.2500
  2282.5000      7.7778      2.4172      0.0518     14.1095   -999.2500   -999.2500
  2282.6000      7.7778      2.4255      0.0370     13.6048   -999.2500   -999.2500
  2282.7000      7.7778      2.4394      0.0141     12.7650   -999.2500   -999.2500
  2282.8000      7.7738      2.4739      0.0342     10.6715   -999.2500   -999.2500
  2282.9000      7.7738      2.5263      0.1166      7.4947   -999.2500   -999.2500
  2283.0000      7.7734      2.5627      0.1265      5.2903   -999.2500   -999.2500
  2283.1000      7.7734      2.5568      0.0897      5.6457   -999.2500   -999.2500
  2283.2000      7.7734      2.5260      0.0389      7.5156   -999.2500   -999.2500
  2283.3000      7.7996      2.5032      0.0645      8.8966   -999.2500   -999.2500
  2283.4000      7.7996      2.4967      0.0638      9.2907   -999.2500   -999.2500
  2283.5000      7.7782      2.4973      0.0696      9.2560   -999.2500   -999.2500
  2283.6000      7.7782      2.4926      0.0621      9.5377   -999.2500   -999.2500
  2283.7000      7.7782      2.4780      0.0049     10.4265   -999.2500   -999.2500
  2283.8000      7.7660      2.4594      0.0709     11.5515   -999.2500   -999.2500
  2283.9000      7.7660      2.4447      0.0241     12.4439   -999.2500   -999.2500
  2284.0000      7.7671      2.4410      0.0366     12.6692   -999.2500   -999.2500
  2284.1000      7.7671      2.4432      0.0735     12.5357   -999.2500   -999.2500
  2284.2000      7.7671      2.4418      0.0629     12.6206   -999.2500   -999.2500
  2284.3000      7.7780      2.4419      0.0391     12.6092   -999.2500   -999.2500
  2284.4000      7.7780      2.4497      0.0511     12.1414   -999.2500   -999.2500
  2284.5000      7.7855      2.4595      0.0593     11.5476   -999.2500   -999.2500
  2284.6000      7.7855      2.4664      0.1027     11.1299   -999.2500   -999.2500
  2284.7000      7.7855      2.4692      0.1219     10.9566   -999.2500   -999.2500
  2284.8000      7.7852      2.4641      0.0857     11.2695   -999.2500   -999.2500
  2284.9000      7.7852      2.4528      0.0798     11.9492   -999.2500   -999.2500
  2285.0000      7.7816      2.4452      0.0639     12.4101   -999.2500   -999.2500
  2285.1000      7.7816      2.4454      0.0644     12.4018   -999.2500   -999.2500
  2285.2000      7.7816      2.4496      0.0470     12.1469   -999.2500   -999.2500
  2285.3000      7.7889      2.4507      0.0808     12.0777   -999.2500   -999.2500
  2285.4000      7.7889      2.4459      0.0760     12.3687   -999.2500   -999.2500
  2285.5000      7.7866      2.4408      0.0773     12.6801   -999.2500   -999.2500
  2285.6000      7.7866      2.4391      0.0728     12.7821   -999.2500   -999.2500
  2285.7000      7.7866      2.4387      0.0479     12.8036   -999.2500   -999.2500
  2285.8000      7.7900      2.4393      0.0421     12.7725   -999.2500   -999.2500
  2285.9000      7.7900      2.4437      0.0651     12.5033   -999.2500   -999.2500
  2286.0000      7.7777      2.4528      0.0492     11.9541   -999.2500   -999.2500
  2286.1000      7.7777      2.4595      0.0860     11.5472   -999.2500   -999.2500
  2286.2000      7.7777      2.4548      0.0720     11.8275   -999.2500   -999.2500
  2286.3000      7.7752      2.4425      0.0517     12.5756   -999.2500   -999.2500
  2286.4000      7.7752      2.4330      0.0468     13.1516   -999.2500   -999.2500
  2286.5000      7.7768      2.4293      0.0310     13.3751   -999.2500   -999.2500
  2286.6000      7.7768      2.4240      0.0504     13.6942   -999.2500   -999.2500
  2286.7000      7.7768      2.4116      0.0580     14.4462   -999.2500   -999.2500
  2286.8000      7.7837      2.4025      0.0245     15.0003   -999.2500   -999.2500
  2286.9000      7.7837      2.4102      0.0525     14.5327   -999.2500   -999.2500
  2287.0000      7.7925      2.4400      0.0559     12.7268   -999.2500   -999.2500
  2287.1000      7.7925      2.4902      0.0539      9.6858   -999.2500   -999.2500
  2287.2000      7.7925      2.5420      0.1048      6.5450   -999.2500   -999.2500
  2287.3000      7.7912      2.5685      0.1412      4.9400   -999.2500   -999.2500
  2287.4000      7.7912      2.5657      0.0943      5.1117   -999.2500   -999.2500
  2287.5000      7.7804      2.5534      0.0649      5.8535   -999.2500   -999.2500
