~Version Information
VERS.                      2.0: CWLS Log ASCII Standard - VERSION 2.0
WRAP.                       NO: One line per depth step
~Well Information Block
STRT.FT               480.0000: 
STOP.FT              1946.0000: 
STEP.FT                 0.1000: 
NULL.                -999.2500: 
COMP.          XTO Energy Inc.: COMPANY
WELL.          Golden Eagle 19-15: WELL
FLD.           Purgatoire River: FIELD
LOC.           1121' FSL & 2332' FEL--: LOCATION
CNTY.               Las Animas: COUNTY
SRVC.                Patterson: SERVICE COMPANY
DATE.          Mon Mar 13 10:27:20 2006: LOG DATE
UWI.           05 071 08717 00: UNIQUE WELL ID
STAT.                 Colorado: STATE
~Curve Information Block
DEPT.FT            0 000 00 00: Depth
DCAL.in                       : CDL Caliper
RHOB.g/cc                     : CDL Bulk Density
RHOC.g/cc                     : CDL Density Correction
DPOR.pu                       : CDL Density Porosity
NPOR.pu                       : Neutron Porosity
GR.GAPI                       : Gamma Ray
~Parameter Information Block
~A  Depth       DCAL        RHOB        RHOC        DPOR        NPOR         GR     
# ...
  1526.4000      7.9127      2.4866      0.0950      9.9014     24.6888     72.7518
  1526.5000      7.9113      2.4677      0.0763     11.0499     25.0475     72.3582
  1526.6000      7.9113      2.4426      0.0213     12.5690     24.9442     70.3121
  1526.7000      7.9113      2.4303      0.0502     13.3152     24.6150     63.7525
  1526.8000      7.9121      2.4312      0.0410     13.2634     24.3935     57.2119
  1526.9000      7.9121      2.4382      0.0518     12.8339     24.3888     57.8631
  1527.0000      7.9141      2.4470      0.0671     12.3015     24.7526     64.2958
  1527.1000      7.9141      2.4596      0.0472     11.5382     25.3231     68.5535
  1527.2000      7.9141      2.4833      0.0478     10.1012     25.5490     68.9285
  1527.3000      7.9154      2.5145      0.0786      8.2113     25.2891     69.5865
  1527.4000      7.9154      2.5381      0.1139      6.7820     24.9361     71.1138
  1527.5000      7.9173      2.5476      0.0741      6.2050     24.8716     72.7750
  1527.6000      7.9173      2.5505      0.0850      6.0326     25.1328     72.2221
  1527.7000      7.9173      2.5484      0.0546      6.1593     25.1964     65.8354
  1527.8000      7.9183      2.5387      0.0471      6.7450     24.7189     59.2186
  1527.9000      7.9183      2.5299      0.0090      7.2806     24.3106     59.7932
  1528.0000      7.9180      2.5370     -0.0002      6.8509     24.4872     65.7621
  1528.1000      7.9180      2.5570      0.0376      5.6368     24.8068     71.7762
  1528.2000      7.9180      2.5617      0.0506      5.3521     24.6625     74.7179
  1528.3000      7.9181      2.5345      0.0546      6.9986     24.1405     76.8673
  1528.4000      7.9181      2.4975      0.0123      9.2417     23.8772     84.2643
  1528.5000      7.9190      2.4791      0.0163     10.3553     24.1490     97.3527
  1528.6000      7.9190      2.4826      0.0146     10.1448     24.6255    107.7384
  1528.7000      7.9190      2.4952      0.0476      9.3848     24.6960    107.9894
  1528.8000      7.9198      2.5039      0.0637      8.8562     24.1587    103.6988
  1528.9000      7.9198      2.5123      0.0212      8.3456     23.8542    101.3296
  1529.0000      7.9202      2.5352      0.0430      6.9595     24.2922     97.6107
  1529.1000      7.9202      2.5628      0.1268      5.2844     24.8613     90.4622
  1529.2000      7.9202      2.5703      0.1236      4.8279     25.1509     85.8910
  1529.3000      7.9202      2.5558      0.0787      5.7106     25.2117     87.3868
  1529.4000      7.9202      2.5308      0.0950      7.2213     25.0768     88.6468
  1529.5000      7.9191      2.5047      0.0304      8.8035     24.9870     88.1764
  1529.6000      7.9191      2.4826      0.0401     10.1467     25.3473     92.2978
  1529.7000      7.9191      2.4561      0.0186     11.7522     26.0410     98.9966
  1529.8000      7.9166      2.4116      0.0160     14.4498     26.8803     99.2899
  1529.9000      7.9166      2.3445      0.0007     18.5182     27.9022     93.7210
  1530.0000      7.9150      2.2648     -0.0626     23.3473     28.6468     90.8893
  1530.1000      7.9150      2.1854     -0.0089     28.1583     29.1027     94.8186
  1530.2000      7.9150      2.1113     -0.0785     32.6492     29.8865    104.0376
  1530.3000      7.9165      2.0533     -0.0796     36.1610     30.8073    111.8682
  1530.4000      7.9165      2.0241     -0.0363     37.9362     31.1525    113.4257
  1530.5000      7.9179      2.0233      0.0186     37.9837     30.9478    112.0518
  1530.6000      7.9179      2.0470      0.0508     36.5451     30.7632    110.3874
  1530.7000      7.9179      2.0900      0.1003     33.9382     30.5070    109.6255
  1530.8000      7.9180      2.1420      0.1430     30.7907     29.7436    110.0695
  1530.9000      7.9180      2.1921      0.1865     27.7526     28.7867    108.2903
  1531.0000      7.9195      2.2363      0.1742     25.0729     28.2640    101.8460
  1531.1000      7.9195      2.2814      0.1634     22.3411     28.3045     92.9248
  1531.2000      7.9195      2.3367      0.1110     18.9853     28.4461     85.0736
  1531.3000      7.9203      2.3970      0.1281     15.3317     28.3106     80.4442
  1531.4000      7.9203      2.4416      0.0930     12.6323     27.9606     80.9068
  1531.5000      7.9195      2.4674      0.0779     11.0679     27.7233     86.6393
  1531.6000      7.9195      2.4868      0.0787      9.8929     27.6039     94.2429
  1531.7000      7.9195      2.5003      0.0600      9.0717     27.3331     96.6889
  1531.8000      7.9209      2.5088      0.0350      8.5548     27.1235     92.2464
  1531.9000      7.9209      2.5219      0.0414      7.7639     27.0729     89.2079
  1532.0000      7.9216      2.5436      0.0677      6.4503     26.9788     92.9634
  1532.1000      7.9216      2.5680      0.0733      4.9708     27.1234     96.4558
  1532.2000      7.9216      2.5878      0.0725      3.7726     27.4984     91.6463
  1532.3000      7.9226      2.6001      0.0790      3.0254     27.5468     84.0141
  1532.4000      7.9226      2.6071      0.0200      2.6005     27.2271     82.6162
  1532.5000      7.9250      2.6116      0.0375      2.3262     27.0210     85.8497
  1532.6000      7.9250      2.6086      0.0701      2.5073     27.2270     88.7643
  1532.7000      7.9250      2.6011      0.0639      2.9627     27.5709     91.5463
  1532.8000      7.9261      2.6013      0.0640      2.9512     27.8941     92.1954
  1532.9000      7.9261      2.6017      0.0492      2.9303     28.1789     91.0626
  1533.0000      7.9260      2.5800      0.0604      4.2409     28.1946     94.1256
  1533.1000      7.9260      2.5304      0.0202      7.2487     27.9839     99.5634
  1533.2000      7.9260      2.4738     -0.0163     10.6806     28.0269    103.1369
  1533.3000      7.9259      2.4355     -0.0283     12.9991     28.3155    105.0414
  1533.4000      7.9259      2.4180     -0.0104     14.0629     28.2984    105.8969
  1533.5000      7.9247      2.4122     -0.0248     14.4111     28.0027    107.1885
  1533.6000      7.9247      2.4256     -0.0360     13.6007     27.9773    108.0400
  1533.7000      7.9247      2.4579      0.0629     11.6433     28.2927    107.2054
  1533.8000      7.9203      2.4770      0.0694     10.4878     28.3512    106.5637
  1533.9000      7.9203      2.4661      0.0291     11.1448     27.9588    111.1424
  1534.0000      7.9151      2.4440      0.0249     12.4862     27.6165    119.1214
  1534.1000      7.9151      2.4299      0.0204     13.3384     27.6686    121.7720
  1534.2000      7.9151      2.4296      0.0122     13.3549     28.1470    116.9171
  1534.3000      7.9135      2.4385      0.0474     12.8180     28.7738    108.9571
  1534.4000      7.9135      2.4470      0.0264     12.3059     29.0073    103.7763
  1534.5000      7.9136      2.4518      0.0546     12.0097     28.7756    104.0696
  1534.6000      7.9136      2.4545      0.0397     11.8482     28.6112    104.3285
  1534.7000      7.9136      2.4535      0.0602     11.9073     28.7392    101.7897
  1534.8000      7.9146      2.4453      0.0531     12.4042     28.9227    102.6148
  1534.9000      7.9146      2.4323      0.0263     13.1917     28.8642    107.9697
  1535.0000      7.9157      2.4244     -0.0000     13.6705     28.6800    110.6185
  1535.1000      7.9157      2.4270      0.0168     13.5153     28.7934    108.3987
  1535.2000      7.9157      2.4299      0.0639     13.3407     29.1865    107.8544
  1535.3000      7.9157      2.4253      0.0348     13.6170     29.4469    111.9354
  1535.4000      7.9157      2.4192      0.0598     13.9866     29.2135    113.1183
  1535.5000      7.9161      2.4098      0.0574     14.5580     28.6356    108.3344
  1535.6000      7.9161      2.3887      0.0327     15.8334     28.3880    103.6527
  1535.7000      7.9161      2.3673     -0.0061     17.1362     28.6586     99.2392
  1535.8000      7.9157      2.3668      0.0408     17.1607     28.9874     93.7680
  1535.9000      7.9157      2.3880      0.0270     15.8785     29.1154     89.0889
