~Version Information
VERS.                      2.0: CWLS Log ASCII Standard - VERSION 2.0
WRAP.                       NO: One line per depth step
~Well Information Block
STRT.FT               625.0000: 
STOP.FT              2053.7500: 
STEP.FT                 0.2500: 
NULL.                -999.2500: 
COMP.          Pioneer Natural Resources: COMPANY
WELL.            Zink 44-10 Tr: WELL
FLD.           Purgatoire River: FIELD
LOC.           486' FSL & 554' FEL--: LOCATION
PROV.                 Colorado: PROVINCE
CNTY.               Las Animas: COUNTRY
SRVC.                Patterson: SERVICE COMPANY
DATE.          Sun Jul 24 06:18:01 2005: LOG DATE
UWI.           05 071 08446 00: UNIQUE WELL ID
~Curve Information Block
DEPT.FT            0 000 00 00: Depth
SN.Ohm-m                      : IEL Short Normal
SP.mV                         : IEL Spontaneous Potential
DIR.Ohm-m                     : IEL Induction Resistivity
GR.GAPI                       : Gamma Ray
~Parameter Information Block
~A  Depth        SN          SP         DIR          GR     
# ...
  1462.5000     14.1420     15.1539      5.2987    116.3849
  1462.7500     13.4395     14.9949      4.3031    118.3094
  1463.0000     12.7935     14.7407      3.7482    119.3526
  1463.2500     12.2383     14.3678      3.4647    119.3550
  1463.5000     11.7618     13.8508      3.3412    119.2812
  1463.7500     11.3329     13.1590      3.2767    119.5178
  1464.0000     10.9199     12.2520      3.1607    120.4959
  1464.2500     10.4898     11.0738      2.8994    121.7610
  1464.5000      9.9982      9.5463      2.4793    125.2603
  1464.7500      9.3978      7.5645      1.9811    128.8372
  1465.0000      8.6706      4.9949      1.5099    135.2028
  1465.2500      7.8539      1.6798      1.1268    139.0961
  1465.5000      7.0297     -2.5492      0.8427    142.9072
  1465.7500      6.2752     -7.8502      0.6423    143.5815
  1466.0000      5.6132    -14.3433      0.5046    140.7748
  1466.2500      5.0108    -22.0845      0.4114    135.4583
  1466.5000      4.4263    -31.0457      0.3488    121.5636
  1466.7500      3.8617    -41.1087      0.3059    109.3137
  1467.0000      3.3751    -52.0728      0.2755     90.1974
  1467.2500      3.0557    -63.6742      0.2538     79.1781
  1467.5000      2.9832    -75.6063      0.2409     67.3993
  1467.7500      3.1790    -87.5348      0.2410     62.9408
  1468.0000      3.5615    -99.1022      0.2621     60.7012
  1468.2500      3.9420   -109.9253      0.3181     61.6116
  1468.5000      4.0945   -119.5988      0.4361     65.8262
  1468.7500      3.8717   -127.7167      0.6774     70.3096
  1469.0000      3.2905   -133.9191      1.2183     79.1913
  1469.2500      2.5226   -137.9575      2.6870     85.9834
  1469.5000      1.7916   -139.7617      7.5500     95.4873
  1469.7500      1.2532   -139.4796     14.6533     99.8495
  1470.0000      0.9430   -137.4658      7.2294    101.2207
  1470.2500      0.8063   -134.2149      3.1499     98.0914
  1470.5000      0.7603   -130.2491      1.6904     88.0509
  1470.7500      0.7422   -125.9958      1.0249     79.2572
  1471.0000      0.7233   -121.6904      0.6530     66.3488
  1471.2500      0.7001   -117.3360      0.4250     59.6324
  1471.5000      0.6815   -112.7285      0.2869     53.8038
  1471.7500      0.6921   -107.5393      0.2133     52.8320
  1472.0000      0.7904   -101.4257      0.1891     55.4298
  1472.2500      1.0850    -94.1388      0.2101     59.6508
  1472.5000      1.7311    -85.5997      0.2884     69.2031
  1472.7500      2.8817    -75.9305      0.4627     77.1470
  1473.0000      4.5835    -65.4357      0.8458     89.7893
  1473.2500      6.6851    -54.5474      1.9447     97.5659
  1473.5000      8.8673    -43.7488     11.8822    106.7096
  1473.7500     10.8063    -33.4958 100000.0000    110.7010
  1474.0000     12.3360    -24.1533 100000.0000    113.6630
  1474.2500     13.4754    -15.9574 100000.0000    114.1291
  1474.5000     14.3340     -9.0074 100000.0000    113.8225
  1474.7500     15.0064     -3.2843 100000.0000    113.5858
  1475.0000     15.5337      1.3154 100000.0000    113.6671
  1475.2500     15.9180      4.9410 100000.0000    113.9837
  1475.5000     16.1480      7.7542 100000.0000    114.7401
  1475.7500     16.2142      9.9063 100000.0000    115.5518
  1476.0000     16.1169     11.5302 100000.0000    117.6540
  1476.2500     15.8707     12.7392 100000.0000    119.7503
  1476.5000     15.5077     13.6331 100000.0000    123.5922
  1476.7500     15.0715     14.3051     44.0823    126.2300
  1477.0000     14.5987     14.8456     34.1520    129.6109
  1477.2500     14.1075     15.3416     42.3635    131.1863
  1477.5000     13.6048     15.8703     99.5348    132.5866
  1477.7500     13.0985     16.4890 100000.0000    133.2895
  1478.0000     12.6003     17.2243 100000.0000    134.5587
  1478.2500     12.1229     18.0645 100000.0000    135.3518
  1478.5000     11.6872     18.9609 100000.0000    135.5779
  1478.7500     11.3370     19.8371 100000.0000    134.7310
  1479.0000     11.1418     20.6077 100000.0000    132.0196
  1479.2500     11.1718     21.1993     64.9110    129.6642
  1479.5000     11.4550     21.5675     23.0549    126.4367
  1479.7500     11.9528     21.7053     14.7076    125.0708
  1480.0000     12.5821     21.6405     11.5029    124.5834
  1480.2500     13.2697     21.4244      9.9951    125.2332
  1480.5000     13.9971     21.1162      9.2528    127.2533
  1480.7500     14.8064     20.7699      8.9500    128.5627
  1481.0000     15.7791     20.4262      8.9656    127.7210
  1481.2500     17.0091     20.1103      9.2644    123.3521
  1481.5000     18.5843     19.8339      9.8605    109.9095
  1481.7500     20.5819     19.5998     10.8089     97.7985
  1482.0000     23.0731     19.4035     12.2006     79.4555
  1482.2500     26.1239     19.2352     14.1474     69.3457
  1482.5000     29.7592     19.0814     16.7474     58.9647
  1482.7500     33.8887     18.9270     20.0295     55.0517
  1483.0000     38.2535     18.7588     23.8925     52.3417
  1483.2500     42.4683     18.5712     28.0832     51.6891
  1483.5000     46.1473     18.3704     32.2562     51.2819
  1483.7500     49.0290     18.1762     36.0885     51.2312
  1484.0000     51.0289     18.0182     39.3674     52.0676
  1484.2500     52.2183     17.9274     41.9997     53.8096
  1484.5000     52.7616     17.9256     43.9691     58.8526
  1484.7500     52.8466     18.0158     45.2991     63.6809
  1485.0000     52.6328     18.1775     46.0520     71.8069
  1485.2500     52.2345     18.3700     46.3415     76.6669
  1485.5000     51.7318     18.5426     46.3232     81.3650
  1485.7500     51.1898     18.6487     46.1560     82.3790
  1486.0000     50.6729     18.6592     45.9616     81.5463
  1486.2500     50.2466     18.5685     45.8085     80.4360
  1486.5000     49.9574     18.3941     45.7181     79.2572
  1486.7500     49.8053     18.1681     45.6768     78.8488
  1487.0000     49.7463     17.9250     45.6394     78.0897
  1487.2500     49.7278     17.6923     45.5342     77.2115
  1487.5000     49.7222     17.4838     45.2798     75.5080
  1487.7500     49.7281     17.3002     44.8184     74.2768
  1488.0000     49.7473     17.1335     44.1527     72.3190
  1488.2500     49.7628     16.9727     43.3624     71.0785
  1488.5000     49.7265     16.8100     42.5757     70.0422
  1488.7500     49.5510     16.6434     41.8978     70.2511
  1489.0000     49.1035     16.4769     41.3352     71.6213
  1489.2500     48.2216     16.3191     40.7626     72.5908
  1489.5000     46.7710     16.1807     39.9619     72.9793
  1489.7500     44.7204     16.0715     38.7251     72.3266
  1490.0000     42.1767     15.9995     36.9603     70.9378
  1490.2500     39.3522     15.9696     34.7381     70.8380
  1490.5000     36.4837     15.9837     32.2569     73.5935
  1490.7500     33.7501     16.0409     29.7639     77.6719
  1491.0000     31.2360     16.1384     27.4770     86.2870
  1491.2500     28.9617     16.2715     25.5348     92.6022
  1491.5000     26.9417     16.4341     23.9850    100.8877
  1491.7500     25.2051     16.6186     22.8031    104.8127
  1492.0000     23.7625     16.8163     21.9258    107.8236
  1492.2500     22.5736     17.0188     21.2840    107.8075
  1492.5000     21.5690     17.2187     20.8237    104.2565
  1492.7500     20.7093     17.4113     20.5126     99.3678
  1493.0000     20.0273     17.5956     20.3381     89.3394
  1493.2500     19.6191     17.7740     20.3028     82.3166
  1493.5000     19.5921     17.9510     20.4209     73.6786
  1493.7500     20.0035     18.1315     20.7079     69.8012
  1494.0000     20.8125     18.3178     21.1637     66.7057
  1494.2500     21.8608     18.5084     21.7517     66.2530
  1494.5000     22.8949     18.6981     22.3799     67.8370
  1494.7500     23.6398     18.8794     22.8986     70.2345
  1495.0000     23.8972     19.0456     23.1303     75.0299
  1495.2500     23.6156     19.1938     22.9383     78.4339
  1495.5000     22.8910     19.3258     22.2983     83.4811
  1495.7500     21.9026     19.4487     21.3133     87.1455
