~Version Information
VERS.                      2.0: CWLS Log ASCII Standard - VERSION 2.0
WRAP.                       NO: One line per depth step
~Well Information Block
STRT.FT               580.0000: 
STOP.FT              1179.0000: 
STEP.FT                 0.1000: 
NULL.                -999.2500: 
COMP.          Pioneer Natural Resources: COMPANY
WELL.          Tin Barn 14-20 TR: WELL
FLD.           Purgatorie River: FIELD
LOC.           925 FSL & 1151 FWL: LOCATION
PROV.                 Colorado: PROVINCE
CNTY.               Las Animas: COUNTRY
SRVC.                Patterson: SERVICE COMPANY
DATE.          Thu Jan 12 12:02:37 2006: LOG DATE
UWI.                          : UNIQUE WELL ID
~Curve Information Block
DEPT.FT            0 000 00 00: Depth
DCAL.in                       : CDL Caliper
RHOB.g/cc                     : CDL Bulk Density
RHOC.g/cc                     : CDL Density Correction
DPOR.pu                       : CDL Density Porosity
GR.GAPI                       : Gamma Ray
~Parameter Information Block
~A  Depth       DCAL        RHOB        RHOC        DPOR         GR     
# ...
   770.4000      8.0000      2.5113     -0.0003      8.4087    110.4430
   770.5000      7.9923      2.5122      0.0286      8.3491    111.3907
   770.6000      7.9923      2.5060      0.0073      8.7269    116.3556
   770.7000      7.9923      2.4930      0.0139      9.5131    121.2074
   770.8000      7.9618      2.4722     -0.0035     10.7728    122.7705
   770.9000      7.9618      2.4580     -0.0502     11.6364    123.3468
   771.0000      7.9731      2.4684      0.0021     11.0041    125.3964
   771.1000      7.9731      2.4929      0.0326      9.5227    126.1483
   771.2000      7.9731      2.5137     -0.0060      8.2631    123.0326
   771.3000      7.9617      2.5295      0.0219      7.3015    118.7618
   771.4000      7.9617      2.5394      0.0434      6.7018    119.1682
   771.5000      7.9543      2.5416      0.0421      6.5725    125.7763
   771.6000      7.9543      2.5379      0.0250      6.7968    133.9652
   771.7000      7.9543      2.5298      0.0215      7.2847    139.0708
   771.8000      7.9307      2.5274      0.0021      7.4308    139.2530
   771.9000      7.9307      2.5371      0.0366      6.8394    134.8158
   772.0000      7.9462      2.5490      0.0289      6.1233    127.7014
   772.1000      7.9462      2.5616     -0.0037      5.3590    122.2520
   772.2000      7.9462      2.5816      0.0269      4.1482    120.5531
   772.3000      7.9499      2.5980      0.0392      3.1528    120.6654
   772.4000      7.9499      2.5944      0.0716      3.3673    122.8753
   772.5000      7.9351      2.5745      0.0649      4.5736    128.0384
   772.6000      7.9351      2.5600      0.0311      5.4546    132.4861
   772.7000      7.9351      2.5713      0.0384      4.7719    131.2904
   772.8000      7.9280      2.6002      0.0644      3.0207    126.0013
   772.9000      7.9280      2.6171      0.0339      1.9929    122.7917
   773.0000      7.9273      2.6153      0.0410      2.1026    123.2409
   773.1000      7.9273      2.6092      0.0726      2.4701    123.3603
   773.2000      7.9273      2.6042      0.0375      2.7753    120.9306
   773.3000      7.9268      2.5951      0.0847      3.3291    119.0456
   773.4000      7.9268      2.5798      0.0372      4.2559    120.2462
   773.5000      7.9250      2.5685      0.0025      4.9420    122.0553
   773.6000      7.9250      2.5641      0.0244      5.2062    121.2995
   773.7000      7.9250      2.5559      0.0383      5.7054    118.3122
   773.8000      7.9419      2.5411      0.0240      6.6000    115.7442
   773.9000      7.9419      2.5252      0.0423      7.5643    114.3052
   774.0000      7.9406      2.5170     -0.0173      8.0595    113.2619
   774.1000      7.9406      2.5293     -0.0021      7.3158    112.9945
   774.2000      7.9406      2.5591      0.0425      5.5071    112.1749
   774.3000      7.9220      2.5889      0.0460      3.7002    109.0420
   774.4000      7.9220      2.6064      0.0652      2.6441    105.4357
   774.5000      7.9280      2.6047      0.0858      2.7430    103.8094
   774.6000      7.9280      2.5851      0.0275      3.9345    104.3046
   774.7000      7.9280      2.5624      0.0108      5.3086    105.6429
   774.8000      7.9245      2.5560     -0.0112      5.6966    107.1138
   774.9000      7.9245      2.5763      0.0066      4.4650    108.7035
   775.0000      7.9255      2.6169      0.0459      2.0082    110.9353
   775.1000      7.9255      2.6577      0.0788     -0.4682    114.2235
   775.2000      7.9255      2.6795      0.1057     -1.7893    116.5800
   775.3000      7.9165      2.6785      0.0496     -1.7250    117.1431
   775.4000      7.9165      2.6699      0.0303     -1.2052    116.1802
   775.5000      7.9222      2.6596      0.0515     -0.5808    113.4911
   775.6000      7.9222      2.6388      0.0251      0.6781    111.4654
   775.7000      7.9222      2.6152      0.0311      2.1079    113.1005
   775.8000      7.9236      2.6039     -0.0031      2.7954    114.8542
   775.9000      7.9236      2.6051      0.0109      2.7232    113.1843
   776.0000      7.9345      2.6052      0.0092      2.7125    110.8307
   776.1000      7.9345      2.5975      0.0181      3.1829    109.6415
   776.2000      7.9345      2.5858      0.0551      3.8880    109.4508
   776.3000      7.9414      2.5720      0.0258      4.7292    110.5807
   776.4000      7.9414      2.5615     -0.0426      5.3656    112.8382
   776.5000      7.9445      2.5546      0.0203      5.7811    115.0355
   776.6000      7.9445      2.5406     -0.0275      6.6274    115.8276
   776.7000      7.9445      2.5239     -0.0469      7.6452    115.0808
   776.8000      7.9493      2.5167     -0.0376      8.0813    114.2589
   776.9000      7.9493      2.5166     -0.0122      8.0868    115.4078
   777.0000      7.9598      2.5135      0.0219      8.2741    118.1820
   777.1000      7.9598      2.5073      0.0086      8.6469    119.3258
   777.2000      7.9598      2.5083      0.0137      8.5900    117.8621
   777.3000      7.9577      2.5181      0.0063      7.9946    116.3729
   777.4000      7.9577      2.5232      0.0439      7.6869    116.4446
   777.5000      7.9426      2.5185      0.0113      7.9715    118.5224
   777.6000      7.9426      2.5258     -0.0126      7.5263    121.6725
   777.7000      7.9426      2.5617      0.0611      5.3499    122.8751
   777.8000      7.9094      2.6040      0.1088      2.7897    120.0820
   777.9000      7.9094      2.6224      0.1071      1.6727    114.9415
   778.0000      7.9152      2.6189      0.0483      1.8864    111.8364
   778.1000      7.9152      2.6077      0.0837      2.5666    111.9378
   778.2000      7.9152      2.5903      0.0524      3.6176    111.5481
   778.3000      7.9259      2.5703      0.0050      4.8290    107.9286
   778.4000      7.9259      2.5560      0.0208      5.6997    102.8339
   778.5000      7.9416      2.5526     -0.0052      5.9024     99.3591
   778.6000      7.9416      2.5609      0.0097      5.3990     99.4393
   778.7000      7.9416      2.5591      0.0564      5.5072    102.2525
   778.8000      7.9296      2.5155      0.0047      8.1532    103.6327
   778.9000      7.9296      2.4296     -0.0494     13.3552    100.4904
   779.0000      7.9251      2.3317     -0.0385     19.2890     94.8351
   779.1000      7.9251      2.2544     -0.0824     23.9748     90.4901
   779.2000      7.9251      2.2159     -0.1124     26.3063     87.4656
   779.3000      7.9482      2.2091     -0.0724     26.7218     83.3654
   779.4000      7.9482      2.2143     -0.0509     26.4041     77.8270
   779.5000      7.9457      2.2266     -0.0180     25.6584     73.7290
   779.6000      7.9457      2.2581      0.0275     23.7486     71.1378
   779.7000      7.9457      2.3189      0.1412     20.0647     66.3121
   779.8000      8.0144      2.3952      0.2314     15.4442     59.8543
   779.9000      8.0144      2.4568      0.2376     11.7078     55.3765
   780.0000      8.0624      2.4953      0.1184      9.3784     52.9149
   780.1000      8.0624      2.5296      0.1180      7.2953     50.0996
   780.2000      8.0624      2.5705      0.1266      4.8186     46.6386
   780.3000      7.9460      2.6070      0.1328      2.6040     44.3420
   780.4000      7.9460      2.6300      0.1196      1.2150     43.5837
   780.5000      7.9084      2.6421      0.1390      0.4786     42.2298
   780.6000      7.9084      2.6459      0.1583      0.2470     39.2667
   780.7000      7.9084      2.6366      0.1183      0.8137     37.5067
   780.8000      7.9089      2.6133      0.1315      2.2238     39.1635
   780.9000      7.9089      2.5951      0.0734      3.3295     42.4410
   781.0000      7.9137      2.5996      0.1705      3.0566     46.0721
   781.1000      7.9137      2.6163      0.1555      2.0417     50.5337
   781.2000      7.9137      2.6283      0.1391      1.3176     55.3004
   781.3000      7.9224      2.6284      0.1341      1.3117     60.2608
   781.4000      7.9224      2.6212      0.1588      1.7477     65.7040
   781.5000      7.9166      2.6121      0.2045      2.2949     71.8349
