~Version Information
VERS.                      2.0: CWLS Log ASCII Standard - VERSION 2.0
WRAP.                       NO: One line per depth step
~Well Information Block
STRT.FT               570.0000: 
STOP.FT              1958.5000: 
STEP.FT                 0.2500: 
NULL.                -999.2500: 
COMP.          Petrogulf Corporation: COMPANY
WELL.            Montoya 7-14R: WELL
FLD.           Purgatorie River: FIELD
LOC.           628' FSL & 454' FWL: LOCATION
PROV.                 Colorado: PROVINCE
CNTY.               Las Animas: COUNTRY
SRVC.                Patterson: SERVICE COMPANY
DATE.          Sat Oct 08 17:13:52 2005: LOG DATE
UWI.                          : UNIQUE WELL ID
~Curve Information Block
DEPT.FT            0 000 00 00: Depth
SP.mV                         : DIL Spontaneous Potential
RILD.Ohm-m                    : DIL Deep Resistivity
RILM.Ohm-m                    : DIL Medium Resistivity
RLL3.Ohm-m                    : DIL Shallow Resistivity
GR.GAPI                       : Gamma Ray
~Parameter Information Block
~A  Depth        SP         RILD        RILM        RLL3         GR     
# ...
   934.0000    117.8564     56.8941     53.1524     87.3050     66.7912
   934.2500    117.7588     56.8654     52.5619     83.5141     65.5664
   934.5000    117.6933     57.3852     51.9550     77.1405     66.8674
   934.7500    117.6525     58.4217     51.4220     69.7292     69.5893
   935.0000    117.6306     59.8831     51.0324     63.4017     75.4717
   935.2500    117.6280     61.5807     50.8241     59.7565     79.6798
   935.5000    117.6549     63.1972     50.8014     59.1200     84.6499
   935.7500    117.7336     64.3388     50.9399     60.7592     86.4427
   936.0000    117.8940     64.6812     51.1966     63.7313     87.1535
   936.2500    118.1650     64.1082     51.5182     67.5250     86.9428
   936.5000    118.5641     62.7301     51.8463     72.1023     85.9543
   936.7500    119.0924     60.8173     52.1157     77.6234     84.2868
   937.0000    119.7357     58.7073     52.2508     84.1206     79.0313
   937.2500    120.4669     56.7221     52.1684     91.0960     73.6424
   937.5000    121.2483     55.0935     51.7890     97.1929     64.2964
   937.7500    122.0361     53.9273     51.0631    100.3849     58.6064
   938.0000    122.7869     53.2138     49.9962     98.8717     52.7603
   938.2500    123.4652     52.8705     48.6593     92.2145     51.0911
   938.5000    124.0443     52.7914     47.1767     81.8442     51.8234
   938.7500    124.5029     52.8780     45.6952     70.4304     54.3465
   939.0000    124.8232     53.0471     44.3525     60.5809     61.2560
   939.2500    124.9950     53.2122     43.2540     53.9061     67.8224
   939.5000    125.0209     53.2743     42.4647     50.8770     79.2079
   939.7500    124.9171     53.1384     42.0091     51.0735     86.3073
   940.0000    124.7092     52.7548     41.8774     53.4540     93.6611
   940.2500    124.4311     52.1504     42.0319     56.7223     95.6702
   940.5000    124.1256     51.4235     42.4141     59.8292     94.9052
   940.7500    123.8440     50.7117     42.9531     62.3187     92.7849
   941.0000    123.6397     50.1589     43.5757     64.2576     88.7636
   941.2500    123.5553     49.8865     44.2188     65.8362     86.2472
   941.5000    123.6105     49.9695     44.8388     66.9827     83.5427
   941.7500    123.7954     50.4152     45.4176     67.3738     82.6086
   942.0000    124.0712     51.1589     45.9601     66.9101     82.1796
   942.2500    124.3785     52.0889     46.4863     66.1510     82.1219
   942.5000    124.6544     53.0930     47.0204     66.0835     81.6707
   942.7500    124.8507     54.0989     47.5818     67.3241     81.0320
   943.0000    124.9443     55.0819     48.1793     69.5690     80.2833
   943.2500    124.9327     56.0421     48.8101     71.8581     80.4928
   943.5000    124.8220     56.9772     49.4619     73.3613     81.8101
   943.7500    124.6187     57.8632     50.1176     73.9678     82.5788
   944.0000    124.3301     58.6505     50.7610     74.2523     82.2778
   944.2500    123.9690     59.2779     51.3827     74.9267     81.0494
   944.5000    123.5579     59.7039     51.9836     76.2846     78.4853
   944.7500    123.1262     59.9386     52.5767     78.0854     76.7232
   945.0000    122.7052     60.0511     53.1836     79.8373     74.2008
   945.2500    122.3259     60.1446     53.8280     81.1186     72.6252
   945.5000    122.0152     60.3199     54.5279     81.7413     70.7630
   945.7500    121.7897     60.6526     55.2880     81.8037     70.0585
   946.0000    121.6471     61.1817     56.0954     81.6625     69.3953
   946.2500    121.5658     61.9018     56.9202     81.7896     68.5392
   946.5000    121.5130     62.7572     57.7218     82.5291     65.7698
   946.7500    121.4524     63.6460     58.4590     83.8866     62.9882
   947.0000    121.3489     64.4435     59.1007     85.5134     58.1767
   947.2500    121.1743     65.0352     59.6323     86.9341     55.0783
   947.5000    120.9159     65.3484     60.0563     87.8573     51.4218
   947.7500    120.5836     65.3657     60.3862     88.3287     50.0346
   948.0000    120.2070     65.1191     60.6392     88.6231     49.9421
   948.2500    119.8253     64.6705     60.8296     88.9891     51.1945
   948.5000    119.4776     64.0951     60.9662     89.4669     54.3753
   948.7500    119.1954     63.4750     61.0534     89.9308     56.6390
   949.0000    118.9975     62.8913     61.0928     90.2934     59.0042
   949.2500    118.8922     62.4041     61.0860     90.6516     59.4799
   949.5000    118.8868     62.0278     61.0354     91.2143     58.4772
   949.7500    118.9979     61.7254     60.9443     92.0818     56.8802
   950.0000    119.2508     61.4311     60.8165     93.0849     53.8094
   950.2500    119.6674     61.0842     60.6552     93.8104     51.9228
   950.5000    120.2520     60.6543     60.4625     93.7646     50.2954
   950.7500    120.9835     60.1523     60.2387     92.5625     50.2407
   951.0000    121.8180     59.6266     59.9821     90.0815     51.6031
   951.2500    122.6971     59.1400     59.6902     86.5507     53.4146
   951.5000    123.5580     58.7326     59.3603     82.5232     57.4797
   951.7500    124.3452     58.3958     58.9930     78.6995     60.9117
   952.0000    125.0230     58.0781     58.5951     75.6689     66.4711
   952.2500    125.5824     57.7232     58.1830     73.7137     70.0030
   952.5000    126.0385     57.3127     57.7839     72.7825     74.2508
   952.7500    126.4204     56.8853     57.4317     72.6232     75.9755
   953.0000    126.7611     56.5266     57.1616     72.9605     76.8318
   953.2500    127.0905     56.3364     57.0038     73.5908     76.6557
   953.5000    127.4319     56.3973     56.9788     74.3496     75.9344
   953.7500    127.8009     56.7596     57.0981     75.0310     75.2394
   954.0000    128.2081     57.4455     57.3681     75.3923     74.1439
   954.2500    128.6624     58.4592     57.7974     75.2693     73.8341
   954.5000    129.1736     59.7763     58.4012     74.6686     74.4151
   954.7500    129.7537     61.3070     59.2016     73.7185     75.0446
   955.0000    130.4178     62.8546     60.2183     72.5594     75.1062
   955.2500    131.1797     64.1238     61.4520     71.3596     74.3904
   955.5000    132.0462     64.8054     62.8600     70.5171     73.0813
   955.7500    133.0114     64.7000     64.3283     70.8906     72.5707
   956.0000    134.0595     63.7918     65.6491     73.7523     72.2820
   956.2500    135.1734     62.2257     66.5191     80.2273     72.0709
   956.5000    136.3447     60.2199     66.5821     90.3362     71.3768
   956.7500    137.5797     57.9819     65.5279    102.2400     70.5322
   957.0000    138.8966     55.6576     63.2220    112.4129     68.3170
   957.2500    140.3145     53.3183     59.7864    116.9505     66.2116
   957.5000    141.8386     50.9718     55.5727    113.3716     63.2259
   957.7500    143.4492     48.5881     51.0306    101.8112     62.4486
   958.0000    145.0987     46.1229     46.5631     84.8727     64.5820
   958.2500    146.7189     43.5350     42.4390     66.3690     68.5370
   958.5000    148.2365     40.8003     38.7781     49.8457     78.2886
   958.7500    149.5911     37.9265     35.5827     37.6154     87.0600
   959.0000    150.7512     34.9664     32.7820     30.4943    102.1027
   959.2500    151.7237     32.0163     30.2756     28.0697    111.8737
   959.5000    152.5530     29.1937     27.9694     29.1169    123.4096
   959.7500    153.3072     26.6014     25.8014     31.8457    127.8561
   960.0000    154.0530     24.3043     23.7517     34.1243    128.7337
   960.2500    154.8286     22.3259     21.8362     34.1247    125.7513
   960.5000    155.6295     20.6589     20.0876     31.2670    118.3618
   960.7500    156.4127     19.2757     18.5358     26.5561    113.7422
   961.0000    157.1194     18.1354     17.1964     21.7834    110.6881
   961.2500    157.7048     17.1887     16.0672     18.2979    112.0836
   961.5000    158.1565     16.3849     15.1320     16.4211    118.6470
   961.7500    158.4950     15.6793     14.3664     15.7231    124.7379
