~Version Information
 VERS.                                  2.0 : CWLS LAS VERSION
 WRAP.                                   NO : WRAPING MODE
 SWARE .                 MController 2.5.0N : SOFTWARE VERSION
~Well Information
 WELL.                    Hellzonfire 32-31 : WELL
 COMP.    Pioneer Natural Resources USA Inc : COMPANY
 FLD.                      Purgatoire River : FIELD
 LOC.                 SW/NE SEC31 T32S R66W : LOCATION
 DATE.                             09/01/05 : DATE(S) LOGGED
 SRVC.       Blanco Geological Services LLC : SERVICE COMPANY
 STAT.                             Colorado : STATE
 CNTY.                           Las Animas : COUNTY
 CTRY.                                  USA : COUNTRY
 API.                       05-071-08483-00 : API NUMBER
 STRT.FT                             356.00 : START DEPTH
 STOP.FT                            2480.00 : STOP DEPTH
 STEP.FT                               1.00 : DEPTH INCREMENT
 NULL.                                -9999 : NULL VALUE
~Curve information
 DEPTH.FT                                   :
 ROP.MIN/FT                                 :
 GAS.UNITS                                  :
~ASCII Log data
# ...
       756.0         0.20         62.0 
       757.0         0.20         61.6 
       758.0         0.20         57.2 
       759.0         0.20         55.7 
       760.0         0.20         54.7 
       761.0         0.13         56.3 
       762.0         0.20         56.3 
       763.0         0.17         55.8 
       764.0         0.17         53.7 
       765.0         0.23         52.4 
       766.0         0.20         52.4 
       767.0         0.20         52.4 
       768.0         0.23         51.8 
       769.0         0.17         49.6 
       770.0         0.22         42.6 
       771.0         0.20         39.7 
       772.0         1.73        278.1 
       773.0         0.13        271.5 
       774.0         0.40        248.6 
       775.0         0.13        199.5 
       776.0         0.30        184.0 
       777.0         0.20        126.1 
       778.0         0.22        104.3 
       779.0         0.20         98.8 
       780.0         0.20         85.3 
       781.0         0.17         76.7 
       782.0         0.27         75.9 
       783.0         0.23         68.8 
       784.0         0.20         61.4 
       785.0         0.20         59.3 
       786.0         0.23         56.0 
       787.0         0.20         55.0 
       788.0         0.23         52.9 
       789.0         0.20         52.1 
       790.0         0.27         51.3 
       791.0         0.20         50.7 
       792.0         0.20         51.9 
       793.0         0.23         52.0 
       794.0         0.28         53.1 
       795.0         0.27         53.8 
       796.0         0.23         51.4 
       797.0         0.23         51.4 
       798.0         0.20         49.4 
       799.0         0.20         48.7 
       800.0         0.20         46.8 
       801.0         0.17         46.8 
       802.0         0.17         43.5 
       803.0         0.23         40.7 
       804.0         0.33         48.7 
       805.0         1.98        324.3 
       806.0         0.53        272.3 
       807.0         0.37        168.0 
       808.0         0.30        134.1 
       809.0         0.23        101.8 
       810.0         0.27         84.6 
       811.0         0.27         76.2 
       812.0         0.27         70.1 
       813.0         0.28         61.5 
       814.0         0.20         54.9 
       815.0         0.23         52.2 
       816.0         0.23         50.5 
       817.0         0.20         50.8 
       818.0         0.13         52.2 
       819.0         0.13         52.2 
       820.0         0.10         52.2 
       821.0         0.17         53.0 
       822.0         0.27         55.0 
       823.0         0.23         56.7 
       824.0         0.33         55.5 
       825.0         0.30         54.6 
       826.0         0.23         55.9 
       827.0         0.25         53.4 
       828.0         0.27         51.6 
       829.0         0.27         53.2 
       830.0         0.20         54.7 
       831.0         0.23         56.0 
       832.0         0.17         52.4 
       833.0         0.23         52.4 
       834.0         0.27         53.3 
       835.0         0.27         91.1 
       836.0         1.23        256.9 
       837.0         0.62        242.3 
       838.0         0.63        172.6 
       839.0         0.23        105.5 
       840.0         0.20         91.6 
       841.0         0.20         89.1 
       842.0         0.23         82.0 
       843.0         0.23         73.5 
       844.0         0.27         72.0 
       845.0         0.27         64.4 
       846.0         0.27         59.1 
       847.0         0.23         58.0 
       848.0         0.25         56.3 
       849.0         0.23         58.5 
       850.0         0.20         61.1 
       851.0         0.13         61.1 
       852.0         0.17         64.1 
       853.0         0.20         65.3 
       854.0         0.20         67.6 
       855.0         0.13         69.4 
       856.0         0.20         69.4 
       857.0         0.27         69.8 
       858.0         0.20         71.2 
       859.0         0.20         71.2 
       860.0         0.27         68.9 
       861.0         0.27         64.6 
       862.0         0.27         62.0 
       863.0         0.23         60.1 
       864.0         0.28         58.3 
       865.0         0.23         51.0 
       866.0         1.87        294.9 
       867.0         0.43        259.3 
       868.0         0.27        207.7 
       869.0         0.17        159.9 
       870.0         0.22        131.1 
       871.0         0.40        118.1 
       872.0         0.27         97.6 
       873.0         0.23         91.4 
       874.0         0.23         92.4 
       875.0         0.40         91.8 
       876.0         0.23         85.2 
       877.0         0.27         78.4 
       878.0         0.23         77.9 
       879.0         0.23         72.7 
       880.0         0.20         71.8 
       881.0         0.30         72.2 
       882.0         0.17         72.1 
       883.0         0.18         72.1 
       884.0         0.17         74.0 
       885.0         0.17         70.3 
       886.0         0.27         63.9 
       887.0         0.10         63.9 
       888.0         0.17         62.8 
       889.0         0.20         60.6 
       890.0         0.13         58.4 
       891.0         0.13         58.4 
       892.0         0.10         57.0 
       893.0         0.10         56.2 
       894.0         0.23         48.7 
       895.0         0.27         54.7 
       896.0         1.38        353.6 
       897.0         0.33        375.4 
       898.0         0.47        366.6 
       899.0         0.33        308.7 
       900.0         0.40        226.9 
       901.0         0.27        143.6 
       902.0         0.23        105.2 
       903.0         0.27         98.4 
       904.0         0.23         88.2 
       905.0         0.13         82.1 
       906.0         0.20         78.9 
       907.0         0.23         77.5 
       908.0         0.25         80.6 
       909.0         0.17         87.8 
       910.0         0.20        105.5 
       911.0         0.17        109.8 
       912.0         0.50        132.0 
       913.0         0.23        135.5 
       914.0         0.23        131.7 
       915.0         0.23        131.7 
       916.0         0.23        127.7 
       917.0         0.20        120.5 
       918.0         0.23        119.3 
       919.0         0.23        108.8 
       920.0         0.23        103.5 
       921.0         0.27         95.1 
       922.0         0.22         93.5 
       923.0         0.17         80.6 
       924.0         0.97        206.7 
       925.0         0.40        276.9 
       926.0         1.78       1277.0 
       927.0         0.10        739.4 
       928.0         0.30        665.6 
       929.0         0.23        542.8 
       930.0         0.27        446.5 
       931.0         0.23        440.0 
       932.0         0.23        130.8 
       933.0         0.17        126.3 
       934.0         0.27        115.7 
       935.0         0.27        104.4 
       936.0         0.20         98.4 
       937.0         0.17         93.7 
       938.0         0.23         90.5 
       939.0         0.23         87.6 
       940.0         0.23         86.7 
       941.0         0.22         84.9 
       942.0         0.27         84.3 
       943.0         0.20         83.1 
       944.0         0.27         82.5 
       945.0         0.27         80.5 
       946.0         0.27         78.3 
       947.0         0.27         80.5 
       948.0         0.23         80.5 
       949.0         0.37         76.5 
       950.0         0.23         73.6 
       951.0         0.20         72.2 
       952.0         0.20         71.6 
       953.0         0.17         67.8 
       954.0         0.20         67.8 
       955.0         0.15         66.0 
