~Version Information
VERS.                      2.0: CWLS Log ASCII Standard - VERSION 2.0
WRAP.                       NO: One line per depth step
~Well Information Block
STRT.FT                10.0000: 
STOP.FT              1044.5000: 
STEP.FT                 0.1000: 
NULL.                -999.2500: 
COMP.          Pioneer Natural Resources: COMPANY
WELL.          Stags Leap 13-30: WELL
FLD.           Purgatorie River: FIELD
LOC.           1813' FSL & 117' FWL: LOCATION
PROV.                 Colorado: PROVINCE
CNTY.               Las Animas: COUNTRY
SRVC.                Patterson: SERVICE COMPANY
DATE.          Fri Dec 09 09:46:17 2005: LOG DATE
UWI.                          : UNIQUE WELL ID
~Curve Information Block
DEPT.FT            0 000 00 00: Depth
DCAL.in                       : CDL Caliper
RHOB.g/cc                     : CDL Bulk Density
RHOC.g/cc                     : CDL Density Correction
DPOR.pu                       : CDL Density Porosity
GR.GAPI                       : Gamma Ray
NPOR.pu                       : Neutron Porosity
~Parameter Information Block
~A  Depth       DCAL        RHOB        RHOC        DPOR         GR         NPOR    
# ...
   144.4000     -3.1029      1.3161      2.2220     -0.0267    146.3413     27.7572
   144.5000     -3.1029      1.3756      2.2581     -0.0255    150.2734     27.6330
   144.6000     -3.1029      1.4230      2.3097     -0.0246    151.9457     27.5727
   144.7000     -3.1029      1.4576      2.3144     -0.0239    152.2413     27.2077
   144.8000     -3.1029      1.4894      2.3017     -0.0232    153.8404     26.7859
   144.9000     -3.1029      1.5259      2.3664     -0.0225    157.6068     26.6438
   145.0000     -3.1029      1.5637      2.3721     -0.0217    159.3114     26.5805
   145.1000     -3.1029      1.5983      2.4025     -0.0210    154.1443     26.4921
   145.2000     -3.1029      1.6304      2.4093     -0.0204    146.9358     26.3126
   145.3000     -3.1029      1.6633      2.4518     -0.0197    146.2454     26.1124
   145.4000     -3.1029      1.6938      2.4740     -0.0191    149.8000     26.3125
   145.5000     -3.1029      1.7141      2.4865     -0.0187    150.7316     26.9367
   145.6000     -3.1029      1.7218      2.4905     -0.0186    147.8609     27.5332
   145.7000     -3.1029      1.7256      2.4582     -0.0185    146.0051     27.7520
   145.8000     -3.1029      1.7351      2.4924     -0.0183    150.0332     27.7281
   145.9000     -3.1029      1.7479      2.4920     -0.0181    158.4998     27.6701
   146.0000     -3.1029      1.7585      2.4932     -0.0178    164.9247     27.4253
   146.1000     -3.1029      1.7711      2.4849     -0.0176    162.7779     26.8706
   146.2000     -3.1029      1.7905      2.5212     -0.0172    153.2856     26.1670
   146.3000     -3.1029      1.8111      2.5543     -0.0168    145.1175     25.5813
   146.4000     -3.1029      1.8254      2.5362     -0.0165    143.8425     25.4357
   146.5000     -3.1029      1.8311      2.5416     -0.0164    146.3381     25.9599
   146.6000     -3.1029      1.8255      2.5636     -0.0165    149.7769     26.8157
   146.7000     -3.1029      1.8117      2.5122     -0.0168    154.7156     27.4579
   146.8000     -3.1029      1.8028      2.4926     -0.0170    157.4854     27.6464
   146.9000     -3.1029      1.8057      2.5133     -0.0169    156.1759     27.5546
   147.0000     -3.1029      1.8150      2.5092     -0.0167    154.0382     27.3808
   147.1000     -3.1029      1.8257      2.5202     -0.0165    152.4467     27.0064
   147.2000     -3.1029      1.8365      2.5445     -0.0163    151.0430     26.5544
   147.3000     -3.1029      1.8454      2.5474     -0.0161    148.1372     26.4606
   147.4000     -3.1029      1.8488      2.5570     -0.0160    142.0145     26.7976
   147.5000     -3.1029      1.8413      2.5587     -0.0162    137.3365     27.2262
   147.6000     -3.1029      1.8251      2.5243     -0.0165    139.8217     27.4585
   147.7000     -3.1029      1.8138      2.4967     -0.0167    145.5077     27.4545
   147.8000     -3.1029      1.8128      2.5361     -0.0168    147.4157     27.4440
   147.9000     -3.1029      1.8124      2.5399     -0.0168    145.7181     27.5624
   148.0000     -3.1029      1.8094      2.5065     -0.0168    144.0265     27.5576
   148.1000     -3.1029      1.8110      2.5404     -0.0168    143.5216     27.5127
   148.2000     -3.1029      1.8136      2.5535     -0.0167    142.8112     27.6212
   148.3000     -3.1029      1.8106      2.5366     -0.0168    141.7372     27.5231
   148.4000     -3.1029      1.8090      2.5138     -0.0168    143.7231     27.2007
   148.5000     -3.1029      1.8153      2.5385     -0.0167    149.7405     27.0332
   148.6000     -3.1029      1.8238      2.5320     -0.0165    154.7609     27.1795
   148.7000     -3.1029      1.8291      2.5348     -0.0164    154.9421     27.6667
   148.8000     -3.1029      1.8323      2.5402     -0.0164    151.8157     28.4773
   148.9000     -3.1029      1.8356      2.5363     -0.0163    149.9935     29.4144
   149.0000     -3.1029      1.8371      2.5663     -0.0163    151.0734     29.8640
   149.1000     -3.1029      1.8343      2.5337     -0.0163    151.8165     29.3565
   149.2000     -3.1029      1.8348      2.5192     -0.0163    151.6482     28.4543
   149.3000     -3.1029      1.8441      2.5429     -0.0161    151.6222     27.8868
   149.4000     -3.1029      1.8544      2.5710     -0.0159    150.6445     27.6735
   149.5000     -3.1029      1.8578      2.5526     -0.0159    149.5798     27.5637
   149.6000     -3.1029      1.8540      2.5615     -0.0159    148.7867     27.5043
   149.7000     -3.1029      1.8476      2.5306     -0.0161    145.8072     27.7215
   149.8000     -3.1029      1.8453      2.5370     -0.0161    143.9315     28.2257
   149.9000     -3.1029      1.8462      2.5652     -0.0161    148.8968     28.5976
   150.0000     -3.1029      1.8452      2.5381     -0.0161    155.8373     28.5668
   150.1000     -3.1029      1.8439      2.5232     -0.0161    157.9207     28.2718
   150.2000     -3.1029      1.8435      2.5414     -0.0161    156.6890     27.8955
   150.3000     -3.1029      1.8444      2.5042     -0.0161    156.8119     27.5111
   150.4000     -3.1029      1.8532      2.5169     -0.0159    158.1543     27.2382
   150.5000     -3.1029      1.8699      2.5448     -0.0156    158.3593     27.3229
   150.6000     -3.1029      1.8838      2.5618     -0.0153    159.3459     27.6947
   150.7000     -3.1029      1.8865      2.5644     -0.0153    161.3577     27.7972
   150.8000     -3.1029      1.8834      2.5557     -0.0153    160.7475     27.4125
   150.9000     -3.1029      1.8850      2.5393     -0.0153    156.2232     26.8779
   151.0000     -3.1029      1.8917      2.5613     -0.0152    149.1877     26.4720
   151.1000     -3.1029      1.8960      2.5492     -0.0151    145.6556     26.2620
   151.2000     -3.1029      1.8944      2.5628     -0.0151    150.3560     26.2001
   151.3000     -3.1029      1.8909      2.5580     -0.0152    158.0646     26.1443
   151.4000     -3.1029      1.8904      2.5480     -0.0152    159.6633     26.1689
   151.5000     -3.1029      1.8932      2.5448     -0.0151    155.4414     26.4342
   151.6000     -3.1029      1.8930      2.5734     -0.0151    151.5008     26.6823
   151.7000     -3.1029      1.8900      2.5369     -0.0152    149.2860     26.7321
   151.8000     -3.1029      1.8922      2.5505     -0.0152    146.7936     26.8896
   151.9000     -3.1029      1.8930      2.5948     -0.0151    144.0741     26.9642
   152.0000     -3.1029      1.8814      2.5640     -0.0154    144.9767     26.6338
   152.1000     -3.1029      1.8688      2.5043     -0.0156    150.0536     26.4890
   152.2000     -3.1029      1.8707      2.5296     -0.0156    153.8754     26.9733
   152.3000     -3.1029      1.8815      2.5641     -0.0154    155.6256     27.4541
   152.4000     -3.1029      1.8906      2.5524     -0.0152    157.6417     27.4849
   152.5000     -3.1029      1.8972      2.5583     -0.0151    158.0050     27.4311
   152.6000     -3.1029      1.9017      2.5563     -0.0150    155.5315     27.4878
   152.7000     -3.1029      1.9057      2.5406     -0.0149    152.1547     27.6594
   152.8000     -3.1029      1.9147      2.5557     -0.0147    148.6430     27.7601
   152.9000     -3.1029      1.9269      2.5874     -0.0145    146.0925     27.3173
   153.0000     -3.1029      1.9342      2.5874     -0.0143    145.4591     26.4708
   153.1000     -3.1029      1.9351      2.5729     -0.0143    144.5343     26.0842
   153.2000     -3.1029      1.9339      2.5621     -0.0143    144.4382     26.1933
   153.3000     -3.1029      1.9358      2.5559     -0.0143    147.9822     26.0977
   153.4000     -3.1029      1.9417      2.5836     -0.0142    151.0453     25.7319
   153.5000     -3.1029      1.9450      2.5712     -0.0141    148.7617     25.4183
   153.6000     -3.1029      1.9449      2.5640     -0.0141    144.1551     25.3254
   153.7000     -3.1029      1.9456      2.5815     -0.0141    144.2139     25.1911
   153.8000     -3.1029      1.9448      2.5750     -0.0141    151.6969     24.8560
   153.9000     -3.1029      1.9401      2.5785     -0.0142    161.4301     24.4870
