~Version Information
VERS.                      2.0: CWLS Log ASCII Standard - VERSION 2.0
WRAP.                       NO: One line per depth step
~Well Information Block
STRT.FT                -8.7500: 
STOP.FT              1860.5000: 
STEP.FT                 0.2500: 
NULL.                -999.2500: 
COMP.          Pioneer Natural Resources: COMPANY
WELL.          Cortina 23-25 Tr: WELL
FLD.           Purgatorie River: FIELD
LOC.           --2521' FSL & 2345' FWL------: LOCATION
STAT.                       CO: PROVINCE
CNTY.               Las Animas: COUNTY
CTRY. USA : country
SECT. 25 : Section
TOWN. 32S : Township
RANG. 67W : Range
SRVC.          Patterson Wireline: SERVICE COMPANY
DATE.          Thu Sep 29 11:30:45 2005: LOG DATE
API.           05 071 08534 00: UNIQUE WELL ID
~Curve Information Block
DEPT.FT            0 000 00 00: Depth
CCL.                          : Casing Collar Locator
TT3.usec                      : CBL 3' Travel Time
AMP3.mV                       : CBL 3' Amplitude
GR.GAPI                       : Gamma Ray
~Parameter Information Block
~A  Depth       CCL         TT3         AMP3         GR     
# ...
   225.7500      0.0000    280.1989     65.1929     57.8698
   226.0000      0.0000    280.2031     65.1656     60.0822
   226.2500      0.0000    280.2040     65.2835     63.2074
   226.5000      0.0000    280.1983     65.5200     66.6088
   226.7500      0.0000    280.1859     65.7815     69.0637
   227.0000      0.0000    280.1704     65.9753     69.6731
   227.2500      0.0000    280.1555     66.0713     68.4428
   227.5000      0.0000    280.1424     66.1024     66.0631
   227.7500      0.0000    280.1311     66.1167     63.1367
   228.0000      0.0000    280.1232     66.1298     59.7359
   228.2500      0.0000    280.1219     66.1253     55.7658
   228.5000      0.0000    280.1288     66.0974     51.6288
   228.7500      0.0000    280.1418     66.0850     48.3237
   229.0000      0.0000    280.1570     66.1500     46.7007
   229.2500      0.0000    280.1711     66.3176     46.5654
   229.5000      0.0000    280.1823     66.5432     46.6902
   229.7500      0.0000    280.2011     66.7447     45.8875
   230.0000      0.0000    280.2703     66.8513     44.0271
   230.2500      0.0000    280.5840     66.7728     41.8955
   230.5000      0.0000    281.7147     66.2740     40.3215
   230.7500      0.0000    284.8185     64.8794     39.7811
   231.0000      0.0000    291.2016     62.0820     40.6113
   231.2500      0.0000    300.7576     57.8951     42.9385
   231.5000      0.0000    310.4580     53.1952     46.1950
   231.7500      0.0000    315.5369     49.2430     49.1458
   232.0000      0.0000    313.4469     46.7787     50.7684
   232.2500      0.0000    306.2481     45.7077     50.9594
   232.5000      0.0000    298.4062     45.5149     50.2739
   232.7500      0.0000    292.9534     45.7034     49.2857
   233.0000      2.0000    290.2437     45.9250     48.3382
   233.2500      0.0000    289.2709     45.9845     47.5162
   233.5000      0.0000    289.0955     45.7959     46.5208
   233.7500      0.0000    289.2425     45.3729     44.9194
   234.0000      0.0000    289.4549     44.9858     42.9415
   234.2500      0.0000    289.4153     45.3222     41.6561
   234.5000      0.0000    288.7473     47.1924     41.8873
   234.7500      0.0000    287.3167     50.8266     43.2403
   235.0000      0.0000    285.4129     55.5713     44.6348
   235.2500      0.0000    283.5525     60.3485     45.5292
   235.5000      0.0000    282.1201     64.2973     46.2267
   235.7500      0.0000    281.2142     67.0456     47.2196
   236.0000      0.0000    280.7341     68.6639     48.6311
   236.2500      0.0000    280.5209     69.4836     50.2128
   236.5000      0.0000    280.4436     69.8766     51.5837
   236.7500      0.0000    280.4225     70.1019     52.4437
   237.0000      0.0000    280.4199     70.2722     52.7101
   237.2500      0.0000    280.4203     70.4091     52.5095
   237.5000      0.0000    280.4185     70.5032     51.9741
   237.7500      0.0000    280.4138     70.5570     51.0415
   238.0000      0.0000    280.4088     70.5902     49.5492
   238.2500      0.0000    280.4066     70.6239     47.6149
   238.5000      0.0000    280.4085     70.6669     45.8899
   238.7500      0.0000    280.4128     70.7180     45.2891
   239.0000      0.0000    280.4174     70.7765     46.3265
   239.2500      0.0000    280.4227     70.8442     48.5497
   239.5000      0.0000    280.4298     70.9187     50.5826
   239.7500      0.0000    280.4380     70.9911     50.9730
   240.0000      0.0000    280.4447     71.0494     49.2920
   240.2500      0.0000    280.4477     71.0849     46.4423
   240.5000      0.0000    280.4470     71.0972     43.8230
   240.7500      0.0000    280.4439     71.0967     42.2407
   241.0000      0.0000    280.4393     71.1011     41.6332
   241.2500      0.0000    280.4340     71.1238     41.6210
   241.5000      0.0000    280.4285     71.1667     42.0042
   241.7500      0.0000    280.4233     71.2221     42.6812
   242.0000      0.0000    280.4185     71.2787     43.4470
   242.2500      0.0000    280.4129     71.3272     44.2155
   242.5000      0.0000    280.4047     71.3617     45.2392
   242.7500      0.0000    280.3924     71.3802     46.7073
   243.0000      0.0000    280.3765     71.3838     48.2193
   243.2500      0.0000    280.3585     71.3808     49.0762
   243.5000      0.0000    280.3398     71.3873     49.0424
   243.7500      0.0000    280.3214     71.4195     48.4289
   244.0000      0.0000    280.3043     71.4776     47.5659
   244.2500      0.0000    280.2896     71.5394     46.6325
   244.5000      0.0000    280.2781     71.5731     45.9970
   244.7500      0.0000    280.2700     71.5598     46.3460
   245.0000      0.0000    280.2649     71.5056     48.1759
   245.2500      0.0000    280.2613     71.4309     51.0618
   245.5000      0.0000    280.2572     71.3486     53.6373
   245.7500      0.0000    280.2514     71.2548     54.6538
   246.0000      0.0000    280.2441     71.1392     54.1949
   246.2500      0.0000    280.2352     70.9984     53.6029
   246.5000      0.0000    280.2245     70.8373     54.0042
   246.7500      0.0000    280.2121     70.6627     55.1082
   247.0000      0.0000    280.1996     70.4795     55.6501
   247.2500      0.0000    280.1891     70.2912     54.8641
   247.5000      0.0000    280.1818     70.1011     53.2546
   247.7500      0.0000    280.1786     69.9126     51.9778
   248.0000      0.0000    280.1790     69.7303     51.7004
   248.2500      0.0000    280.1819     69.5606     52.1102
   248.5000      0.0000    280.1844     69.4103     52.3767
   248.7500      0.0000    280.1833     69.2876     51.9940
   249.0000      0.0000    280.1757     69.2024     51.2913
   249.2500      0.0000    280.1605     69.1586     51.2425
   249.5000      0.0000    280.1385     69.1451     52.6845
   249.7500      0.0000    280.1120     69.1399     55.5602
   250.0000      0.0000    280.0829     69.1268     58.8625
   250.2500      0.0000    280.0520     69.1044     61.2723
   250.5000      0.0000    280.0203     69.0762     61.8257
   250.7500      0.0000    279.9904     69.0408     60.2065
   251.0000      0.0000    279.9654     68.9966     56.8908
   251.2500      0.0000    279.9468     68.9498     53.2025
   251.5000      0.0000    279.9336     68.9088     50.9049
   251.7500      0.0000    279.9234     68.8725     51.1916
   252.0000      0.0000    279.9136     68.8265     53.7111
   252.2500      0.0000    279.9023     68.7500     56.7378
   252.5000      0.0000    279.8892     68.6269     58.5426
   252.7500      0.0000    279.8754     68.4555     58.4485
   253.0000      0.0000    279.8622     68.2462     56.6025
   253.2500      0.0000    279.8506     68.0089     53.4386
   253.5000      0.0000    279.8421     67.7481     49.7063
   253.7500      0.0000    279.8381     67.4722     46.4392
   254.0000      0.0000    279.8398     67.1976     44.4880
   254.2500      0.0000    279.8488     66.9387     44.2118
   254.5000      0.0000    279.8661     66.6996     45.4942
   254.7500      0.0000    279.8907     66.4753     47.7351
   255.0000      0.0000    279.9187     66.2583     49.9832
   255.2500      0.0000    279.9457     66.0461     51.4001
   255.5000      0.0000    279.9685     65.8506     51.6026
   255.7500      0.0000    279.9858     65.6952     50.5907
   256.0000      0.0000    279.9978     65.5932     48.6217
   256.2500      0.0000    280.0063     65.5316     46.2130
   256.5000      0.0000    280.0139     65.4810     44.0073
   256.7500      0.0000    280.0229     65.4159     42.5768
   257.0000      0.0000    280.0344     65.3222     42.3849
   257.2500      0.0000    280.0489     65.1947     43.7319
   257.5000      0.0000    280.0661     65.0392     46.4661
   257.7500      0.0000    280.0848     64.8730     49.7874
   258.0000      0.0000    280.1038     64.7191     52.6650
   258.2500      0.0000    280.1219     64.6016     54.5209
   258.5000      0.0000    280.1384     64.5431     55.2999
   258.7500      0.0000    280.1521     64.5543     55.0270
   259.0000      0.0000    280.1622     64.6207     53.7294
