~Version Information
VERS.                      2.0: CWLS Log ASCII Standard - VERSION 2.0
WRAP.                       NO: One line per depth step
~Well Information Block
STRT.FT               795.0000: 
STOP.FT              2276.0000: 
STEP.FT                 0.1000: 
NULL.                -999.2500: 
COMP.          Pioneer Natural Resources: COMPANY
WELL.            Wildcard 31-5: WELL
FLD.           Purgatoire River: FIELD
LOC.           624' FNL & 1852' FEL--: LOCATION
CNTY.               Las Animas: COUNTY
SRVC.                Patterson: SERVICE COMPANY
DATE.          Tue Mar 07 07:04:10 2006: LOG DATE
UWI.           05 071 08707 00: UNIQUE WELL ID
STAT.                 Colorado: STATE
~Curve Information Block
DEPT.FT            0 000 00 00: Depth
DCAL.in                       : CDL Caliper
DPOR.pu                       : CDL Density Porosity
NPOR.pu                       : Neutron Porosity
RHOB.g/cc                     : CDL Bulk Density
RHOC.g/cc                     : CDL Density Correction
GR.GAPI                       : Gamma Ray
~Parameter Information Block
~A  Depth       DCAL        DPOR        NPOR        RHOB        RHOC         GR     
# ...
  1188.6000      8.0211      9.3136     16.8256      2.4963      0.0664     53.1339
  1188.7000      8.0211      8.6948     16.5533      2.5065      0.0690     54.8125
  1188.8000      8.0197      7.6478     16.6364      2.5238      0.0898     54.9100
  1188.9000      8.0197      7.0842     16.9076      2.5331      0.1268     52.2870
  1189.0000      8.0218      7.7562     17.1253      2.5220      0.0814     48.6806
  1189.1000      8.0218      9.1669     17.1772      2.4987      0.0593     47.3592
  1189.2000      8.0218     10.5435     17.0478      2.4760      0.0540     48.6315
  1189.3000      8.0232     11.4947     16.9039      2.4603      0.0392     48.9982
  1189.4000      8.0232     11.8675     16.8860      2.4542      0.0877     47.4703
  1189.5000      8.0224     11.9274     16.8677      2.4532      0.0880     47.1979
  1189.6000      8.0224     12.0356     16.8284      2.4514      0.0971     49.4879
  1189.7000      8.0224     12.1813     16.9077      2.4490      0.0826     51.6378
  1189.8000      8.0224     11.6159     16.9767      2.4583      0.0459     52.3611
  1189.9000      8.0224     10.0041     16.8658      2.4849      0.1015     53.8696
  1190.0000      8.0227      8.1673     16.8001      2.5152      0.1146     55.5294
  1190.1000      8.0227      6.3378     17.2670      2.5454      0.1264     55.8874
  1190.2000      8.0227      4.4285     18.2397      2.5769      0.1587     56.0447
  1190.3000      8.0228      3.4043     18.8654      2.5938      0.1794     55.3698
  1190.4000      8.0228      3.6902     18.7905      2.5891      0.1595     53.4916
  1190.5000      8.0283      4.1961     18.6933      2.5808      0.0977     51.4963
  1190.6000      8.0283      3.8139     18.8179      2.5871      0.1279     51.5937
  1190.7000      8.0283      2.3482     18.5613      2.6113      0.1145     55.3533
  1190.8000      8.0392      0.2900     17.9585      2.6452      0.1493     59.8558
  1190.9000      8.0392     -1.4152     17.8584      2.6734      0.1614     61.5686
  1191.0000      8.0439     -2.1251     18.4620      2.6851      0.1066     62.1368
  1191.1000      8.0439     -1.9687     19.1008      2.6825      0.1136     63.3252
  1191.2000      8.0439     -1.3375     19.3145      2.6721      0.0904     63.1519
  1191.3000      8.0402     -0.1754     19.4018      2.6529      0.0830     60.3023
  1191.4000      8.0402      1.5159     19.7399      2.6250      0.0142     56.4850
  1191.5000      8.0362      2.6026     20.2249      2.6071     -0.0041     54.1106
  1191.6000      8.0362      2.2349     20.4649      2.6131      0.0024     53.9319
  1191.7000      8.0362      1.2622     20.3386      2.6292      0.0836     55.1191
  1191.8000      8.0369      0.9815     20.2063      2.6338      0.0524     55.7498
  1191.9000      8.0369      1.9764     20.1860      2.6174      0.0515     55.6100
  1192.0000      8.0371      3.6991     20.0257      2.5890     -0.0194     57.4022
  1192.1000      8.0371      4.6324     19.7662      2.5736      0.0280     59.6719
  1192.2000      8.0371      4.0503     19.6438      2.5832      0.0347     56.9452
  1192.3000      8.0284      2.6480     19.6172      2.6063      0.0683     50.1623
  1192.4000      8.0284      1.1969     19.4697      2.6303      0.0556     45.9314
  1192.5000      8.0119     -0.3978     19.2752      2.6566      0.0798     46.6001
  1192.6000      8.0119     -2.2717     19.2065      2.6875      0.1009     49.0402
  1192.7000      8.0119     -3.6577     19.0741      2.7104      0.1624     50.4770
  1192.8000      8.0009     -3.9983     18.8199      2.7160      0.1165     51.4195
  1192.9000      8.0009     -3.8351     18.8947      2.7133      0.1235     53.1957
  1193.0000      8.0001     -3.5270     19.6010      2.7082      0.1193     54.0977
  1193.1000      8.0001     -3.2637     20.6649      2.7039      0.0668     53.5690
  1193.2000      8.0001     -3.3452     21.5483      2.7052      0.0695     54.8677
  1193.3000      8.0109     -3.3647     22.0530      2.7055      0.0605     58.4254
  1193.4000      8.0109     -2.6575     22.3942      2.6938      0.0081     60.4421
  1193.5000      8.0294     -1.5126     22.7288      2.6750     -0.0373     58.8422
  1193.6000      8.0294     -1.1035     23.0216      2.6682     -0.0134     56.8325
  1193.7000      8.0294     -2.1099     23.4025      2.6848      0.0224     55.3347
  1193.8000      8.0408     -4.1888     23.9307      2.7191      0.0062     52.0140
  1193.9000      8.0408     -6.2863     24.3204      2.7537      0.0582     48.0225
  1194.0000      8.0413     -7.0436     24.4626      2.7662      0.0563     45.4010
  1194.1000      8.0413     -6.1356     24.6581      2.7512      0.0364     44.2654
  1194.2000      8.0413     -4.4394     25.1733      2.7232      0.0310     44.9547
  1194.3000      8.0341     -2.6851     25.8006      2.6943      0.0192     47.8613
  1194.4000      8.0341     -1.0506     26.0936      2.6673      0.0537     50.8282
  1194.5000      8.0201      0.0899     26.1066      2.6485      0.0165     52.8793
  1194.6000      8.0201     -0.2446     26.2926      2.6540      0.0267     54.8522
  1194.7000      8.0201     -2.2006     26.6284      2.6863      0.0282     56.2497
  1194.8000      8.0062     -4.7974     26.7794      2.7292      0.0461     55.5819
  1194.9000      8.0062     -7.3302     26.7442      2.7709      0.0786     51.6077
  1195.0000      8.0054     -9.2796     26.7853      2.8031      0.1281     46.6283
  1195.1000      8.0054    -10.0041     26.9078      2.8151      0.1235     44.1882
  1195.2000      8.0054     -9.5100     26.7966      2.8069      0.1006     43.7195
  1195.3000      8.0175     -8.3029     26.5676      2.7870      0.1032     44.2687
  1195.4000      8.0175     -7.2456     26.5362      2.7696      0.0213     47.2560
  1195.5000      8.0313     -6.9811     26.5316      2.7652      0.0664     51.5774
  1195.6000      8.0313     -7.0852     26.4982      2.7669      0.0307     53.6784
  1195.7000      8.0313     -7.3529     26.7239      2.7713      0.0166     53.2437
  1195.8000      8.0440     -7.4859     27.1575      2.7735      0.0275     52.2053
  1195.9000      8.0440     -6.6016     27.4212      2.7589      0.0357     50.8193
  1196.0000      8.0533     -4.7886     27.5034      2.7290     -0.0079     49.1094
  1196.1000      8.0533     -2.9995     27.5280      2.6995     -0.0165     49.4277
  1196.2000      8.0533     -1.8510     27.2921      2.6805     -0.0171     52.6276
  1196.3000      8.0562     -1.4914     26.8322      2.6746     -0.0319     54.6225
  1196.4000      8.0562     -1.4401     26.3979      2.6738      0.0089     52.6709
  1196.5000      8.0562     -1.5928     26.0355      2.6763     -0.0372     50.0313
  1196.6000      8.0562     -2.8080     25.8187      2.6963      0.0007     50.4874
  1196.7000      8.0562     -4.8249     25.9222      2.7296      0.0375     52.5210
  1196.8000      8.0566     -6.1415     26.1760      2.7513      0.0579     54.3226
  1196.9000      8.0566     -6.2165     26.1773      2.7526      0.0361     55.6595
  1197.0000      8.0567     -5.7985     25.9438      2.7457      0.0512     54.2074
  1197.1000      8.0567     -5.4033     25.8531      2.7392      0.0666     49.8868
  1197.2000      8.0567     -5.6956     26.0861      2.7440      0.0273     47.1080
  1197.3000      8.0568     -7.2075     26.2975      2.7689      0.0554     48.7485
  1197.4000      8.0568     -8.7586     26.1357      2.7945      0.0674     52.2726
  1197.5000      8.0570     -8.6776     25.8320      2.7932      0.0622     54.0025
  1197.6000      8.0570     -6.8193     25.7103      2.7625      0.0342     53.5436
  1197.7000      8.0570     -3.5325     25.6563      2.7083      0.0158     50.9496
  1197.8000      8.0498      1.7799     25.4317      2.6206      0.0440     47.0175
  1197.9000      8.0498      8.3111     25.3087      2.5129     -0.0561     44.0342
  1198.0000      8.0233     12.6270     25.5772      2.4417     -0.1041     43.2178
  1198.1000      8.0233     12.2000     25.7620      2.4487     -0.0791     45.8907
