~Version Information
VERS.                      2.0: CWLS Log ASCII Standard - VERSION 2.0
WRAP.                       NO: One line per depth step
~Well Information Block
STRT.FT                -6.5000: 
STOP.FT              1564.2500: 
STEP.FT                 0.2500: 
NULL.                -999.2500: 
COMP.          Pioneer Natural Resources: COMPANY
WELL.            Bluesky 44-17: WELL
FLD.           Purgatorie River: FIELD
LOC.           --39' FSL & 288' FEL------: LOCATION
STAT.                       CO: State
CNTY.               Las Animas: COUNTY
CTRY. USA : Country
SECT. 17 : Section
TOWN. 33S : Township
RANG. 66W : Range
SRVC.          Patterson Wireline: SERVICE COMPANY
DATE.          Tue Sep 13 13:24:14 2005: LOG DATE
API.           05 071 08511 00: UNIQUE WELL ID
~Curve Information Block
DEPT.FT            0 000 00 00: Depth
CCL.                          : Casing Collar Locator
TT3.usec                      : CBL 3' Travel Time
AMP3.mV                       : CBL 3' Amplitude
GR.GAPI                       : Gamma Ray
~Parameter Information Block
~A  Depth       CCL         TT3         AMP3         GR     
# ...
  1032.0000      0.0000    762.6150     10.1467    132.2856
  1032.2500      0.0000    758.4392     10.2538    132.3227
  1032.5000      0.0000    753.2394     10.3000    131.9067
  1032.7500      0.0000    748.1492     10.2841    132.1640
  1033.0000      0.0000    743.2197     10.2272    133.9645
  1033.2500      0.0000    737.5710     10.1503    137.3557
  1033.5000      0.0000    730.7319     10.0618    141.7086
  1033.7500      0.0000    723.5859      9.9611    146.1902
  1034.0000      0.0000    718.0495      9.8500    150.0155
  1034.2500      0.0000    715.9362      9.7377    152.5852
  1034.5000      0.0000    717.9837      9.6370    153.8410
  1034.7500      0.0000    723.4904      9.5549    154.6693
  1035.0000      0.0000    730.5049      9.4859    156.6949
  1035.2500      0.0000    736.5939      9.4172    161.1846
  1035.5000      0.0000    739.9371      9.3415    167.8741
  1035.7500      0.0000    740.1628      9.2655    174.9974
  1036.0000      0.0000    738.4326      9.2039    180.5123
  1036.2500      0.0000    736.4653      9.1655    183.3514
  1036.5000      0.0000    734.9615      9.1455    183.8006
  1036.7500      0.0000    733.1663      9.1322    182.9818
  1037.0000      0.0000    730.5336      9.1190    181.7583
  1037.2500      0.0000    728.2204      9.1097    179.9584
  1037.5000      0.0000    727.8301      9.1131    176.8083
  1037.7500      0.0000    728.9176      9.1322    171.9303
  1038.0000      0.0000    728.9459      9.1594    165.7100
  1038.2500      0.0000    726.0195      9.1790    159.0658
  1038.5000      0.0000    720.8686      9.1775    153.2064
  1038.7500      0.0000    715.8030      9.1540    149.1642
  1039.0000      0.0000    712.4598      9.1203    146.9902
  1039.2500      0.0000    710.9827      9.0901    145.4555
  1039.5000      0.0000    710.6969      9.0681    143.0655
  1039.7500      0.0000    710.9093      9.0487    139.6767
  1040.0000      0.0000    711.1906      9.0233    136.9443
  1040.2500      0.0000    711.3643      8.9851    136.8402
  1040.5000      0.0000    711.4437      8.9302    139.6378
  1040.7500      0.0000    711.5455      8.8578    143.5833
  1041.0000      0.0000    711.8535      8.7716    146.5240
  1041.2500      0.0000    712.7036      8.6790    147.6793
  1041.5000      0.0000    714.8045      8.5879    147.9566
  1041.7500      0.0000    719.2231      8.5058    148.8995
  1042.0000      0.0000    726.4782      8.4374    151.2776
  1042.2500      0.0000    734.9887      8.3836    154.3004
  1042.5000      0.0000    740.8736      8.3424    155.9933
  1042.7500      0.0000    740.6043      8.3133    154.5510
  1043.0000      0.0000    734.3372      8.2992    149.8272
  1043.2500      0.0000    726.0746      8.3043    143.8701
  1043.5000      0.0000    720.6017      8.3292    139.9253
  1043.7500      0.0000    720.7083      8.3687    140.4958
  1044.0000      0.0000    726.3394      8.4136    145.7666
  1044.2500      0.0000    734.6137      8.4572    153.5268
  1044.5000      0.0000    740.7316      8.4997    160.7435
  1044.7500      0.0000    740.7928      8.5450    165.5768
  1045.0000      0.0000    734.7912      8.5910    168.2126
  1045.2500      0.0000    726.3384      8.6222    170.0616
  1045.5000      0.0000    719.3541      8.6127    172.2541
  1045.7500      0.0000    715.6253      8.5352    174.6228
  1046.0000      0.0000    715.2885      8.3690    175.8166
  1046.2500      0.0000    718.4293      8.1087    174.1893
  1046.5000      0.0000    725.4010      7.7724    168.7485
  1046.7500      0.0000    735.8640      7.4013    159.8468
  1047.0000      0.0000    748.2725      7.0454    149.3096
  1047.2500      0.0000    760.5069      6.7448    139.3674
  1047.5000      0.0000    770.4990      6.5251    130.8271
  1047.7500      0.0000    776.4732      6.3994    122.6264
  1048.0000      0.0000    777.9302      6.3673    113.7166
  1048.2500      0.0000    776.6874      6.4161    105.0291
  1048.5000      0.0000    775.8813      6.5364     98.9277
  1048.7500      0.0000    777.9836      6.7389     97.0290
  1049.0000      0.0000    785.2950      7.0462     99.1827
  1049.2500      0.0000    801.9759      7.4693    104.2072
  1049.5000      0.0000    831.7549      7.9971    110.6496
  1049.7500      0.0000    870.4586      8.6030    116.6215
  1050.0000      0.0000    903.4331      9.2480    119.7217
  1050.2500      0.0000    916.2955      9.8711    118.1090
  1050.5000      0.0000    908.8425     10.3927    112.2781
  1050.7500      0.0000    893.8572     10.7468    105.6982
  1051.0000      0.0000    881.9293     10.9192    103.0727
  1051.2500      0.0000    872.2032     10.9523    107.2663
  1051.5000      0.0000    858.5906     10.9088    117.3936
  1051.7500      0.0000    839.7681     10.8330    129.4533
  1052.0000      0.0000    820.3458     10.7423    138.7671
  1052.2500      0.0000    805.3262     10.6434    142.4080
  1052.5000      0.0000    796.2782     10.5443    140.2363
  1052.7500      0.0000    791.7421     10.4556    134.4140
  1053.0000      0.0000    789.1784     10.3933    128.0266
  1053.2500      0.0000    786.3843     10.3790    123.3512
  1053.5000      0.0000    782.5106     10.4282    120.5429
  1053.7500      0.0000    778.7589     10.5333    117.8783
  1054.0000      0.0000    777.6943     10.6592    113.6100
  1054.2500      0.0000    780.9855     10.7597    107.7358
  1054.5000      0.0000    787.6268     10.8020    102.0062
  1054.7500      0.0000    794.6513     10.7797     98.4101
  1055.0000      0.0000    799.5178     10.7103     97.8804
  1055.2500      0.0000    801.7543     10.6198    100.1725
  1055.5000      0.0000    802.4868     10.5267    104.2730
  1055.7500      0.0000    802.5906     10.4333    108.7392
  1056.0000      0.0000    801.6100     10.3325    112.2660
  1056.2500      0.0000    798.4762     10.2196    114.5059
  1056.5000      0.0000    792.7621     10.0955    116.4301
  1056.7500      0.0000    785.1785      9.9608    119.7422
  1057.0000      0.0000    777.2886      9.8133    125.7279
  1057.2500      0.0000    770.6029      9.6524    134.1766
  1057.5000      0.0000    765.3044      9.4834    142.9980
  1057.7500      0.0000    759.9847      9.3169    149.0956
  1058.0000      0.0000    752.9984      9.1675    150.2770
  1058.2500      0.0000    743.9106      9.0506    146.7752
  1058.5000      0.0000    733.7779      8.9788    140.9884
  1058.7500      0.0000    724.4205      8.9575    135.6759
  1059.0000      0.0000    717.2405      8.9834    132.4019
  1059.2500      0.0000    712.3344      9.0412    131.6129
  1059.5000      0.0000    708.7344      9.1074    133.5377
  1059.7500      0.0000    705.6473      9.1617    138.1056
  1060.0000      0.0000    703.5394      9.1985    143.9884
  1060.2500      0.0000    704.0251      9.2256    148.5982
  1060.5000      0.0000    708.5247      9.2539    149.7739
  1060.7500      0.0000    716.8171      9.2898    147.4972
  1061.0000      0.0000    726.6488      9.3362    143.6929
  1061.2500      0.0000    734.6628      9.3950    140.4867
  1061.5000      0.0000    738.0306      9.4656    138.9010
  1061.7500      0.0000    735.8887      9.5347    138.8327
  1062.0000      0.0000    729.7393      9.5741    139.6301
  1062.2500      0.0000    722.4609      9.5602    140.6526
  1062.5000      0.0000    716.4855      9.5024    141.5779
  1062.7500      0.0000    712.5391      9.4435    142.3650
  1063.0000      0.0000    709.8054      9.4274    143.1484
  1063.2500      0.0000    707.0189      9.4672    144.0388
  1063.5000      0.0000    703.7502      9.5461    144.5988
  1063.7500      0.0000    701.5082      9.6440    143.8784
  1064.0000      0.0000    703.7256      9.7607    141.5321
  1064.2500      0.0000    713.6163      9.9106    138.4068
  1064.5000      0.0000    731.0204     10.0952    135.3863
  1064.7500      0.0000    751.5563     10.2878    132.1472
  1065.0000      0.0000    769.4423     10.4508    127.6877
  1065.2500      0.0000    781.1973     10.5675    121.6374
