~Version Information
VERS.                      2.0: CWLS Log ASCII Standard - VERSION 2.0
WRAP.                       NO: One line per depth step
~Well Information Block
STRT.FT               585.0000: 
STOP.FT              2277.5000: 
STEP.FT                 0.1000: 
NULL.                -999.2500: 
COMP.          Pioneer Natural Resources: COMPANY
WELL.          Interceptor 43-13 Tr: WELL
FLD.           Purgatoire River: FIELD
LOC.           2006' FSL & 438' FEL: LOCATION
PROV.                 Colorado: PROVINCE
CNTY.               Las Animas: COUNTRY
SRVC.                Patterson: SERVICE COMPANY
DATE.          Mon Oct 17 07:15:06 2005: LOG DATE
UWI.           05 071 08549 00: UNIQUE WELL ID
~Curve Information Block
DEPT.FT            0 000 00 00: Depth
DCAL.in                       : CDL Caliper
RHOB.g/cc                     : CDL Bulk Density
RHOC.g/cc                     : CDL Density Correction
DPOR.pu                       : CDL Density Porosity
GR.GAPI                       : Gamma Ray
NPOR.pu                       : Neutron Porosity
~Parameter Information Block
~A  Depth       DCAL        RHOB        RHOC        DPOR         GR         NPOR    
# ...
  1813.8000      7.9013      2.6062      0.1070      2.6538    120.7584     27.0796
  1813.9000      7.9013      2.5910      0.0928      3.5788    119.5692     26.7014
  1814.0000      7.9139      2.5617      0.0931      5.3494    121.3008     26.3947
  1814.1000      7.9139      2.5190      0.0403      7.9421    125.6842     25.9944
  1814.2000      7.9139      2.4873      0.0031      9.8596    131.7056     25.6141
  1814.3000      7.9123      2.4785      0.0962     10.3958    134.9875     25.5603
  1814.4000      7.9123      2.4788      0.1140     10.3750    132.4868     25.6741
  1814.5000      7.9152      2.4855      0.0897      9.9674    126.7535     25.4151
  1814.6000      7.9152      2.5094      0.1219      8.5221    123.2631     24.8262
  1814.7000      7.9152      2.5436      0.1761      6.4474    124.2538     24.4207
  1814.8000      7.9140      2.5689      0.1981      4.9158    128.6456     24.5274
  1814.9000      7.9140      2.5856      0.1719      3.9016    135.2849     25.0161
  1815.0000      7.9190      2.6022      0.2426      2.8983    142.0443     25.6387
  1815.1000      7.9190      2.6064      0.2406      2.6446    146.4365     26.3630
  1815.2000      7.9190      2.5935      0.1551      3.4241    148.1022     27.0226
  1815.3000      7.9114      2.5772      0.1520      4.4093    149.0912     27.1291
  1815.4000      7.9114      2.5628      0.1020      5.2847    153.7946     26.8266
  1815.5000      7.9702      2.5516      0.0728      5.9653    161.5071     26.7857
  1815.6000      7.9702      2.5489      0.0828      6.1296    162.0947     27.1705
  1815.7000      7.9702      2.5574      0.0676      5.6133    152.7338     27.7535
  1815.8000      7.9003      2.5733      0.0790      4.6513    145.5486     28.0567
  1815.9000      7.9003      2.5854      0.0742      3.9156    145.0778     27.9341
  1816.0000      7.8923      2.5812      0.1143      4.1717    143.5284     28.0397
  1816.1000      7.8923      2.5629      0.0449      5.2792    140.3421     28.6368
  1816.2000      7.8923      2.5500      0.0458      6.0594    139.5641     29.1634
  1816.3000      7.8962      2.5488      0.0528      6.1332    139.8238     29.1751
  1816.4000      7.8962      2.5531      0.0582      5.8715    140.2191     28.9243
  1816.5000      7.8954      2.5679      0.0204      4.9787    142.6304     28.4909
  1816.6000      7.8954      2.5952      0.0415      3.3208    143.0128     27.4268
  1816.7000      7.8954      2.6270      0.0229      1.3926    135.0583     26.1090
  1816.8000      7.8888      2.6515      0.0659     -0.0880    125.4440     25.4262
  1816.9000      7.8888      2.6532      0.0803     -0.1942    124.4273     25.2113
  1817.0000      7.8885      2.6276      0.1022      1.3601    129.8714     24.7873
  1817.1000      7.8885      2.5861      0.1163      3.8717    131.6356     23.9969
  1817.2000      7.8885      2.5369      0.0708      6.8559    126.9478     23.0997
  1817.3000      7.8918      2.4670      0.0843     11.0927    122.0665     22.4457
  1817.4000      7.8918      2.3795     -0.0230     16.3969    120.4169     22.4636
  1817.5000      7.8629      2.3186     -0.0309     20.0876    122.6098     23.3431
  1817.6000      7.8629      2.3096      0.0152     20.6295    129.0655     24.7137
  1817.7000      7.8629      2.3271      0.0837     19.5706    136.5124     26.0440
  1817.8000      7.8864      2.3395      0.0737     18.8209    140.6640     26.6550
  1817.9000      7.8864      2.3498      0.0876     18.1929    139.0543     26.3515
  1818.0000      7.9029      2.3784      0.1099     16.4612    133.5718     25.9311
  1818.1000      7.9029      2.4183      0.2470     14.0426    127.1001     25.8189
  1818.2000      7.9029      2.4416      0.2016     12.6295    123.1729     25.8931
  1818.3000      7.9100      2.4519      0.0918     12.0068    125.7520     26.2922
  1818.4000      7.9100      2.4732      0.0954     10.7163    133.6481     26.8032
  1818.5000      7.8271      2.5068      0.1307      8.6787    139.4868     26.9059
  1818.6000      7.8271      2.5462      0.1360      6.2888    138.8109     26.7018
  1818.7000      7.8271      2.5871      0.2099      3.8109    135.8572     26.4650
  1818.8000      7.8339      2.6198      0.1701      1.8296    136.5032     26.2489
  1818.9000      7.8339      2.6341      0.2253      0.9643    141.0061     26.0418
  1819.0000      7.8357      2.6198      0.1984      1.8317    141.8203     25.8028
  1819.1000      7.8357      2.5877      0.0980      3.7745    134.8888     25.6137
  1819.2000      7.8357      2.5623      0.1161      5.3143    127.7249     25.6472
  1819.3000      7.8433      2.5400      0.1260      6.6677    126.7973     25.8457
  1819.4000      7.8433      2.5079      0.1147      8.6127    130.4953     25.9123
  1819.5000      7.8956      2.4863     -0.0116      9.9235    135.6339     25.9544
  1819.6000      7.8956      2.4961      0.0783      9.3296    141.5179     26.1632
  1819.7000      7.8956      2.5180      0.0510      8.0002    147.7212     26.2662
  1819.8000      7.9173      2.5282      0.0867      7.3822    151.1019     25.9320
  1819.9000      7.9173      2.5229      0.0853      7.7043    151.2758     25.3503
  1820.0000      7.9429      2.5102      0.0975      8.4708    151.8119     25.1853
  1820.1000      7.9429      2.5016      0.0811      8.9922    151.6349     25.6525
  1820.2000      7.9429      2.5049      0.0857      8.7911    145.6509     26.3639
  1820.3000      7.9363      2.5208      0.0865      7.8314    134.9776     26.8660
  1820.4000      7.9363      2.5476      0.1172      6.2035    125.5914     26.9391
  1820.5000      7.9032      2.5777      0.1425      4.3810    120.4347     26.8844
  1820.6000      7.9032      2.6040      0.1235      2.7867    121.6087     26.9238
  1820.7000      7.9032      2.6302      0.1302      1.1989    127.4572     26.7102
  1820.8000      7.9059      2.6546      0.1650     -0.2809    131.1802     26.1172
  1820.9000      7.9059      2.6703      0.1910     -1.2300    130.7139     25.6245
  1821.0000      7.9128      2.6749      0.2196     -1.5097    131.2195     25.4973
  1821.1000      7.9128      2.6645      0.1804     -0.8779    133.4498     25.5519
  1821.2000      7.9128      2.6388      0.0868      0.6762    133.0951     25.5762
  1821.3000      7.8937      2.6070      0.0892      2.6032    133.0212     25.4215
  1821.4000      7.8937      2.5769      0.0078      4.4287    136.4113     25.1342
  1821.5000      7.8864      2.5543      0.0016      5.8020    136.4724     24.9755
  1821.6000      7.8864      2.5389      0.0203      6.7317    128.9228     25.0810
  1821.7000      7.8864      2.5254      0.0217      7.5494    119.6694     25.1713
  1821.8000      7.9091      2.5136      0.0053      8.2683    116.3860     25.1347
  1821.9000      7.9091      2.5010      0.0408      9.0297    121.9253     25.0410
  1822.0000      7.9139      2.4815      0.0027     10.2109    130.2822     24.7881
  1822.1000      7.9139      2.4680     -0.0522     11.0328    135.3780     24.3992
  1822.2000      7.9139      2.4797     -0.0132     10.3196    137.3490     24.1437
  1822.3000      7.9212      2.5098      0.0012      8.4984    136.5045     24.3216
  1822.4000      7.9212      2.5376      0.0418      6.8145    133.6703     24.9831
  1822.5000      8.0079      2.5518      0.0539      5.9514    131.9776     25.7762
  1822.6000      8.0079      2.5581      0.0644      5.5695    133.4482     26.1362
  1822.7000      8.0079      2.5643      0.0701      5.1939    137.0464     25.9274
  1822.8000      7.9743      2.5684      0.0750      4.9428    138.4010     25.6156
  1822.9000      7.9743      2.5726      0.0643      4.6910    136.4861     25.6798
  1823.0000      7.9217      2.5790      0.1099      4.3041    134.8842     26.2764
  1823.1000      7.9217      2.5822      0.0730      4.1112    131.0631     27.2099
  1823.2000      7.9217      2.5834      0.0335      4.0367    121.7397     27.4896
  1823.3000      7.9062      2.5924      0.0258      3.4908    112.6956     26.5285
