~Version Information
VERS.                      2.0: CWLS Log ASCII Standard - VERSION 2.0
WRAP.                       NO: One line per depth step
~Well Information Block
STRT.FT               625.0000: 
STOP.FT              2053.7500: 
STEP.FT                 0.2500: 
NULL.                -999.2500: 
COMP.          Pioneer Natural Resources: COMPANY
WELL.            Zink 44-10 Tr: WELL
FLD.           Purgatoire River: FIELD
LOC.           486' FSL & 554' FEL--: LOCATION
PROV.                 Colorado: PROVINCE
CNTY.               Las Animas: COUNTRY
SRVC.                Patterson: SERVICE COMPANY
DATE.          Sun Jul 24 06:18:01 2005: LOG DATE
UWI.           05 071 08446 00: UNIQUE WELL ID
~Curve Information Block
DEPT.FT            0 000 00 00: Depth
SN.Ohm-m                      : IEL Short Normal
SP.mV                         : IEL Spontaneous Potential
DIR.Ohm-m                     : IEL Induction Resistivity
GR.GAPI                       : Gamma Ray
~Parameter Information Block
~A  Depth        SN          SP         DIR          GR     
# ...
  1362.0000     12.0972     -6.1796     12.7523    131.4431
  1362.2500     12.0785     -6.0792     16.1497    132.1223
  1362.5000     12.0484     -5.9907     26.4989    134.7872
  1362.7500     12.0365     -5.9146    121.2303    136.8706
  1363.0000     12.0440     -5.8520 100000.0000    138.5372
  1363.2500     12.0585     -5.8053 100000.0000    138.1342
  1363.5000     12.0852     -5.7780 100000.0000    135.8894
  1363.7500     12.1373     -5.7736 100000.0000    134.1057
  1364.0000     12.2021     -5.7948 100000.0000    132.2499
  1364.2500     12.2327     -5.8427 100000.0000    132.0224
  1364.5000     12.1776     -5.9183 100000.0000    133.2790
  1364.7500     12.0164     -6.0225 100000.0000    134.7414
  1365.0000     11.7751     -6.1591 100000.0000    136.7605
  1365.2500     11.5206     -6.3362 100000.0000    137.5122
  1365.5000     11.3351     -6.5678     43.9296    137.5122
  1365.7500     11.2708     -6.8756     14.7991    136.9165
  1366.0000     11.3072     -7.2901      7.9648    135.7506
  1366.2500     11.3535     -7.8508      5.2712    135.1961
  1366.5000     11.3134     -8.6069      4.0433    135.0511
  1366.7500     11.1559     -9.6180      3.5416    135.4016
  1367.0000     10.9191    -10.9558      3.5598    136.5745
  1367.2500     10.6517    -12.7080      4.1840    137.7694
  1367.5000     10.3629    -14.9846      5.9168    139.7382
  1367.7500     10.0237    -17.9253     10.0037    140.7619
  1368.0000      9.5941    -21.7058     14.1326    141.6846
  1368.2500      9.0377    -26.5376      7.8966    142.1167
  1368.5000      8.3243    -32.6576      3.0234    142.4563
  1368.7500      7.4502    -40.2997      1.2951    141.8924
  1369.0000      6.4661    -49.6509      0.6325    138.8031
  1369.2500      5.4707    -60.7944      0.3306    135.3871
  1369.5000      4.5643    -73.6532      0.1782    129.7388
  1369.7500      3.8015    -87.9521      0.1041    126.3015
  1370.0000      3.1848   -103.2163      0.0721    121.0531
  1370.2500      2.6925   -118.8192      0.0624    116.4619
  1370.5000      2.3147   -134.0743      0.0669    106.7827
  1370.7500      2.0741   -148.3567      0.0837     98.7370
  1371.0000      2.0247   -161.2220      0.1114     86.0454
  1371.2500      2.2240   -172.4910      0.1462     78.3735
  1371.5000      2.6776   -182.2729      0.1845     69.3196
  1371.7500      3.2873   -190.9211      0.2302     64.9164
  1372.0000      3.8595   -198.9300      0.2990     59.9547
  1372.2500      4.1897   -206.8038      0.4214     57.4040
  1372.5000      4.1568   -214.9297      0.6625     54.9404
  1372.7500      3.7630   -223.4896      1.2276     54.4846
  1373.0000      3.1224   -232.4299      3.2766     55.3117
  1373.2500      2.4150   -241.4910 100000.0000     56.2310
  1373.5000      1.8105   -250.2836 100000.0000     57.3358
  1373.7500      1.3992   -258.3850 100000.0000     58.1141
  1374.0000      1.1768   -265.4257 100000.0000     60.4428
  1374.2500      1.0856   -271.1418 100000.0000     62.9348
  1374.5000      1.0635   -275.3839 100000.0000     66.7314
  1374.7500      1.0694   -278.0836 100000.0000     68.2076
  1375.0000      1.0832   -279.1956 100000.0000     68.3200
  1375.2500      1.0972   -278.6343 100000.0000     67.6810
  1375.5000      1.1070   -276.2286 100000.0000     67.0450
  1375.7500      1.1069   -271.7101 100000.0000     67.0116
  1376.0000      1.0928   -264.7433 100000.0000     67.1363
  1376.2500      1.0687   -254.9951 100000.0000     67.5016
  1376.5000      1.0480   -242.2300 100000.0000     69.9895
  1376.7500      1.0491   -226.4095    116.1656     73.8851
  1377.0000      1.0975   -207.7686      1.0837     83.2710
  1377.2500      1.2463   -186.8445      0.3435     91.0809
  1377.5000      1.6021   -164.4436      0.1324    103.2002
  1377.7500      2.3217   -141.5461      0.0634    110.5085
  1378.0000      3.5435   -119.1750      0.0451    118.6112
  1378.2500      5.2802    -98.2535      0.0511    121.2326
  1378.5000      7.3564    -79.4906      0.0890    120.5991
  1378.7500      9.4646    -63.3147      0.2058    117.8698
  1379.0000     11.3094    -49.8656      0.5289    112.5476
  1379.2500     12.7348    -39.0356      1.7550    109.2880
  1379.5000     13.7560    -30.5425 100000.0000    105.7299
  1379.7500     14.4962    -24.0115 100000.0000    104.3904
  1380.0000     15.0879    -19.0496 100000.0000    104.0737
  1380.2500     15.6083    -15.2991 100000.0000    105.0641
  1380.5000     16.0821    -12.4674 100000.0000    108.3962
  1380.7500     16.5118    -10.3348 100000.0000    111.7388
  1381.0000     16.8898     -8.7431      8.7842    117.6999
  1381.2500     17.1969     -7.5770      5.0390    121.5161
  1381.5000     17.4083     -6.7427      4.4223    125.7100
  1381.7500     17.5001     -6.1503      4.7969    127.2056
  1382.0000     17.4528     -5.7043      5.9205    127.7289
  1382.2500     17.2680     -5.3050      7.8325    127.1323
  1382.5000     16.9912     -4.8588     10.5631    125.3509
  1382.7500     16.7033     -4.2943     14.2582    124.2915
  1383.0000     16.4773     -3.5800     20.5431    124.2428
  1383.2500     16.3453     -2.7352     42.3685    125.2547
  1383.5000     16.2977     -1.8298 100000.0000    126.8867
  1383.7500     16.2978     -0.9700 100000.0000    127.3175
  1384.0000     16.3076     -0.2726 100000.0000    127.3071
  1384.2500     16.3224      0.1642 100000.0000    127.6043
  1384.5000     16.3788      0.2841 100000.0000    129.2120
  1384.7500     16.5127      0.0835 100000.0000    130.8511
  1385.0000     16.7237     -0.3938 100000.0000    133.0811
  1385.2500     17.0005     -1.0728 100000.0000    133.6447
  1385.5000     17.3679     -1.8690 100000.0000    132.1458
  1385.7500     17.8808     -2.7067     36.7738    129.4820
  1386.0000     18.5765     -3.5320     18.6380    123.3963
  1386.2500     19.4517     -4.3133     14.8016    118.2416
  1386.5000     20.4849     -5.0372     13.9944    109.3277
  1386.7500     21.6782     -5.6999     14.5220    102.9963
  1387.0000     23.0773     -6.2971     15.9281     94.0226
  1387.2500     24.7426     -6.8173     18.0550     89.1178
  1387.5000     26.6813     -7.2377     20.7875     84.0833
  1387.7500     28.8054     -7.5255     23.9393     82.1396
  1388.0000     30.9625     -7.6432     27.2383     80.4246
  1388.2500     32.9987     -7.5553     30.4029     79.4817
  1388.5000     34.7899     -7.2362     33.2382     77.5967
  1388.7500     36.2473     -6.6767     35.6688     75.7768
  1389.0000     37.3429     -5.8890     37.6996     72.1536
  1389.2500     38.1300     -4.9087     39.3710     69.3926
  1389.5000     38.6988     -3.7938     40.7352     65.6262
  1389.7500     39.1064     -2.6210     41.8491     63.9754
  1390.0000     39.4009     -1.4777     42.7667     63.4389
  1390.2500     39.6991     -0.4513     43.5278     64.3008
  1390.5000     40.1497      0.3835     44.1535     66.6183
  1390.7500     40.8019      0.9756     44.6524     68.2861
  1391.0000     41.5617      1.3050     45.0324     70.4780
  1391.2500     42.2673      1.3839     45.3014     71.7481
  1391.5000     42.7853      1.2508     45.4696     73.3237
  1391.7500     43.0844      0.9613     45.5620     73.8473
  1392.0000     43.2545      0.5764     45.6297     73.3526
  1392.2500     43.4185      0.1524     45.7304     72.3429
  1392.5000     43.6034     -0.2658     45.8888     70.8305
  1392.7500     43.7257     -0.6472     46.0795     70.3458
  1393.0000     43.7078     -0.9746     46.2588     70.5740
  1393.2500     43.5660     -1.2415     46.4137     71.1227
  1393.5000     43.3706     -1.4492     46.5795     72.0111
  1393.7500     43.1736     -1.6034     46.8120     72.4200
  1394.0000     43.0178     -1.7118     47.1399     72.5483
  1394.2500     42.9848     -1.7833     47.5290     72.2461
  1394.5000     43.1629     -1.8266     47.8722     71.2347
  1394.7500     43.5511     -1.8500     48.0221     70.3647
  1395.0000     44.0195     -1.8611     47.8592     69.2048
  1395.2500     44.3817     -1.8660     47.3636     68.5816
