~Version Information
VERS.                      2.0: CWLS Log ASCII Standard - VERSION 2.0
WRAP.                       NO: One line per depth step
~Well Information Block
STRT.FT                 0.0000: 
STOP.FT              1981.7500: 
STEP.FT                 0.2500: 
NULL.                -999.2500: 
COMP.          Petrogulf Corporation: COMPANY
WELL.          Collister 17-31R: WELL
FLD.           Purgatorie River: FIELD
LOC.           962' FNL & 1520' FEL: LOCATION
STAT.                 Colorado: State
CNTY.               Las Animas: COUNTY
CTRY. USA : Country
SECT. 17 : Section
TOWN. 33S : Township
RANG. 67W : Range
SRVC.                Patterson: SERVICE COMPANY
DATE.          Fri Jan 06 10:32:29 2006: LOG DATE
API. 05-071-08436                         : UNIQUE WELL ID
~Curve Information Block
DEPT.FT            0 000 00 00: Depth
CCL.                          : Casing Collar Locator
TT3.usec                      : CBL 3' Travel Time
AMP3.mV                       : CBL 3' Amplitude
GR.GAPI                       : Gamma Ray
~Parameter Information Block
~A  Depth       CCL         TT3         AMP3         GR     
# ...
  1306.5000      0.0000    503.3479      6.4608    111.9476
  1306.7500      0.0000    506.0917      6.4281    109.2100
  1307.0000      0.0000    520.1560      6.3805    107.4580
  1307.2500      0.0000    544.3616      6.3262    107.7796
  1307.5000      0.0000    574.2266      6.2757    109.9526
  1307.7500      0.0000    604.6603      6.2750    112.0806
  1308.0000      0.0000    630.8037      6.3688    111.9734
  1308.2500      0.0000    648.2878      6.5270    109.1340
  1308.5000      0.0000    656.6395      6.6544    105.3237
  1308.7500      0.0000    659.4907      6.6835    103.0749
  1309.0000      0.0000    660.4217      6.6287    103.6336
  1309.2500      0.0000    660.9316      6.5518    106.1827
  1309.5000      0.0000    661.3447      6.5024    108.8576
  1309.7500      0.0000    661.8102      6.5112    110.4646
  1310.0000      0.0000    662.4463      6.5869    111.1847
  1310.2500      0.0000    663.1848      6.6806    111.7461
  1310.5000      0.0000    663.8439      6.7367    112.3792
  1310.7500      0.0000    664.5385      6.7722    112.8554
  1311.0000      0.0000    666.1110      6.8183    113.1733
  1311.2500      0.0000    669.6576      6.8443    113.7347
  1311.5000      0.0000    674.4346      6.8190    114.9659
  1311.7500      0.0000    676.8723      6.7728    117.0457
  1312.0000      0.0000    674.6765      6.7561    119.8065
  1312.2500      0.0000    670.2036      6.8248    122.6474
  1312.5000      0.0000    666.3018      7.0657    124.6771
  1312.7500      0.0000    662.4882      7.4876    125.2512
  1313.0000      0.0000    657.6174      7.8662    124.4693
  1313.2500      0.0000    652.7272      7.8978    123.0659
  1313.5000      0.0000    650.4747      7.5768    121.7468
  1313.7500      0.0000    655.6974      7.2304    120.5939
  1314.0000      0.0000    673.1010      7.1983    119.0434
  1314.2500      0.0000    699.1072      7.5479    116.4480
  1314.5000      2.0000    724.6783      8.0019    112.8194
  1314.7500     -2.0000    745.1217      8.2251    109.3123
  1315.0000      0.0000    757.8260      8.1753    107.9025
  1315.2500      0.0000    759.0402      8.0308    109.9121
  1315.5000      0.0000    747.0449      7.9292    114.5872
  1315.7500      0.0000    725.4827      7.8780    119.6290
  1316.0000      0.0000    704.9824      7.7607    123.4298
  1316.2500      0.0000    696.9378      7.4476    126.5355
  1316.5000      0.0000    700.9601      7.0000    130.6710
  1316.7500      0.0000    704.5050      6.6320    136.6177
  1317.0000      0.0000    698.2737      6.4148    143.3475
  1317.2500      0.0000    685.7019      6.2038    148.9090
  1317.5000      0.0000    675.2438      5.9076    151.5596
  1317.7500      0.0000    670.1583      5.6108    150.1958
  1318.0000      0.0000    668.5936      5.4068    144.6947
  1318.2500      0.0000    668.2676      5.3191    136.3670
  1318.5000      0.0000    668.1440      5.3415    127.6479
  1318.7500      0.0000    667.8996      5.4168    120.9730
  1319.0000      0.0000    667.5892      5.4469    117.6997
  1319.2500      0.0000    667.6219      5.3967    117.4471
  1319.5000      0.0000    668.8539      5.3206    118.2889
  1319.7500      0.0000    672.7413      5.2602    118.3330
  1320.0000      0.0000    680.1129      5.2035    117.5580
  1320.2500      0.0000    688.7147      5.1463    117.7258
  1320.5000      0.0000    693.6727      5.0956    120.3232
  1320.7500      0.0000    690.9554      5.0353    124.9662
  1321.0000      0.0000    679.8979      4.9634    129.7345
  1321.2500      0.0000    665.6014      4.9047    132.5286
  1321.5000      0.0000    656.7863      4.8563    132.0148
  1321.7500      0.0000    652.3051      4.7971    127.7039
  1322.0000      0.0000    635.5864      4.7281    119.6227
  1322.2500      0.0000    599.0596      4.6436    108.3070
  1322.5000      0.0000    563.2086      4.5176     95.3182
  1322.7500      0.0000    552.9307      4.3748     83.4501
  1323.0000      0.0000    573.7778      4.3237     75.7282
  1323.2500      0.0000    614.7259      4.4847     73.7789
  1323.5000      0.0000    655.1758      4.8957     77.2693
  1323.7500      0.0000    679.7100      5.4443     84.9644
  1324.0000      0.0000    686.9850      5.9058     95.7644
  1324.2500      0.0000    683.0601      6.1390    108.4159
  1324.5000      0.0000    677.1496      6.2037    121.0289
  1324.7500      0.0000    677.3024      6.2567    131.9074
  1325.0000      0.0000    683.3132      6.4034    140.7282
  1325.2500      0.0000    687.1316      6.6429    148.1754
  1325.5000      0.0000    683.6558      6.9280    154.4380
  1325.7500      0.0000    678.1376      7.2533    158.8075
  1326.0000      0.0000    678.4534      7.6413    160.9817
  1326.2500      0.0000    684.4329      8.0609    162.2039
  1326.5000      0.0000    688.3257      8.4067    164.6995
  1326.7500      0.0000    685.9186      8.5973    169.9383
  1327.0000      0.0000    683.7588      8.7001    177.0324
  1327.2500      0.0000    690.7032      8.8596    182.4024
  1327.5000      0.0000    706.8411      9.0984    181.7592
  1327.7500      0.0000    724.1047      9.3475    173.6918
  1328.0000      0.0000    734.0777      9.6397    161.3298
  1328.2500      0.0000    732.2027     10.1429    149.8628
  1328.5000      0.0000    716.1463     11.0122    142.6938
  1328.7500      0.0000    685.7380     12.1627    140.2461
  1329.0000      0.0000    651.2771     13.1485    141.3321
  1329.2500      0.0000    637.1382     13.4310    144.3772
  1329.5000      0.0000    654.5494     12.8679    147.5836
  1329.7500      0.0000    680.9996     11.8349    149.1244
  1330.0000      0.0000    694.0526     10.8172    147.7773
  1330.2500      0.0000    696.3397     10.0173    143.2537
  1330.5000      0.0000    694.7626      9.4340    136.0020
  1330.7500      0.0000    690.4042      9.0779    126.9713
  1331.0000      0.0000    688.2796      8.9233    117.4334
  1331.2500      0.0000    692.7768      8.8092    108.6844
  1331.5000      0.0000    697.7869      8.5232    101.7665
  1331.7500      0.0000    694.4205      7.9557     97.2687
  1332.0000      0.0000    683.9167      7.1787     95.0382
  1332.2500      0.0000    674.4348      6.4093     94.1709
  1332.5000      0.0000    670.5282      5.8722     93.6697
  1332.7500      0.0000    671.6213      5.6480     93.0966
  1333.0000      0.0000    675.0493      5.6387     92.5425
  1333.2500      0.0000    677.0398      5.7030     92.3875
  1333.5000      0.0000    675.2961      5.7787     93.2892
  1333.7500      0.0000    671.1648      5.8444     95.8493
  1334.0000      0.0000    665.8913      5.8710     99.8222
  1334.2500      0.0000    657.1131      5.8484    103.7576
  1334.5000      0.0000    641.6443      5.7899    105.6952
  1334.7500      0.0000    618.6399      5.7140    104.3929
  1335.0000      0.0000    590.3223      5.6330    100.0844
  1335.2500      0.0000    567.8387      5.5434     94.2207
  1335.5000      0.0000    571.2794      5.4453     88.5092
  1335.7500      0.0000    607.9843      5.3526     84.1315
  1336.0000      0.0000    657.3839      5.2661     81.5363
  1336.2500      0.0000    691.4604      5.1767     80.5609
  1336.5000      0.0000    701.0658      5.0779     80.7344
  1336.7500      0.0000    693.5626      4.9383     81.7768
  1337.0000      0.0000    680.0154      4.7220     83.7059
  1337.2500      0.0000    668.8770      4.4635     86.1153
  1337.5000      0.0000    663.0007      4.2471     87.5615
  1337.7500      0.0000    661.4282      4.1063     86.3662
  1338.0000      0.0000    662.9520      4.0067     82.4094
  1338.2500      0.0000    666.4030      3.9015     77.7593
  1338.5000      0.0000    669.6702      3.7583     74.9973
  1338.7500      0.0000    670.7801      3.5850     74.8619
  1339.0000      0.0000    668.7562      3.4306     75.7268
  1339.2500      0.0000    662.3465      3.3206     75.3325
  1339.5000      0.0000    650.6522      3.2352     72.8548
  1339.7500      0.0000    635.6634      3.1688     69.4868
