~Version Information
VERS.                      2.0: CWLS Log ASCII Standard - VERSION 2.0
WRAP.                       NO: One line per depth step
~Well Information Block
STRT.FT                 0.0000: 
STOP.FT               878.7500: 
STEP.FT                 0.2500: 
NULL.                -999.2500: 
COMP.          Pioneer Natural Resources: COMPANY
WELL.          Screamin 12-29 Tr: WELL
FLD.           Purgatoire River: FIELD
LOC.           1979' FNL & 532' FWL--: LOCATION
CNTY.               Las Animas: COUNTY
SRVC.                Patterson: SERVICE COMPANY
DATE.          Thu Apr 13 22:21:38 2006: LOG DATE
UWI.           05 071 08660 00: UNIQUE WELL ID
STAT.                 Colorado: STATE
~Curve Information Block
DEPT.FT            0 000 00 00: Depth
GR.GAPI                       : Gamma Ray
CCL.                          : Casing Collar Locator
TT3.usec                      : CBL 3' Travel Time
AMP3.mV                       : CBL 3' Amplitude
~Parameter Information Block
~A  Depth        GR         CCL         TT3         AMP3    
# ...
   737.0000    132.2689      0.0000    673.8987      4.3759
   737.2500    126.8916      0.0000    664.7945      4.3991
   737.5000    124.1000      0.0000    651.8458      4.4459
   737.7500    126.4282      0.0000    645.2706      4.4834
   738.0000    134.1259      0.0000    638.3428      4.5370
   738.2500    140.1260      0.0000    635.1844      4.5608
   738.5000    148.2504      0.0000    632.1729      4.5707
   738.7500    152.6792      0.0000    631.1021      4.5677
   739.0000    157.4571      0.0000    630.4366      4.5734
   739.2500    159.0098      0.0000    630.3889      4.5911
   739.5000    158.8217      0.0000    630.6773      4.6246
   739.7500    157.9494      0.0000    631.0302      4.6380
   740.0000    158.0844      0.0000    631.7129      4.6428
   740.2500    159.7781      0.0000    632.2316      4.6483
   740.5000    162.7070      0.0000    632.8875      4.6805
   740.7500    162.8658      0.0000    632.8480      4.7202
   741.0000    158.8506      0.0000    630.9167      4.7966
   741.2500    154.2258      0.0000    627.8123      4.8483
   741.5000    146.8369      0.0000    620.8229      4.9068
   741.7500    142.3280      0.0000    615.9990      4.9236
   742.0000    136.4189      0.0000    612.2062      4.9158
   742.2500    133.4724      0.0000    613.8383      4.9001
   742.5000    131.7912      0.0000    623.1064      4.8881
   742.7500    132.8161      0.0000    632.1721      4.8963
   743.0000    136.9711      0.0000    645.1406      4.9214
   743.2500    140.8421      0.0000    650.7159      4.9319
   743.5000    147.0863      0.0000    652.4993      4.9277
   743.7500    150.8460      0.0000    649.8778      4.9219
   744.0000    155.4077      0.0000    643.1678      4.9328
   744.2500    158.1591      0.0000    638.7432      4.9543
   744.5000    162.9746      0.0000    634.1559      4.9854
   744.7500    166.7467      0.0000    632.6028      4.9883
   745.0000    171.9980      0.0000    631.7318      4.9540
   745.2500    174.1625      0.0000    631.5759      4.9140
   745.5000    174.4814      0.0000    631.3811      4.8649
   745.7500    173.2042      0.0000    631.1599      4.8607
   746.0000    170.7591      0.0000    630.7764      4.9038
   746.2500    169.1622      0.0000    630.6003      4.9482
   746.5000    165.6878      0.0000    630.5700      4.9942
   746.7500    162.1293      0.0000    630.6848      4.9955
   747.0000    156.3310      0.0000    630.9324      4.9584
   747.2500    153.6729      0.0000    631.0839      4.9240
   747.5000    152.6460      0.0000    631.2982      4.8837
   747.7500    153.4793      0.0000    631.5152      4.8674
   748.0000    155.6094      0.0000    632.2724      4.8472
   748.2500    156.9661      0.0000    633.3862      4.8317
   748.5000    158.2091      0.0000    636.6786      4.8111
   748.7500    158.3249      0.0000    640.1155      4.8034
   749.0000    157.4653      0.0000    645.9072      4.7962
   749.2500    156.5011      0.0000    648.5527      4.7894
   749.5000    155.3936      0.0000    648.4085      4.7809
   749.7500    155.2395      0.0000    645.9233      4.7849
   750.0000    155.2031      0.0000    641.8809      4.8102
   750.2500    154.3857      0.0000    640.7956      4.8340
   750.5000    151.4030      0.0000    642.0861      4.8686
   750.7500    149.0593      0.0000    643.7988      4.8901
   751.0000    146.7456      0.0000    645.4543      4.9255
   751.2500    145.9693      0.0000    645.2100      4.9536
   751.5000    144.4281      0.0000    641.7825      4.9996
   751.7500    142.7363      0.0000    636.3217      5.0268
   752.0000    140.4188      0.0000    621.5236      5.0475
   752.2500    139.9957      0.0000    607.9283      5.0416
   752.5000    141.1059      0.0000    587.6021      5.0041
   752.7500    141.9773      0.0000    578.3860      4.9673
   753.0000    141.3864      0.0000    575.1195      4.9067
   753.2500    139.1112      0.0000    579.5932      4.8626
   753.5000    132.9084      0.0000    593.0943      4.7765
   753.7500    127.1973      0.0000    604.1866      4.6964
   754.0000    117.1445      0.0000    618.3378      4.5472
   754.2500    110.3348      0.0000    622.3951      4.4492
   754.5000    101.5729      0.0000    617.0845      4.3517
   754.7500     97.2392      0.0000    608.4297      4.3317
   755.0000     93.2913      2.0000    600.1649      4.3491
   755.2500     92.3974      2.0000    605.4515      4.3705
   755.5000     93.4137      1.1987    631.5975      4.3916
   755.7500     95.1909      0.0000    653.9101      4.3917
   756.0000     98.3395     -1.0559    677.3338      4.3724
   756.2500    100.1119      0.0000    680.7902      4.3578
   756.5000    101.7260      0.0000    671.6193      4.3702
   756.7500    102.3119      0.0000    662.2054      4.4189
   757.0000    103.5313      0.0000    650.1790      4.5489
   757.2500    105.2724      0.0000    643.5531      4.6509
   757.5000    109.8054      0.0000    633.6375      4.7798
   757.7500    113.6835      0.0000    627.5304      4.8340
   758.0000    119.0723      0.0000    622.1916      4.8746
   758.2500    121.5316      0.0000    621.9664      4.8897
   758.5000    123.2253      0.0000    624.7435      4.9137
   758.7500    123.1545      0.0000    626.9333      4.9310
   759.0000    121.2509      0.0000    629.1041      4.9510
   759.2500    119.0522      0.0000    629.7784      4.9594
   759.5000    116.0056      0.0000    630.1315      4.9727
   759.7500    115.2331      0.0000    630.1553      4.9862
   760.0000    116.2750      0.0000    630.0387      5.0100
   760.2500    117.6061      0.0000    629.8925      5.0223
   760.5000    119.0638      0.0000    629.6382      5.0325
   760.7500    119.6008      0.0000    629.4651      5.0394
   761.0000    120.6019      0.0000    629.0222      5.0639
   761.2500    121.5405      0.0000    628.2209      5.0898
   761.5000    122.4257      0.0000    624.7931      5.1240
   761.7500    122.2431      0.0000    619.6334      5.1301
   762.0000    121.7689      0.0000    604.7706      5.1061
   762.2500    122.6264      0.0000    588.9745      5.0748
   762.5000    127.3874      0.0000    557.2023      5.0243
   762.7500    132.7890      0.0000    533.1340      4.9964
   763.0000    142.0724      0.0000    499.0786      4.9669
   763.2500    147.2227      0.0000    480.9599      4.9549
   763.5000    150.9829      0.0000    462.8440      4.9485
   763.7500    150.5460      0.0000    456.0875      4.9520
   764.0000    146.8162      0.0000    451.0811      4.9635
   764.2500    143.4681      0.0000    449.7367      4.9691
   764.5000    138.6253      0.0000    450.2198      4.9685
   764.7500    135.8367      0.0000    453.2356      4.9654
   765.0000    132.2768      0.0000    464.2808      4.9671
   765.2500    130.1780      0.0000    475.7943      4.9748
   765.5000    127.2531      0.0000    492.7381      4.9898
   765.7500    125.5463      0.0000    497.6218      4.9956
   766.0000    124.0158      0.0000    489.3822      4.9908
   766.2500    124.0147      0.0000    476.2423      4.9798
   766.5000    125.0355      0.0000    456.4920      4.9611
   766.7500    125.6346      0.0000    448.7047      4.9526
   767.0000    125.7215      0.0000    447.2146      4.9492
   767.2500    125.4839      0.0000    451.3372      4.9522
   767.5000    125.4163      0.0000    462.4478      4.9603
   767.7500    125.8591      0.0000    473.5158      4.9644
   768.0000    127.4765      0.0000    498.8387      4.9616
   768.2500    128.9224      0.0000    522.1772      4.9535
   768.5000    130.4702      0.0000    561.0090      4.9407
   768.7500    130.7359      0.0000    582.5851      4.9379
   769.0000    131.0931      0.0000    597.1117      4.9444
   769.2500    132.3670      0.0000    591.7247      4.9518
   769.5000    136.2706      0.0000    563.8288      4.9602
   769.7500    139.4033      0.0000    538.1404      4.9635
   770.0000    143.1746      0.0000    503.0386      4.9697
   770.2500    144.5800      0.0000    488.5686      4.9752
