~Version Information
VERS.                      2.0: CWLS Log ASCII Standard - VERSION 2.0
WRAP.                       NO: One line per depth step
~Well Information Block
STRT.FT                -3.2500: 
STOP.FT               989.2500: 
STEP.FT                 0.2500: 
NULL.                -999.2500: 
COMP.          Pioneer Natural Resources: COMPANY
WELL.                Doc 34-30: WELL
FLD.           Purgatoire River: FIELD
LOC.           454' FSL & 1386' FEL: LOCATION
CNTY.               Las Animas: COUNTY
SRVC.                         : SERVICE COMPANY
DATE.          Wed Mar 08 14:28:55 2006: LOG DATE
UWI.           05 071 08694 00: UNIQUE WELL ID
STAT.                       CO: STATE
~Curve Information Block
DEPT.FT            0 000 00 00: Depth
GR.GAPI                       : Gamma Ray
CCL.                          : Casing Collar Locator
TT3.usec                      : CBL 3' Travel Time
AMP3.mV                       : CBL 3' Amplitude
~Parameter Information Block
~A  Depth        GR         CCL         TT3         AMP3    
# ...
   566.2500    140.2063      0.0000    660.7776      4.8616
   566.5000    137.3653      0.0000    654.8425      4.7596
   566.7500    134.5115      0.0000    646.3328      4.6569
   567.0000    131.2321      0.0000    643.4570      4.5886
   567.2500    126.7552      0.0000    650.4506      4.5867
   567.5000    119.9842      0.0000    665.5062      4.6607
   567.7500    110.6727      0.0000    682.5738      4.7867
   568.0000    100.5115      0.0000    696.0131      4.9215
   568.2500     92.6556      0.0000    703.6637      5.0254
   568.5000     89.8860      0.0000    706.0247      5.0728
   568.7500     92.7790      0.0000    703.5281      5.0488
   569.0000     99.3350      0.0000    694.9091      4.9522
   569.2500    106.4678      0.0000    677.9975      4.8053
   569.5000    111.9615      0.0000    652.6500      4.6536
   569.7500    115.1709      0.0000    623.5745      4.5436
   570.0000    116.5329      0.0000    599.5146      4.4982
   570.2500    117.0253      0.0000    587.9909      4.5088
   570.5000    117.7485      0.0000    590.1613      4.5492
   570.7500    119.3888      0.0000    601.0132      4.5941
   571.0000    122.1291      0.0000    614.2191      4.6335
   571.2500    126.0209      0.0000    626.3417      4.6717
   571.5000    130.7991      0.0000    637.2610      4.7134
   571.7500    135.3296      0.0000    648.5031      4.7523
   572.0000    138.1022      0.0000    661.7490      4.7770
   572.2500    138.5158      0.0000    677.2858      4.7828
   572.5000    137.2939      0.0000    691.8456      4.7756
   572.7500    135.7928      0.0000    697.9556      4.7647
   573.0000    135.2545      0.0000    687.5567      4.7560
   573.2500    136.3151      0.0000    658.5262      4.7500
   573.5000    138.5789      0.0000    617.9921      4.7446
   573.7500    140.6083      0.0000    578.3776      4.7424
   574.0000    140.4566      0.0000    550.2556      4.7516
   574.2500    136.4756      0.0000    539.4498      4.7750
   574.5000    128.3546      0.0000    548.8383      4.8009
   574.7500    117.9035      0.0000    578.8357      4.8110
   575.0000    108.3181      0.0000    624.2163      4.7966
   575.2500    101.8508      0.0000    672.2574      4.7631
   575.5000     98.1553      0.0000    706.8956      4.7218
   575.7500     95.3290      0.0000    716.7922      4.6821
   576.0000     92.4369      0.0000    701.0357      4.6485
   576.2500     90.3904      0.0000    668.5032      4.6225
   576.5000     90.3761      0.0000    631.8063      4.6050
   576.7500     92.3190      0.0000    600.3975      4.5957
   577.0000     95.3876      0.0000    577.4694      4.5923
   577.2500     99.2214      0.0000    561.7986      4.5899
   577.5000    103.8108      0.0000    552.1304      4.5861
   577.7500    108.4315      0.0000    550.2640      4.5840
   578.0000    111.5522      0.0000    559.1269      4.5867
   578.2500    112.2213      0.0000    576.4709      4.5905
   578.5000    111.3661      0.0000    591.6838      4.5866
   578.7500    111.3049      0.0000    592.2523      4.5711
   579.0000    113.7468      0.0000    574.4278      4.5508
   579.2500    118.3358      0.0000    545.8001      4.5372
   579.5000    123.1237      0.0000    517.6661      4.5386
   579.7500    126.1740      0.0000    497.2960      4.5565
   580.0000    126.6197      0.0000    487.2099      4.5870
   580.2500    124.5984      0.0000    488.5975      4.6225
   580.5000    120.7921      0.0000    503.2144      4.6563
   580.7500    116.3290      0.0000    531.1188      4.6859
   581.0000    112.7501      0.0000    566.0513      4.7086
   581.2500    111.3101      0.0000    594.5812      4.7161
   581.5000    112.0429      0.0000    603.5806      4.7005
   581.7500    113.8924      0.0000    590.3334      4.6632
   582.0000    115.8766      0.0000    563.9384      4.6146
   582.2500    117.7445      0.0000    536.6727      4.5659
   582.5000    119.5109      0.0000    515.7969      4.5263
   582.7500    120.9413      0.0000    502.8959      4.5025
   583.0000    121.7648      0.0000    497.3676      4.4953
   583.2500    122.0944      0.0000    498.7351      4.4972
   583.5000    122.4146      0.0000    507.4959      4.4955
   583.7500    123.2074      0.0000    525.6517      4.4794
   584.0000    124.5449      0.0000    555.6678      4.4452
   584.2500    125.9047      0.0000    597.1102      4.3962
   584.5000    126.4997      0.0000    644.0494      4.3408
   584.7500    126.0217      0.0000    686.8580      4.2893
   585.0000    125.0795      0.0000    717.2726      4.2494
   585.2500    124.7855      0.0000    732.1375      4.2237
   585.5000    125.7975      0.0000    733.4826      4.2081
   585.7500    127.6966      0.0000    726.2175      4.1934
   586.0000    129.4362      0.0000    715.4941      4.1723
   586.2500    130.6072      0.0000    705.0456      4.1495
   586.5000    131.9746      0.0000    696.9979      4.1425
   586.7500    134.3395      0.0000    692.7211      4.1638
   587.0000    137.0970      0.0000    693.4666      4.2081
   587.2500    138.4464      0.0000    699.4894      4.2632
   587.5000    136.8840      0.0000    708.5226      4.3270
   587.7500    132.1076      0.0000    716.5404      4.4008
   588.0000    124.8044      1.6409    721.1533      4.4739
   588.2500    116.1504      0.0000    723.3658      4.5274
   588.5000    107.4390      0.0000    725.5021      4.5579
   588.7500     99.4931      0.0000    729.0842      4.5988
   589.0000     92.0825      0.0000    735.2385      4.7142
   589.2500     84.3034      0.0000    744.7997      4.9414
   589.5000     75.9141      0.0000    756.4354      5.2169
   589.7500     68.0165      0.0000    766.1497      5.3880
   590.0000     62.0801      0.0000    770.3128      5.3390
   590.2500     58.5117      0.0000    768.6747      5.0970
   590.5000     56.5165      0.0000    763.5869      4.7929
   590.7500     55.1626      0.0000    757.2933      4.5408
   591.0000     54.1819      0.0000    751.1132      4.3759
   591.2500     53.8302      0.0000    746.4629      4.2775
   591.5000     54.3092      0.0000    745.0634      4.2151
   591.7500     55.2539      0.0000    747.6344      4.1717
   592.0000     55.6144      0.0000    752.9987      4.1420
   592.2500     54.2823      0.0000    758.9734      4.1225
   592.5000     51.1415      0.0000    764.0658      4.1061
   592.7500     47.3401      0.0000    768.1646      4.0868
   593.0000     44.2910      0.0000    771.6966      4.0626
   593.2500     42.5998      0.0000    774.4825      4.0361
   593.5000     42.1746      0.0000    775.6052      4.0106
   593.7500     42.8750      0.0000    774.2728      3.9880
   594.0000     44.4038      0.0000    770.2569      3.9690
   594.2500     45.8403      0.0000    763.5051      3.9537
   594.5000     46.1350      0.0000    754.5726      3.9416
   594.7500     45.2170      0.0000    746.1960      3.9292
   595.0000     44.0863      0.0000    742.8207      3.9115
   595.2500     43.6086      0.0000    746.4965      3.8877
   595.5000     43.5767      0.0000    754.0593      3.8653
   595.7500     43.1951      0.0000    760.2830      3.8572
   596.0000     42.1503      0.0000    763.2328      3.8700
   596.2500     40.7677      0.0000    765.1174      3.8986
   596.5000     39.3603      0.0000    768.6210      3.9305
   596.7500     38.0831      0.0000    773.9557      3.9551
   597.0000     37.4063      0.0000    779.3605      3.9685
   597.2500     38.0957      0.0000    783.2729      3.9730
   597.5000     40.4698      0.0000    785.4851      3.9737
   597.7500     43.9383      0.0000    787.0465      3.9772
   598.0000     47.4323      0.0000    789.8192      3.9887
   598.2500     50.2073      0.0000    795.7067      4.0113
   598.5000     52.1842      0.0000    805.2444      4.0469
   598.7500     53.5489      0.0000    816.4750      4.0982
   599.0000     54.1447      0.0000    825.2579      4.1674
   599.2500     53.4640      0.0000    827.1349      4.2535
   599.5000     51.3119      0.0000    819.9085      4.3512
