~Version Information
VERS.                      2.0: CWLS Log ASCII Standard - VERSION 2.0
WRAP.                       NO: One line per depth step
~Well Information Block
STRT.FT               880.0000: 
STOP.FT              1995.0000: 
STEP.FT                 0.2500: 
NULL.                -999.2500: 
COMP.          Petrogulf Corporation: COMPANY
WELL.          Collister 17-31R: WELL
FLD.           Purgatorie River: FIELD
LOC.           962' FNL & 1520' FEL: LOCATION
PROV.                 Colorado: PROVINCE
CNTY.               Las Animas: COUNTRY
SRVC.                Patterson: SERVICE COMPANY
DATE.          Mon Sep 26 09:32:26 2005: LOG DATE
UWI.                          : UNIQUE WELL ID
~Curve Information Block
DEPT.FT            0 000 00 00: Depth
SP.mV                         : DIL Spontaneous Potential
RILD.Ohm-m                    : DIL Deep Resistivity
RILM.Ohm-m                    : DIL Medium Resistivity
RLL3.Ohm-m                    : DIL Shallow Resistivity
GR.GAPI                       : Gamma Ray
~Parameter Information Block
~A  Depth        SP         RILD        RILM        RLL3         GR     
# ...
  1832.0000    178.4952     10.3175     12.0081     11.7800    118.3571
  1832.2500    180.1684     10.0892     12.1487     12.9411    117.9944
  1832.5000    181.9180      9.8225     12.1418     17.2778    122.8726
  1832.7500    183.5505      9.5694     11.8991     24.3160    102.7648
  1833.0000    185.0455      9.3505     11.4169     25.5609     98.1440
  1833.2500    186.2876      9.1133     10.7762     16.6570    114.7393
  1833.5000    187.2132      8.8908     10.0816     11.0388    109.9914
  1833.7500    187.5959      8.7470      9.3814      9.4745    120.7679
  1834.0000    187.2618      8.5909      8.7222      8.8549    115.9671
  1834.2500    186.7790      8.5289      8.3399      7.9233    114.0332
  1834.5000    186.8428      8.3927      8.0948      7.2765    131.2032
  1834.7500    187.0578      8.2523      8.0337      7.2554    120.3041
  1835.0000    187.2650      8.1410      7.9610      7.6497    134.9810
  1835.2500    187.4792      8.0477      7.9785      7.7839    138.7703
  1835.5000    187.5963      7.9298      8.0108      7.9005    145.8820
  1835.7500    187.6351      7.7778      7.9568      8.4626    148.9334
  1836.0000    187.9308      7.6456      7.9473      9.0984    137.6107
  1836.2500    188.3964      7.5804      7.8555     10.3141    132.2155
  1836.5000    188.8783      7.5766      7.7540     11.0170    120.9644
  1836.7500    189.3786      7.5631      7.6404     10.6155    106.3484
  1837.0000    189.7291      7.5737      7.5221     10.0142     97.9966
  1837.2500    189.8186      7.6462      7.5945      9.2280    102.3279
  1837.5000    189.8294      7.7770      7.6259      8.3121    123.3522
  1837.7500    189.8485      7.8619      7.7080      8.0107    137.9674
  1838.0000    189.7663      7.9605      7.8440      7.9949    131.5350
  1838.2500    189.4754      8.0420      7.9203      8.1030    132.6869
  1838.5000    187.7514      8.1165      7.9928      8.3958    136.5674
  1838.7500    184.5537      8.1419      8.1036      8.8216    112.6728
  1839.0000    182.7602      8.1211      8.2429      8.9609    143.3572
  1839.2500    181.4429      8.1888      8.3500      9.0794    159.5127
  1839.5000    179.5611      8.2550      8.3983      9.3099    118.3602
  1839.7500    177.9053      8.3510      8.4227      9.2643    121.4621
  1840.0000    176.6517      8.5824      8.4694      9.2749    142.9572
  1840.2500    175.2292      8.8329      8.5246      9.4596    132.0026
  1840.5000    174.0604      9.0532      8.6033      9.6794    127.8143
  1840.7500    172.7718      9.3042      8.8815      9.4075    115.6666
  1841.0000    171.7617      9.6220      9.2915      8.8337    123.4809
  1841.2500    170.9326      9.7911      9.6916      8.8213    127.2459
  1841.5000    170.1866     10.0190     10.3576      9.5768    111.2847
  1841.7500    169.2552     10.2381     11.2175      9.9062    123.4790
  1842.0000    168.3914     10.3681     11.9667     10.0212    114.3377
  1842.2500    167.6686     10.4113     12.9193     10.8135    109.9443
  1842.5000    167.0394     10.3693     13.5915     12.5929    101.3396
  1842.7500    166.5523     10.3552     14.0945     15.8786    107.6460
  1843.0000    166.0146     10.3298     13.8190     17.7762    108.6065
  1843.2500    165.4798     10.4773     13.2717     16.4067    105.0277
  1843.5000    164.9411     10.4662     12.4108     14.2184     88.1612
  1843.7500    164.4537     10.5295     11.5228     12.9631     84.5826
  1844.0000    163.8975     10.6083     10.7879     12.0846    105.0061
  1844.2500    163.4051     10.6676     10.3484     10.5652    124.1005
  1844.5000    163.0115     10.5839     10.0469      9.3586    115.6086
  1844.7500    162.7352     10.4835      9.9632      9.0240    113.4615
  1845.0000    162.7034     10.4559     10.0051      9.3166     86.9844
  1845.2500    162.9345     10.3807     10.1137     10.0808     91.6579
  1845.5000    163.1316     10.2314     10.1946     10.5442    122.7918
  1845.7500    162.8624      9.9934     10.2755     11.0938    132.2186
  1846.0000    161.9685      9.8942     10.3475     11.5435    124.0328
  1846.2500    161.3079      9.7906     10.2880     11.9079    122.6797
  1846.5000    160.8920      9.7319     10.0226     11.9638    114.2705
  1846.7500    160.4731      9.7358      9.9484     11.3939     90.0343
  1847.0000    159.9618      9.7768      9.8177     10.4744     93.6971
  1847.2500    159.3404      9.9298      9.7330     10.6248     95.0153
  1847.5000    158.9263      9.9809      9.6728     11.2577     75.2906
  1847.7500    158.6316     10.2164      9.7708     11.5401     88.1356
  1848.0000    158.5476     10.4050      9.8812     11.3483     93.9769
  1848.2500    158.6166     10.4994      9.9896     11.1078     93.3962
  1848.5000    158.8853     10.4950     10.2381     11.3064     95.9093
  1848.7500    159.4749     10.5129     10.5978     12.2653     99.5698
  1849.0000    160.0896     10.5762     10.9647     12.9947     93.6425
  1849.2500    160.6718     10.3685     11.2737     12.0983    100.8654
  1849.5000    161.4940     10.3009     11.4823     10.9645    123.6561
  1849.7500    162.4005     10.0648     11.5919     11.7180    116.4691
  1850.0000    163.4512      9.8867     11.5204     13.4479    105.3294
  1850.2500    164.2902      9.6244     11.3888     13.9761     99.8323
  1850.5000    164.7661      9.3858     10.9747     12.7762     95.1703
  1850.7500    165.2323      9.2381     10.4825     11.1130    106.2758
  1851.0000    165.5548      9.0233      9.9731      9.9007    103.4909
  1851.2500    165.8326      8.8294      9.5084      9.4741     99.7118
  1851.5000    165.9293      8.6240      9.0159      8.6556    102.4558
  1851.7500    166.0061      8.4650      8.5271      8.0646    126.6649
  1852.0000    166.1655      8.2581      8.1054      7.7144    136.7119
  1852.2500    166.3246      8.0940      7.8081      7.2710    128.1402
  1852.5000    166.5459      7.9528      7.5699      7.3008    132.7216
  1852.7500    166.6582      7.7681      7.3982      7.3516    121.9157
  1853.0000    166.2570      7.6970      7.2851      7.1193    127.3514
  1853.2500    165.8682      7.5435      7.1699      7.3322    144.6409
  1853.5000    166.1728      7.4903      7.1644      7.8170    138.8857
  1853.7500    166.0908      7.4851      7.1406      8.1483    145.4287
  1854.0000    165.6098      7.5205      7.1402      8.2336    133.4970
  1854.2500    165.3156      7.5232      7.1443      8.3001    135.4237
  1854.5000    165.2969      7.5848      7.1794      8.1849    125.1176
  1854.7500    165.1870      7.6992      7.3127      8.1030    120.0310
  1855.0000    164.5408      7.8537      7.5161      8.2113    119.2373
  1855.2500    162.6404      7.9106      7.7371      8.6436    120.3580
  1855.5000    161.5408      8.0267      7.9747      9.6813    124.5398
  1855.7500    160.9873      8.1918      8.2438     11.0551    106.0340
  1856.0000    160.3825      8.2767      8.3805     12.2811    131.2439
  1856.2500    159.8990      8.4622      8.4466     12.2707    138.1131
  1856.5000    159.4571      8.7181      8.4873     10.9732    122.2187
  1856.7500    159.0616      8.7279      8.5210      9.6796    121.8825
  1857.0000    158.5177      9.0185      8.7227      9.1461    120.7370
  1857.2500    157.9132      9.1543      9.0040      9.8032    131.8223
  1857.5000    157.3390      9.3725      9.3929     11.3137    146.8422
  1857.7500    156.8651      9.5406      9.7210     12.2133    146.1020
  1858.0000    156.3578      9.8001     10.1265     12.5878    133.2464
  1858.2500    156.0927      9.9667     10.3530     13.2928    135.9594
  1858.5000    156.0312     10.2006     10.5775     13.5575    120.8957
  1858.7500    156.0544     10.4039     10.9070     13.3852    134.1189
  1859.0000    156.1816     10.6483     11.2166     12.6928    147.6469
  1859.2500    156.4105     11.0176     11.6241     12.1646    144.7071
  1859.5000    156.7420     11.3200     12.0764     12.3476    131.1918
  1859.7500    157.1955     11.2987     12.7101     13.4586    125.2990
