~Version Information
VERS.                      2.0: CWLS Log ASCII Standard - VERSION 2.0
WRAP.                       NO: One line per depth step
~Well Information Block
STRT.FT               240.0000: 
STOP.FT              1677.0000: 
STEP.FT                 0.1000: 
NULL.                -999.2500: 
COMP.          Pioneer Natural Resources: COMPANY
WELL.          Lorencito 8-1-34-67: WELL
FLD.           Purgatoire River: FIELD
LOC.           1567' FNL & 500' FEL: LOCATION
STAT.                 Colorado: State
CTRY. USA : Country 
CNTY.               Las Animas: COUNTY
SECT. 1 : Section 
TOWN. 34S : Township
RANG. 67W : Range
SRVC.                Patterson: SERVICE COMPANY
DATE.          Fri Aug 26 09:30:14 2005: LOG DATE
API.           05 071 08506 00: UNIQUE WELL ID
~Curve Information Block
DEPT.FT            0 000 00 00: Depth
DCAL.in                       : CDL Caliper
RHOB.g/cc                     : CDL Bulk Density
RHOC.g/cc                     : CDL Density Correction
DPOR.pu                       : CDL Density Porosity
GR.GAPI                       : Gamma Ray
NPOR.pu                       : Neutron Porosity
~Parameter Information Block
~A  Depth       DCAL        RHOB        RHOC        DPOR         GR         NPOR    
# ...
  1190.4000      8.1345      2.3951      0.0177     15.4498     41.6184     14.2994
  1190.5000      8.1413      2.4084      0.0828     14.6448     39.7533     14.5272
  1190.6000      8.1413      2.4178      0.0362     14.0739     36.6081     14.1573
  1190.7000      8.1413      2.4306      0.0686     13.2985     33.7777     13.7018
  1190.8000      8.1394      2.4387      0.0617     12.8078     32.4774     13.6808
  1190.9000      8.1394      2.4274      0.0465     13.4926     32.7852     13.7461
  1191.0000      8.1460      2.4074      0.0277     14.7050     32.4942     13.7644
  1191.1000      8.1460      2.3970      0.0095     15.3349     31.4416     13.9219
  1191.2000      8.1460      2.3980     -0.0009     15.2740     30.9879     14.0476
  1191.3000      8.1599      2.4013      0.0420     15.0741     30.4537     13.9374
  1191.4000      8.1599      2.4020      0.0221     15.0274     29.9291     13.6034
  1191.5000      8.1801      2.3969      0.0696     15.3367     30.6506     13.3630
  1191.6000      8.1801      2.3820     -0.0049     16.2421     31.8345     13.3291
  1191.7000      8.1801      2.3687     -0.0025     17.0480     31.7164     13.2123
  1191.8000      8.1943      2.3647      0.0623     17.2909     30.5623     12.9674
  1191.9000      8.1943      2.3603     -0.0164     17.5580     28.4326     12.8120
  1192.0000      8.2110      2.3535     -0.0085     17.9724     24.8710     12.8096
  1192.1000      8.2110      2.3510     -0.0033     18.1186     22.2825     12.9914
  1192.2000      8.2110      2.3540      0.0299     17.9383     22.4989     13.3074
  1192.3000      8.2116      2.3633     -0.0153     17.3750     24.5782     13.4761
  1192.4000      8.2116      2.3851      0.0252     16.0542     26.1744     13.4240
  1192.5000      8.1779      2.4091      0.0882     14.6007     24.9444     13.2830
  1192.6000      8.1779      2.4155      0.0655     14.2145     22.0519     13.0414
  1192.7000      8.1779      2.4030      0.0617     14.9676     21.5243     12.7049
  1192.8000      8.1576      2.3814      0.0556     16.2811     23.8012     12.5084
  1192.9000      8.1576      2.3556      0.0228     17.8449     25.9199     12.5787
  1193.0000      8.1518      2.3284      0.0170     19.4910     27.2535     12.6696
  1193.1000      8.1518      2.3126     -0.0369     20.4456     28.3831     12.6888
  1193.2000      8.1518      2.3192      0.0288     20.0513     29.1845     12.8916
  1193.3000      8.1516      2.3344      0.0242     19.1274     29.5804     13.2458
  1193.4000      8.1516      2.3370      0.0088     18.9703     31.4208     13.3854
  1193.5000      8.1500      2.3213      0.0631     19.9187     35.8552     13.1869
  1193.6000      8.1500      2.3062     -0.0240     20.8336     39.3182     12.9302
  1193.7000      8.1500      2.3199     -0.0634     20.0063     37.6350     12.9440
  1193.8000      8.1174      2.3508      0.0564     18.1345     32.8493     13.2342
  1193.9000      8.1174      2.3550      0.0552     17.8762     29.7208     13.6279
  1194.0000      8.1120      2.3169      0.0331     20.1906     29.1369     13.9761
  1194.1000      8.1120      2.2574      0.0121     23.7916     29.4778     14.0485
  1194.2000      8.1120      2.2042      0.0408     27.0187     29.6200     13.8316
  1194.3000      8.1116      2.1709     -0.0335     29.0382     29.3034     13.6533
  1194.4000      8.1116      2.1638     -0.0468     29.4641     29.4005     13.5258
  1194.5000      8.1024      2.1876     -0.0303     28.0263     29.2261     13.2874
  1194.6000      8.1024      2.2337      0.0283     25.2305     27.4258     13.0828
  1194.7000      8.1024      2.2831      0.1253     22.2391     25.9399     13.0176
  1194.8000      8.0532      2.3424      0.1075     18.6441     26.5231     12.9816
  1194.9000      8.0532      2.4344      0.2623     13.0695     28.4124     13.0135
  1195.0000      8.0510      2.5338      0.4529      7.0441     30.5139     13.2959
  1195.1000      8.0510      2.5908      0.4009      3.5890     32.1662     13.7512
  1195.2000      8.0510      2.5938      0.3531      3.4061     32.4238     14.1492
  1195.3000      8.0093      2.5598      0.2613      5.4647     31.3091     14.3428
  1195.4000      8.0093      2.5125      0.1918      8.3332     31.0831     14.2757
  1195.5000      7.9446      2.4750      0.1395     10.6090     32.5607     14.3535
  1195.6000      7.9446      2.4559      0.1221     11.7642     33.6908     15.0552
  1195.7000      7.9446      2.4544      0.0660     11.8528     34.4950     16.0599
  1195.8000      7.9258      2.4675      0.1135     11.0595     38.0544     16.7583
  1195.9000      7.9258      2.4889      0.0999      9.7620     44.2214     17.1574
  1196.0000      7.9897      2.5186      0.1110      7.9648     49.0864     17.4105
  1196.1000      7.9897      2.5496      0.1855      6.0821     51.3391     17.4673
  1196.2000      7.9897      2.5603      0.1873      5.4364     55.0651     17.3655
  1196.3000      7.9838      2.5430      0.1529      6.4823     60.5376     17.3929
  1196.4000      7.9838      2.5185      0.0710      7.9680     61.7440     18.0629
  1196.5000      7.9457      2.5044      0.1068      8.8242     59.4697     19.4243
  1196.6000      7.9457      2.4950      0.0763      9.3963     62.0374     20.5896
  1196.7000      7.9457      2.4823      0.0780     10.1617     69.0485     21.0811
  1196.8000      7.9379      2.4657      0.0046     11.1725     71.2383     21.3071
  1196.9000      7.9379      2.4453     -0.0023     12.4085     67.5886     21.4153
  1197.0000      7.9992      2.4250     -0.0470     13.6387     64.4929     21.5052
  1197.1000      7.9992      2.4161     -0.0519     14.1762     65.5177     21.9148
  1197.2000      7.9992      2.4249     -0.0066     13.6402     69.0795     22.5826
  1197.3000      7.9940      2.4423      0.0491     12.5894     69.9277     23.0755
  1197.4000      7.9940      2.4538      0.0015     11.8914     65.6730     23.2570
  1197.5000      7.9637      2.4506      0.0577     12.0845     58.3481     23.2343
  1197.6000      7.9637      2.4256      0.0928     13.6030     52.8037     23.0734
  1197.7000      7.9637      2.3879      0.0454     15.8869     51.8490     22.8536
  1197.8000      7.9434      2.3627      0.0526     17.4135     54.1368     22.5086
  1197.9000      7.9434      2.3582      0.0450     17.6834     57.8864     22.1243
  1198.0000      7.9645      2.3660      0.0104     17.2151     61.4733     21.8217
  1198.1000      7.9645      2.3834      0.0033     16.1570     62.2376     21.0501
  1198.2000      7.9645      2.4157      0.0840     14.1980     59.0722     19.5377
  1198.3000      8.0256      2.4556      0.1483     11.7797     55.3616     18.1538
  1198.4000      8.0256      2.4861      0.2405      9.9334     52.8769     17.6025
  1198.5000      8.1375      2.5000      0.2515      9.0916     48.1280     17.5146
  1198.6000      8.1375      2.5008      0.3328      9.0411     41.5449     17.2368
  1198.7000      8.1375      2.4952      0.2089      9.3829     39.1460     16.7181
  1198.8000      8.0645      2.4961      0.1841      9.3262     43.4650     16.4186
  1198.9000      8.0645      2.5021      0.2053      8.9665     51.0158     16.5298
  1199.0000      7.8931      2.4850      0.2010      9.9996     57.7898     16.8186
  1199.1000      7.8931      2.4320      0.1331     13.2091     62.4968     17.1228
  1199.2000      7.8931      2.3722      0.0193     16.8371     66.4766     17.3691
  1199.3000      7.9523      2.3279      0.0854     19.5215     70.5534     17.5890
  1199.4000      7.9523      2.2844      0.0583     22.1573     72.3516     18.0313
  1199.5000      8.0199      2.2348      0.0437     25.1649     71.4631     18.7949
  1199.6000      8.0199      2.1988     -0.0078     27.3456     71.3956     19.8369
  1199.7000      8.0199      2.1966      0.0228     27.4795     74.6644     21.1903
  1199.8000      7.9958      2.2351      0.0110     25.1448     80.3955     22.5057
  1199.9000      7.9958      2.3008      0.1383     21.1627     84.4852     23.1123
