~Version Information
VERS.                      2.0: CWLS Log ASCII Standard - VERSION 2.0
WRAP.                       NO: One line per depth step
~Well Information Block
STRT.FT                -4.0000: 
STOP.FT              1544.0000: 
STEP.FT                 0.2500: 
NULL.                -999.2500: 
COMP.          Pioneer Natural Resources: COMPANY
WELL.           Screamin 12-29: WELL
FLD.           Purgatoire River: FIELD
LOC.           2038' FNL & 612' FWL--: LOCATION
CNTY.               Las Animas: COUNTY
SRVC.                Patterson: SERVICE COMPANY
DATE.          Fri Apr 14 00:36:42 2006: LOG DATE
UWI.           05 071 08661 00: UNIQUE WELL ID
STAT.                 Colorado: STATE
~Curve Information Block
DEPT.FT            0 000 00 00: Depth
GR.GAPI                       : Gamma Ray
CCL.                          : Casing Collar Locator
TT3.usec                      : CBL 3' Travel Time
AMP3.mV                       : CBL 3' Amplitude
~Parameter Information Block
~A  Depth        GR         CCL         TT3         AMP3    
# ...
   498.5000     52.5746      0.0000    690.9124      8.0654
   498.7500     55.1972      0.0000    691.4818      8.1006
   499.0000     60.1823      0.0000    693.3326      8.1366
   499.2500     63.7326      0.0000    696.1856      8.1559
   499.5000     68.8780      0.0000    703.6407      8.1961
   499.7500     72.2738      0.0000    710.1422      8.2355
   500.0000     77.3872      0.0000    719.9323      8.2959
   500.2500     80.2400      0.0000    725.2631      8.3179
   500.5000     82.0777      0.0000    730.3486      8.3071
   500.7500     81.3979      0.0000    731.3756      8.2789
   501.0000     79.2093      0.0000    728.5939      8.2328
   501.2500     78.4786      0.0000    724.0082      8.2106
   501.5000     79.6403      0.0000    715.4820      8.1931
   501.7500     81.3489      0.0000    710.7332      8.1886
   502.0000     83.3805      0.0000    707.0010      8.1868
   502.2500     83.6280      0.0000    706.7931      8.1853
   502.5000     82.3705      0.0000    709.5142      8.1764
   502.7500     80.8833      0.0000    713.0554      8.1646
   503.0000     78.2271      0.0000    718.8250      8.1426
   503.2500     76.4978      0.0000    720.7216      8.1290
   503.5000     75.5275      0.0000    717.9898      8.1156
   503.7500     77.3136      0.0000    713.2090      8.1155
   504.0000     84.4904      0.0000    706.2258      8.1397
   504.2500     90.9301      0.0000    704.3082      8.1763
   504.5000     98.8494      0.0000    706.7883      8.2521
   504.7500    101.1943      0.0000    710.9106      8.3011
   505.0000    100.5273      0.0000    717.8901      8.3442
   505.2500     98.8695      0.0000    721.5388      8.3471
   505.5000     97.3538      0.0000    723.3646      8.3289
   505.7500     97.6101      0.0000    721.5852      8.3192
   506.0000     98.8687      0.0000    715.8365      8.3285
   506.2500     99.2232      0.0000    712.0506      8.3499
   506.5000     98.2019      0.0000    710.0754      8.3908
   506.7500     96.8481      0.0000    712.0370      8.4163
   507.0000     94.9272      0.0000    718.1041      8.4490
   507.2500     94.0998      0.0000    722.1180      8.4687
   507.5000     93.4732      0.0000    725.4450      8.4942
   507.7500     93.2774      0.0000    725.7410      8.5065
   508.0000     93.4602      0.0000    724.5642      8.5228
   508.2500     94.2807      0.0000    723.3124      8.5453
   508.5000     96.8699      0.0000    720.8508      8.6171
   508.7500     99.0818      0.0000    718.6762      8.6863
   509.0000    101.7671      0.0000    715.0168      8.7840
   509.2500    102.5720      0.0000    713.1123      8.8233
   509.5000    102.3504      0.0000    712.4755      8.8382
   509.7500    101.6311      0.0000    713.6486      8.8311
   510.0000    100.0930      0.0000    716.6124      8.8140
   510.2500     98.6632      0.0000    718.4925      8.8004
   510.5000     95.6242      0.0000    720.3239      8.7745
   510.7500     93.1246      0.0000    720.8282      8.7564
   511.0000     89.6051      0.0000    720.7098      8.7386
   511.2500     88.2140      0.0000    720.2292      8.7358
   511.5000     88.7247      0.0000    719.3970      8.7363
   511.7500     90.8769      0.0000    719.1021      8.7296
   512.0000     95.2719      0.0000    719.3231      8.6973
   512.2500     97.3983      0.0000    719.7937      8.6640
   512.5000     97.4101      0.0000    720.5972      8.6147
   512.7500     95.3395      0.0000    721.0764      8.5925
   513.0000     90.6415      0.0000    721.7151      8.5827
   513.2500     87.3753      0.0000    722.1063      8.5893
   513.5000     83.2669      0.0000    722.5773      8.6046
   513.7500     81.3912      0.0000    722.7410      8.6074
   514.0000     80.1213      0.0000    722.5796      8.5900
   514.2500     80.1601      0.0000    722.0258      8.5660
   514.5000     80.8890      0.0000    720.0517      8.5245
   514.7500     81.3994      0.0000    717.7254      8.5011
   515.0000     81.7021      0.0000    713.0910      8.4814
   515.2500     81.5695      0.0000    710.1084      8.4808
   515.5000     81.3421      0.0000    707.2161      8.4965
   515.7500     81.4977      0.0000    706.2365      8.5144
   516.0000     82.2689      0.0000    705.0280      8.5464
   516.2500     83.0092      0.0000    704.4306      8.5684
   516.5000     84.4300      0.0000    705.4038      8.5991
   516.7500     85.5654      0.0000    707.7196      8.6173
   517.0000     87.1558      0.0000    711.9993      8.6405
   517.2500     88.0810      0.0000    713.8094      8.6529
   517.5000     90.3248      0.0000    713.6665      8.6701
   517.7500     93.2580      0.0000    712.0173      8.6849
   518.0000     99.8191      0.0000    708.4173      8.7163
   518.2500    104.5160      0.0000    705.8192      8.7397
   518.5000    109.7420      0.0000    702.7802      8.7722
   518.7500    111.2767      0.0000    702.2889      8.7955
   519.0000    110.4678      0.0000    704.7853      8.8475
   519.2500    107.9888      0.0000    707.9471      8.8974
   519.5000    102.0047      0.0000    712.0231      8.9859
   519.7500     97.3784      0.0000    712.5439      9.0447
   520.0000     91.4636      0.0000    708.6511      9.1228
   520.2500     88.9934      0.0000    703.3373      9.1681
   520.5000     87.4801      0.0000    693.2674      9.2298
   520.7500     87.3243      0.0000    686.3710      9.2672
   521.0000     87.2570      0.0000    677.2625      9.3125
   521.2500     86.9762      0.0000    672.6627      9.3324
   521.5000     86.2617      0.0000    668.9472      9.3497
   521.7500     85.9501      0.0000    668.9431      9.3563
   522.0000     86.5625      0.0000    672.3937      9.3580
   522.2500     87.8053      0.0000    676.2648      9.3473
   522.5000     89.8442      0.0000    682.6118      9.3026
   522.7500     90.3921      0.0000    686.3660      9.2541
   523.0000     89.3185      0.0000    691.0819      9.1698
   523.2500     87.6563      0.0000    694.1028      9.1189
   523.5000     84.8105      0.0000    699.0854      9.0598
   523.7500     83.2831      0.0000    702.3821      9.0267
   524.0000     82.2848      0.0000    705.6621      8.9729
   524.2500     82.6119      0.0000    705.8535      8.9310
   524.5000     84.3628      0.0000    703.0755      8.8582
   524.7500     86.0792      0.0000    700.1315      8.8035
   525.0000     88.6869      0.0000    696.3182      8.7156
   525.2500     89.8360      0.0000    695.0760      8.6581
   525.5000     89.8612      0.0000    695.4456      8.5806
   525.7500     88.7013      0.0000    696.8148      8.5372
   526.0000     85.7355      0.0000    699.7833      8.4879
   526.2500     83.2728      0.0000    702.2019      8.4666
   526.5000     79.0480      0.0000    706.6391      8.4499
   526.7500     75.9755      0.0000    710.0462      8.4465
   527.0000     71.8574      0.0000    714.8981      8.4487
   527.2500     70.3767      0.0000    717.3000      8.4536
   527.5000     71.3065      0.0000    719.1955      8.4686
   527.7500     73.9002      0.0000    719.4925      8.4893
   528.0000     78.9646      0.0000    719.0604      8.5473
   528.2500     81.7236      0.0000    718.4989      8.6023
   528.5000     83.0846      0.0000    717.5752      8.6816
   528.7500     81.6535      0.0000    716.7971      8.7077
   529.0000     76.1705      0.0000    714.5585      8.6802
   529.2500     71.0148      0.0000    711.8970      8.6217
   529.5000     63.3288      0.0000    706.7543      8.5022
   529.7500     59.7290      0.0000    703.9207      8.4162
   530.0000     57.8957      0.0000    703.0333      8.2908
   530.2500     58.6238      0.0000    704.9651      8.2137
   530.5000     60.8578      0.0000    709.5201      8.1059
   530.7500     62.4285      0.0000    711.7308      8.0273
   531.0000     65.0987      0.0000    711.1862      7.8555
   531.2500     67.4425      0.0000    707.6504      7.6783
   531.5000     71.2831      0.0000    698.6683      7.3048
   531.7500     72.9296      0.0000    692.3340      7.0040
