~Version Information
VERS.                      2.0: CWLS Log ASCII Standard - VERSION 2.0
WRAP.                       NO: One line per depth step
~Well Information Block
STRT.FT               694.2000: 
STOP.FT              1498.5000: 
STEP.FT                 0.1000: 
NULL.                -999.2500: 
COMP.          Pioneer Natural Resources: COMPANY
WELL.          Pallet Ranch 34-25 Tr: WELL
FLD.           Purgatoire River: FIELD
LOC.           465' FSL & 2138' FEL: LOCATION
PROV.                 Colorado: PROVINCE
CNTY.               Las Animas: COUNTRY
SRVC.                Patterson: SERVICE COMPANY
DATE.          Thu Jan 19 06:39:54 2006: LOG DATE
UWI.           05 071 08657 00: UNIQUE WELL ID
~Curve Information Block
DEPT.FT            0 000 00 00: Depth
DCAL.in                       : CDL Caliper
RHOB.g/cc                     : CDL Bulk Density
RHOC.g/cc                     : CDL Density Correction
DPOR.pu                       : CDL Density Porosity
GR.GAPI                       : Gamma Ray
~Parameter Information Block
~A  Depth       DCAL        RHOB        RHOC        DPOR         GR     
# ...
   761.4000      8.5955      2.7733      0.2252     -7.4748     67.9242
   761.5000      8.5504      2.7596      0.0674     -6.6415     61.7319
   761.6000      8.5504      2.7454      0.1337     -5.7797     61.0092
   761.7000      8.5504      2.7167      0.0973     -4.0403     66.0932
   761.8000      8.5197      2.6876      0.0162     -2.2813     72.2865
   761.9000      8.5197      2.6881      0.0863     -2.3067     74.5341
   762.0000      8.5199      2.6942      0.1537     -2.6782     71.6044
   762.1000      8.5199      2.6774      0.0469     -1.6593     67.2430
   762.2000      8.5199      2.6561      0.0553     -0.3697     63.7705
   762.3000      8.5027      2.6442      0.0833      0.3517     60.7911
   762.4000      8.5027      2.6350      0.0564      0.9094     58.7509
   762.5000      8.4798      2.6360      0.0507      0.8456     58.8957
   762.6000      8.4798      2.6511      0.1229     -0.0686     61.3482
   762.7000      8.4798      2.6622      0.1054     -0.7410     63.6855
   762.8000      8.4639      2.6558      0.0967     -0.3542     65.7234
   762.9000      8.4639      2.6411      0.0825      0.5408     68.6154
   763.0000      8.4605      2.6375      0.1259      0.7589     73.2248
   763.1000      8.4605      2.6478      0.0725      0.1328     79.4218
   763.2000      8.4605      2.6499      0.1143      0.0066     84.0831
   763.3000      8.4480      2.6240      0.0748      1.5736     86.1059
   763.4000      8.4480      2.5856      0.0118      3.9014     87.7124
   763.5000      8.4421      2.5608      0.0570      5.4082     89.7038
   763.6000      8.4421      2.5552      0.0093      5.7439     89.6615
   763.7000      8.4421      2.5719      0.0044      4.7343     89.1514
   763.8000      8.4451      2.5992      0.1507      3.0794     92.7162
   763.9000      8.4451      2.6051      0.1371      2.7195     95.2231
   764.0000      8.4925      2.5910      0.0336      3.5780     91.2149
   764.1000      8.4925      2.5867      0.1053      3.8372     85.8990
   764.2000      8.4925      2.5972      0.0878      3.1974     82.8573
   764.3000      8.5448      2.6080      0.0824      2.5444     79.2471
   764.4000      8.5448      2.6115      0.1015      2.3338     73.7742
   764.5000      8.6163      2.6140      0.1109      2.1803     66.9892
   764.6000      8.6163      2.6187      0.0943      1.8982     60.3979
   764.7000      8.6163      2.6156      0.0813      2.0853     58.6351
   764.8000      8.6786      2.5988      0.0558      3.1022     62.7562
   764.9000      8.6786      2.5794      0.0199      4.2790     66.7523
   765.0000      8.7116      2.5708      0.0987      4.8018     67.9010
   765.1000      8.7116      2.5709      0.0269      4.7936     70.4081
   765.2000      8.7116      2.5733      0.0516      4.6476     76.0054
   765.3000      8.7235      2.5816      0.0247      4.1436     78.3248
   765.4000      8.7235      2.6033      0.0196      2.8275     73.3844
   765.5000      8.7408      2.6203      0.1365      1.7988     66.5831
   765.6000      8.7408      2.6052      0.1022      2.7151     64.6317
   765.7000      8.7408      2.5746      0.0500      4.5709     66.8800
   765.8000      8.7629      2.5607      0.0433      5.4125     67.3853
   765.9000      8.7629      2.5697      0.0280      4.8637     63.9212
   766.0000      8.7448      2.5939      0.0643      3.3999     59.6038
   766.1000      8.7448      2.6168      0.0592      2.0114     57.2489
   766.2000      8.7448      2.6167      0.0971      2.0177     57.0746
   766.3000      8.7376      2.5936      0.0646      3.4163     60.3141
   766.4000      8.7376      2.5763      0.0232      4.4681     66.0198
   766.5000      8.7510      2.5752      0.0933      4.5348     68.7965
   766.6000      8.7510      2.5675      0.0308      5.0022     67.4298
   766.7000      8.7510      2.5441     -0.0417      6.4167     66.1490
   766.8000      8.7443      2.5196      0.0043      7.9059     66.2577
   766.9000      8.7443      2.5036      0.0430      8.8737     68.5348
   767.0000      8.5869      2.5088     -0.0335      8.5550     74.0955
   767.1000      8.5869      2.5506      0.0848      6.0236     77.3467
   767.2000      8.5869      2.6113      0.1318      2.3429     76.3342
   767.3000      8.4554      2.6554      0.1644     -0.3255     77.2071
   767.4000      8.4554      2.6726      0.1429     -1.3671     80.8569
   767.5000      8.4381      2.6819      0.1287     -1.9306     85.3009
   767.6000      8.4381      2.6982      0.1750     -2.9235     92.6298
   767.7000      8.4381      2.7030      0.2305     -3.2140    103.6482
   767.8000      8.4832      2.6823      0.1456     -1.9551    114.5216
   767.9000      8.4832      2.6568      0.1396     -0.4148    120.4280
   768.0000      8.8176      2.6346      0.1488      0.9325    120.2339
   768.1000      8.8176      2.6063      0.1290      2.6490    116.9577
   768.2000      8.8176      2.5793      0.0616      4.2847    112.7308
   768.3000      9.3634      2.5626      0.0941      5.2964    110.0789
   768.4000      9.3634      2.5557     -0.0071      5.7140    112.4077
   768.5000      9.6203      2.5648      0.0417      5.1628    117.6529
   768.6000      9.6203      2.5787      0.1417      4.3196    121.0787
   768.7000      9.6203      2.5679      0.0840      4.9737    121.9624
   768.8000      9.7741      2.5427      0.0331      6.5004    120.1583
   768.9000      9.7741      2.5334      0.0988      7.0641    115.6035
   769.0000      9.7089      2.5332      0.0867      7.0798    111.5121
   769.1000      9.7089      2.5234      0.0544      7.6701    110.4193
   769.2000      9.7089      2.4983      0.0697      9.1936    111.4876
   769.3000      8.8328      2.4565      0.0352     11.7254    112.3828
   769.4000      8.8328      2.4016      0.0182     15.0575    112.4662
   769.5000      8.2569      2.3356     -0.0663     19.0518    112.5029
   769.6000      8.2569      2.2510     -0.0348     24.1793    112.3094
   769.7000      8.2569      2.1461      0.0187     30.5379    113.1053
   769.8000      8.1867      2.0389      0.0541     37.0389    115.2740
   769.9000      8.1867      1.9447      0.0147     42.7426    115.0939
   770.0000      8.1185      1.8678      0.0368     47.4038    114.2330
   770.1000      8.1185      1.8094      0.0655     50.9484    115.7029
   770.2000      8.1185      1.7730      0.0558     53.1543    116.1178
   770.3000      7.9838      1.7562      0.2344     54.1669    111.5784
   770.4000      7.9838      1.7343      0.3451     55.4972    104.2228
   770.5000      8.2978      1.6807      0.3244     58.7469    101.3959
   770.6000      8.2978      1.6012      0.1833     63.5615    104.5261
   770.7000      8.2978      1.5216      0.1464     68.3889    107.2747
   770.8000      8.6956      1.4626      0.0701     71.9622    105.9215
   770.9000      8.6956      1.4476      0.0661     72.8724    104.2490
   771.0000      9.4257      1.5021      0.0767     69.5726    104.5809
   771.1000      9.4257      1.6337      0.1790     61.5954    103.5469
   771.2000      9.4257      1.8158      0.2762     50.5594    102.9481
   771.3000     10.5075      1.9947      0.4302     39.7145    104.9313
   771.4000     10.5075      2.1228      0.4821     31.9521    105.3715
   771.5000     11.1284      2.1887      0.4453     27.9569    101.7839
   771.6000     11.1284      2.2039      0.4284     27.0355     99.0852
   771.7000     11.1284      2.1656      0.4091     29.3584    102.9191
   771.8000     11.2785      2.0682      0.2125     35.2618    109.3861
   771.9000     11.2785      1.9358      0.0698     43.2828    112.2379
   772.0000     11.4083      1.8184     -0.0745     50.3976    115.0376
   772.1000     11.4083      1.7634     -0.1137     53.7306    121.7096
   772.2000     11.4083      1.7805     -0.0441     52.6959    126.4703
   772.3000     11.2860      1.8478     -0.0117     48.6210    126.9586
   772.4000     11.2860      1.9461      0.0577     42.6611    130.5916
   772.5000     11.2063      2.0577      0.1613     35.8948    138.3839
