~Version Information
VERS.                      2.0: CWLS Log ASCII Standard - VERSION 2.0
WRAP.                       NO: One line per depth step
~Well Information Block
STRT.FT               670.0000: 
STOP.FT              2108.5000: 
STEP.FT                 0.1000: 
NULL.                -999.2500: 
COMP.          Petrogulf Corporation: COMPANY
WELL.           Montoya 12-44R: WELL
FLD.           Purgatorie River: FIELD
LOC.           713' FSL & 798' FEL: LOCATION
PROV.                 Colorado: PROVINCE
CNTY.               Las Animas: COUNTRY
SRVC.                Patterson: SERVICE COMPANY
DATE.          Mon Oct 03 07:50:59 2005: LOG DATE
UWI.           05-071-08538               : UNIQUE WELL ID
~Curve Information Block
DEPT.FT            0 000 00 00: Depth
DCAL.in                       : CDL Caliper
RHOB.g/cc                     : CDL Bulk Density
RHOC.g/cc                     : CDL Density Correction
DPOR.pu                       : CDL Density Porosity
GR.GAPI                       : Gamma Ray
NPOR.pu                       : Neutron Porosity
~Parameter Information Block
~A  Depth       DCAL        RHOB        RHOC        DPOR         GR         NPOR    
# ...
  1428.4000      8.0335      2.5903      0.0777      3.6208    113.1516     29.1778
  1428.5000      8.0187      2.5934      0.0702      3.4300    107.9427     28.8283
  1428.6000      8.0187      2.5957      0.0818      3.2905    104.6321     28.3402
  1428.7000      8.0187      2.5973      0.0778      3.1939    102.5584     27.8655
  1428.8000      8.0160      2.6024      0.0252      2.8833    100.0717     27.5110
  1428.9000      8.0160      2.6062      0.0722      2.6542     97.7478     27.1090
  1429.0000      8.0090      2.5949      0.0406      3.3387     98.5246     26.6525
  1429.1000      8.0090      2.5766     -0.0418      4.4504    102.6044     26.4003
  1429.2000      8.0090      2.5743     -0.0274      4.5851    105.4123     26.3616
  1429.3000      7.9945      2.5902      0.0130      3.6269    104.8118     26.3055
  1429.4000      7.9945      2.6063      0.0341      2.6489    103.9950     26.0367
  1429.5000      7.9891      2.6052      0.0292      2.7143    106.1474     25.6107
  1429.6000      7.9891      2.5783      0.0222      4.3463    110.6177     25.0615
  1429.7000      7.9891      2.5303     -0.0385      7.2529    113.6871     24.5240
  1429.8000      7.9866      2.4820     -0.0167     10.1837    113.8080     24.2917
  1429.9000      7.9866      2.4632     -0.0582     11.3210    114.2451     24.3506
  1430.0000      7.9955      2.4846     -0.0040     10.0216    118.4322     24.7777
  1430.1000      7.9955      2.5232      0.0409      7.6822    126.4597     25.6779
  1430.2000      7.9955      2.5542      0.0350      5.8049    135.3905     26.7931
  1430.3000      8.0159      2.5731      0.1079      4.6609    141.7600     27.7340
  1430.4000      8.0159      2.5852      0.1227      3.9283    145.2187     28.4244
  1430.5000      8.0487      2.5979      0.1191      3.1573    147.7042     28.8567
  1430.6000      8.0487      2.6093      0.1662      2.4680    150.5428     28.9208
  1430.7000      8.0487      2.6128      0.1040      2.2561    151.6424     28.7187
  1430.8000      8.0702      2.6125      0.1418      2.2731    148.9558     28.4485
  1430.9000      8.0702      2.6081      0.1372      2.5379    144.9323     28.2569
  1431.0000      8.1135      2.5947      0.1135      3.3501    141.5253     28.3462
  1431.1000      8.1135      2.5731      0.0910      4.6622    138.0076     28.7301
  1431.2000      8.1135      2.5561      0.0204      5.6939    134.3178     28.9920
  1431.3000      8.1430      2.5530      0.0827      5.8799    132.0656     28.6929
  1431.4000      8.1430      2.5528      0.0382      5.8932    132.0573     28.0763
  1431.5000      8.1424      2.5520      0.0517      5.9417    134.1143     27.8614
  1431.6000      8.1424      2.5637      0.0577      5.2323    136.4324     28.1219
  1431.7000      8.1424      2.5903      0.0957      3.6199    136.2630     28.4784
  1431.8000      8.1429      2.6119      0.1265      2.3093    135.2941     28.8774
  1431.9000      8.1429      2.6129      0.1184      2.2468    139.3098     29.2763
  1432.0000      8.1436      2.6027      0.1145      2.8638    149.0029     29.5835
  1432.1000      8.1436      2.6000      0.0522      3.0279    156.5588     29.8145
  1432.2000      8.1436      2.6064      0.1468      2.6424    156.3779     29.8291
  1432.3000      8.1477      2.6063      0.0844      2.6512    150.5912     29.6063
  1432.4000      8.1477      2.5954      0.0960      3.3098    145.4314     29.4853
  1432.5000      8.1480      2.5747      0.0847      4.5629    143.5041     29.7316
  1432.6000      8.1480      2.5495      0.0361      6.0894    142.2268     30.1952
  1432.7000      8.1480      2.5451      0.0247      6.3595    142.5101     30.3549
  1432.8000      8.1463      2.5754      0.0520      4.5224    147.0179     30.0654
  1432.9000      8.1463      2.6124      0.1205      2.2809    151.0261     29.9895
  1433.0000      8.1491      2.6142      0.1286      2.1689    150.9559     30.4304
  1433.1000      8.1491      2.5813      0.0280      4.1626    151.5949     30.7467
  1433.2000      8.1491      2.5496      0.0185      6.0878    155.7668     30.5135
  1433.3000      8.1508      2.5370      0.0306      6.8462    160.1915     29.9352
  1433.4000      8.1508      2.5426      0.0064      6.5113    161.2966     29.4347
  1433.5000      8.1603      2.5552      0.0568      5.7428    161.3806     29.3801
  1433.6000      8.1603      2.5537      0.0710      5.8374    162.3325     29.6997
  1433.7000      8.1603      2.5324      0.0326      7.1273    159.4614     30.0430
  1433.8000      8.1620      2.5100      0.0444      8.4841    150.4704     30.2455
  1433.9000      8.1620      2.4996      0.0391      9.1164    140.9864     30.2139
  1434.0000      8.1582      2.5000      0.0205      9.0922    138.0108     29.9324
  1434.1000      8.1582      2.5054      0.0372      8.7642    143.6175     29.6859
  1434.2000      8.1582      2.5037      0.0563      8.8685    154.4615     29.6924
  1434.3000      8.1586      2.4931     -0.0165      9.5100    163.5644     29.9576
  1434.4000      8.1586      2.4952     -0.0045      9.3807    166.1862     30.3984
  1434.5000      8.1603      2.5119      0.0607      8.3706    163.3424     30.7460
  1434.6000      8.1603      2.5158      0.0378      8.1337    158.2108     30.9484
  1434.7000      8.1603      2.5002      0.0194      9.0817    153.9234     31.2377
  1434.8000      8.1713      2.4813      0.0208     10.2235    153.4909     31.5767
  1434.9000      8.1713      2.4705      0.0162     10.8800    157.1425     31.7485
  1435.0000      8.1703      2.4708     -0.0156     10.8605    161.1067     31.6997
  1435.1000      8.1703      2.4774      0.0597     10.4635    162.8795     31.4937
  1435.2000      8.1703      2.4800      0.0268     10.3005    161.9857     31.2132
  1435.3000      8.1740      2.4823      0.0094     10.1655    159.1062     30.9369
  1435.4000      8.1740      2.4902      0.0349      9.6856    159.0085     30.9090
  1435.5000      8.1753      2.4935      0.0763      9.4859    162.9100     31.1669
  1435.6000      8.1753      2.4829      0.0262     10.1292    165.2315     31.3159
  1435.7000      8.1753      2.4703      0.0299     10.8937    163.8587     31.4162
  1435.8000      8.1808      2.4672      0.0446     11.0765    162.8423     31.8113
  1435.9000      8.1808      2.4693      0.0414     10.9544    161.3293     32.3050
  1436.0000      8.1848      2.4688      0.0280     10.9823    156.2735     32.5032
  1436.1000      8.1848      2.4670      0.0118     11.0904    152.2526     32.4510
  1436.2000      8.1848      2.4702      0.0062     10.8979    154.4420     32.4094
  1436.3000      8.1874      2.4812      0.0157     10.2302    158.2569     32.3079
  1436.4000      8.1874      2.4972      0.0407      9.2589    157.4056     32.0066
  1436.5000      8.1963      2.5120      0.0344      8.3644    153.8819     31.6878
  1436.6000      8.1963      2.5207      0.0473      7.8387    151.9582     31.5407
  1436.7000      8.1963      2.5177      0.0501      8.0162    152.5979     31.5628
  1436.8000      8.2019      2.5005      0.0410      9.0626    155.1335     31.5689
  1436.9000      8.2019      2.4818     -0.0371     10.1965    157.5367     31.3982
  1437.0000      8.2041      2.4746      0.0177     10.6307    158.9826     31.1681
  1437.1000      8.2041      2.4722      0.0116     10.7752    161.2271     31.0638
  1437.2000      8.2041      2.4757     -0.0273     10.5657    164.4970     31.0937
  1437.3000      8.2014      2.4908      0.0484      9.6487    166.3914     31.2025
  1437.4000      8.2014      2.4962      0.0911      9.3194    167.7990     31.2525
  1437.5000      8.2023      2.4765      0.0387     10.5163    170.2706     31.1211
  1437.6000      8.2023      2.4575     -0.0085     11.6690    169.9785     30.9837
  1437.7000      8.2023      2.4679     -0.0181     11.0349    165.0078     31.0252
  1437.8000      8.2049      2.4937      0.0347      9.4731    159.7661     31.2021
  1437.9000      8.2049      2.5045      0.0440      8.8158    155.9321     31.5440
