~Version Information
VERS.                      2.0: CWLS Log ASCII Standard - VERSION 2.0
WRAP.                       NO: One line per depth step
~Well Information Block
STRT.FT                10.0000: 
STOP.FT              1187.0000: 
STEP.FT                 0.1000: 
NULL.                -999.2500: 
COMP.          Pioneer Natural Resources: COMPANY
WELL.          Whitecoat 14-36: WELL
FLD.           Purgatorie River: FIELD
LOC.           606' FSL & 260' FWL: LOCATION
PROV.                 Colorado: PROVINCE
CNTY.               Las Animas: COUNTRY
SRVC.                Patterson: SERVICE COMPANY
DATE.          Tue Dec 06 07:14:37 2005: LOG DATE
UWI.                          : UNIQUE WELL ID
~Curve Information Block
DEPT.FT            0 000 00 00: Depth
DCAL.in                       : CDL Caliper
RHOB.g/cc                     : CDL Bulk Density
RHOC.g/cc                     : CDL Density Correction
DPOR.pu                       : CDL Density Porosity
GR.GAPI                       : Gamma Ray
NPOR.pu                       : Neutron Porosity
~Parameter Information Block
~A  Depth       DCAL        RHOB        RHOC        DPOR         GR         NPOR    
# ...
  1094.8000      7.9456      2.4552     -0.0076     11.8049     83.7027     19.9318
  1094.9000      7.9456      2.4449      0.0054     12.4275     85.3379     19.9635
  1095.0000      7.9566      2.4311     -0.0182     13.2670     86.5633     20.3065
  1095.1000      7.9566      2.4171     -0.0081     14.1131     86.7373     20.5823
  1095.2000      7.9566      2.4154     -0.0260     14.2202     84.3002     20.6553
  1095.3000      7.9794      2.4273      0.0288     13.4990     79.7301     20.8180
  1095.4000      7.9794      2.4398      0.0435     12.7366     76.3632     20.9104
  1095.5000      7.9618      2.4487      0.0176     12.1973     75.7989     20.4780
  1095.6000      7.9618      2.4565      0.0662     11.7253     76.5954     19.8697
  1095.7000      7.9618      2.4588      0.0345     11.5887     78.0941     19.8539
  1095.8000      7.9509      2.4502      0.0391     12.1085     81.0625     20.4369
  1095.9000      7.9509      2.4311      0.0079     13.2642     84.4664     20.8225
  1096.0000      7.9469      2.4133     -0.0098     14.3480     86.8601     20.6350
  1096.1000      7.9469      2.4114     -0.0101     14.4591     87.6768     20.3782
  1096.2000      7.9469      2.4269      0.0225     13.5203     86.1468     20.4873
  1096.3000      7.9332      2.4481      0.0484     12.2392     81.8194     20.6771
  1096.4000      7.9332      2.4713      0.0256     10.8317     75.8223     20.5841
  1096.5000      7.9178      2.4966      0.0796      9.2964     70.6220     20.4449
  1096.6000      7.9178      2.5087      0.0829      8.5619     67.4437     20.3268
  1096.7000      7.9178      2.4999      0.0723      9.0984     65.7037     19.9262
  1096.8000      7.9042      2.4820      0.0575     10.1807     65.1854     19.3730
  1096.9000      7.9042      2.4628      0.0591     11.3427     65.2423     19.0379
  1097.0000      7.9107      2.4425      0.0129     12.5778     65.2584     18.9780
  1097.1000      7.9107      2.4253      0.0255     13.6195     66.7799     18.9558
  1097.2000      7.9107      2.4230     -0.0192     13.7572     69.1406     18.8765
  1097.3000      7.9039      2.4440      0.0192     12.4841     69.1931     19.0482
  1097.4000      7.9039      2.4723      0.0965     10.7669     66.1154     19.4679
  1097.5000      7.8992      2.4846      0.0654     10.0253     62.2992     19.7660
  1097.6000      7.8992      2.4749      0.0747     10.6131     61.8329     19.9680
  1097.7000      7.8992      2.4524      0.0421     11.9769     65.7031     20.1357
  1097.8000      7.9472      2.4328      0.0112     13.1661     69.4094     20.0236
  1097.9000      7.9472      2.4229      0.0211     13.7630     70.1960     19.5687
  1098.0000      7.9480      2.4204     -0.0195     13.9171     68.7503     19.1717
  1098.1000      7.9480      2.4252     -0.0148     13.6253     66.4511     19.3078
  1098.2000      7.9480      2.4342      0.0395     13.0778     66.5553     19.8451
  1098.3000      7.9569      2.4425      0.0156     12.5754     70.2876     20.2317
  1098.4000      7.9569      2.4507      0.0409     12.0782     73.8499     20.3575
  1098.5000      7.9233      2.4536      0.0771     11.9061     73.7481     20.4974
  1098.6000      7.9233      2.4462      0.0041     12.3537     71.2994     20.4837
  1098.7000      7.9233      2.4407      0.0300     12.6864     69.1668     20.1145
  1098.8000      7.9092      2.4513      0.0549     12.0451     67.1771     19.8768
  1098.9000      7.9092      2.4775      0.0320     10.4519     65.5846     20.1132
  1099.0000      7.8998      2.5052      0.0859      8.7740     65.9388     20.2966
  1099.1000      7.8998      2.5205      0.0833      7.8512     67.1473     20.1227
  1099.2000      7.8998      2.5250      0.0552      7.5752     67.6622     19.9662
  1099.3000      7.9129      2.5267      0.0313      7.4746     66.4895     19.8355
  1099.4000      7.9129      2.5314     -0.0053      7.1862     63.3096     19.4495
  1099.5000      7.8935      2.5415      0.0007      6.5771     61.1760     18.8832
  1099.6000      7.8935      2.5491      0.0088      6.1149     62.4372     18.3727
  1099.7000      7.8935      2.5499      0.0049      6.0694     65.2567     18.2235
  1099.8000      7.8769      2.5538     -0.0162      5.8315     68.4542     18.4650
  1099.9000      7.8769      2.5643      0.0237      5.1964     73.4004     18.7929
  1100.0000      7.8683      2.5685      0.0524      4.9386     80.6337     19.0347
  1100.1000      7.8683      2.5586      0.0455      5.5369     87.5217     19.1162
  1100.2000      7.8683      2.5436      0.0049      6.4460     90.8096     18.9962
  1100.3000      7.8586      2.5347      0.0035      6.9869     89.5890     18.7167
  1100.4000      7.8586      2.5286      0.0349      7.3554     85.3380     18.5993
  1100.5000      7.8694      2.5167      0.0252      8.0806     81.1068     18.9247
  1100.6000      7.8694      2.5031      0.0046      8.9008     79.3278     19.3210
  1100.7000      7.8694      2.5001     -0.0185      9.0858     80.0256     19.3125
  1100.8000      7.8710      2.5083      0.0240      8.5895     81.2867     19.1832
  1100.9000      7.8710      2.5135      0.0513      8.2719     80.9350     19.5012
  1101.0000      7.8524      2.5088      0.0060      8.5574     79.3776     20.0206
  1101.1000      7.8524      2.5078     -0.0211      8.6188     79.2014     20.1275
  1101.2000      7.8524      2.5203     -0.0069      7.8617     81.0869     20.0233
  1101.3000      7.8576      2.5378      0.0577      6.7985     83.4532     20.0476
  1101.4000      7.8576      2.5474      0.0340      6.2181     84.6665     19.9170
  1101.5000      7.8678      2.5421      0.0784      6.5368     83.5759     19.5239
  1101.6000      7.8678      2.5239      0.0279      7.6428     81.4624     19.2974
  1101.7000      7.8678      2.5086      0.0321      8.5709     81.8184     19.4442
  1101.8000      7.8755      2.5093      0.0297      8.5244     82.7837     19.7516
  1101.9000      7.8755      2.5148      0.0327      8.1917     80.0917     19.9888
  1102.0000      7.9206      2.5068      0.0224      8.6767     77.6580     20.0511
  1102.1000      7.9206      2.4851      0.0091      9.9941     79.4281     19.8243
  1102.2000      7.9206      2.4645     -0.0137     11.2442     81.0470     19.4923
  1102.3000      7.9088      2.4601     -0.0002     11.5079     78.3075     19.4408
  1102.4000      7.9088      2.4734     -0.0112     10.7023     74.5645     19.7522
  1102.5000      7.9177      2.4906      0.0066      9.6584     74.8051     20.1753
  1102.6000      7.9177      2.4955      0.0302      9.3636     77.4320     20.2946
  1102.7000      7.9177      2.4835     -0.0045     10.0907     77.4424     20.0857
  1102.8000      7.9136      2.4646     -0.0222     11.2388     73.5632     20.0461
  1102.9000      7.9136      2.4497      0.0383     12.1389     69.7659     20.2839
  1103.0000      7.8906      2.4463     -0.0304     12.3461     69.2920     20.3476
  1103.1000      7.8906      2.4575      0.0315     11.6650     70.1986     20.0943
  1103.2000      7.8906      2.4783     -0.0212     10.4059     70.5921     19.7850
  1103.3000      7.8840      2.5061      0.0111      8.7204     72.0493     19.6129
  1103.4000      7.8840      2.5356      0.0454      6.9307     74.1519     19.6042
  1103.5000      7.8612      2.5531      0.0893      5.8749     74.8134     19.7072
  1103.6000      7.8612      2.5504      0.0804      6.0391     75.7048     19.8164
  1103.7000      7.8612      2.5386      0.0311      6.7489     78.5334     19.7882
  1103.8000      7.8848      2.5308      0.0657      7.2262     80.4325     19.5536
  1103.9000      7.8848      2.5246      0.0432      7.6010     80.4520     19.3566
  1104.0000      7.8863      2.5177      0.0566      8.0201     79.9240     19.6298
  1104.1000      7.8863      2.5085      0.0799      8.5777     77.8847     20.2824
  1104.2000      7.8863      2.4983     -0.0008      9.1966     74.7587     20.7714
  1104.3000      7.9047      2.4960      0.0361      9.3313     72.6038     20.9391
