~Version Information
VERS.                      2.0: CWLS Log ASCII Standard - VERSION 2.0
WRAP.                       NO: One line per depth step
~Well Information Block
STRT.FT               -16.2500: 
STOP.FT               938.7500: 
STEP.FT                 0.2500: 
NULL.                -999.2500: 
COMP.          XTO Energy Inc.: COMPANY
WELL.          Golden Eagle 20-04: WELL
FLD.           Purgatrorie River: FIELD
LOC.           702' FNL & 487' FWL--: LOCATION
STAT.                       CO: PROVINCE
CNTY.               Las Animas: COUNTY
CTRY. USA : Country
SECT. 20 : Section 
TOWN. 33S : Township
RANG. 67W : Range
SRVC.          Patterson Wireline: SERVICE COMPANY
DATE.          Mon Dec 05 10:32:54 2005: LOG DATE
API.           05 071 08599 00: UNIQUE WELL ID
~Curve Information Block
DEPT.FT            0 000 00 00: Depth
CCL.                          : Casing Collar Locator
TT3.usec                      : CBL 3' Travel Time
AMP3.mV                       : CBL 3' Amplitude
GR.GAPI                       : Gamma Ray
~Parameter Information Block
~A  Depth       CCL         TT3         AMP3         GR     
# ...
   787.7500      0.0000    675.4315      5.5278    138.4116
   788.0000      0.0000    674.4370      5.5056    140.7410
   788.2500      0.0000    674.0115      5.4769    141.3913
   788.5000      0.0000    672.0421      5.4481    138.7639
   788.7500      0.0000    664.8662      5.4241    133.1739
   789.0000      0.0000    649.4761      5.4009    126.9530
   789.2500      0.0000    626.6751      5.3634    123.1446
   789.5000      0.0000    602.7649      5.2907    123.5704
   789.7500      0.0000    587.2372      5.1643    127.7969
   790.0000      0.0000    587.1536      4.9795    133.6613
   790.2500      0.0000    602.4203      4.7527    138.6742
   790.5000      0.0000    625.7849      4.5139    141.3191
   790.7500      0.0000    647.6743      4.2834    141.6558
   791.0000      0.0000    662.0740      4.0524    140.7267
   791.2500      0.0000    668.8668      3.7897    139.1130
   791.5000      0.0000    671.5107      3.4716    136.2689
   791.7500      0.0000    673.1106      3.1125    131.3817
   792.0000      0.0000    674.4369      2.7657    124.4219
   792.2500      0.0000    674.7297      2.4901    116.3659
   792.5000      0.0000    673.5419      2.3096    109.0891
   792.7500      0.0000    671.6784      2.2001    104.8476
   793.0000      0.0000    670.5911      2.1154    104.5730
   793.2500      0.0000    671.0200      2.0258    106.1862
   793.5000      0.0000    672.3997      1.9325    105.6196
   793.7500      0.0000    673.6240      1.8535    100.2775
   794.0000      0.0000    674.1201      1.8027     91.1520
   794.2500      0.0000    674.0674      1.7811     81.4549
   794.5000      0.0000    673.8878      1.7802     73.7879
   794.7500      0.0000    673.8038      1.7895     68.7944
   795.0000      0.0000    673.7892      1.8003     65.8579
   795.2500      0.0000    673.7404      1.8056     64.4696
   795.5000      0.0000    673.6286      1.8030     64.7648
   795.7500      0.0000    673.5360      1.7999     67.0911
   796.0000      0.0000    673.5984      1.8109     71.5574
   796.2500      0.0000    673.9472      1.8469     77.8722
   796.5000      0.0000    674.6907      1.9071     85.2462
   796.7500      0.0000    675.8859      1.9830     92.5931
   797.0000      0.0000    677.4386      2.0659     99.0872
   797.2500      0.0000    679.0023      2.1477    104.2463
   797.5000      0.0000    680.0431      2.2110    107.4258
   797.7500      0.0000    680.1131      2.2298    107.7602
   798.0000      0.0000    679.1403      2.1880    104.8495
   798.2500      0.0000    677.5278      2.0950     99.3346
   798.5000      0.0000    676.0370      1.9808     92.7556
   798.7500      0.0000    675.6166      1.8764     86.7669
   799.0000      0.0000    677.2089      1.8007     82.1906
   799.2500      0.0000    681.2910      1.7585     78.5384
   799.5000      0.0000    687.0982      1.7461     74.4866
   799.7500      0.0000    692.3154      1.7559     69.1885
   800.0000      0.0000    694.1644      1.7796     63.2701
   800.2500      0.0000    691.3013      1.8103     58.3618
   800.5000      0.0000    684.5771      1.8474     55.7709
   800.7500      0.0000    675.8633      1.9012     55.8275
   801.0000      0.0000    666.5961      1.9872     58.4109
   801.2500      0.0000    657.7247      2.1117     63.7579
   801.5000      0.0000    650.3081      2.2634     72.5930
   801.7500      0.0000    645.1543      2.4174     85.4153
   802.0000      0.0000    642.0317      2.5493    101.5843
   802.2500      0.0000    640.0265      2.6479    119.0343
   802.5000      0.0000    638.6152      2.7262    134.8642
   802.7500      0.0000    637.8824      2.8299    146.3375
   803.0000      0.0000    637.8948      3.0255    151.7966
   803.2500      0.0000    638.3766      3.3535    151.3636
   803.5000      0.0000    638.9443      3.7785    147.0862
   803.7500      0.0000    639.3636      4.1970    141.9059
   804.0000      0.0000    639.5675      4.5080    138.1585
   804.2500      0.0000    639.5764      4.6759    137.0795
   804.5000      0.0000    639.4432      4.7283    139.0088
   804.7500      0.0000    639.2267      4.7156    143.0318
   805.0000      0.0000    638.9861      4.6806    146.7678
   805.2500      0.0000    638.7799      4.6493    147.7361
   805.5000      0.0000    638.6613      4.6337    145.3281
   805.7500      0.0000    638.6598      4.6377    141.1933
   806.0000      0.0000    638.7704      4.6609    137.7813
   806.2500      0.0000    638.9626      4.6969    136.5308
   806.5000      0.0000    639.1966      4.7306    137.1512
   806.7500      0.0000    639.4290      4.7447    138.4434
   807.0000      0.0000    639.6142      4.7311    139.5035
   807.2500      0.0000    639.7139      4.6939    139.9327
   807.5000      0.0000    639.7141      4.6428    139.4770
   807.7500      0.0000    639.6338      4.5838    138.2052
   808.0000      0.0000    639.5216      4.5164    136.6488
   808.2500      0.0000    639.4330      4.4395    135.0976
   808.5000      0.0000    639.3956      4.3564    132.9684
   808.7500      0.0000    639.3914      4.2740    129.4963
   809.0000      0.0000    639.3766      4.1965    125.1241
   809.2500      0.0000    639.3469      4.1210    121.6452
   809.5000      0.0000    639.4341      4.0403    120.5834
   809.7500      0.0000    640.0041      3.9505    121.8039
   810.0000      0.0000    641.6072      3.8572    123.9185
   810.2500      0.0000    644.5792      3.7730    125.3957
   810.5000      0.0000    648.5174      3.7103    124.9318
   810.7500      0.0000    652.3184      3.6732    121.5861
   811.0000      0.0000    654.9160      3.6544    115.3794
   811.2500      0.0000    655.8291      3.6397    107.6453
   811.5000      0.0000    655.0734      3.6143    100.6229
   811.7500      0.0000    653.1282      3.5698     96.7395
   812.0000      0.0000    651.1776      3.5082     97.5864
   812.2500      0.0000    650.8514      3.4373    102.6474
   812.5000      0.0000    653.2707      3.3579    109.0249
   812.7500      0.0000    658.2672      3.2545    113.1555
   813.0000      0.0000    664.6872      3.1081    113.2241
   813.2500      0.0000    671.6306      2.9178    109.9194
   813.5000      0.0000    679.2117      2.7083    105.1016
   813.7500      0.0000    687.6515      2.5185    100.2708
   814.0000      0.0000    695.7030      2.3857     96.2619
   814.2500      0.0000    700.6008      2.3311     93.5879
   814.5000      0.0000    700.0172      2.3542     92.4460
   814.7500      0.0000    694.0851      2.4403     92.5634
   815.0000      0.0000    685.3568      2.5754     93.4361
   815.2500      0.0000    676.8558      2.7500     94.8276
   815.5000      0.0000    670.3244      2.9537     97.0065
   815.7500      0.0000    665.8253      3.1713    100.4231
   816.0000      0.0000    662.2114      3.3856    105.0877
   816.2500      0.0000    658.1103      3.5901    110.2565
   816.5000      0.0000    653.1040      3.8029    114.7160
   816.7500      0.0000    647.9968      4.0580    117.3453
   817.0000      0.0000    643.8279      4.3672    117.6058
   817.2500      0.0000    640.9329      4.6922    115.8578
   817.5000      0.0000    639.0395      4.9679    113.4683
   817.7500      0.0000    637.8157      5.1527    112.4199
   818.0000      0.0000    637.1003      5.2542    114.1599
   818.2500      0.0000    636.8116      5.3113    118.3540
   818.5000      0.0000    636.8389      5.3581    122.9850
   818.7500      0.0000    637.0082      5.4029    125.9355
   819.0000      0.0000    637.1196      5.4322    126.2444
   819.2500      0.0000    637.0371      5.4305    123.9841
   819.5000      0.0000    636.7620      5.3974    119.8462
   819.7500      0.0000    636.4133      5.3494    115.1836
   820.0000      0.0000    636.1283      5.3060    111.5780
   820.2500      0.0000    635.9962      5.2734    109.7176
   820.5000      0.0000    636.0739      5.2448    109.0142
   820.7500      0.0000    636.4102      5.2154    108.6104
   821.0000      0.0000    637.0147      5.1936    108.5544
