~Version Information
VERS.                      2.0: CWLS Log ASCII Standard - VERSION 2.0
WRAP.                       NO: One line per depth step
~Well Information Block
STRT.FT               230.2000: 
STOP.FT              1518.7000: 
STEP.FT                 0.1000: 
NULL.                -999.2500: 
COMP.          Pioneer Natural Resources: COMPANY
WELL.          Mow 8-14-33-67 Tr: WELL
FLD.           Purgatoire River: FIELD
LOC.           2258' FNL & 929' FEL: LOCATION
PROV.                 Colorado: PROVINCE
CNTY.               Las Animas: COUNTRY
SRVC.                Patterson: SERVICE COMPANY
DATE.          Mon Jan 30 11:22:55 2006: LOG DATE
UWI.           05 071 08684 00: UNIQUE WELL ID
~Curve Information Block
DEPT.FT            0 000 00 00: Depth
DCAL.in                       : CDL Caliper
DPOR.pu                       : CDL Density Porosity
RHOB.g/cc                     : CDL Bulk Density
RHOC.g/cc                     : CDL Density Correction
GR.GAPI                       : Gamma Ray
~Parameter Information Block
~A  Depth       DCAL        DPOR        RHOB        RHOC         GR     
# ...
  1260.6000      7.8670      1.2361      2.6296      0.0887    101.7962
  1260.7000      7.8670      1.5317      2.6247      0.0574    108.3470
  1260.8000      7.8698      2.1928      2.6138      0.0617    109.9547
  1260.9000      7.8698      2.9391      2.6015      0.0532     99.8694
  1261.0000      7.8691      3.7761      2.5877      0.0359     86.9079
  1261.1000      7.8691      4.5806      2.5744      0.0390     88.0820
  1261.2000      7.8691      4.7944      2.5709     -0.0246    100.0032
  1261.3000      7.8664      3.9208      2.5853      0.0472    102.0953
  1261.4000      7.8664      3.0779      2.5992      0.1179     91.6927
  1261.5000      7.8674      3.5971      2.5906      0.0873     88.4376
  1261.6000      7.8674      5.1069      2.5657      0.0226     99.8888
  1261.7000      7.8674      6.7838      2.5381      0.0315    109.8226
  1261.8000      7.8660      8.2205      2.5144     -0.0240    105.2841
  1261.9000      7.8660      8.8144      2.5046      0.0041     95.9703
  1262.0000      7.8580      8.4899      2.5099      0.0440     95.1145
  1262.1000      7.8580      8.4069      2.5113      0.0751    102.0314
  1262.2000      7.8580      9.3930      2.4950      0.0542    109.7789
  1262.3000      7.8518     10.8029      2.4718      0.0420    116.4900
  1262.4000      7.8518     11.9212      2.4533      0.0333    124.0125
  1262.5000      7.8507     12.7741      2.4392      0.0380    132.6077
  1262.6000      7.8507     13.0868      2.4341      0.0209    138.2666
  1262.7000      7.8507     12.4213      2.4450      0.0510    134.5308
  1262.8000      7.8493     11.1527      2.4660      0.0977    126.5449
  1262.9000      7.8493      9.9202      2.4863      0.0871    124.3776
  1263.0000      7.8467      9.0878      2.5001      0.1002    122.4252
  1263.1000      7.8467      9.1525      2.4990      0.0846    113.7107
  1263.2000      7.8467     10.2438      2.4810      0.0959    105.3920
  1263.3000      7.8469     11.3893      2.4621      0.0610    109.7240
  1263.4000      7.8469     11.0694      2.4674      0.0305    130.0706
  1263.5000      7.8508      9.3492      2.4957      0.0707    152.4543
  1263.6000      7.8508      8.3238      2.5127      0.1190    161.1871
  1263.7000      7.8508      8.9144      2.5029      0.0820    153.8116
  1263.8000      7.8622      9.6580      2.4906      0.0572    139.9551
  1263.9000      7.8622      9.6206      2.4913      0.1093    135.0557
  1264.0000      7.8754      9.6534      2.4907      0.1103    139.3727
  1264.1000      7.8754     10.0994      2.4834      0.0683    139.4801
  1264.2000      7.8754      9.8621      2.4873      0.0525    130.5657
  1264.3000      7.8744      8.4673      2.5103      0.0765    119.5230
  1264.4000      7.8744      7.4965      2.5263      0.1102    120.5748
  1264.5000      7.8625      8.3088      2.5129      0.0361    133.3259
  1264.6000      7.8625     10.3388      2.4794      0.0247    138.5664
  1264.7000      7.8625     13.1819      2.4325      0.0371    127.7336
  1264.8000      7.8542     17.2199      2.3659      0.0091    112.4296
  1264.9000      7.8542     22.6606      2.2761     -0.0007    105.0722
  1265.0000      7.8498     29.6546      2.1607     -0.0005    106.9435
  1265.1000      7.8498     37.7239      2.0276     -0.0693    115.2651
  1265.2000      7.8498     45.1128      1.9056     -0.1617    124.9450
  1265.3000      7.8472     51.0628      1.8075     -0.1069    134.4319
  1265.4000      7.8472     56.8733      1.7116     -0.0851    136.9269
  1265.5000      7.8456     62.2789      1.6224     -0.1463    124.8555
  1265.6000      7.8456     65.5272      1.5688     -0.0466    105.1291
  1265.7000      7.8456     66.3880      1.5546     -0.0125     90.1779
  1265.8000      7.8455     64.9862      1.5777      0.0552     88.4495
  1265.9000      7.8455     61.2671      1.6391      0.1305     95.9190
  1266.0000      7.8570     56.2771      1.7214      0.1835     98.0287
  1266.1000      7.8570     51.6477      1.7978      0.2159     90.0335
  1266.2000      7.8570     47.8509      1.8605      0.1829     80.6604
  1266.3000      7.8943     44.2589      1.9197      0.1878     71.7772
  1266.4000      7.8943     41.2176      1.9699      0.1951     61.7327
  1266.5000      7.9195     39.9422      1.9910      0.1296     55.2071
  1266.6000      7.9195     40.5311      1.9812      0.0477     56.7536
  1266.7000      7.9195     42.4535      1.9495      0.0446     61.3864
  1266.8000      7.8913     45.9180      1.8924      0.0262     61.7325
  1266.9000      7.8913     50.6369      1.8145     -0.0532     62.4839
  1267.0000      7.8648     55.0673      1.7414     -0.0627     72.1375
  1267.1000      7.8648     58.3757      1.6868     -0.0382     85.6794
  1267.2000      7.8648     61.2401      1.6395      0.0335     88.5271
  1267.3000      7.8677     64.1451      1.5916     -0.0001     83.5537
  1267.4000      7.8677     66.5224      1.5524      0.0090     84.0088
  1267.5000      7.8867     67.7813      1.5316      0.0400     90.8271
  1267.6000      7.8867     67.7833      1.5316      0.0661     99.2144
  1267.7000      7.8867     66.5371      1.5521      0.0809    103.8216
  1267.8000      7.9248     63.9240      1.5953      0.0987    100.6456
  1267.9000      7.9248     59.7428      1.6642      0.1008     93.6257
  1268.0000      7.9512     54.1728      1.7561      0.1344     88.3967
  1268.1000      7.9512     47.8791      1.8600      0.1436     90.0161
  1268.2000      7.9512     41.4532      1.9660      0.1699     98.9457
  1268.3000      7.9168     35.2566      2.0683      0.1771    108.5315
  1268.4000      7.9168     29.7428      2.1592      0.1622    112.4712
  1268.5000      7.8603     25.6048      2.2275      0.1705    110.7998
  1268.6000      7.8603     22.8945      2.2722      0.1272    109.5698
  1268.7000      7.8603     21.0851      2.3021      0.1374    107.7871
  1268.8000      7.8180     20.2099      2.3165      0.1240    107.2138
  1268.9000      7.8180     20.0482      2.3192      0.0675    113.8843
  1269.0000      7.7979     19.5388      2.3276      0.0666    119.0526
  1269.1000      7.7979     17.9923      2.3531      0.0736    119.6145
  1269.2000      7.7979     15.6769      2.3913      0.0789    125.5591
  1269.3000      7.8006     13.5847      2.4259      0.1262    134.0795
  1269.4000      7.8006     12.3810      2.4457      0.1324    134.0623
  1269.5000      7.8098     11.6878      2.4572      0.1771    127.5552
  1269.6000      7.8098     11.3604      2.4626      0.2198    120.3234
  1269.7000      7.8098     11.6240      2.4582      0.1903    110.8373
  1269.8000      7.8087     11.9876      2.4522      0.1797    102.2379
  1269.9000      7.8087     11.7935      2.4554      0.1615    107.1989
  1270.0000      7.7992     10.6116      2.4749      0.1230    127.5912
  1270.1000      7.7992      8.4583      2.5104      0.1342    142.6764
  1270.2000      7.7992      6.5800      2.5414      0.1428    137.8283
  1270.3000      7.7892      6.3636      2.5450      0.1449    125.0692
  1270.4000      7.7892      7.8142      2.5211      0.1430    118.7974
  1270.5000      7.7816     10.1637      2.4823      0.1213    123.0017
  1270.6000      7.7816     12.9130      2.4369      0.1483    140.6822
  1270.7000      7.7816     15.2040      2.3991      0.0443    158.5308
  1270.8000      7.7816     15.6385      2.3920      0.0295    153.3818
  1270.9000      7.7816     14.4300      2.4119      0.1022    131.1210
  1271.0000      7.7859     12.9047      2.4371      0.0585    111.2631
  1271.1000      7.7859     11.3287      2.4631      0.0953    102.7243
  1271.2000      7.7859      9.8896      2.4868      0.1244    108.6378
  1271.3000      7.7892      9.3394      2.4959      0.1603    123.0301
  1271.4000      7.7892      9.6199      2.4913      0.1537    131.7624
  1271.5000      7.7800      9.7529      2.4891      0.1985    131.9365
  1271.6000      7.7800      9.1750      2.4986      0.1801    129.3457
  1271.7000      7.7800      7.8685      2.5202      0.1569    127.9375
