~Version Information
VERS.                      2.0: CWLS Log ASCII Standard - VERSION 2.0
WRAP.                       NO: One line per depth step
~Well Information Block
STRT.FT               410.0000: 
STOP.FT              1253.0000: 
STEP.FT                 0.1000: 
NULL.                -999.2500: 
COMP.          Petrogulf Corporation: COMPANY
WELL.           Parsons 15-23R: WELL
FLD.           Purgatorie River: FIELD
LOC.           2244' FSL & 1932' FWL: LOCATION
PROV.                 Colorado: PROVINCE
CNTY.               Las Animas: COUNTRY
SRVC.                Patterson: SERVICE COMPANY
DATE.          Mon Sep 12 10:28:25 2005: LOG DATE
UWI.                          : UNIQUE WELL ID
~Curve Information Block
DEPT.FT            0 000 00 00: Depth
DCAL.in                       : CDL Caliper
RHOB.g/cc                     : CDL Bulk Density
RHOC.g/cc                     : CDL Density Correction
DPOR.pu                       : CDL Density Porosity
GR.GAPI                       : Gamma Ray
NPOR.pu                       : Neutron Porosity
~Parameter Information Block
~A  Depth       DCAL        RHOB        RHOC        DPOR         GR         NPOR    
# ...
   736.4000      8.1770      2.2501      0.0721     24.2394    127.8701     31.9941
   736.5000      8.2044      2.2832      0.1515     22.2278    129.4822     32.3109
   736.6000      8.2044      2.3059      0.1609     20.8528    134.6940     32.4409
   736.7000      8.2044      2.3051      0.1657     20.9007    140.4778     32.4112
   736.8000      8.2292      2.2948      0.1890     21.5252    143.8592     32.2697
   736.9000      8.2292      2.2801      0.2062     22.4171    144.8844     32.1491
   737.0000      8.2210      2.2574      0.0998     23.7912    144.8125     32.1223
   737.1000      8.2210      2.2448      0.0510     24.5584    143.3858     32.0701
   737.2000      8.2210      2.2561      0.0947     23.8739    141.5779     31.9570
   737.3000      8.2107      2.2768      0.1007     22.6181    141.0180     31.9480
   737.4000      8.2107      2.2953      0.0700     21.4999    140.3712     32.0623
   737.5000      8.1960      2.3098      0.1058     20.6187    137.4973     32.1424
   737.6000      8.1960      2.3095      0.1109     20.6372    134.0046     32.1404
   737.7000      8.1960      2.2848      0.1023     22.1332    131.2113     32.1181
   737.8000      8.1889      2.2328      0.1387     25.2874    127.9741     32.1708
   737.9000      8.1889      2.1504      0.0775     30.2795    124.6519     32.3203
   738.0000      8.2124      2.0442      0.0500     36.7163    121.2412     32.4755
   738.1000      8.2124      1.9265     -0.0046     43.8474    118.0581     32.5807
   738.2000      8.2124      1.8007     -0.0302     51.4726    116.9831     32.6665
   738.3000      8.1824      1.6718     -0.1417     59.2833    115.2816     32.7465
   738.4000      8.1824      1.5639     -0.1641     65.8248    108.7903     32.8359
   738.5000      8.1626      1.4907     -0.0970     70.2578    100.5754     32.9937
   738.6000      8.1626      1.4423     -0.0821     73.1967     96.2895     33.1769
   738.7000      8.1626      1.4209     -0.0186     74.4903     97.0671     33.2918
   738.8000      8.2237      1.4436      0.0288     73.1151    100.7727     33.3591
   738.9000      8.2237      1.5093      0.0600     69.1332    103.2802     33.3686
   739.0000      8.3736      1.5978      0.0869     63.7679    102.0884     33.2607
   739.1000      8.3736      1.6976      0.0597     57.7185    101.9026     33.2558
   739.2000      8.3736      1.8095      0.1432     50.9411    106.1893     33.5235
   739.3000      8.3750      1.9276      0.1762     43.7807    111.1308     33.7538
   739.4000      8.3750      2.0451      0.2261     36.6615    113.7958     33.7300
   739.5000      8.2657      2.1584      0.2078     29.7963    117.5803     33.4150
   739.6000      8.2657      2.2575      0.2200     23.7899    124.5979     32.7644
   739.7000      8.2657      2.3282      0.1528     19.5042    129.9553     32.1250
   739.8000      8.1085      2.3692      0.1106     17.0182    132.4975     31.8130
   739.9000      8.1085      2.3869      0.1053     15.9431    136.1479     31.7138
   740.0000      8.0830      2.3836      0.1095     16.1442    139.4440     31.5775
   740.1000      8.0830      2.3745      0.0166     16.6954    141.4956     31.4362
   740.2000      8.0830      2.3846      0.0287     16.0848    144.3073     31.5012
   740.3000      8.1169      2.4108      0.0871     14.4956    146.2271     31.7669
   740.4000      8.1169      2.4316      0.0959     13.2334    145.2531     32.0236
   740.5000      8.1464      2.4441      0.1012     12.4818    142.0484     32.0448
   740.6000      8.1464      2.4538      0.0720     11.8894    138.5930     31.7385
   740.7000      8.1464      2.4614      0.0795     11.4292    137.0039     31.2570
   740.8000      8.1593      2.4718      0.0444     10.7983    138.7785     30.7938
   740.9000      8.1593      2.4847      0.0849     10.0202    147.2641     30.4473
   741.0000      8.1442      2.4885      0.0452      9.7898    159.6032     30.4518
   741.1000      8.1442      2.4844      0.0575     10.0384    166.6602     30.7991
   741.2000      8.1442      2.4830      0.0605     10.1189    166.6857     31.0026
   741.3000      8.0604      2.4909      0.0384      9.6403    164.5387     30.8026
   741.4000      8.0604      2.5101      0.0605      8.4807    160.4901     30.3272
   741.5000      8.0574      2.5316      0.0932      7.1752    152.7276     29.8571
   741.6000      8.0574      2.5411      0.1016      6.5977    143.9096     29.7289
   741.7000      8.0574      2.5334      0.0788      7.0663    140.3194     29.9015
   741.8000      8.0816      2.5154      0.0389      8.1582    143.3628     29.9627
   741.9000      8.0816      2.5048      0.0273      8.8005    147.7771     29.8405
   742.0000      8.0805      2.5118      0.0621      8.3751    150.0546     29.8667
   742.1000      8.0805      2.5237      0.0437      7.6565    149.9491     30.2369
   742.2000      8.0805      2.5289      0.0179      7.3365    147.8272     30.8418
   742.3000      8.0695      2.5309      0.0378      7.2162    146.5725     31.3048
   742.4000      8.0695      2.5282      0.0907      7.3829    146.5494     31.4104
   742.5000      8.1108      2.5166      0.0331      8.0874    145.5828     31.3900
   742.6000      8.1108      2.5021      0.0095      8.9626    145.6072     31.2999
   742.7000      8.1108      2.4858      0.0567      9.9541    147.7747     31.0356
   742.8000      8.1343      2.4608      0.0418     11.4662    149.4779     30.6699
   742.9000      8.1343      2.4323      0.0296     13.1925    150.0569     30.4153
   743.0000      8.2117      2.4069      0.0327     14.7312    152.2604     30.5425
   743.1000      8.2117      2.3819      0.0320     16.2477    154.7001     30.8605
   743.2000      8.2117      2.3574      0.0319     17.7318    153.7301     31.0835
   743.3000      8.2575      2.3380      0.0600     18.9112    153.7476     31.2973
   743.4000      8.2575      2.3187      0.0720     20.0782    160.9926     31.4617
   743.5000      8.2077      2.2858      0.0641     22.0710    170.9612     31.4532
   743.6000      8.2077      2.2351      0.0407     25.1455    174.9740     31.4691
   743.7000      8.2077      2.1819      0.0238     28.3723    174.7607     31.6920
   743.8000      8.1829      2.1457      0.0173     30.5613    177.0310     31.9223
   743.9000      8.1829      2.1299      0.0172     31.5229    182.3230     31.9663
   744.0000      8.2060      2.1285      0.0207     31.6059    187.8260     32.0423
   744.1000      8.2060      2.1401      0.0385     30.9046    193.8581     32.2291
   744.2000      8.2060      2.1598      0.0177     29.7119    200.6011     32.2567
   744.3000      8.1860      2.1749      0.0809     28.7923    204.0673     32.1068
   744.4000      8.1860      2.1802      0.0574     28.4743    203.6948     32.0362
   744.5000      8.2168      2.1883      0.0834     27.9824    204.8153     32.1457
   744.6000      8.2168      2.2034      0.0650     27.0680    206.9369     32.3121
   744.7000      8.2168      2.2094      0.0847     26.7013    205.5324     32.3843
   744.8000      8.2072      2.2018      0.0661     27.1642    202.0366     32.4010
   744.9000      8.2072      2.1964      0.0328     27.4906    197.1073     32.5292
   745.0000      8.1866      2.2041      0.0384     27.0254    187.8186     32.7431
   745.1000      8.1866      2.2213      0.0588     25.9826    174.1742     32.7202
   745.2000      8.1866      2.2428      0.0810     24.6788    158.5072     32.4001
   745.3000      8.2112      2.2671      0.0735     23.2042    143.2964     32.2603
   745.4000      8.2112      2.2957      0.0751     21.4752    131.8652     32.3946
   745.5000      8.2180      2.3274      0.1174     19.5518    125.8300     32.3214
   745.6000      8.2180      2.3635      0.1008     17.3659    122.8116     31.8854
   745.7000      8.2180      2.4044      0.1400     14.8860    120.1189     31.3298
   745.8000      8.1951      2.4318      0.1726     13.2233    117.1581     30.8990
   745.9000      8.1951      2.4286      0.1237     13.4156    112.9595     30.7946
