~Version Information
VERS.                      2.0: CWLS Log ASCII Standard - VERSION 2.0
WRAP.                       NO: One line per depth step
~Well Information Block
STRT.FT               240.0000: 
STOP.FT               713.7500: 
STEP.FT                 0.2500: 
NULL.                -999.2500: 
COMP.          Pioneer Natural Resources: COMPANY
WELL.           Belvedere 14-7: WELL
FLD.           Purgatorie River: FIELD
LOC.           786' FSL & 1283' FWL: LOCATION
PROV.                 Colorado: PROVINCE
CNTY.               Las Animas: COUNTRY
SRVC.                Patterson: SERVICE COMPANY
DATE.          Sun Nov 27 03:38:28 2005: LOG DATE
UWI.           05-071-08557               : UNIQUE WELL ID
~Curve Information Block
DEPT.FT            0 000 00 00: Depth
DIR.Ohm-m                     : IEL Induction Resistivity
GR.GAPI                       : Gamma Ray
~Parameter Information Block
~A  Depth       DIR          GR     
# ...
   574.5000     20.0798     98.0611
   574.7500     19.7411     94.5669
   575.0000     19.4389     91.3925
   575.2500     19.1476     93.3359
   575.5000     18.8391    103.1537
   575.7500     18.4960    112.4076
   576.0000     18.1175    125.5472
   576.2500     17.7193    131.8950
   576.5000     17.3274    137.3322
   576.7500     16.9713    138.8923
   577.0000     16.6794    139.0709
   577.2500     16.4768    137.9236
   577.5000     16.3835    134.6027
   577.7500     16.4136    131.9433
   578.0000     16.5727    129.4169
   578.2500     16.8554    130.0580
   578.5000     17.2459    134.9426
   578.7500     17.7223    139.4777
   579.0000     18.2638    145.0277
   579.2500     18.8575    146.9497
   579.5000     19.5021    147.4202
   579.7500     20.2092    146.4087
   580.0000     21.0019    142.2454
   580.2500     21.9119    136.8035
   580.5000     22.9700    123.7877
   580.7500     24.1932    112.6297
   581.0000     25.5684     95.4024
   581.2500     27.0378     85.5110
   581.5000     28.4924     74.6218
   581.7500     29.7804     69.8731
   582.0000     30.7407     65.5612
   582.2500     31.2500     64.0199
   582.5000     31.2637     63.2840
   582.7500     30.8273     63.9417
   583.0000     30.0559     67.0243
   583.2500     29.0969     70.5166
   583.5000     28.0947     77.7682
   583.7500     27.1659     84.0197
   584.0000     26.3874     95.7968
   584.2500     25.7929    104.9782
   584.5000     25.3759    118.9293
   584.7500     25.0992    126.8028
   585.0000     24.9110    134.3143
   585.2500     24.7643    136.1276
   585.5000     24.6330    135.4069
   585.7500     24.5168    134.0594
   586.0000     24.4327    132.6224
   586.2500     24.4037    132.1329
   586.5000     24.4505    130.4505
   586.7500     24.5903    127.2479
   587.0000     24.8352    117.4620
   587.2500     25.1894    107.6509
   587.5000     25.6423     90.4616
   587.7500     26.1636     79.5797
   588.0000     26.7032     67.2139
   588.2500     27.2000     62.2445
   588.5000     27.5981     58.8469
   588.7500     27.8637     58.1625
   589.0000     27.9919     57.6083
   589.2500     28.0016     56.9270
   589.5000     27.9237     55.4361
   589.7500     27.7902     54.5132
   590.0000     27.6283     53.9794
   590.2500     27.4580     54.5743
   590.5000     27.2907     57.4029
   590.7500     27.1305     60.5433
   591.0000     26.9782     65.8694
   591.2500     26.8362     68.5075
   591.5000     26.7113     69.2571
   591.7500     26.6136     67.6034
   592.0000     26.5493     63.8404
   592.2500     26.5144     62.0300
   592.5000     26.4948     61.9368
   592.7500     26.4725     63.3352
   593.0000     26.4350     65.6340
   593.2500     26.3786     66.2879
   593.5000     26.3071     65.8660
   593.7500     26.2277     65.3533
   594.0000     26.1494     65.4086
   594.2500     26.0822     66.2776
   594.5000     26.0362     68.8230
   594.7500     26.0198     71.1731
   595.0000     26.0376     74.9794
   595.2500     26.0889     77.1648
   595.5000     26.1688     79.3300
   595.7500     26.2701     79.9432
   596.0000     26.3849     79.4656
   596.2500     26.5046     78.2197
   596.5000     26.6186     75.8111
   596.7500     26.7148     74.6389
   597.0000     26.7829     74.0385
   597.2500     26.8208     73.9923
   597.5000     26.8372     73.6819
   597.7500     26.8477     73.3793
   598.0000     26.8647     73.2833
   598.2500     26.8895     73.4736
   598.5000     26.9135     73.8671
   598.7500     26.9244     74.2904
   599.0000     26.9144     75.6294
   599.2500     26.8839     76.9475
   599.5000     26.8420     78.5041
   599.7500     26.8038     78.3748
   600.0000     26.7866     75.6483
   600.2500     26.8034     72.6621
   600.5000     26.8559     68.6670
   600.7500     26.9308     67.5467
   601.0000     27.0039     68.9461
   601.2500     27.0503     71.6526
   601.5000     27.0557     77.0228
   601.7500     27.0209     80.2631
   602.0000     26.9582     82.5146
   602.2500     26.8835     81.6630
   602.5000     26.8111     77.2506
   602.7500     26.7517     72.9837
   603.0000     26.7110     66.2926
   603.2500     26.6902     62.7368
   603.5000     26.6874     60.2269
   603.7500     26.6980     60.5284
   604.0000     26.7125     62.7683
   604.2500     26.7111     64.6181
   604.5000     26.6641     67.1988
   604.7500     26.5443     68.6881
   605.0000     26.3449     70.3521
   605.2500     26.0905     70.8680
   605.5000     25.8294     70.6469
   605.7500     25.6134     70.0829
   606.0000     25.4771     69.1876
   606.2500     25.4265     68.5650
   606.5000     25.4425     66.8613
   606.7500     25.4934     64.8917
   607.0000     25.5504     61.2830
   607.2500     25.5984     59.1220
   607.5000     25.6382     56.5694
   607.7500     25.6829     54.9801
   608.0000     25.7518     52.5410
   608.2500     25.8638     51.2738
   608.5000     26.0318     50.6733
   608.7500     26.2599     51.2756
   609.0000     26.5432     53.6240
   609.2500     26.8713     56.0955
   609.5000     27.2315     60.9442
   609.7500     27.6114     64.7119
   610.0000     27.9997     70.4952
   610.2500     28.3818     73.6800
   610.5000     28.7364     75.8181
   610.7500     29.0373     75.0721
   611.0000     29.2641     71.8995
   611.2500     29.4149     69.7976
   611.5000     29.5099     68.2621
   611.7500     29.5809     68.1662
   612.0000     29.6517     67.9512
   612.2500     29.7236     67.0548
   612.5000     29.7729     64.4075
   612.7500     29.7659     62.1034
   613.0000     29.6816     58.7357
   613.2500     29.5266     57.1587
   613.5000     29.3284     56.3848
   613.7500     29.1128     56.6998
   614.0000     28.8861     57.4878
   614.2500     28.6358     57.9332
   614.5000     28.3492     58.6759
   614.7500     28.0304     59.3938
   615.0000     27.7012     60.6076
   615.2500     27.3905     61.1385
   615.5000     27.1229     61.0123
   615.7500     26.9171     60.4101
   616.0000     26.7879     59.4459
   616.2500     26.7471     59.0775
   616.5000     26.8012     58.8881
   616.7500     26.9451     58.9079
   617.0000     27.1586     59.4110
   617.2500     27.4039     60.3166
   617.5000     27.6289     62.3794
   617.7500     27.7752     63.5839
   618.0000     27.7908     63.5788
   618.2500     27.6443     61.8403
   618.5000     27.3354     57.2668
   618.7500     26.8963     54.0012
   619.0000     26.3827     50.6537
   619.2500     25.8586     49.9690
   619.5000     25.3823     50.9830
   619.7500     24.9948     52.5268
   620.0000     24.7133     55.5124
   620.2500     24.5297     57.8033
   620.5000     24.4153     61.4761
   620.7500     24.3323     63.8327
   621.0000     24.2451     66.6289
   621.2500     24.1299     67.6402
   621.5000     23.9775     67.6242
   621.7500     23.7918     66.8600
   622.0000     23.5886     65.6449
   622.2500     23.3961     65.3969
   622.5000     23.2514     66.1535
   622.7500     23.1936     66.9860
   623.0000     23.2514     67.6057
   623.2500     23.4353     67.3806
   623.5000     23.7354     66.9181
   623.7500     24.1268     67.1478
   624.0000     24.5807     68.3889
   624.2500     25.0750     69.3227
   624.5000     25.6002     69.9215
   624.7500     26.1568     69.4278
   625.0000     26.7477     67.1380
   625.2500     27.3707     64.6562
   625.5000     28.0159     60.0486
   625.7500     28.6679     57.0017
   626.0000     29.3090     53.6709
   626.2500     29.9184     52.6331
   626.5000     30.4713     52.5560
   626.7500     30.9409     53.0249
   627.0000     31.3067     53.6404
   627.2500     31.5646     53.5963
   627.5000     31.7270     52.7906
   627.7500     31.8140     52.1384
   628.0000     31.8392     51.5741
   628.2500     31.8021     51.3893
   628.5000     31.6902     50.9623
   628.7500     31.4875     50.6404
   629.0000     31.1853     50.6572
   629.2500     30.7900     51.1228
   629.5000     30.3232     52.1650
   629.7500     29.8157     52.8968
   630.0000     29.2981     53.9600
