~Version Information
VERS.                      2.0: CWLS Log ASCII Standard - VERSION 2.0
WRAP.                       NO: One line per depth step
~Well Information Block
STRT.FT               245.0000: 
STOP.FT              1102.5000: 
STEP.FT                 0.1000: 
NULL.                -999.2500: 
COMP.          Pioneer Natural Resources: COMPANY
WELL.           Pavilion 44-25: WELL
FLD.           Purgatoire River: FIELD
LOC.           719' FSL & 650' FEL: LOCATION
PROV.                 Colorado: PROVINCE
CNTY.               Las Animas: COUNTRY
SRVC.                Patterson: SERVICE COMPANY
DATE.          Wed Dec 14 09:57:07 2005: LOG DATE
UWI.           05 071 08624 00: UNIQUE WELL ID
~Curve Information Block
DEPT.FT            0 000 00 00: Depth
DCAL.in                       : CDL Caliper
RHOB.g/cc                     : CDL Bulk Density
RHOC.g/cc                     : CDL Density Correction
DPOR.pu                       : CDL Density Porosity
GR.GAPI                       : Gamma Ray
NPOR.pu                       : Neutron Porosity
~Parameter Information Block
~A  Depth       DCAL        RHOB        RHOC        DPOR         GR         NPOR    
# ...
   696.2000      8.0554      2.4639     -0.0262     11.2815     95.2993     21.0636
   696.3000      8.0547      2.4576     -0.0141     11.6593    100.2723     21.5195
   696.4000      8.0547      2.4647      0.0082     11.2327    103.3812     21.7840
   696.5000      8.0539      2.4806      0.0250     10.2691    104.3389     21.7798
   696.6000      8.0539      2.4910      0.0514      9.6351    105.9373     21.7864
   696.7000      8.0539      2.4886     -0.0001      9.7796    107.2175     22.2564
   696.8000      8.0545      2.4891      0.0110      9.7514    107.7246     22.8677
   696.9000      8.0545      2.5062      0.0169      8.7141    109.6063     22.7607
   697.0000      8.0610      2.5277      0.0801      7.4150    111.4393     21.9978
   697.1000      8.0610      2.5321      0.0881      7.1446    109.6674     21.6618
   697.2000      8.0610      2.5155      0.0757      8.1493    104.6740     22.1526
   697.3000      8.0539      2.4911      0.0217      9.6282    101.0696     22.7441
   697.4000      8.0539      2.4677      0.0969     11.0475    102.2885     22.7658
   697.5000      8.0540      2.4460      0.0002     12.3662    107.2600     22.5295
   697.6000      8.0540      2.4353     -0.0002     13.0115    112.1914     22.6105
   697.7000      8.0540      2.4397      0.0203     12.7457    115.3503     23.2549
   697.8000      8.0532      2.4553      0.0238     11.7971    117.6917     24.3671
   697.9000      8.0532      2.4815      0.0447     10.2099    119.3079     25.3685
   698.0000      8.0532      2.5124      0.0542      8.3420    120.9428     25.9019
   698.1000      8.0532      2.5343      0.1034      7.0146    122.6602     26.3933
   698.2000      8.0532      2.5386      0.1140      6.7518    121.9552     27.0308
   698.3000      8.0551      2.5358      0.0843      6.9228    118.0540     27.4378
   698.4000      8.0551      2.5380      0.1231      6.7873    112.0258     27.5582
   698.5000      8.0586      2.5350      0.1292      6.9696    106.0741     27.7988
   698.6000      8.0586      2.5134      0.0807      8.2769    106.7740     28.2486
   698.7000      8.0586      2.4868      0.0082      9.8894    114.0148     28.6831
   698.8000      8.0542      2.4740      0.0344     10.6678    119.2555     28.8014
   698.9000      8.0542      2.4682      0.0357     11.0210    117.8987     28.4174
   699.0000      8.0588      2.4609      0.0416     11.4629    111.8827     27.8528
   699.1000      8.0588      2.4630      0.0509     11.3321    105.8313     27.7597
   699.2000      8.0588      2.4804      0.0588     10.2814    102.4557     28.2371
   699.3000      8.0554      2.4985      0.0929      9.1847    103.4971     28.7215
   699.4000      8.0554      2.5122      0.0433      8.3544    108.9363     28.7969
   699.5000      8.0577      2.5303      0.1390      7.2560    114.7378     28.5305
   699.6000      8.0577      2.5502      0.1432      6.0495    115.9491     28.3199
   699.7000      8.0577      2.5678      0.1344      4.9848    111.6659     28.4265
   699.8000      8.0544      2.5770      0.1413      4.4262    107.4218     28.6896
   699.9000      8.0544      2.5725      0.1080      4.6985    108.2421     28.7375
   700.0000      8.0512      2.5650      0.0745      5.1487    111.1049     28.3899
   700.1000      8.0512      2.5649      0.1067      5.1576    111.7178     27.7982
   700.2000      8.0512      2.5670      0.0827      5.0292    114.1249     27.0295
   700.3000      8.0502      2.5642      0.0862      5.1978    119.4742     26.5866
   700.4000      8.0502      2.5604      0.0319      5.4289    124.7404     26.7891
   700.5000      8.0543      2.5610      0.0696      5.3942    129.8011     26.8942
   700.6000      8.0543      2.5586      0.0448      5.5388    133.4972     26.3823
   700.7000      8.0543      2.5518      0.0367      5.9491    132.5202     25.6846
   700.8000      8.0542      2.5491      0.0637      6.1156    126.0115     25.5225
   700.9000      8.0542      2.5511      0.0404      5.9935    120.5685     25.7195
   701.0000      8.0568      2.5540      0.0445      5.8153    120.5123     25.2373
   701.1000      8.0568      2.5534      0.0452      5.8517    118.9061     24.0650
   701.2000      8.0568      2.5458      0.0605      6.3122    114.1454     23.2708
   701.3000      8.0487      2.5307      0.0296      7.2288    113.1598     23.4338
   701.4000      8.0487      2.5116      0.0258      8.3905    113.6845     23.9659
   701.5000      8.0528      2.4927      0.0083      9.5332    112.8872     24.3276
   701.6000      8.0528      2.4732      0.0196     10.7129    117.8993     24.4904
   701.7000      8.0528      2.4520     -0.0025     12.0011    126.4102     24.2679
   701.8000      8.0541      2.4368     -0.0125     12.9204    127.5829     23.9180
   701.9000      8.0541      2.4315      0.0189     13.2421    123.6872     24.1016
   702.0000      8.0538      2.4323     -0.0166     13.1950    124.4186     24.5125
   702.1000      8.0538      2.4413      0.0343     12.6471    131.4429     24.4879
   702.2000      8.0538      2.4531      0.0853     11.9315    141.5802     24.2291
   702.3000      8.0553      2.4522      0.0362     11.9884    151.1317     24.1069
   702.4000      8.0553      2.4388      0.0268     12.8024    154.8808     24.1608
   702.5000      8.0534      2.4318      0.0279     13.2223    152.6509     24.3123
   702.6000      8.0534      2.4417      0.0919     12.6255    151.0976     24.3625
   702.7000      8.0534      2.4606      0.0894     11.4796    152.2458     24.3237
   702.8000      8.0533      2.4805      0.1127     10.2719    151.9511     24.5414
   702.9000      8.0533      2.4903      0.2089      9.6763    147.3555     25.0126
   703.0000      8.0524      2.4796      0.1727     10.3271    141.4815     25.4371
   703.1000      8.0524      2.4555      0.1201     11.7891    137.9456     25.9344
   703.2000      8.0524      2.4344      0.0732     13.0674    137.3615     26.5010
   703.3000      8.0549      2.4316      0.0453     13.2363    139.6360     26.7611
   703.4000      8.0549      2.4570      0.0704     11.6950    142.2882     26.5964
   703.5000      8.0537      2.5000      0.1382      9.0915    141.7974     26.1369
   703.6000      8.0537      2.5323      0.1501      7.1361    137.8016     25.3782
   703.7000      8.0537      2.5443      0.1379      6.4079    133.1469     24.5148
   703.8000      8.0511      2.5521      0.1403      5.9351    132.2298     23.7253
   703.9000      8.0511      2.5639      0.1956      5.2199    134.6184     23.1344
   704.0000      8.0538      2.5625      0.2169      5.3003    134.4999     22.8273
   704.1000      8.0538      2.5367      0.1461      6.8667    131.1452     22.7319
   704.2000      8.0538      2.5024      0.1327      8.9447    131.2918     22.7111
   704.3000      8.0544      2.4760      0.1299     10.5466    138.4223     22.5819
   704.4000      8.0544      2.4595      0.0776     11.5442    145.1968     22.6069
   704.5000      8.0550      2.4523      0.0834     11.9819    143.3640     22.9741
   704.6000      8.0550      2.4575      0.0967     11.6649    136.5428     23.2367
   704.7000      8.0550      2.4714      0.1496     10.8239    132.5905     23.2410
   704.8000      8.0553      2.4807      0.1500     10.2614    128.5862     23.3003
   704.9000      8.0553      2.4852      0.1773      9.9849    119.7012     23.4980
   705.0000      8.0543      2.4881      0.2173      9.8118    112.0591     23.5442
   705.1000      8.0543      2.4811      0.2002     10.2386    114.2768     23.2093
   705.2000      8.0543      2.4577      0.2211     11.6543    125.1608     22.4295
   705.3000      8.0536      2.4219      0.1292     13.8252    136.0746     21.3501
   705.4000      8.0536      2.3776      0.1599     16.5119    140.8068     20.5563
   705.5000      8.0543      2.3231      0.1450     19.8092    139.9552     20.5953
   705.6000      8.0543      2.2773      0.0737     22.5890    137.4125     21.2986
   705.7000      8.0543      2.2596      0.1299     23.6605    135.2308     21.9726
