~Version Information
VERS.                      2.0: CWLS Log ASCII Standard - VERSION 2.0
WRAP.                       NO: One line per depth step
~Well Information Block
STRT.FT                -7.5000: 
STOP.FT              1572.0000: 
STEP.FT                 0.2500: 
NULL.                -999.2500: 
COMP.          Pioneer Natural Resources: COMPANY
WELL.          Galloway 32-13 Tr: WELL
FLD.           Purgatoire River: FIELD
LOC.           --1910' FNL & 2002' FEL----: LOCATION
PROV.                       CO: PROVINCE
CNTY.               Las Animas: COUNTRY
SRVC.          Patterson Wireline: SERVICE COMPANY
DATE.          Thu Nov 17 12:46:45 2005: LOG DATE
UWI.           05 071 08608 00: UNIQUE WELL ID
~Curve Information Block
DEPT.FT            0 000 00 00: Depth
CCL.                          : Casing Collar Locator
TT3.usec                      : CBL 3' Travel Time
AMP3.mV                       : CBL 3' Amplitude
GR.GAPI                       : Gamma Ray
~Parameter Information Block
~A  Depth       CCL         TT3         AMP3         GR     
# ...
  1232.0000      0.0000    283.3482     50.0755     76.0860
  1232.2500      0.0000    283.3198     50.1745     74.2910
  1232.5000      0.0000    283.2955     50.2867     72.2486
  1232.7500      0.0000    283.2860     50.3514     71.4515
  1233.0000      0.0000    283.2962     50.3327     72.7414
  1233.2500      0.0000    283.3224     50.2389     75.5957
  1233.5000      0.0000    283.3570     50.1031     78.6680
  1233.7500      0.0000    283.3947     49.9430     81.0974
  1234.0000      0.0000    283.4376     49.7357     83.1843
  1234.2500      0.0000    283.4935     49.4286     85.7450
  1234.5000      0.0000    283.5719     48.9780     89.0515
  1234.7500      0.0000    283.6770     48.3835     92.5865
  1235.0000      0.0000    283.8051     47.6920     95.5396
  1235.2500      0.0000    283.9456     46.9717     97.2038
  1235.5000      0.0000    284.0852     46.2829     97.3537
  1235.7500      0.0000    284.2130     45.6639     96.8798
  1236.0000      0.0000    284.3229     45.1344     97.6285
  1236.2500      0.0000    284.4136     44.7023    100.6818
  1236.5000      0.0000    284.4874     44.3659    104.9160
  1236.7500      0.0000    284.5482     44.1122    108.0338
  1237.0000      0.0000    284.6006     43.9183    108.9358
  1237.2500      0.0000    284.6498     43.7551    108.4731
  1237.5000      0.0000    284.6999     43.5946    108.0350
  1237.7500      0.0000    284.7524     43.4161    108.1556
  1238.0000      0.0000    284.8062     43.2137    108.6444
  1238.2500      0.0000    284.8595     42.9982    109.2944
  1238.5000      0.0000    284.9108     42.7914    109.7824
  1238.7500      0.0000    284.9616     42.6117    109.1671
  1239.0000      0.0000    285.0165     42.4597    106.2809
  1239.2500      0.0000    285.0806     42.3212    100.7766
  1239.5000      0.0000    285.1516     42.1876     93.4061
  1239.7500      0.0000    285.2173     42.0690     85.2790
  1240.0000      0.0000    285.2627     41.9843     77.2767
  1240.2500      0.0000    285.2829     41.9392     70.1953
  1240.5000      0.0000    285.2857     41.9194     64.9896
  1240.7500      0.0000    285.2832     41.9058     62.5017
  1241.0000      0.0000    285.3143     41.8914     62.7315
  1241.2500      0.0000    285.5226     41.8664     64.3556
  1241.5000      0.0000    286.5589     41.7556     65.4171
  1241.7500      0.0000    290.3007     41.3408     64.9718
  1242.0000      0.0000    300.4023     40.2779     63.8512
  1242.2500      0.0000    320.7750     38.3450     63.4346
  1242.5000      0.0000    350.7374     35.7924     63.9182
  1242.7500      0.0000    380.7968     33.3284     64.2666
  1243.0000      0.0000    396.8424     31.5606     63.7124
  1243.2500      0.0000    392.0544     30.5284     62.6936
  1243.5000      0.0000    373.1447     29.9332     62.1876
  1243.7500      0.0000    352.9980     29.6209     62.7041
  1244.0000      0.0000    339.6030     29.6252     64.3392
  1244.2500      0.0000    333.2926     29.9278     67.4178
  1244.5000      2.0000    330.9882     30.4201     72.4578
  1244.7500     -2.0000    330.0036     31.0365     79.3627
  1245.0000      0.0000    328.7868     31.8413     86.8177
  1245.2500      0.0000    326.3268     33.0401     92.5800
  1245.5000      0.0000    321.9891     34.8691     94.5744
  1245.7500      0.0000    315.9208     37.3240     92.1854
  1246.0000      0.0000    309.2175     40.0337     86.8593
  1246.2500      0.0000    303.0718     42.5762     81.3302
  1246.5000      0.0000    297.8482     44.8206     77.7816
  1246.7500      0.0000    293.3019     46.7821     76.5051
  1247.0000      0.0000    289.4274     48.3278     76.3436
  1247.2500      0.0000    286.5782     49.2740     76.2028
  1247.5000      0.0000    284.9144     49.6505     75.7806
  1247.7500      0.0000    284.1657     49.6941     75.1739
  1248.0000      0.0000    283.9042     49.6445     74.5288
  1248.2500      0.0000    283.8266     49.6171     74.1704
  1248.5000      0.0000    283.8002     49.6168     74.4972
  1248.7500      0.0000    283.7909     49.5947     75.5434
  1249.0000      0.0000    283.7997     49.4954     76.7962
  1249.2500      0.0000    283.8318     49.2779     77.4554
  1249.5000      0.0000    283.8912     48.9205     76.9614
  1249.7500      0.0000    283.9789     48.4203     75.5282
  1250.0000      0.0000    284.0936     47.7901     74.1912
  1250.2500      0.0000    284.2315     47.0590     74.1384
  1250.5000      0.0000    284.3875     46.2702     75.7617
  1250.7500      0.0000    284.5587     45.4663     78.2038
  1251.0000      0.0000    284.7509     44.6689     79.8722
  1251.2500      0.0000    284.9756     43.8793     79.6757
  1251.5000      0.0000    285.2355     43.1109     77.9414
  1251.7500      0.0000    285.5069     42.4186     76.2437
  1252.0000      0.0000    285.7427     41.8853     76.3862
  1252.2500      0.0000    285.9010     41.5623     79.2131
  1252.5000      0.0000    285.9780     41.4208     83.9485
  1252.7500      0.0000    286.0101     41.3652     88.7946
  1253.0000      0.0000    286.0424     41.3015     92.5536
  1253.2500      0.0000    286.0974     41.1926     95.5793
  1253.5000      0.0000    286.1713     41.0522     99.0695
  1253.7500      0.0000    286.2532     40.9040    103.7053
  1254.0000      0.0000    286.3387     40.7535    108.9598
  1254.2500      0.0000    286.4300     40.5922    113.3000
  1254.5000      0.0000    286.5259     40.4184    115.0722
  1254.7500      0.0000    286.6173     40.2494    113.6375
  1255.0000      0.0000    286.6926     40.1114    109.9216
  1255.2500      0.0000    286.7500     40.0132    105.9413
  1255.5000      0.0000    286.8049     39.9332    103.6890
  1255.7500      0.0000    286.8976     39.8375    104.1995
  1256.0000      0.0000    287.1305     39.7051    107.4447
  1256.2500      0.0000    287.8780     39.5196    112.9361
  1256.5000      0.0000    290.1790     39.2240    120.1392
  1256.7500      0.0000    296.0212     38.6799    128.1417
  1257.0000      0.0000    307.5462     37.7034    135.4087
  1257.2500      0.0000    324.5801     36.2315    140.5378
  1257.5000      0.0000    342.4808     34.4843    143.0759
  1257.7500      0.0000    354.0862     32.8492    143.0687
  1258.0000      0.0000    355.4692     31.5361    140.3023
  1258.2500      0.0000    349.1836     30.4830    134.6761
  1258.5000      0.0000    341.1047     29.6434    126.9359
  1258.7500      0.0000    335.2592     29.1486    118.3518
  1259.0000      0.0000    332.2675     29.1002    109.8488
  1259.2500      0.0000    331.0596     29.3929    102.0246
  1259.5000      2.0000    330.5606     29.8322     95.7735
  1259.7500     -2.0000    330.0870     30.3085     92.0568
  1260.0000      0.0000    329.0927     30.8514     90.8861
  1260.2500      0.0000    326.9885     31.6317     91.0567
  1260.5000      0.0000    323.2737     32.9096     91.0711
  1260.7500      0.0000    317.8791     34.8407     90.1444
  1261.0000      0.0000    311.2569     37.3253     88.4019
  1261.2500      0.0000    304.1182     40.1336     86.3356
  1261.5000      0.0000    297.2193     43.0558     84.2114
  1261.7500      0.0000    291.3452     45.7951     82.0342
  1262.0000      0.0000    287.1226     47.9154     79.9159
  1262.2500      0.0000    284.6708     49.1167     78.2548
  1262.5000      0.0000    283.5721     49.4690     77.5308
  1262.7500      0.0000    283.2312     49.2876     77.9839
  1263.0000      0.0000    283.2084     48.8655     79.5398
  1263.2500      0.0000    283.2925     48.3506     82.3083
  1263.5000      0.0000    283.4134     47.7786     87.1866
  1263.7500      0.0000    283.5573     47.1379     95.2369
  1264.0000      0.0000    283.7198     46.4234    105.7872
  1264.2500      0.0000    283.8943     45.6621    115.7565
  1264.5000      0.0000    284.0717     44.9050    121.7173
  1264.7500      0.0000    284.2438     44.1933    122.3227
  1265.0000      0.0000    284.4097     43.5329    118.5056
  1265.2500      0.0000    284.5858     42.9033    112.4287
