~Version Information
VERS.                      2.0: CWLS Log ASCII Standard - VERSION 2.0
WRAP.                       NO: One line per depth step
~Well Information Block
STRT.FT                10.0000: 
STOP.FT              1458.0000: 
STEP.FT                 0.1000: 
NULL.                -999.2500: 
COMP.          Pioneer Natural Resources: COMPANY
WELL.            Bordeaux 42-2: WELL
FLD.           Purgatorie River: FIELD
LOC.           1963' FNL & 1148' FEL: LOCATION
PROV.                 Colorado: PROVINCE
CNTY.               Las Animas: COUNTRY
SRVC.                Patterson: SERVICE COMPANY
DATE.          Tue Nov 29 07:11:03 2005: LOG DATE
UWI.                          : UNIQUE WELL ID
~Curve Information Block
DEPT.FT            0 000 00 00: Depth
DCAL.in                       : CDL Caliper
RHOB.g/cc                     : CDL Bulk Density
RHOC.g/cc                     : CDL Density Correction
DPOR.pu                       : CDL Density Porosity
GR.GAPI                       : Gamma Ray
NPOR.pu                       : Neutron Porosity
~Parameter Information Block
~A  Depth       DCAL        RHOB        RHOC        DPOR         GR         NPOR    
# ...
  1152.4000      7.9221      2.5073      0.0347      8.6468     81.2188     17.3045
  1152.5000      7.9167      2.4830      0.0100     10.1222     83.6791     17.6303
  1152.6000      7.9167      2.4787      0.0471     10.3808     86.6810     18.1129
  1152.7000      7.9167      2.4816      0.0588     10.2075     87.0809     18.2906
  1152.8000      7.9286      2.4786      0.0622     10.3908     84.6033     18.0431
  1152.9000      7.9286      2.4659      0.0552     11.1562     81.2254     17.7745
  1153.0000      7.9389      2.4529      0.0217     11.9475     78.2335     17.7318
  1153.1000      7.9389      2.4574      0.0283     11.6732     76.2571     17.8836
  1153.2000      7.9389      2.4735      0.0904     10.6961     75.6416     18.2656
  1153.3000      7.9206      2.4785      0.0492     10.3912     76.2281     18.7475
  1153.4000      7.9206      2.4755      0.0471     10.5756     76.8586     18.9978
  1153.5000      7.9151      2.4789      0.0859     10.3699     75.7579     18.9261
  1153.6000      7.9151      2.4856      0.1126      9.9623     72.5593     18.7665
  1153.7000      7.9151      2.4915      0.0562      9.6089     69.0004     18.8118
  1153.8000      7.9018      2.5041      0.0567      8.8441     67.4102     18.9857
  1153.9000      7.9018      2.5275      0.0677      7.4272     68.9110     18.9454
  1154.0000      7.9025      2.5540      0.1196      5.8175     71.3917     18.6406
  1154.1000      7.9025      2.5704      0.1221      4.8234     72.1377     18.2390
  1154.2000      7.9025      2.5718      0.0799      4.7384     72.6549     17.8771
  1154.3000      7.9056      2.5665      0.0743      5.0607     74.2098     17.7395
  1154.4000      7.9056      2.5579      0.0502      5.5815     75.6197     17.8746
  1154.5000      7.9048      2.5404      0.0663      6.6424     77.3139     18.0767
  1154.6000      7.9048      2.5179      0.0157      8.0054     79.3937     18.1961
  1154.7000      7.9048      2.5041      0.0066      8.8439     81.6510     18.2960
  1154.8000      7.9156      2.4984      0.0277      9.1900     84.4574     18.4704
  1154.9000      7.9156      2.4928      0.0169      9.5257     86.8405     18.6830
  1155.0000      7.9518      2.4952      0.0180      9.3844     88.1004     18.9018
  1155.1000      7.9518      2.5118      0.0477      8.3785     87.7879     19.2621
  1155.2000      7.9518      2.5314      0.0571      7.1897     84.9158     19.6875
  1155.3000      7.9488      2.5387      0.0524      6.7447     80.6856     19.7635
  1155.4000      7.9488      2.5271      0.0495      7.4482     77.4030     19.4949
  1155.5000      7.9359      2.5036      0.0387      8.8717     76.6768     19.3790
  1155.6000      7.9359      2.4849      0.0559     10.0051     78.0734     19.5496
  1155.7000      7.9359      2.4809     -0.0086     10.2460     78.7237     19.5842
  1155.8000      7.9357      2.4872      0.0464      9.8674     77.6057     19.3549
  1155.9000      7.9357      2.4923      0.0250      9.5575     76.5944     19.1408
  1156.0000      7.9315      2.4904      0.0646      9.6700     76.8533     18.8455
  1156.1000      7.9315      2.4832      0.0588     10.1062     77.7031     18.3021
  1156.2000      7.9315      2.4819      0.0364     10.1880     77.3468     17.8630
  1156.3000      7.9283      2.4936      0.0404      9.4802     75.6700     17.7890
  1156.4000      7.9283      2.5082      0.0763      8.5940     75.2545     17.8474
  1156.5000      7.9214      2.5167      0.0580      8.0788     76.3040     17.6176
  1156.6000      7.9214      2.5181      0.1004      7.9939     76.5522     17.0458
  1156.7000      7.9214      2.5035      0.0794      8.8786     75.0737     16.6645
  1156.8000      7.9036      2.4659      0.0664     11.1594     73.6609     16.9115
  1156.9000      7.9036      2.4199     -0.0017     13.9425     75.3218     17.4553
  1157.0000      7.9126      2.3953     -0.0133     15.4343     79.3397     17.7895
  1157.1000      7.9126      2.4014      0.0298     15.0678     82.1335     17.9951
  1157.2000      7.9126      2.4204      0.0318     13.9127     81.8862     18.2568
  1157.3000      7.9203      2.4344      0.0873     13.0641     80.2515     18.4982
  1157.4000      7.9203      2.4433      0.0745     12.5244     80.0511     18.6251
  1157.5000      7.9041      2.4588      0.1105     11.5897     80.9030     18.7521
  1157.6000      7.9041      2.4781      0.1413     10.4209     78.8006     19.0992
  1157.7000      7.9041      2.4904      0.1630      9.6721     73.9483     19.6260
  1157.8000      7.8840      2.4937      0.1452      9.4729     71.6056     19.8496
  1157.9000      7.8840      2.4905      0.1397      9.6667     73.2619     19.5095
  1158.0000      7.9004      2.4859      0.0955      9.9431     74.8899     19.0227
  1158.1000      7.9004      2.4834      0.0933     10.0964     72.5441     18.7665
  1158.2000      7.9004      2.4833      0.0454     10.1022     67.5282     18.6002
  1158.3000      7.9038      2.4910      0.0576      9.6394     63.8489     18.4274
  1158.4000      7.9038      2.5108      0.0806      8.4346     62.1345     18.4250
  1158.5000      7.8800      2.5357      0.1066      6.9289     61.0820     18.4533
  1158.6000      7.8800      2.5482      0.1152      6.1697     60.7717     18.2577
  1158.7000      7.8800      2.5384      0.1082      6.7651     61.6579     18.0474
  1158.8000      7.8726      2.5149      0.0834      8.1876     62.1232     18.0599
  1158.9000      7.8726      2.4903      0.0691      9.6758     60.6154     18.0637
  1159.0000      7.8736      2.4683      0.0325     11.0126     59.1593     17.8441
  1159.1000      7.8736      2.4500      0.0423     12.1231     60.5752     17.5814
  1159.2000      7.8736      2.4376      0.0239     12.8698     63.6348     17.4399
  1159.3000      7.8825      2.4304      0.0193     13.3100     65.9793     17.3562
  1159.4000      7.8825      2.4264      0.0403     13.5544     68.1761     17.3084
  1159.5000      7.8674      2.4272      0.0378     13.5024     71.0079     17.4521
  1159.6000      7.8674      2.4344      0.0644     13.0671     74.1919     17.8290
  1159.7000      7.8674      2.4489      0.0791     12.1907     76.6354     18.4039
  1159.8000      7.8813      2.4740      0.0396     10.6661     77.1342     19.0765
  1159.9000      7.8813      2.5035      0.0883      8.8763     76.0103     19.5279
  1160.0000      7.8952      2.5196      0.1159      7.9019     75.0937     19.6142
  1160.1000      7.8952      2.5171      0.0937      8.0575     76.3123     19.6428
  1160.2000      7.8952      2.5105      0.1136      8.4570     80.7273     19.8439
  1160.3000      7.8773      2.5122      0.0782      8.3524     87.8012     20.0354
  1160.4000      7.8773      2.5153      0.1100      8.1622     95.3534     20.0716
  1160.5000      7.8666      2.5054      0.0769      8.7628    101.9551     20.1690
  1160.6000      7.8666      2.4841      0.0574     10.0555    109.5566     20.5309
  1160.7000      7.8666      2.4630      0.0267     11.3350    119.5731     20.9314
  1160.8000      7.8765      2.4518      0.0320     12.0114    129.0024     21.0770
  1160.9000      7.8765      2.4575      0.0578     11.6638    135.7276     21.0381
  1161.0000      7.9016      2.4808      0.0957     10.2538    141.0381     21.0745
  1161.1000      7.9016      2.5124      0.1044      8.3382    143.9674     21.4197
  1161.2000      7.9016      2.5366      0.1253      6.8738    143.3614     22.1044
  1161.3000      7.9217      2.5478      0.1092      6.1967    141.6484     22.8237
  1161.4000      7.9217      2.5554      0.1229      5.7311    140.5638     23.3468
  1161.5000      7.9288      2.5630      0.1467      5.2701    138.7028     23.6399
  1161.6000      7.9288      2.5634      0.1381      5.2456    136.3401     23.7793
  1161.7000      7.9288      2.5489      0.1908      6.1250    136.3315     23.9831
  1161.8000      7.9348      2.5186      0.1331      7.9665    138.9032     24.1923
  1161.9000      7.9348      2.4876      0.0461      9.8400    140.7296     24.1317
