~Version Information
VERS.                      2.0: CWLS Log ASCII Standard - VERSION 2.0
WRAP.                       NO: One line per depth step
~Well Information Block
STRT.FT                -4.0000: 
STOP.FT              1544.0000: 
STEP.FT                 0.2500: 
NULL.                -999.2500: 
COMP.          Pioneer Natural Resources: COMPANY
WELL.           Screamin 12-29: WELL
FLD.           Purgatoire River: FIELD
LOC.           2038' FNL & 612' FWL--: LOCATION
CNTY.               Las Animas: COUNTY
SRVC.                Patterson: SERVICE COMPANY
DATE.          Fri Apr 14 00:36:42 2006: LOG DATE
UWI.           05 071 08661 00: UNIQUE WELL ID
STAT.                 Colorado: STATE
~Curve Information Block
DEPT.FT            0 000 00 00: Depth
GR.GAPI                       : Gamma Ray
CCL.                          : Casing Collar Locator
TT3.usec                      : CBL 3' Travel Time
AMP3.mV                       : CBL 3' Amplitude
~Parameter Information Block
~A  Depth        GR         CCL         TT3         AMP3    
# ...
  1202.0000    121.3581      0.0000    647.0229      5.4974
  1202.2500    122.7711      0.0000    655.0441      5.4533
  1202.5000    126.9870      0.0000    664.4024      5.4330
  1202.7500    130.8727      0.0000    669.1639      5.4400
  1203.0000    135.9878      0.0000    674.1133      5.4599
  1203.2500    137.5671      0.0000    675.6406      5.4671
  1203.5000    136.8655      0.0000    674.6446      5.4556
  1203.7500    135.3858      0.0000    671.6940      5.4341
  1204.0000    133.9659      0.0000    664.7278      5.3967
  1204.2500    134.4510      0.0000    659.5849      5.3814
  1204.5000    137.5458      0.0000    653.3159      5.3920
  1204.7500    140.4421      0.0000    650.6886      5.4240
  1205.0000    143.6660      0.0000    648.7020      5.4976
  1205.2500    143.9188      0.0000    648.4162      5.5581
  1205.5000    141.6273      0.0000    650.3566      5.6823
  1205.7500    139.6138      0.0000    654.2864      5.8055
  1206.0000    137.9043      0.0000    664.9606      6.0542
  1206.2500    137.5684      0.0000    674.1088      6.2360
  1206.5000    136.4618      0.0000    686.4145      6.4659
  1206.7500    134.7009      0.0000    691.2013      6.5651
  1207.0000    131.5315      0.0000    692.0718      6.6355
  1207.2500    129.9489      0.0000    689.7082      6.6522
  1207.5000    128.3611      0.0000    685.5815      6.6766
  1207.7500    127.1898      0.0000    684.5082      6.7102
  1208.0000    124.8108      0.0000    687.1219      6.7921
  1208.2500    123.2517      0.0000    691.4794      6.8543
  1208.5000    122.2881      0.0000    700.3978      6.9090
  1208.7500    123.1854      0.0000    706.4678      6.8808
  1209.0000    126.7112      0.0000    711.8454      6.6915
  1209.2500    129.5029      0.0000    710.4866      6.4723
  1209.5000    132.0296      0.0000    699.6195      6.0823
  1209.7500    131.9093      0.0000    688.2309      5.8416
  1210.0000    129.6610      0.0000    670.5753      5.5749
  1210.2500    127.8194      0.0000    661.4965      5.4660
  1210.5000    126.6046      0.0000    654.8231      5.3898
  1210.7500    127.9388      0.0000    655.1266      5.3852
  1211.0000    134.1156      0.0000    660.5589      5.4240
  1211.2500    140.4557      0.0000    665.3056      5.4635
  1211.5000    150.2437      0.0000    670.1801      5.5193
  1211.7500    154.7964      0.0000    670.4302      5.5459
  1212.0000    156.7342      0.0000    666.0765      5.5636
  1212.2500    155.1978      0.0000    661.1993      5.5613
  1212.5000    150.6977      0.0000    654.0188      5.5492
  1212.7500    147.2811      0.0000    650.9523      5.5464
  1213.0000    142.7312      0.0000    650.5110      5.5662
  1213.2500    140.4995      0.0000    653.0941      5.6000
  1213.5000    138.5231      0.0000    660.0685      5.6787
  1213.7500    138.0638      0.0000    665.3747      5.7408
  1214.0000    138.7370      0.0000    671.5353      5.8242
  1214.2500    140.1687      0.0000    673.2161      5.8632
  1214.5000    143.5721      0.0000    671.3400      5.8994
  1214.7500    146.1946      0.0000    667.5549      5.9175
  1215.0000    149.1022      0.0000    659.6252      5.9442
  1215.2500    149.2385      0.0000    653.4200      5.9604
  1215.5000    145.4740      0.0000    641.6309      5.9825
  1215.7500    140.4172      0.0000    630.6651      6.0008
  1216.0000    130.5267      0.0000    609.3340      6.0394
  1216.2500    123.6033      0.0000    594.8093      6.0704
  1216.5000    114.5410      0.0000    581.4924      6.1213
  1216.7500    110.2230      0.0000    582.4973      6.1607
  1217.0000    107.4855      0.0000    598.9151      6.2300
  1217.2500    108.3435      0.0000    615.5026      6.2729
  1217.5000    112.4210      0.0000    639.0547      6.2900
  1217.7500    115.5748      0.0000    650.0469      6.2431
  1218.0000    118.5493      0.0000    658.7258      6.0676
  1218.2500    118.4253      0.0000    661.0612      5.8942
  1218.5000    114.5764      0.0000    662.2666      5.5973
  1218.7500    109.9572      0.0000    662.1839      5.4028
  1219.0000    101.3737      0.0000    661.4553      5.1576
  1219.2500     95.3615      0.0000    661.7245      5.0518
  1219.5000     86.9598      0.0000    665.7638      5.0289
  1219.7500     82.4682      0.0000    671.1021      5.1130
  1220.0000     79.0137      0.0000    680.1201      5.3274
  1220.2500     79.7610      0.0000    684.6361      5.4585
  1220.5000     86.1187     -2.0000    688.6338      5.5320
  1220.7500     93.6270      0.0000    691.0433      5.4778
  1221.0000    108.0865      0.0000    696.1231      5.2802
  1221.2500    118.0260      0.0000    699.1981      5.1250
  1221.5000    129.9384      0.0000    698.6952      4.9620
  1221.7500    134.7061      0.0000    693.4687      4.9400
  1222.0000    137.3656      0.0000    680.1630      5.0415
  1222.2500    137.2525      0.0000    669.6909      5.1755
  1222.5000    136.4339      0.0000    652.6284      5.4233
  1222.7500    136.3411      0.0000    639.6116      5.5849
  1223.0000    137.2659      0.0000    617.4296      5.7625
  1223.2500    138.2174      0.0000    602.2667      5.8194
  1223.5000    139.0871      0.0000    582.5612      5.8302
  1223.7500    138.8357      0.0000    573.4668      5.8171
  1224.0000    137.0988      0.0000    568.9932      5.8128
  1224.2500    135.1951      0.0000    573.4407      5.8291
  1224.5000    131.2304      0.0000    591.0220      5.8675
  1224.7500    127.5340      0.0000    607.7711      5.8894
  1225.0000    119.7416      0.0000    634.1053      5.9125
  1225.2500    113.1190      0.0000    649.0336      5.9291
  1225.5000    102.3614      0.0000    664.5097      5.9630
  1225.7500     95.5532      0.0000    670.2000      5.9806
  1226.0000     86.2756      0.0000    672.9915      5.9671
  1226.2500     80.3266      0.0000    671.6644      5.9248
  1226.5000     71.5087      0.0000    665.7893      5.8424
  1226.7500     66.2153      0.0000    660.1290      5.8036
  1227.0000     60.4709      0.0000    651.3267      5.7928
  1227.2500     58.4772      0.0000    646.6036      5.8097
  1227.5000     57.6380      0.0000    642.3549      5.8471
  1227.7500     57.7058      0.0000    641.2342      5.8737
  1228.0000     57.6287      0.0000    641.1082      5.9168
  1228.2500     57.2217      0.0000    641.4738      5.9456
  1228.5000     56.1649      0.0000    641.9934      5.9695
  1228.7500     55.4125      0.0000    642.0857      5.9573
  1229.0000     54.9621      0.0000    641.7175      5.8870
  1229.2500     55.4816      0.0000    641.2073      5.8178
  1229.5000     57.2757      0.0000    640.3151      5.7214
  1229.7500     58.5065      0.0000    639.7917      5.6804
  1230.0000     59.2507      0.0000    639.2692      5.6574
  1230.2500     58.7742      0.0000    639.1092      5.6585
  1230.5000     56.9352      0.0000    639.0674      5.6690
  1230.7500     55.3101      0.0000    639.0791      5.6772
  1231.0000     52.8851      0.0000    638.9774      5.6877
  1231.2500     51.6045      0.0000    638.7526      5.6896
  1231.5000     50.4262      0.0000    638.1479      5.6759
  1231.7500     50.0883      0.0000    637.6193      5.6536
  1232.0000     50.3043      0.0000    636.8434      5.6098
  1232.2500     51.0603      0.0000    636.5024      5.5860
  1232.5000     52.8270      0.0000    636.5836      5.5779
  1232.7500     53.8318      0.0000    637.2442      5.5936
  1233.0000     54.1702      0.0000    639.4391      5.6422
  1233.2500     53.6116      0.0000    641.6173      5.6895
  1233.5000     52.3350      0.0000    644.8685      5.7848
  1233.7500     51.6913      0.0000    645.9766      5.8595
  1234.0000     51.5155      0.0000    644.8763      5.9580
  1234.2500     51.8551      0.0000    642.6210      5.9914
  1234.5000     52.5254      0.0000    638.7748      5.9718
  1234.7500     52.8778      0.0000    636.8566      5.9201
  1235.0000     53.3560      0.0000    635.4917      5.8257
  1235.2500     53.6213      0.0000    635.4310      5.7761
