~Version Information
VERS.                      2.0: CWLS Log ASCII Standard - VERSION 2.0
WRAP.                       NO: One line per depth step
~Well Information Block
STRT.FT               310.0000: 
STOP.FT               815.0000: 
STEP.FT                 0.2500: 
NULL.                -999.2500: 
COMP.          Pioneer Natural Resources: COMPANY
WELL.           Weissach 32-32: WELL
FLD.           Purgatorie River: FIELD
LOC.           2193' FNL & 2256' FEL: LOCATION
STAT.                 Colorado: State
CNTY.               Las Animas: COUNTY
CTRY. USA : Country
SECT. 32 : Section
TOWN. 33S : Township
RANG. 65W : Range
SRVC.                Patterson: SERVICE COMPANY
DATE.          Mon Sep 26 09:20:51 2005: LOG DATE
API. 05-071-08523                         : UNIQUE WELL ID
~Curve Information Block
DEPT.FT            0 000 00 00: Depth
SN.Ohm-m                      : IEL Short Normal
SP.mV                         : IEL Spontaneous Potential
DIR.Ohm-m                     : IEL Induction Resistivity
GR.GAPI                       : Gamma Ray
~Parameter Information Block
~A  Depth        SN          SP         DIR          GR     
# ...
   343.5000   2000.0000   2000.0000     11.8414    152.9853
   343.7500   2000.0000   2000.0000     13.5228    141.3189
   344.0000   2000.0000   2000.0000     11.8582    126.5535
   344.2500   2000.0000   2000.0000     11.5674    120.2567
   344.5000   2000.0000   2000.0000     11.9403    123.3958
   344.7500   2000.0000   2000.0000     13.3464    121.8939
   345.0000   2000.0000   2000.0000     18.6067    116.7108
   345.2500   2000.0000   2000.0000     13.7369    121.8927
   345.5000   2000.0000   2000.0000     14.4149    140.8969
   345.7500   2000.0000   2000.0000     20.0642    152.0054
   346.0000   2000.0000   2000.0000     16.3336    139.8405
   346.2500   2000.0000   2000.0000     22.9553    143.3661
   346.5000   2000.0000   2000.0000     15.5719    156.6856
   346.7500   2000.0000   2000.0000     16.1824    133.6918
   347.0000   2000.0000   2000.0000     19.5100    136.3324
   347.2500   2000.0000   2000.0000     16.7328    108.9665
   347.5000   2000.0000   2000.0000     16.8193     71.1158
   347.7500   2000.0000   2000.0000     17.6687     90.0346
   348.0000   2000.0000   2000.0000     18.5298     83.5809
   348.2500   2000.0000   2000.0000     18.4567    106.9727
   348.5000   2000.0000   2000.0000     19.2356     91.1111
   348.7500   2000.0000   2000.0000     19.8850     94.2724
   349.0000   2000.0000   2000.0000     19.6466     90.5059
   349.2500   2000.0000   2000.0000     20.0415     77.0693
   349.5000   2000.0000   2000.0000     20.5619     77.6332
   349.7500   2000.0000   2000.0000     23.5992     80.4389
   350.0000   2000.0000   2000.0000     20.9381     96.5016
   350.2500   2000.0000   2000.0000     22.2823     98.0540
   350.5000   2000.0000   2000.0000     19.6757     93.8901
   350.7500   2000.0000   2000.0000     19.2763     97.9627
   351.0000   2000.0000   2000.0000     19.0681    103.3589
   351.2500   2000.0000   2000.0000     19.2644    103.4153
   351.5000   2000.0000   2000.0000     20.7673    125.9557
   351.7500   2000.0000   2000.0000     19.4680    122.3278
   352.0000   2000.0000   2000.0000     17.5873    103.0475
   352.2500   2000.0000   2000.0000     18.7747    102.3549
   352.5000   2000.0000   2000.0000     19.8360     91.4101
   352.7500   2000.0000   2000.0000     19.9016     98.2900
   353.0000   2000.0000   2000.0000     20.2379     92.7737
   353.2500   2000.0000   2000.0000     21.1226    102.2752
   353.5000   2000.0000   2000.0000     21.4859    105.4406
   353.7500   2000.0000   2000.0000     23.9069    101.3531
   354.0000   2000.0000   2000.0000     21.8766     99.6299
   354.2500   2000.0000   2000.0000     22.0415     97.1824
   354.5000   2000.0000   2000.0000     21.9994     96.0596
   354.7500   2000.0000   2000.0000     22.8179     91.7164
   355.0000   2000.0000   2000.0000     23.0835     89.6213
   355.2500   2000.0000   2000.0000     22.9554     97.8671
   355.5000   2000.0000   2000.0000     23.0788     93.6059
   355.7500   2000.0000   2000.0000     23.7318     84.9914
   356.0000   2000.0000   2000.0000     23.9575     92.7085
   356.2500   2000.0000   2000.0000     24.4514     86.0951
   356.5000   2000.0000   2000.0000     25.3133     92.7144
   356.7500   2000.0000   2000.0000     30.0240     86.2982
   357.0000   2000.0000   2000.0000     25.7813     83.4613
   357.2500   2000.0000   2000.0000     25.0823     97.5244
   357.5000   2000.0000   2000.0000     24.1190    109.0625
   357.7500   2000.0000   2000.0000     25.7571     93.1251
   358.0000   2000.0000   2000.0000     25.4011     77.4421
   358.2500   2000.0000   2000.0000     26.1082     83.4365
   358.5000   2000.0000   2000.0000     26.8544     92.4836
   358.7500   2000.0000   2000.0000     25.8990     80.4951
   359.0000   2000.0000   2000.0000     22.7863     68.8613
   359.2500   2000.0000   2000.0000     24.9520     67.0624
   359.5000   2000.0000   2000.0000     21.7189     59.6285
   359.7500   2000.0000   2000.0000     21.2025     66.3998
   360.0000   2000.0000   2000.0000     26.4558     65.4234
   360.2500   2000.0000   2000.0000     26.4881     66.7687
   360.5000   2000.0000   2000.0000     26.0303     60.9243
   360.7500   2000.0000   2000.0000     23.5557     63.2745
   361.0000   2000.0000   2000.0000     21.1240     73.8953
   361.2500   2000.0000   2000.0000     27.2833     68.8956
   361.5000   2000.0000   2000.0000     27.4761     64.8743
   361.7500   2000.0000   2000.0000     25.8256     71.8741
   362.0000   2000.0000   2000.0000     27.2315     49.7098
   362.2500   2000.0000   2000.0000     26.8824     46.2311
   362.5000   2000.0000   2000.0000     26.1708     55.4741
   362.7500   2000.0000   2000.0000     25.7581     69.0697
   363.0000   2000.0000   2000.0000     25.5901     63.7576
   363.2500   2000.0000   2000.0000     25.3340     56.1673
   363.5000   2000.0000   2000.0000     25.6520     45.6852
   363.7500   2000.0000   2000.0000     24.7773     55.8586
   364.0000   2000.0000   2000.0000     24.2380     44.5271
   364.2500   2000.0000   2000.0000     23.9966     49.6786
   364.5000   2000.0000   2000.0000     23.4857     69.8681
   364.7500   2000.0000   2000.0000     23.1424     75.8704
   365.0000   2000.0000   2000.0000     22.6738     89.6755
   365.2500   2000.0000   2000.0000     22.6999     93.3596
   365.5000   2000.0000   2000.0000     23.5134     88.6366
   365.7500   2000.0000   2000.0000     21.0821     91.9041
   366.0000   2000.0000   2000.0000     22.1152     94.9760
   366.2500   2000.0000   2000.0000     22.1423    121.0636
   366.5000   2000.0000   2000.0000     21.4615    108.6329
   366.7500   2000.0000   2000.0000     21.1383    125.5963
   367.0000   2000.0000   2000.0000     20.9017    118.0662
   367.2500   2000.0000   2000.0000     21.2818    117.2393
   367.5000   2000.0000   2000.0000     21.3281    124.3121
   367.7500   2000.0000   2000.0000     20.8627    122.0475
   368.0000   2000.0000   2000.0000     21.3168    111.8560
   368.2500   2000.0000   2000.0000     21.7430    116.8662
   368.5000   2000.0000   2000.0000     21.7789    116.0429
   368.7500   2000.0000   2000.0000     22.6262    105.4861
   369.0000   2000.0000   2000.0000     23.0872     91.7963
   369.2500   2000.0000   2000.0000     26.7441     88.2396
   369.5000   2000.0000   2000.0000     23.5054     92.7388
   369.7500   2000.0000   2000.0000     24.1953     85.0131
   370.0000   2000.0000   2000.0000     22.5529     88.3037
   370.2500   2000.0000   2000.0000     22.6503     99.7686
   370.5000   2000.0000   2000.0000     20.9326     99.6677
   370.7500   2000.0000   2000.0000     18.9308     91.3503
   371.0000   2000.0000   2000.0000     20.8376     88.4383
   371.2500   2000.0000   2000.0000     22.7939    103.7117
   371.5000   2000.0000   2000.0000     20.8236     92.3650
   371.7500   2000.0000   2000.0000     23.2683     95.2331
   372.0000   2000.0000   2000.0000     21.4170     83.9556
   372.2500   2000.0000   2000.0000     21.3729     76.0976
   372.5000   2000.0000   2000.0000     22.2750     99.3846
   372.7500   2000.0000   2000.0000     19.6575    102.5709
   373.0000   2000.0000   2000.0000     22.7241     89.9751
   373.2500   2000.0000   2000.0000     22.3554     77.1930
   373.5000   2000.0000   2000.0000     21.7160     92.6039
   373.7500   2000.0000   2000.0000     21.2676     90.6117
   374.0000   2000.0000   2000.0000     20.9366     90.0073
   374.2500   2000.0000   2000.0000     20.2431     86.6414
   374.5000   2000.0000   2000.0000     19.4608     97.9845
   374.7500   2000.0000   2000.0000     19.1389     89.0228
   375.0000   2000.0000   2000.0000     18.1533    101.1035
   375.2500   2000.0000   2000.0000     15.8896    120.3796
   375.5000   2000.0000   2000.0000     18.0072    127.6226
   375.7500   2000.0000   2000.0000     17.7950    112.1437
   376.0000   2000.0000   2000.0000     18.1937    131.6177
   376.2500   2000.0000   2000.0000     18.1970    137.0870
   376.5000   2000.0000   2000.0000     18.0148    113.4497
   376.7500   2000.0000   2000.0000     17.9494    114.2050
