~Version Information
VERS.                      2.0: CWLS Log ASCII Standard - VERSION 2.0
WRAP.                       NO: One line per depth step
~Well Information Block
STRT.FT                 0.0000: 
STOP.FT              1507.7500: 
STEP.FT                 0.2500: 
NULL.                -999.2500: 
COMP.          Pioneer Natural Resources: COMPANY
WELL.          Pioneer 34-27 Tr: WELL
FLD.           Purgatorie River: FIELD
LOC.           243' FSL & 1593' FEL: LOCATION
STAT.                 Colorado: State
CNTY.               Las Animas: COUNTY
CTRY. USA : Country
SECT. 27 : Section
TOWN. 32S : Township
RANG. 67W : Range
SRVC.                Patterson: SERVICE COMPANY
DATE.          Wed Oct 12 09:30:25 2005: LOG DATE
API.                          : UNIQUE WELL ID
~Curve Information Block
DEPT.FT            0 000 00 00: Depth
GR.GAPI                       : Gamma Ray
CCL.                          : Casing Collar Locator
TT3.usec                      : CBL 3' Travel Time
AMP3.mV                       : CBL 3' Amplitude
~Parameter Information Block
~A  Depth        GR         CCL         TT3         AMP3    
# ...
  1373.5000     68.1976      0.0000    404.3558     11.3002
  1373.7500     69.6228      0.0000    405.4457     11.3623
  1374.0000     70.8140      0.0000    406.7438     11.4486
  1374.2500     69.8283      0.0000    408.2047     11.5463
  1374.5000     65.6361      0.0000    409.5782     11.6345
  1374.7500     59.0633      0.0000    410.7462     11.6955
  1375.0000     51.8957      0.0000    412.6368     11.7271
  1375.2500     45.4446      0.0000    419.2504     11.7436
  1375.5000     40.1506      0.0000    438.7210     11.7581
  1375.7500     36.1640      0.0000    476.9576     11.7623
  1376.0000     33.7894      0.0000    527.5574     11.7415
  1376.2500     33.2087      0.0000    577.0350     11.7001
  1376.5000     33.9857      0.0000    618.5768     11.6729
  1376.7500     35.3010      0.0000    648.8076     11.7159
  1377.0000     36.9263      0.0000    663.8209     11.8724
  1377.2500     39.7193      0.0000    668.0029     12.1463
  1377.5000     44.8330      0.0000    670.8257     12.5029
  1377.7500     52.6054      0.0000    675.0994     12.8943
  1378.0000     62.5573      0.0000    678.5578     13.2915
  1378.2500     74.1582      0.0000    680.3094     13.6835
  1378.5000     87.0418      0.0000    680.1143     14.0764
  1378.7500    100.4521      0.0000    674.0095     14.5024
  1379.0000    112.8930      0.0000    653.3513     14.9837
  1379.2500    122.5482      0.0000    616.0740     15.4677
  1379.5000    128.1413      0.0000    582.7463     15.8307
  1379.7500    129.5839      0.0000    582.5056     15.9687
  1380.0000    127.9412      0.0000    614.3939     15.8842
  1380.2500    124.7639      0.0000    647.4827     15.6677
  1380.5000    121.2895      0.0000    661.0888     15.4122
  1380.7500    118.0151      0.0000    661.0054     15.1706
  1381.0000    114.8034      0.0000    659.9978     14.9531
  1381.2500    111.3845      0.0000    657.3253     14.7413
  1381.5000    107.8661      0.0000    637.8386     14.5300
  1381.7500    104.8596      0.0000    590.7713     14.3468
  1382.0000    103.2407      0.0000    529.6304     14.2242
  1382.2500    103.7546      0.0000    484.2174     14.1633
  1382.5000    106.5171      0.0000    471.5103     14.1208
  1382.7500    110.6073      0.0000    484.1885     14.0412
  1383.0000    114.2889      0.0000    499.8413     13.9148
  1383.2500    116.0274      0.0000    495.2727     13.7791
  1383.5000    115.4470      0.0000    465.2493     13.6609
  1383.7500    113.2501      0.0000    427.3576     13.5435
  1384.0000    110.3276      0.0000    400.9420     13.3932
  1384.2500    107.0360      0.0000    390.5450     13.2030
  1384.5000    103.2007      0.0000    390.0438     12.9994
  1384.7500     98.7525      0.0000    390.3871     12.8130
  1385.0000     94.3138      0.0000    385.0670     12.6605
  1385.2500     90.9526      0.0000    375.4658     12.5466
  1385.5000     89.3434      0.0000    369.9931     12.4801
  1385.7500     89.5039      0.0000    379.9143     12.4605
  1386.0000     91.4031      0.0000    417.6287     12.3871
  1386.2500     95.1550      0.0000    485.8707     12.0255
  1386.5000    100.1576      0.0000    561.6856     11.2841
  1386.7500    104.5612      0.0000    610.5419     10.5805
  1387.0000    106.3240      0.0000    620.2148     10.4419
  1387.2500    104.8873      0.0000    598.9457     10.6247
  1387.5000    101.5348      0.0000    554.7424     10.4962
  1387.7500     98.1923      0.0000    505.1430     10.0956
  1388.0000     96.2614      0.0000    485.5036      9.8470
  1388.2500     96.5619      0.0000    516.3004      9.8381
  1388.5000     99.5762      0.0000    572.4742      9.9439
  1388.7500    105.0365     -2.0000    608.1977     10.0825
  1389.0000    111.5162     -2.0000    606.7173     10.1925
  1389.2500    116.9982      0.0000    585.2662     10.3107
  1389.5000    119.9615      0.0000    561.8962     10.7673
  1389.7500    120.0236      0.0000    548.5596     11.8445
  1390.0000    117.9776      0.0000    561.5713     13.0705
  1390.2500    115.4174      0.0000    599.0634     13.7028
  1390.5000    113.8807      0.0000    629.1992     13.7788
  1390.7500    113.7634      0.0000    622.2007     13.7355
  1391.0000    114.0380      0.0000    575.1182     13.6735
  1391.2500    113.3307      0.0000    509.2475     13.5049
  1391.5000    111.1811      0.0000    452.8550     13.2220
  1391.7500    107.9668      0.0000    422.2964     12.8861
  1392.0000    103.9415      0.0000    420.5442     12.5637
  1392.2500     99.0544      0.0000    447.0482     12.3056
  1392.5000     93.8190      0.0000    498.7207     12.1474
  1392.7500     89.7454      0.0000    559.0408     12.1176
  1393.0000     88.3141      0.0000    600.3661     12.2158
  1393.2500     89.6155      0.0000    614.4629     12.3916
  1393.5000     92.4725      0.0000    622.4998     12.5931
  1393.7500     95.8876      0.0000    640.2846     12.8023
  1394.0000     99.8812      0.0000    660.9650     13.0075
  1394.2500    104.7700      0.0000    675.5939     13.1969
  1394.5000    109.9391      0.0000    683.7505     13.3846
  1394.7500    113.6999      0.0000    684.9031     13.6054
  1395.0000    114.6514      0.0000    675.4052     13.8775
  1395.2500    113.1657      0.0000    651.6235     14.2033
  1395.5000    111.3181      0.0000    609.6825     14.5975
  1395.7500    111.3117      0.0000    551.6455     15.0379
  1396.0000    113.8146      0.0000    498.8716     15.4103
  1396.2500    117.3543      0.0000    480.9779     15.6064
  1396.5000    119.3211      0.0000    500.4274     15.6214
  1396.7500    118.1542      0.0000    530.1210     15.5033
  1397.0000    114.7544      0.0000    548.2834     15.3108
  1397.2500    111.4631      0.0000    547.6364     15.1137
  1397.5000    109.6887      0.0000    520.5345     14.9363
  1397.7500    108.8373      0.0000    470.9478     14.7408
  1398.0000    107.4468      0.0000    424.8993     14.4973
  1398.2500    104.8105      0.0000    402.4909     14.2176
  1398.5000    101.2472      0.0000    399.2409     13.9196
  1398.7500     97.3248      0.0000    401.6768     13.6164
  1399.0000     93.6648      0.0000    402.8192     13.3473
  1399.2500     91.4438      0.0000    401.0646     13.1686
  1399.5000     92.1143      0.0000    395.7156     13.1013
  1399.7500     96.0595      0.0000    388.0091     13.1150
  1400.0000    101.9330      0.0000    381.4946     13.1648
  1400.2500    107.6046      0.0000    378.3699     13.2219
  1400.5000    111.3810      0.0000    378.0558     13.2655
  1400.7500    112.2857      0.0000    379.5224     13.2574
  1401.0000    110.0108      0.0000    383.2222     13.1504
  1401.2500    105.2673      0.0000    391.4114     12.9382
  1401.5000     99.9041      0.0000    407.1293     12.6783
  1401.7500     96.0269      0.0000    432.1717     12.4491
  1402.0000     94.7817      0.0000    464.8212     12.2765
  1402.2500     96.0264      0.0000    498.0216     12.1204
  1402.5000     98.7883      0.0000    522.6745     11.9499
  1402.7500    101.6291      0.0000    535.5779     11.7903
  1403.0000    103.0939      0.0000    540.5370     11.6809
  1403.2500    102.7476      0.0000    541.8691     11.6242
  1403.5000    101.8803      0.0000    540.1815     11.5909
  1403.7500    102.6344      0.0000    534.2202     11.5595
  1404.0000    106.1283      0.0000    525.4380     11.5364
  1404.2500    111.3280      0.0000    518.2360     11.5261
  1404.5000    115.6243      0.0000    515.2648     11.4641
  1404.7500    116.6880      0.0000    515.9068     11.1989
  1405.0000    114.1376      0.0000    519.9487     10.6067
  1405.2500    109.4395      0.0000    531.0024      9.7661
  1405.5000    104.1623      0.0000    554.9551      8.9913
  1405.7500     98.6347      0.0000    592.3939      8.6209
  1406.0000     92.4560      0.0000    633.1293      8.7110
  1406.2500     85.8654      0.0000    662.2125      9.0027
  1406.5000     80.1049      0.0000    671.3277      9.2381
  1406.7500     76.5573      0.0000    663.3716      9.3749
