~Version Information
VERS.                      2.0: CWLS Log ASCII Standard - VERSION 2.0
WRAP.                       NO: One line per depth step
~Well Information Block
STRT.FT               570.0000: 
STOP.FT              2094.0000: 
STEP.FT                 0.2500: 
NULL.                -999.2500: 
COMP.          XTO Energy Inc.: COMPANY
WELL.          Golden Eagle 19-10: WELL
FLD.           Purgatoire River: FIELD
LOC.           2684' FSL & 1825' FEL: LOCATION
CNTY.               Las Animas: COUNTY
CTRY.                      USA: COUNTRY
API.               05 071 08697:  
SRVC.                Patterson: SERVICE COMPANY
DATE.          Sun Mar 05 02:13:24 2006: LOG DATE
UWI.           05 071 08697 00: UNIQUE WELL ID
STAT.                 Colorado: STATE
~Curve Information Block
DEPT.FT            0 000 00 00: Depth
SP.mV                         : DIL Spontaneous Potential
RILD.Ohm-m                    : DIL Deep Resistivity
RILM.Ohm-m                    : DIL Medium Resistivity
RLL3.Ohm-m                    : DIL Shallow Resistivity
GR.GAPI                       : Gamma Ray
~Parameter Information Block
~A  Depth        SP         RILD        RILM        RLL3         GR     
# ...
  2054.0000     43.2936      5.6863      6.3211      6.7334    132.2418
  2054.2500     43.3178      5.6713      6.2284      6.3017    135.2045
  2054.5000     43.3407      5.6596      6.1652      5.9692    136.8448
  2054.7500     43.3608      5.6493      6.1326      5.8462    136.0166
  2055.0000     43.3804      5.6380      6.1283      5.9641    132.6853
  2055.2500     43.4009      5.6220      6.1466      6.2720    129.6599
  2055.5000     43.4270      5.5990      6.1802      6.6762    124.7277
  2055.7500     43.4670      5.5697      6.2210      7.0842    121.5870
  2056.0000     43.5217      5.5397      6.2617      7.4287    117.8254
  2056.2500     43.5744      5.5172      6.2967      7.6692    116.3709
  2056.5000     43.6015      5.5093      6.3231      7.7818    116.3986
  2056.7500     43.5942      5.5182      6.3403      7.7564    118.0372
  2057.0000     43.5636      5.5408      6.3501      7.6127    122.3365
  2057.2500     43.5294      5.5703      6.3549      7.4126    125.5760
  2057.5000     43.5069      5.5990      6.3573      7.2374    129.3364
  2057.7500     43.5028      5.6205      6.3590      7.1374    130.5327
  2058.0000     43.5156      5.6308      6.3599      7.1038    130.4484
  2058.2500     43.5368      5.6276      6.3590      7.0980    129.6208
  2058.5000     43.5534      5.6096      6.3540      7.1062    128.1091
  2058.7500     43.5536      5.5766      6.3426      7.1546    127.2593
  2059.0000     43.5330      5.5291      6.3224      7.2631    126.3414
  2059.2500     43.4971      5.4687      6.2913      7.3928    125.7050
  2059.5000     43.4641      5.3984      6.2476      7.4643    123.9567
  2059.7500     43.4642      5.3225      6.1899      7.4368    122.1248
  2060.0000     43.5273      5.2469      6.1176      7.3433    119.3603
  2060.2500     43.6594      5.1779      6.0314      7.2307    118.5063
  2060.5000     43.8302      5.1196      5.9340      7.0922    119.6522
  2060.7500     43.9887      5.0731      5.8300      6.8840    121.6691
  2061.0000     44.0925      5.0366      5.7254      6.5906    125.1303
  2061.2500     44.1259      5.0076      5.6272      6.2593    127.2336
  2061.5000     44.1025      4.9848      5.5419      5.9712    130.4774
  2061.7500     44.0518      4.9675      5.4749      5.7857    133.1598
  2062.0000     44.0006      4.9557      5.4298      5.7043    137.6766
  2062.2500     43.9601      4.9485      5.4079      5.6846    140.0491
  2062.5000     43.9301      4.9441      5.4082      5.6955    140.9749
  2062.7500     43.9071      4.9411      5.4281      5.7597    139.6894
  2063.0000     43.8860      4.9392      5.4633      5.9352    136.2083
  2063.2500     43.8591      4.9399      5.5091      6.2512    133.8473
  2063.5000     43.8194      4.9454      5.5608      6.6584    131.2219
  2063.7500     43.7672      4.9579      5.6144      7.0376    130.2603
  2064.0000     43.7066      4.9777      5.6669      7.2591    130.4529
  2064.2500     43.6369      5.0031      5.7165      7.2546    132.0039
  2064.5000     43.5494      5.0308      5.7617      7.0606    135.9287
  2064.7500     43.4368      5.0562      5.8014      6.8059    138.2839
  2065.0000     43.3043      5.0745      5.8333      6.6462    138.7742
  2065.2500     43.1715      5.0814      5.8543      6.6794    136.5344
  2065.5000     43.0629      5.0747      5.8602      6.8974    130.9328
  2065.7500     42.9963      5.0544      5.8472      7.2074    127.2800
  2066.0000     42.9750      5.0238      5.8131      7.4931    123.1127
  2066.2500     42.9857      4.9887      5.7589      7.6557    120.0870
  2066.5000     43.0030      4.9568      5.6899      7.6235    110.6652
  2066.7500     42.9965      4.9363      5.6146      7.3629     98.6341
  2067.0000     42.9412      4.9331      5.5438      6.9027     71.9371
  2067.2500     42.8291      4.9488      5.4878      6.3348     51.6508
  2067.5000     42.6805      4.9795      5.4556      5.7825     25.3441
  2067.7500     42.5446      5.0175      5.4529      5.3695     13.4665
  2068.0000     42.4831      5.0536      5.4822      5.2038      4.0439
  2068.2500     42.5431      5.0811      5.5419      5.3567      1.5188
  2068.5000     42.7364      5.0980      5.6272      5.8214      0.2641
  2068.7500     43.0361      5.1061      5.7302      6.4854      0.0666
  2069.0000     43.3879      5.1095      5.8414      7.1616      0.0041
  2069.2500     43.7318      5.1124      5.9505      7.6705   -999.2500
  2069.5000     44.0244      5.1189      6.0485      7.9190   -999.2500
  2069.7500     44.2508      5.1329      6.1287      7.9296   -999.2500
  2070.0000     44.4190      5.1577      6.1870      7.8099   -999.2500
  2070.2500     44.5474      5.1943      6.2220      7.6784   -999.2500
  2070.5000     44.6532      5.2391      6.2343      7.5887   -999.2500
  2070.7500     44.7491      5.2849      6.2257      7.5065   -999.2500
  2071.0000     44.8429      5.3229      6.1994      7.3598   -999.2500
  2071.2500     44.9373      5.3459      6.1597      7.1165   -999.2500
  2071.5000     45.0310      5.3503      6.1119      6.8220   -999.2500
  2071.7500     45.1206      5.3348      6.0622      6.5642   -999.2500
  2072.0000     45.2041      5.2987      6.0172      6.4042   -999.2500
  2072.2500     45.2803      5.2427      5.9833      6.3413   -999.2500
  2072.5000     45.3433      5.1703      5.9658      6.3322   -999.2500
  2072.7500     45.3775      5.0903      5.9689      6.3371   -999.2500
  2073.0000     45.3624      5.0152      5.9946      6.3575   -999.2500
  2073.2500     45.2883      4.9568      6.0428      6.4472   -999.2500
  2073.5000     45.1709      4.9218      6.1113      6.6755   -999.2500
  2073.7500     45.0470      4.9093      6.1954      7.0570   -999.2500
  2074.0000     44.9528      4.9130      6.2888      7.5103   -999.2500
  2074.2500     44.9039      4.9247      6.3839      7.9026   -999.2500
  2074.5000     44.8938      4.9380      6.4732      8.1395   -999.2500
  2074.7500     44.9049      4.9509      6.5494      8.2098   -999.2500
  2075.0000     44.9209      4.9642      6.6067      8.1548   -999.2500
  2075.2500     44.9319      4.9840      6.6403      8.0220   -999.2500
  2075.5000     44.9354      5.0088      6.6470      7.8512   -999.2500
  2075.7500     44.9358      5.0351      6.6251      7.6797   -999.2500
  2076.0000     44.9427      5.0642      6.5746      7.5324   -999.2500
  2076.2500     44.9673      5.0912      6.4972      7.4059   -999.2500
  2076.5000     45.0184      5.1101      6.3971      7.2669   -999.2500
  2076.7500     45.0994      5.1152      6.2804      7.0731   -999.2500
  2077.0000     45.2048      5.1040      6.1551      6.8046   -999.2500
  2077.2500     45.3176      5.0785      6.0297      6.4862   -999.2500
  2077.5000     45.4127      5.0464      5.9121      6.1795   -999.2500
  2077.7500     45.4668      5.0231      5.8088      5.9464   -999.2500
  2078.0000     45.4674      5.0349      5.7241      5.8207   -999.2500
  2078.2500     45.4104      5.1257      5.6602      5.8111   -999.2500
  2078.5000     45.2539      5.3662      5.6172      5.9140   -999.2500
  2078.7500     44.8040      5.8693      5.5939      6.1064   -999.2500
  2079.0000     43.5444      6.8143      5.5884      6.3301   -999.2500
  2079.2500     40.5933      8.5431      5.5983      6.5101   -999.2500
  2079.5000     35.1103     11.6679      5.6216      6.6030   -999.2500
  2079.7500     27.1424     17.3640      5.6562      6.6260   -999.2500
  2080.0000     18.1152     27.7084      5.7006      6.6379   -999.2500
  2080.2500     10.1486     45.3854      5.7537      6.6937   -999.2500
  2080.5000      4.6728     70.5922      5.8154      6.8062   -999.2500
  2080.7500      1.7417     96.2753      5.8870      6.9385   -999.2500
  2081.0000      0.5198    113.8616      5.9731      7.0332   -999.2500
  2081.2500      0.1231    124.2843      6.0832      7.0574   -999.2500
  2081.5000      0.0228    134.5384      6.2344      7.0231   -999.2500
  2081.7500      0.0030    152.1979      6.4542      6.9702   -999.2500
