~Version Information
VERS.                      2.0: CWLS Log ASCII Standard - VERSION 2.0
WRAP.                       NO: One line per depth step
~Well Information Block
STRT.FT                -6.5000: 
STOP.FT              1317.5000: 
STEP.FT                 0.2500: 
NULL.                -999.2500: 
COMP.          Pioneer Natural Resources: COMPANY
WELL.              Dicks 32-5R: WELL
FLD.           Purgatorie River: FIELD
LOC.           1485' FNL & 1684' FEL--: LOCATION
PROV.                       CO: PROVINCE
CNTY.               Las Animas: COUNTRY
SRVC.          Patterson Wireline: SERVICE COMPANY
DATE.          Tue Dec 13 09:33:22 2005: LOG DATE
UWI.           05 071 08596 00: UNIQUE WELL ID
~Curve Information Block
DEPT.FT            0 000 00 00: Depth
CCL.                          : Casing Collar Locator
TT3.usec                      : CBL 3' Travel Time
AMP3.mV                       : CBL 3' Amplitude
GR.GAPI                       : Gamma Ray
~Parameter Information Block
~A  Depth       CCL         TT3         AMP3         GR     
# ...
   965.0000      0.0000    446.9556     10.6011     98.4234
   965.2500      0.0000    456.2357     10.7522     94.3124
   965.5000      0.0000    455.0878     10.8882     87.7980
   965.7500      0.0000    451.9570     10.9602     80.1901
   966.0000      0.0000    455.7538     10.9725     73.1885
   966.2500      0.0000    468.1001     10.9682     67.7700
   966.5000      0.0000    483.5988     10.9796     64.0086
   966.7500      0.0000    496.1122     10.9999     61.6501
   967.0000      0.0000    502.9056     10.9992     60.6105
   967.2500      0.0000    503.9499     10.9590     60.8868
   967.5000      0.0000    500.0768     10.8836     62.1255
   967.7500      0.0000    492.6108     10.7898     63.5497
   968.0000      0.0000    483.8166     10.6932     64.3962
   968.2500      0.0000    476.9194     10.6017     64.1946
   968.5000      0.0000    475.1566     10.5198     62.5739
   968.7500      0.0000    480.0090     10.4542     59.3430
   969.0000      0.0000    489.6530     10.4128     55.1225
   969.2500      0.0000    498.8978     10.3941     51.5146
   969.5000      0.0000    501.4449     10.3849     50.1819
   969.7500      0.0000    494.3499     10.3673     51.6941
   970.0000      0.0000    481.6016     10.3280     55.1315
   970.2500      0.0000    471.9191     10.2597     58.6439
   970.5000      0.0000    470.8386     10.1597     60.6245
   970.7500      0.0000    475.1496     10.0302     60.7080
   971.0000      0.0000    476.7160      9.8847     59.6659
   971.2500      0.0000    472.5535      9.7557     58.4565
   971.5000      0.0000    470.3132      9.6840     57.6537
   971.7500      0.0000    481.3543      9.6902     57.7869
   972.0000      0.0000    506.5245      9.7595     59.7854
   972.2500      0.0000    531.4906      9.8553     64.5977
   972.5000      0.0000    540.1835      9.9367     72.1924
   972.7500      0.0000    530.8135      9.9661     81.1467
   973.0000      0.0000    514.3412      9.9143     89.5607
   973.2500      0.0000    501.6648      9.7648     96.4634
   973.5000      0.0000    499.5817      9.5119    102.2633
   973.7500      0.0000    514.6434      9.1645    107.8965
   974.0000      0.0000    550.5917      8.7615    113.6259
   974.2500      0.0000    601.7622      8.3694    118.7328
   974.5000      0.0000    655.0552      8.0355    122.2182
   974.7500      0.0000    698.9276      7.7474    123.3034
   975.0000      0.0000    728.1268      7.4621    121.1524
   975.2500      0.0000    742.2305      7.1824    114.9138
   975.5000      0.0000    743.4672      6.9840    104.5912
   975.7500      0.0000    735.9526      6.9545     91.6278
   976.0000      0.0000    725.3256      7.1121     78.4288
   976.2500      0.0000    718.5276      7.3917     67.4855
   976.5000      0.0000    721.8474      7.7044     60.8115
   976.7500      0.0000    736.2377      7.9986     59.5341
   977.0000      0.0000    755.1935      8.2657     63.4701
   977.2500      0.0000    769.7913      8.5105     71.1777
   977.5000      0.0000    774.9331      8.7375     80.8632
   977.7500      0.0000    769.1781      8.9688     91.4469
   978.0000      0.0000    750.4985      9.2582    102.5077
   978.2500      0.0000    715.1673      9.6617    113.3002
   978.5000      0.0000    662.3339     10.1788    122.5733
   978.7500      0.0000    600.4119     10.7248    129.5814
   979.0000      0.0000    548.2150     11.1737    134.4785
   979.2500      0.0000    526.5336     11.4328    137.4917
   979.5000      0.0000    545.0254     11.4769    138.6530
   979.7500      0.0000    595.5020     11.3323    138.5043
   980.0000      0.0000    656.9719     11.0520    137.9700
   980.2500      0.0000    707.5723     10.7026    137.2766
   980.5000      0.0000    734.6382     10.3486    135.7360
   980.7500      0.0000    737.5576     10.0362    132.7283
   981.0000      0.0000    723.3644      9.7956    128.5695
   981.2500      0.0000    698.3570      9.6542    124.4084
   981.5000      0.0000    661.9153      9.6371    121.2479
   981.7500      0.0000    609.5956      9.7498    118.9888
   982.0000      0.0000    543.3026      9.9647    116.5413
   982.2500      0.0000    475.3296     10.2286    112.7785
   982.5000      0.0000    420.3059     10.4897    107.2482
   982.7500      0.0000    385.7607     10.7200    100.4567
   983.0000      0.0000    372.4438     10.9068     93.9718
   983.2500      0.0000    380.0982     11.0289     89.9889
   983.5000      0.0000    407.6231     11.0654     90.0872
   983.7500      0.0000    446.7557     11.0393     93.8647
   984.0000      0.0000    480.5660     11.0257     98.8067
   984.2500      0.0000    493.4575     11.0816    102.0983
   984.5000      0.0000    483.2962     11.1758    103.0490
   984.7500      0.0000    462.3483     11.2154    103.4423
   985.0000      0.0000    447.7004     11.1393    105.2473
   985.2500      0.0000    452.1156     10.9391    108.4264
   985.5000      0.0000    481.4021     10.5808    111.1328
   985.7500      0.0000    535.3575      9.9718    111.3593
   986.0000      0.0000    607.4091      9.0769    108.2890
   986.2500      0.0000    684.3306      8.0533    102.8983
   986.5000      0.0000    751.0912      7.2039     97.4067
   986.7500      0.0000    799.5253      6.7586     93.3807
   987.0000      0.0000    832.5485      6.6995     90.3118
   987.2500     -2.0000    858.6492      6.7988     86.6877
   987.5000      2.0000    881.3057      6.8125     82.2958
   987.7500      0.0000    894.2119      6.6361     78.8161
   988.0000      0.0000    888.2198      6.3335     78.2044
   988.2500      0.0000    862.4445      6.0698     81.0130
   988.5000      0.0000    826.2469      5.9915     86.1564
   988.7500      0.0000    789.8444      6.1156     91.6516
   989.0000      0.0000    755.3646      6.3401     95.4761
   989.2500      0.0000    718.4657      6.5773     96.3360
   989.5000      0.0000    676.8312      6.8378     94.1429
   989.7500      0.0000    634.5143      7.1595     89.8923
   990.0000      0.0000    597.3361      7.5089     85.2811
   990.2500      0.0000    566.9323      7.8022     82.4044
   990.5000      0.0000    542.4819      7.9917     83.1336
   990.7500      0.0000    526.3403      8.0886     88.0416
   991.0000      0.0000    523.3422      8.1217     95.8811
   991.2500      0.0000    534.2958      8.1084    104.4673
   991.5000      0.0000    552.5725      8.0561    112.0191
   991.7500      0.0000    568.1520      7.9664    117.6480
   992.0000      0.0000    575.1611      7.8345    121.1187
   992.2500      0.0000    574.9843      7.6586    122.5113
   992.5000      0.0000    571.6361      7.4547    121.9023
   992.7500      0.0000    565.8163      7.2623    119.3182
   993.0000      0.0000    555.8433      7.1300    115.2645
   993.2500      0.0000    544.0237      7.0834    111.1759
   993.5000      0.0000    539.4042      7.1042    108.6337
   993.7500      0.0000    552.3099      7.1431    107.7268
   994.0000      0.0000    585.4662      7.1638    106.6682
   994.2500      0.0000    630.3812      7.1718    103.6756
   994.5000      0.0000    672.7889      7.1979     99.1676
   994.7500      0.0000    702.2306      7.2560     95.4551
   995.0000      0.0000    717.0049      7.3220     94.0824
   995.2500      0.0000    721.4562      7.3583     94.2667
   995.5000      0.0000    720.4579      7.3589     94.3898
   995.7500      0.0000    716.9541      7.3632     94.1647
   996.0000      0.0000    713.1677      7.4242     94.5490
   996.2500      0.0000    711.7861      7.5694     96.1881
   996.5000      0.0000    714.7713      7.7943     98.9859
   996.7500      0.0000    721.3100      8.0779    102.9276
   997.0000      0.0000    727.9590      8.3918    108.2027
   997.2500      0.0000    731.4396      8.6963    114.2342
   997.5000      0.0000    730.9697      8.9398    119.3888
   997.7500      0.0000    726.8041      9.0664    122.2263
   998.0000      0.0000    716.3318      9.0313    122.6758
   998.2500      0.0000    693.4059      8.8280    121.5695
