~Version Information
VERS.                      2.0: CWLS Log ASCII Standard - VERSION 2.0
WRAP.                       NO: One line per depth step
~Well Information Block
STRT.FT               875.0000: 
STOP.FT              2947.2500: 
STEP.FT                 0.2500: 
NULL.                -999.2500: 
COMP.          Pioneer Natural Resources: COMPANY
WELL.          Hanginstone 21-27: WELL
FLD.           Purgatoire River: FIELD
LOC.           1186' FNL & 1606' FWL--: LOCATION
PROV.                 Colorado: PROVINCE
CNTY.               Las Animas: COUNTRY
SRVC.                Patterson: SERVICE COMPANY
DATE.          Sat Jan 07 09:06:14 2006: LOG DATE
UWI.           05 071 08632 00: UNIQUE WELL ID
~Curve Information Block
DEPT.FT            0 000 00 00: Depth
SN.Ohm-m                      : IEL Short Normal
SP.mV                         : IEL Spontaneous Potential
DIR.Ohm-m                     : IEL Induction Resistivity
GR.GAPI                       : Gamma Ray
~Parameter Information Block
~A  Depth        SN          SP         DIR          GR     
# ...
  1277.0000     21.3504   -159.2816     16.8482    128.7528
  1277.2500     21.0589   -160.4785     17.1563    121.1826
  1277.5000     20.6446   -161.6708     17.4977    107.8039
  1277.7500     20.2173   -162.7357     17.8419     98.8573
  1278.0000     19.8880   -163.5500     18.1410     87.9902
  1278.2500     19.7092   -164.0117     18.3324     83.4464
  1278.5000     19.6477   -164.0584     18.3512     80.9035
  1278.7500     19.6151   -163.6802     18.1520     81.6507
  1279.0000     19.5269   -162.9203     17.7293     85.6344
  1279.2500     19.3389   -161.8653     17.1212     89.6279
  1279.5000     19.0439   -160.6269     16.3926     96.0580
  1279.7500     18.6556   -159.3202     15.6098     99.5691
  1280.0000     18.2007   -158.0451     14.8240    102.6302
  1280.2500     17.7050   -156.8727     14.0682    103.4048
  1280.5000     17.1765   -155.8419     13.3643    104.0932
  1280.7500     16.6044   -154.9609     12.7314    105.2000
  1281.0000     15.9817   -154.2157     12.1894    108.8358
  1281.2500     15.3267   -153.5790     11.7565    112.5069
  1281.5000     14.6871   -153.0203     11.4427    118.7148
  1281.7500     14.1170   -152.5134     11.2462    122.4662
  1282.0000     13.6445   -152.0423     11.1542    126.8254
  1282.2500     13.2512   -151.6040     11.1480    129.1152
  1282.5000     12.8885   -151.2076     11.2104    132.2877
  1282.7500     12.5240   -150.8706     11.3296    134.2439
  1283.0000     12.1897   -150.6130     11.5005    136.4391
  1283.2500     11.9924   -150.4503     11.7226    137.3673
  1283.5000     12.0705   -150.3875     11.9955    138.6160
  1283.7500     12.5235   -150.4152     12.3136    139.5293
  1284.0000     13.3519   -150.5104     12.6622    139.8512
  1284.2500     14.4374   -150.6396     13.0158    138.2258
  1284.5000     15.5687   -150.7655     13.3434    132.3439
  1284.7500     16.5098   -150.8537     13.6180    127.1004
  1285.0000     17.0942   -150.8785     13.8251    120.4078
  1285.2500     17.2937   -150.8261     13.9640    118.4023
  1285.5000     17.2063   -150.6962     14.0407    120.1902
  1285.7500     16.9700   -150.4999     14.0595    123.9420
  1286.0000     16.6779   -150.2571     14.0166    130.7328
  1286.2500     16.3574   -149.9930     13.9043    134.3800
  1286.5000     16.0049   -149.7346     13.7212    137.0259
  1286.7500     15.6269   -149.5079     13.4811    137.0568
  1287.0000     15.2551   -149.3358     13.2128    135.8086
  1287.2500     14.9329   -149.2360     12.9517    134.8725
  1287.5000     14.6919   -149.2201     12.7292    133.8959
  1287.7500     14.5366   -149.2933     12.5683    133.4639
  1288.0000     14.4446   -149.4542     12.4798    132.6860
  1288.2500     14.3799   -149.6963     12.4607    131.7522
  1288.5000     14.3103   -150.0091     12.4928    129.2490
  1288.7500     14.2240   -150.3802     12.5466    126.7952
  1289.0000     14.1336   -150.7961     12.5923    122.5679
  1289.2500     14.0640   -151.2428     12.6122    120.1506
  1289.5000     14.0314   -151.7043     12.6064    118.5432
  1289.7500     14.0294   -152.1600     12.5870    119.3009
  1290.0000     14.0319   -152.5831     12.5673    122.9191
  1290.2500     14.0078   -152.9393     12.5522    126.1523
  1290.5000     13.9369   -153.1915     12.5351    130.2042
  1290.7500     13.8200   -153.3054     12.5015    131.4178
  1291.0000     13.6764   -153.2601     12.4349    130.5450
  1291.2500     13.5293   -153.0556     12.3254    128.5939
  1291.5000     13.3912   -152.7178     12.1756    125.0478
  1291.7500     13.2634   -152.2976     12.0011    123.0591
  1292.0000     13.1463   -151.8618     11.8263    120.9795
  1292.2500     13.0474   -151.4807     11.6764    119.8547
  1292.5000     12.9783   -151.2128     11.5713    118.3327
  1292.7500     12.9463   -151.0918     11.5237    117.8379
  1293.0000     12.9494   -151.1194     11.5391    118.5034
  1293.2500     12.9799   -151.2657     11.6173    119.6562
  1293.5000     13.0317   -151.4786     11.7521    121.4066
  1293.7500     13.1017   -151.7000     11.9311    122.1192
  1294.0000     13.1853   -151.8843     12.1379    122.3118
  1294.2500     13.2782   -152.0132     12.3579    122.0121
  1294.5000     13.3837   -152.1010     12.5854    121.6563
  1294.7500     13.5155   -152.1891     12.8273    122.2545
  1295.0000     13.6928   -152.3307     13.1007    125.7275
  1295.2500     13.9361   -152.5723     13.4266    129.7395
  1295.5000     14.2688   -152.9380     13.8225    136.2291
  1295.7500     14.7149   -153.4236     14.2975    139.1208
  1296.0000     15.2892   -153.9991     14.8498    139.4263
  1296.2500     15.9858   -154.6196     15.4666    137.0148
  1296.5000     16.7739   -155.2381     16.1271    131.0270
  1296.7500     17.5999   -155.8163     16.8092    126.4725
  1297.0000     18.3992   -156.3288     17.4945    119.8716
  1297.2500     19.1141   -156.7628     18.1699    115.9404
  1297.5000     19.7058   -157.1131     18.8216    111.2417
  1297.7500     20.1481   -157.3767     19.4260    109.1585
  1298.0000     20.4102   -157.5481     19.9445    107.7271
  1298.2500     20.4554   -157.6189     20.3262    107.9281
  1298.5000     20.2647   -157.5799     20.5207    110.0618
  1298.7500     19.8666   -157.4252     20.4928    112.4608
  1299.0000     19.3386   -157.1562     20.2356    116.3117
  1299.2500     18.7745   -156.7839     19.7726    118.4082
  1299.5000     18.2441   -156.3295     19.1505    120.7850
  1299.7500     17.7744   -155.8217     18.4272    122.1395
  1300.0000     17.3595   -155.2936     17.6635    123.6857
  1300.2500     16.9883   -154.7798     16.9187    123.9589
  1300.5000     16.6651   -154.3135     16.2469    122.9664
  1300.7500     16.4100   -153.9258     15.6909    121.8451
  1301.0000     16.2481   -153.6442     15.2775    120.7847
  1301.2500     16.1961   -153.4924     15.0166    120.9724
  1301.5000     16.2545   -153.4875     14.9056    122.2612
  1301.7500     16.4086   -153.6376     14.9353    122.9850
  1302.0000     16.6396   -153.9381     15.0929    122.1413
  1302.2500     16.9332   -154.3693     15.3630    119.5131
  1302.5000     17.2770   -154.8957     15.7272    112.1599
  1302.7500     17.6548   -155.4688     16.1636    105.6208
  1303.0000     18.0486   -156.0317     16.6442     95.6336
  1303.2500     18.4475   -156.5271     17.1341     90.2276
  1303.5000     18.8522   -156.9055     17.5932     85.1396
  1303.7500     19.2640   -157.1319     17.9831     83.7116
  1304.0000     19.6633   -157.1911     18.2723     84.1887
  1304.2500     19.9952   -157.0888     18.4353     86.1806
  1304.5000     20.1832   -156.8493     18.4499     91.2530
  1304.7500     20.1664   -156.5104     18.3026     95.3987
  1305.0000     19.9307   -156.1161     18.0041    101.5647
  1305.2500     19.5087   -155.7094     17.5988    105.2806
  1305.5000     18.9601   -155.3257     17.1544    110.3695
  1305.7500     18.3546   -154.9890     16.7365    113.6687
  1306.0000     17.7599   -154.7104     16.3882    118.7233
  1306.2500     17.2293   -154.4895     16.1227    122.1646
  1306.5000     16.7941   -154.3178     15.9317    127.2797
  1306.7500     16.4647   -154.1826     15.7967    130.5706
  1307.0000     16.2344   -154.0706     15.7003    135.2231
  1307.2500     16.0797   -153.9707     15.6295    137.9462
  1307.5000     15.9645   -153.8747     15.5742    140.5448
  1307.7500     15.8539   -153.7777     15.5255    140.6061
  1308.0000     15.7318   -153.6774     15.4761    138.0097
  1308.2500     15.6059   -153.5735     15.4237    135.3257
  1308.5000     15.4969   -153.4669     15.3718    131.7988
  1308.7500     15.4219   -153.3601     15.3262    130.1580
  1309.0000     15.3859   -153.2556     15.2893    127.8824
  1309.2500     15.3828   -153.1557     15.2558    126.0167
  1309.5000     15.3977   -153.0620     15.2137    123.2218
  1309.7500     15.4079   -152.9741     15.1473    122.0746
  1310.0000     15.3899   -152.8905     15.0420    122.0368
  1310.2500     15.3296   -152.8095     14.8907    123.0436
