~Version Information
VERS.                      2.0: CWLS Log ASCII Standard - VERSION 2.0
WRAP.                       NO: One line per depth step
~Well Information Block
STRT.FT                -7.5000: 
STOP.FT              2228.7500: 
STEP.FT                 0.2500: 
NULL.                -999.2500: 
COMP.          Pioneer Natural Resources: COMPANY
WELL.          McDonald 33-31 R: WELL
FLD.           Purgatorie River: FIELD
LOC.           1386' FSL & 1926' FEL: LOCATION
STAT.                       CO: State
CNTY.               Las Animas: COUNTY
CTRY.                      USA: Country
SECT.                       31: Section
TOWN.                      32S: Township
RANG.                      66W: Range
SRVC.          Patterson Wireline: SERVICE COMPANY
DATE.          Wed Sep 28 13:29:18 2005: LOG DATE
API.           05 071 08533 00: API#
~Curve Information Block
DEPT.FT            0 000 00 00: Depth
CCL.                          : Casing Collar Locator
TT3.usec                      : CBL 3' Travel Time
AMP3.mV                       : CBL 3' Amplitude
GR.GAPI                       : Gamma Ray
~Parameter Information Block
~A  Depth       CCL         TT3         AMP3         GR     
# ...
   126.5000      0.0000   1007.7325     10.3601     93.6940
   126.7500      0.0000    977.5120     10.3262     98.1656
   127.0000      0.0000    934.3317     10.3145    100.8731
   127.2500      0.0000    886.6146     10.3218    101.2374
   127.5000      0.0000    846.1042     10.3274     99.8412
   127.7500      0.0000    819.1170     10.3002     97.7319
   128.0000      0.0000    803.9574     10.2145     95.7040
   128.2500      0.0000    797.0853     10.0653     94.1517
   128.5000      0.0000    799.5703      9.8717     93.1397
   128.7500      0.0000    816.7374      9.6668     92.3944
   129.0000      0.0000    852.7056      9.4803     91.3806
   129.2500      0.0000    904.6409      9.3292     89.6294
   129.5000      0.0000    960.6069      9.2215     87.2616
   129.7500      0.0000   1003.5881      9.1656     85.2071
   130.0000      0.0000   1019.9639      9.1674     84.6764
   130.2500      0.0000   1006.9996      9.2178     86.2061
   130.5000      0.0000    975.2973      9.2906     89.3050
   130.7500      0.0000    943.0504      9.3572     93.0839
   131.0000      0.0000    922.2036      9.4023     96.9775
   131.2500      0.0000    908.0655      9.4286    100.7637
   131.5000      0.0000    886.4175      9.4506    104.2393
   131.7500      0.0000    851.3162      9.4845    107.0550
   132.0000      0.0000    811.5001      9.5373    108.6552
   132.2500      0.0000    779.8091      9.6010    108.4594
   132.5000      0.0000    761.7509      9.6558    106.3491
   132.7500      0.0000    754.6077      9.6801    102.8619
   133.0000      0.0000    752.4348      9.6596     98.8146
   133.2500      0.0000    749.5699      9.5873     94.9798
   133.5000      0.0000    742.7994      9.4555     92.1518
   133.7500      0.0000    734.2773      9.2453     90.9078
   134.0000      0.0000    732.9165      8.9334     90.8802
   134.2500      0.0000    749.8307      8.5281     90.5961
   134.5000      0.0000    789.3741      8.1028     88.5100
   134.7500      0.0000    844.6667      7.7681     84.1689
   135.0000      0.0000    903.7257      7.5899     78.3545
   135.2500      0.0000    959.2863      7.5424     72.5914
   135.5000      2.0000   1009.7049      7.5430     68.6733
   135.7500      0.0000   1050.9836      7.5214     67.8833
   136.0000      0.0000   1072.7389      7.4605     70.0513
   136.2500      0.0000   1064.0894      7.4061     73.5908
   136.5000      0.0000   1022.3958      7.4602     76.7922
   136.7500      0.0000    956.9675      7.7338     79.1250
   137.0000      0.0000    885.4998      8.2574     81.2872
   137.2500      0.0000    825.2277      8.9335     84.0876
   137.5000      0.0000    784.8549      9.5952     87.3971
   137.7500      0.0000    763.1403     10.1062     90.2466
   138.0000      0.0000    753.7045     10.4038     91.8535
   138.2500      0.0000    750.3923     10.4899     92.4545
   138.5000      0.0000    749.6503     10.4154     93.2185
   138.7500      0.0000    750.3519     10.2596     95.3475
   139.0000      0.0000    752.8515     10.1035     99.0800
   139.2500      0.0000    757.6759     10.0036    103.4895
   139.5000      0.0000    763.6498      9.9775    107.1903
   139.7500      0.0000    766.7394     10.0057    109.1731
   140.0000      0.0000    762.1147     10.0550    109.1882
   140.2500      0.0000    748.9150     10.1059    107.7157
   140.5000      0.0000    733.0353     10.1584    105.6934
   140.7500      0.0000    725.0641     10.2102    104.0568
   141.0000      0.0000    735.0928     10.2376    103.1149
   141.2500      0.0000    766.2667     10.2081    102.1550
   141.5000      0.0000    809.3984     10.1121    100.1435
   141.7500      0.0000    845.3290      9.9704     97.2155
   142.0000      0.0000    858.9263      9.8078     94.8687
   142.2500      0.0000    853.9027      9.6327     94.1736
   142.5000      0.0000    850.3198      9.4480     94.3519
   142.7500      0.0000    864.5363      9.2683     93.6129
   143.0000      0.0000    894.4796      9.1160     90.9806
   143.2500      0.0000    926.1992      9.0054     87.0173
   143.5000      0.0000    949.5220      8.9406     83.1868
   143.7500      0.0000    963.7527      8.9191     80.8092
   144.0000      0.0000    973.9677      8.9323     80.3209
   144.2500      0.0000    986.6439      8.9645     81.1017
   144.5000      0.0000   1005.2461      9.0002     81.8843
   144.7500      0.0000   1027.4685      9.0250     81.5554
   145.0000      0.0000   1048.1711      9.0224     79.8459
   145.2500      0.0000   1063.9402      8.9819     77.2766
   145.5000      0.0000   1073.8992      8.9189     74.6020
   145.7500      0.0000   1078.6757      8.8754     72.5365
   146.0000      0.0000   1080.0020      8.8933     71.6024
   146.2500      0.0000   1080.1134      8.9891     71.7025
   146.5000      0.0000   1080.8320      9.1551     72.1848
   146.7500      0.0000   1083.1802      9.3706     72.7332
   147.0000      0.0000   1087.0944      9.6058     73.6674
   147.2500      0.0000   1091.0090      9.8251     75.0091
   147.5000      0.0000   1092.5592      9.9988     75.8859
   147.7500      0.0000   1090.6243     10.1163     75.3170
   148.0000      0.0000   1086.5822     10.1845     73.1672
   148.2500      0.0000   1083.2654     10.2147     70.0570
   148.5000      0.0000   1082.9344     10.2126     66.6483
   148.7500      0.0000   1086.0872     10.1814     63.3092
   149.0000      0.0000   1090.9288     10.1339     60.4964
   149.2500      0.0000   1093.2113     10.0926     59.1345
   149.5000      0.0000   1087.7784     10.0731     60.0994
   149.7500      0.0000   1072.7439     10.0634     63.2808
   150.0000      0.0000   1053.6278     10.0271     67.5134
   150.2500      0.0000   1041.9772      9.9333     71.3886
   150.5000      0.0000   1046.7144      9.7853     73.8691
   150.7500      0.0000   1065.2533      9.6149     74.4129
   151.0000      0.0000   1083.5072      9.4524     73.0281
   151.2500      0.0000   1084.6906      9.3129     70.3205
   151.5000      0.0000   1059.2452      9.2133     67.2158
   151.7500      0.0000   1010.9608      9.1878     64.4603
   152.0000      0.0000    957.1240      9.2696     62.4227
   152.2500      0.0000    919.6419      9.4443     61.3274
   152.5000      0.0000    910.7823      9.6320     61.4115
   152.7500      0.0000    926.3312      9.7340     62.6716
   153.0000      0.0000    952.7709      9.7036     64.5975
   153.2500      0.0000    978.9610      9.5690     66.4451
   153.5000      0.0000   1000.0180      9.4001     67.8941
   153.7500      0.0000   1013.5026      9.2654     69.2913
   154.0000      0.0000   1015.5604      9.2074     71.0435
   154.2500      0.0000   1001.6636      9.2301     72.9819
   154.5000      0.0000    970.4263      9.2942     74.6519
   154.7500      0.0000    926.1817      9.3333     75.9553
   155.0000      0.0000    878.1746      9.2820     77.0409
   155.2500      0.0000    836.6770      9.0958     77.8272
   155.5000      0.0000    808.1984      8.7664     78.1681
   155.7500      0.0000    794.5170      8.3387     78.3197
   156.0000      0.0000    796.5952      7.9048     78.8698
   156.2500      0.0000    816.9600      7.5594     80.2129
   156.5000      0.0000    854.9205      7.3553     82.1123
   156.7500      0.0000    898.8528      7.3002     83.7318
   157.0000      0.0000    927.2798      7.3717     84.1855
   157.2500      0.0000    923.5533      7.5213     82.9959
   157.5000      0.0000    891.1680      7.6771     80.0714
   157.7500      0.0000    852.4476      7.7742     75.7003
   158.0000      0.0000    831.9376      7.7960     70.6380
   158.2500      0.0000    841.5991      7.7823     65.6968
   158.5000      0.0000    877.3362      7.7873     61.1899
   158.7500      0.0000    924.0103      7.8343     57.2220
   159.0000      0.0000    964.6762      7.9083     54.3497
   159.2500      0.0000    989.8749      7.9831     53.2987
   159.5000      0.0000   1000.8613      8.0462     53.9624
   159.7500      0.0000   1004.8170      8.1009     55.1569
