~Version Information
VERS.                      2.0: CWLS Log ASCII Standard - VERSION 2.0
WRAP.                       NO: One line per depth step
~Well Information Block
STRT.FT                -7.7500: 
STOP.FT              1793.5000: 
STEP.FT                 0.2500: 
NULL.                -999.2500: 
COMP.          Pioneer Natural Resources: COMPANY
WELL.           Loews 41-32 Tr: WELL
FLD.           Purgatorie River: FIELD
LOC.           706' FNL & 224' FEL--: LOCATION
CNTY.               Las Animas: COUNTY
SRVC.          Patterson Wireline: SERVICE COMPANY
DATE.          Fri Feb 24 11:31:48 2006: LOG DATE
UWI.           05 071 08690 00: UNIQUE WELL ID
STAT.                       CO: STATE
~Curve Information Block
DEPT.FT            0 000 00 00: Depth
CCL.                          : Casing Collar Locator
TT3.usec                      : CBL 3' Travel Time
AMP3.mV                       : CBL 3' Amplitude
GR.GAPI                       : Gamma Ray
~Parameter Information Block
~A  Depth       CCL         TT3         AMP3         GR     
# ...
   126.2500      0.0000    337.6551     18.6578     51.4091
   126.5000      0.0000    341.0461     18.4795     52.4602
   126.7500      0.0000    342.9991     18.4158     54.2899
   127.0000      0.0000    343.7470     18.4787     55.7660
   127.2500      0.0000    343.8278     18.6534     56.1550
   127.5000      0.0000    343.6437     18.9038     55.5325
   127.7500      0.0000    343.4044     19.1755     54.0226
   128.0000      0.0000    343.2027     19.4148     51.4297
   128.2500      0.0000    343.0674     19.5910     47.9238
   128.5000      0.0000    342.9835     19.7018     44.4096
   128.7500      0.0000    342.9156     19.7568     41.8079
   129.0000      0.0000    342.8444     19.7579     40.3377
   129.2500      0.0000    342.7892     19.6931     39.7949
   129.5000      0.0000    342.7954     19.5534     40.1723
   129.7500      0.0000    342.8941     19.3512     41.6730
   130.0000      0.0000    343.0752     19.1220     44.3405
   130.2500      0.0000    343.3044     18.9029     47.8986
   130.5000      0.0000    343.5616     18.7111     51.7294
   130.7500      0.0000    343.8804     18.5433     54.9419
   131.0000      0.0000    344.3767     18.3956     56.8698
   131.2500      0.0000    345.5505     18.2773     57.6982
   131.5000      0.0000    348.9823     18.2021     58.2934
   131.7500      0.0000    358.0865     18.1683     59.2782
   132.0000      0.0000    377.1600     18.1550     60.4476
   132.2500      0.0000    406.7898     18.1390     60.9952
   132.5000      0.0000    438.3383     18.1182     59.9812
   132.7500      0.0000    455.9512     18.1190     56.7423
   133.0000      0.0000    448.8277     18.1791     51.4991
   133.2500      0.0000    421.4807     18.3135     45.8271
   133.5000      0.0000    389.2472     18.4955     42.1078
   133.7500      0.0000    364.9426     18.6741     42.0979
   134.0000      0.0000    351.9116     18.8118     45.9459
   134.2500      0.0000    347.4257     18.8990     52.4770
   134.5000      0.0000    349.1688     18.9326     60.1479
   134.7500      0.0000    358.9005     18.8926     67.7288
   135.0000      0.0000    381.7912     18.7491     74.3301
   135.2500      0.0000    420.5621     18.5009     78.9702
   135.5000      0.0000    466.8501     18.2052     80.4601
   135.7500      0.0000    499.9915     17.9621     78.1895
   136.0000      0.0000    500.7272     17.8509     73.0534
   136.2500      0.0000    468.5788     17.8729     67.1958
   136.5000      0.0000    422.3815     17.9570     62.4872
   136.7500      0.0000    383.3116     18.0191     59.0984
   137.0000      0.0000    360.8782     18.0128     55.6971
   137.2500      0.0000    354.3223     17.9323     51.2269
   137.5000      0.0000    361.9121     17.7853     46.2766
   137.7500      0.0000    385.8026     17.5756     42.4421
   138.0000      0.0000    427.5959     17.3115     40.6828
   138.2500      0.0000    479.3253     17.0269     40.7316
   138.5000      0.0000    521.8416     16.7823     41.8348
   138.7500      0.0000    537.8357     16.6307     43.5752
   139.0000      0.0000    527.4559     16.5769     46.0256
   139.2500      0.0000    507.6266     16.5769     49.4355
   139.5000      0.0000    496.1017     16.5802     53.7229
   139.7500      0.0000    497.8385     16.5716     58.0777
   140.0000      0.0000    503.5812     16.5745     61.0605
   140.2500      0.0000    498.6881     16.6149     61.2907
   140.5000      0.0000    476.3765     16.6829     58.4369
   140.7500      0.0000    444.9632     16.7347     53.8069
   141.0000      0.0000    421.7273     16.7353     49.6867
   141.2500      0.0000    420.1319     16.6954     47.7255
   141.5000      0.0000    443.0901     16.6564     47.9001
   141.7500      0.0000    485.0748     16.6456     48.9382
   142.0000      0.0000    537.7553     16.6551     49.5076
   142.2500      0.0000    594.1210     16.6631     49.0426
   142.5000      0.0000    648.1674     16.6616     47.7474
   142.7500      0.0000    692.4146     16.6617     46.0672
   143.0000      0.0000    718.3008     16.6806     44.3546
   143.2500      0.0000    720.2310     16.7299     43.1445
   143.5000      0.0000    699.4501     16.8103     43.3549
   143.7500      0.0000    665.0108     16.9084     45.5747
   144.0000      0.0000    630.5831     16.9995     49.0416
   144.2500      0.0000    608.0251     17.0619     51.8767
   144.5000      0.0000    601.4586     17.0896     52.6499
   144.7500      0.0000    604.4655     17.0961     51.6193
   145.0000      0.0000    602.2999     17.1044     50.4740
   145.2500      0.0000    582.2219     17.1334     51.0525
   145.5000      0.0000    545.9824     17.1889     54.0365
   145.7500      0.0000    508.3176     17.2671     58.4787
   146.0000      0.0000    480.1911     17.3632     62.6067
   146.2500      0.0000    458.5927     17.4726     65.0979
   146.5000      0.0000    436.0939     17.5826     65.5005
   146.7500      0.0000    414.2211     17.6710     63.8530
   147.0000      0.0000    401.2145     17.7236     60.6069
   147.2500      0.0000    399.7852     17.7526     56.8484
   147.5000      0.0000    402.5232     17.7897     53.9110
   147.7500      0.0000    399.5294     17.8571     52.5180
   148.0000      0.0000    387.7739     17.9461     52.4638
   148.2500      0.0000    372.0974     18.0281     52.9922
   148.5000      0.0000    358.9905     18.0805     53.2485
   148.7500      0.0000    351.3467     18.1002     52.6834
   149.0000      0.0000    348.6688     18.0936     51.5207
   149.2500      0.0000    350.3675     18.0606     50.8465
   149.5000      0.0000    358.4634     17.9961     51.8142
   149.7500      0.0000    377.3770     17.9047     54.5444
   150.0000      0.0000    410.1935     17.8085     57.9265
   150.2500      0.0000    453.9515     17.7305     60.5592
   150.5000      0.0000    500.1316     17.6726     61.7913
   150.7500      0.0000    542.0841     17.6134     61.8511
   151.0000      0.0000    581.1972     17.5292     61.3139
   151.2500      0.0000    623.4463     17.4118     60.6395
   151.5000      0.0000    670.1146     17.2743     60.0819
   151.7500      0.0000    714.2751     17.1436     59.8816
   152.0000      0.0000    746.6944     17.0444     60.5335
   152.2500      0.0000    762.8040     16.9840     62.6648
   152.5000      0.0000    762.8526     16.9545     66.4604
   152.7500      0.0000    748.6226     16.9501     71.2413
   153.0000      0.0000    723.9844     16.9717     75.7162
   153.2500      0.0000    698.0519     17.0110     78.8002
   153.5000      0.0000    682.3419     17.0369     80.4073
   153.7500      0.0000    681.0747     17.0099     81.5460
   154.0000      0.0000    687.5963     16.9063     83.5910
   154.2500      0.0000    693.2154     16.7312     87.3796
   154.5000      0.0000    695.3189     16.5166     92.7910
   154.7500      0.0000    693.5898     16.3121     98.7258
   155.0000      0.0000    685.0079     16.1656    103.2358
   155.2500      0.0000    669.6320     16.1033    104.1376
   155.5000      0.0000    657.1180     16.1230    100.4411
   155.7500      0.0000    658.7913     16.2056     93.6189
   156.0000      0.0000    671.9715     16.3322     87.1761
   156.2500      0.0000    677.0377     16.4933     84.3269
   156.5000      0.0000    652.5004     16.6855     85.5995
   156.7500      0.0000    593.1728     16.9014     88.5340
   157.0000      0.0000    514.6966     17.1179     89.7393
   157.2500      0.0000    441.8372     17.2903     87.3523
   157.5000      0.0000    392.3365     17.3541     82.0171
   157.7500      0.0000    370.7333     17.2411     76.1694
   158.0000      0.0000    373.4366     16.9077     72.4110
   158.2500      0.0000    394.6536     16.3710     71.9107
   158.5000      0.0000    427.9017     15.7306     73.8127
   158.7500      0.0000    468.6740     15.1205     76.1419
   159.0000      0.0000    519.5176     14.5964     77.5724
   159.2500      0.0000    586.7769     14.0974     78.5694
   159.5000      0.0000    667.0610     13.5627     80.6715
