~Version Information
VERS.                      2.0: CWLS Log ASCII Standard - VERSION 2.0
WRAP.                       NO: One line per depth step
~Well Information Block
STRT.FT                -8.5000: 
STOP.FT              1214.7500: 
STEP.FT                 0.2500: 
NULL.                -999.2500: 
COMP.          Pioneer Natural Resources: COMPANY
WELL.          Rock Island 44-24 Tr: WELL
FLD.           Purgatorie River: FIELD
LOC.           814' FSL & 761' FEL--: LOCATION
CNTY.               Las Animas: COUNTY
SRVC.          Patterson Wireline: SERVICE COMPANY
DATE.          Fri Apr 28 10:23:18 2006: LOG DATE
UWI.           05 071 08680 00: UNIQUE WELL ID
STAT.                       CO: STATE
~Curve Information Block
DEPT.FT            0 000 00 00: Depth
CCL.                          : Casing Collar Locator
TT3.usec                      : CBL 3' Travel Time
AMP3.mV                       : CBL 3' Amplitude
GR.GAPI                       : Gamma Ray
~Parameter Information Block
~A  Depth       CCL         TT3         AMP3         GR     
# ...
   561.0000      0.0000    766.4843      6.0928     78.2353
   561.2500      0.0000    766.8517      6.0587     75.4868
   561.5000      0.0000    767.2529      6.0191     72.7945
   561.7500      0.0000    767.5965      5.9765     72.0580
   562.0000      0.0000    767.5931      5.9296     74.1935
   562.2500      0.0000    766.6239      5.8788     78.0614
   562.5000      0.0000    763.8975      5.8304     81.2097
   562.7500      0.0000    759.0891      5.7930     81.8167
   563.0000      0.0000    753.0110      5.7701     80.1761
   563.2500      0.0000    747.3003      5.7569     78.4580
   563.5000      0.0000    743.2179      5.7469     78.9599
   563.7500      0.0000    741.0266      5.7379     82.3064
   564.0000      0.0000    740.3177      5.7321     86.9909
   564.2500      0.0000    740.0571      5.7312     90.4771
   564.5000      0.0000    738.7108      5.7336     90.8115
   564.7500      0.0000    735.9138      5.7357     87.5350
   565.0000      0.0000    733.9529      5.7352     81.6365
   565.2500      0.0000    735.9440      5.7328     74.9983
   565.5000      0.0000    742.3371      5.7292     69.4969
   565.7500      0.0000    750.3678      5.7193     65.9107
   566.0000      0.0000    756.8826      5.6924     63.4843
   566.2500      0.0000    760.6926      5.6406     60.8659
   566.5000      0.0000    762.3903      5.5678     57.6572
   566.7500      0.0000    763.0005      5.4880     54.9012
   567.0000      0.0000    763.2064      5.4145     53.9295
   567.2500      0.0000    763.3147      5.3511     54.9018
   567.5000      0.0000    763.3886      5.2953     56.6845
   567.7500      0.0000    763.2318      5.2463     58.1642
   568.0000      0.0000    762.3239      5.2087     59.5964
   568.2500      0.0000    760.0501      5.1877     62.4952
   568.5000      0.0000    756.4490      5.1809     67.9604
   568.7500      0.0000    752.9503      5.1791     75.2632
   569.0000      0.0000    751.9191      5.1762     82.5109
   569.2500      0.0000    754.9366      5.1778     88.5163
   569.5000      0.0000    761.5943      5.1965     93.4648
   569.7500      0.0000    769.8693      5.2384     97.9123
   570.0000      0.0000    776.8107      5.2990    101.6091
   570.2500      0.0000    778.8842      5.3705    103.3426
   570.5000      0.0000    773.3086      5.4478    101.9915
   570.7500      0.0000    760.2832      5.5250     97.9656
   571.0000      0.0000    743.3859      5.5918     93.3316
   571.2500      0.0000    727.1193      5.6386     90.2470
   571.5000      0.0000    714.3127      5.6627     89.5067
   571.7500      0.0000    705.7803      5.6694     90.4789
   572.0000      0.0000    701.4995      5.6686     91.7959
   572.2500      0.0000    701.5797      5.6684     92.1325
   572.5000      0.0000    706.3834      5.6699     90.8859
   572.7500      0.0000    715.7664      5.6662     88.2901
   573.0000      0.0000    727.8681      5.6493     84.9001
   573.2500      0.0000    738.7805      5.6183     81.1785
   573.5000      0.0000    744.3707      5.5806     77.4783
   573.7500      0.0000    743.4066      5.5468     74.2162
   574.0000      0.0000    738.9265      5.5233     71.9738
   574.2500      0.0000    735.9669      5.5113     71.1282
   574.5000      0.0000    737.5526      5.5110     71.2617
   574.7500      0.0000    742.6598      5.5230     71.3062
   575.0000      0.0000    747.6622      5.5464     70.3490
   575.2500      0.0000    749.5780      5.5755     67.9665
   575.5000      0.0000    748.2404      5.6014     64.0180
   575.7500      0.0000    745.7435      5.6179     58.7277
   576.0000      0.0000    743.9941      5.6242     52.9232
   576.2500      0.0000    742.8224      5.6257     47.6713
   576.5000      0.0000    740.6031      5.6280     43.4893
   576.7500      0.0000    736.7936      5.6338     40.1583
   577.0000      0.0000    733.3466      5.6448     37.3773
   577.2500      0.0000    732.7231      5.6646     35.2876
   577.5000      0.0000    734.7656      5.6956     34.1338
   577.7500      0.0000    736.7255      5.7320     33.7187
   578.0000      0.0000    736.4309      5.7606     33.5355
   578.2500      0.0000    734.3553      5.7709     33.3946
   578.5000      0.0000    732.4584      5.7644     33.6945
   578.7500      0.0000    731.8127      5.7549     35.0470
   579.0000      0.0000    731.5539      5.7596     37.6615
   579.2500      0.0000    729.7608      5.7888     40.9779
   579.5000      0.0000    725.2386      5.8412     43.7863
   579.7500      0.0000    718.4696      5.9087     44.8481
   580.0000      0.0000    710.9802      5.9844     43.8406
   580.2500      0.0000    704.3359      6.0657     41.9856
   580.5000      0.0000    699.9268      6.1480     41.5222
   580.7500      0.0000    699.2179      6.2190     44.1469
   581.0000      0.0000    703.5599      6.2641     49.7490
   581.2500      0.0000    713.1122      6.2773     56.6555
   581.5000      0.0000    725.5003      6.2667     63.1272
   581.7500      0.0000    736.2214      6.2459     68.6599
   582.0000      0.0000    741.6386      6.2237     73.9306
   582.2500      0.0000    741.6790      6.1980     79.6877
   582.5000      0.0000    739.1156      6.1587     85.8551
   582.7500      0.0000    736.7371      6.0975     91.5056
   583.0000      0.0000    735.8343      6.0188     95.3221
   583.2500      0.0000    736.6354      5.9398     96.2671
   583.5000      0.0000    739.0348      5.8761     94.4786
   583.7500      0.0000    742.7009      5.8273     91.6210
   584.0000      0.0000    746.9924      5.7805     89.7331
   584.2500      0.0000    751.0355      5.7255     89.4166
   584.5000      0.0000    753.7684      5.6656     89.4361
   584.7500      0.0000    754.1375      5.6153     88.2554
   585.0000      0.0000    751.7884      5.5860     85.7008
   585.2500      0.0000    747.7365      5.5789     83.0178
   585.5000      0.0000    744.0224      5.5888     81.5966
   585.7500      0.0000    742.3802      5.6128     81.9352
   586.0000      0.0000    742.8376      5.6520     83.6272
   586.2500      0.0000    742.9582      5.7114     85.7891
   586.5000      0.0000    738.8491      5.8072     87.3407
   586.7500      0.0000    729.0142      5.9585     87.3651
   587.0000      0.0000    719.0139      6.1464     85.6206
   587.2500      0.0000    720.3455      6.2802     82.8251
   587.5000      0.0000    740.7966      6.2521     80.4301
   587.7500      0.0000    775.2758      6.0488     79.7635
   588.0000      0.0000    809.5332      5.7778     80.9278
   588.2500      0.0000    833.2855      5.5671     82.6027
   588.5000      0.0000    845.7015      5.4662     83.3962
   588.7500      0.0000    848.2552      5.4510     83.4215
   589.0000      2.0000    839.3317      5.4882     83.9953
   589.2500      0.0000    819.0219      5.5773     85.6032
   589.5000      0.0000    793.5451      5.7430     87.0105
   589.7500      0.0000    770.6678      5.9835     86.9593
   590.0000      0.0000    753.5488      6.2203     85.9349
   590.2500      0.0000    741.1870      6.3255     85.3711
   590.5000      0.0000    732.2194      6.2325     85.6195
   590.7500      0.0000    726.2234      6.0013     85.6037
   591.0000      0.0000    722.8685      5.7551     84.4119
   591.2500      0.0000    721.5126      5.5755     82.6099
   591.5000      0.0000    721.7369      5.4717     81.6703
   591.7500      0.0000    723.6507      5.4172     82.3083
   592.0000      0.0000    727.5441      5.3891     83.7021
   592.2500      0.0000    733.2213      5.3788     84.3194
   592.5000      0.0000    739.8222      5.3819     83.1810
   592.7500      0.0000    746.1437      5.3887     80.3419
   593.0000      0.0000    750.6274      5.3855     76.5471
   593.2500      0.0000    750.4115      5.3646     72.7451
   593.5000      0.0000    740.7836      5.3278     69.8537
   593.7500      0.0000    718.3875      5.2831     68.5208
   594.0000      0.0000    688.3170      5.2401     68.8487
   594.2500      0.0000    666.4031      5.2070     70.5065
