~Version Information
VERS.                      2.0: CWLS Log ASCII Standard - VERSION 2.0
WRAP.                       NO: One line per depth step
~Well Information Block
STRT.FT                -8.7500: 
STOP.FT              2331.5000: 
STEP.FT                 0.2500: 
NULL.                -999.2500: 
COMP.          Pioneer Natural Resources: COMPANY
WELL.          Sparrowhawk 22-12: WELL
FLD.           Purgatorie River: FIELD
LOC.           2049' FNL & 2060' FWL--: LOCATION
CNTY.               Las Animas: COUNTY
SRVC.          Patterson Wireline: SERVICE COMPANY
DATE.          Wed Apr 12 08:53:41 2006: LOG DATE
UWI.           05 071 08484 00: UNIQUE WELL ID
STAT.                       CO: STATE
~Curve Information Block
DEPT.FT            0 000 00 00: Depth
CCL.                          : Casing Collar Locator
TT3.usec                      : CBL 3' Travel Time
AMP3.mV                       : CBL 3' Amplitude
GR.GAPI                       : Gamma Ray
~Parameter Information Block
MAXAMPL.mV              0.0000: Maximum Amplitude
~A  Depth       CCL         TT3         AMP3         GR     
# ...
  2302.7500      0.0000    475.4264      6.6341    104.1203
  2303.0000      0.0000    459.4892      6.8341    104.3178
  2303.2500      0.0000    439.7328      6.9978    101.6993
  2303.5000      0.0000    423.8579      7.1376     97.8797
  2303.7500      0.0000    414.3090      7.2667     94.6768
  2304.0000      0.0000    409.7618      7.4087     93.0630
  2304.2500      0.0000    408.0627      7.5910     93.2382
  2304.5000      0.0000    407.6801      7.8238     94.9855
  2304.7500      0.0000    407.7711      8.0871     97.6180
  2305.0000      0.0000    407.8859      8.3436    100.1577
  2305.2500      0.0000    407.9322      8.5617    102.0421
  2305.5000      0.0000    408.3469      8.7266    103.4847
  2305.7500      0.0000    409.7192      8.8302    104.9830
  2306.0000      0.0000    412.1548      8.8602    106.7130
  2306.2500      0.0000    415.8881      8.8036    108.4335
  2306.5000      0.0000    422.6459      8.6586    109.7325
  2306.7500      0.0000    433.9618      8.4443    110.2054
  2307.0000      0.0000    446.6487      8.1975    109.5744
  2307.2500      0.0000    452.6143      7.9580    107.9429
  2307.5000      0.0000    445.8532      7.7500    105.9715
  2307.7500      0.0000    428.5640      7.5783    104.5335
  2308.0000      0.0000    408.9635      7.4384    103.8128
  2308.2500      0.0000    394.3147      7.3259    102.6905
  2308.5000      0.0000    387.2330      7.2385     99.4660
  2308.7500      0.0000    387.4817      7.1747     93.6788
  2309.0000      0.0000    395.1365      7.1324     87.2149
  2309.2500      0.0000    411.0730      7.1031     83.1715
  2309.5000      0.0000    434.5452      7.0714     83.3954
  2309.7500      0.0000    461.2239      7.0244     87.0585
  2310.0000      0.0000    484.8273      6.9607     91.4022
  2310.2500      0.0000    501.0722      6.8888     93.7159
  2310.5000      0.0000    509.7591      6.8195     92.9405
  2310.7500      0.0000    513.3585      6.7670     89.9336
  2311.0000      0.0000    514.4407      6.7501     86.5934
  2311.2500      0.0000    514.3082      6.7836     84.6568
  2311.5000      0.0000    513.0547      6.8603     84.7617
  2311.7500      0.0000    510.2817      6.9437     86.1929
  2312.0000      0.0000    505.7793      6.9852     87.6847
  2312.2500      0.0000    499.8179      6.9527     88.7218
  2312.5000      0.0000    493.2207      6.8440     89.8355
  2312.7500      0.0000    487.8503      6.6776     91.5964
  2313.0000      0.0000    486.9064      6.4798     93.8702
  2313.2500      0.0000    492.6134      6.2847     96.2158
  2313.5000      0.0000    501.2285      6.1324     98.4584
  2313.7500      0.0000    501.6424      6.0495    100.4852
  2314.0000      0.0000    483.5680      6.0207    101.6755
  2314.2500      0.0000    448.8740      5.9866    100.9074
  2314.5000      0.0000    412.2068      5.8809     97.5745
  2314.7500      0.0000    390.2512      5.6735     92.7451
  2315.0000      0.0000    392.8047      5.3802     88.8240
  2315.2500      0.0000    421.5880      5.0410     87.7355
  2315.5000      0.0000    470.2025      4.7012     89.7917
  2315.7500      0.0000    522.7243      4.4088     94.1751
  2316.0000      0.0000    557.8629      4.2085     99.5098
  2316.2500      0.0000    560.8569      4.1237    103.7104
  2316.5000      0.0000    533.3716      4.1446    104.2646
  2316.7500      0.0000    491.3876      4.2362     99.3889
  2317.0000      0.0000    453.1437      4.3538     88.8003
  2317.2500      0.0000    428.5487      4.4534     73.4035
  2317.5000      0.0000    417.8804      4.5001     54.9332
  2317.7500      0.0000    416.6962      4.4806     36.1239
  2318.0000      0.0000    419.7282      4.4144     20.2290
  2318.2500      0.0000    421.7650      4.3505      9.3920
  2318.5000      0.0000    418.6355      4.3404      3.5440
  2318.7500      0.0000    409.6200      4.4063      1.0714
  2319.0000      0.0000    398.1977      4.5299      0.2568
  2319.2500      0.0000    389.4411      4.6709      0.0481
  2319.5000      0.0000    387.1316      4.7904      0.0067
  2319.7500      0.0000    393.4231      4.8593      0.0000
  2320.0000      0.0000    409.3105      4.8573   -999.2500
  2320.2500      0.0000    433.4627      4.7823   -999.2500
  2320.5000      0.0000    461.0204      4.6615   -999.2500
  2320.7500      0.0000    485.4319      4.5442   -999.2500
  2321.0000      0.0000    502.3936      4.4749   -999.2500
  2321.2500      0.0000    511.7372      4.4676   -999.2500
  2321.5000      0.0000    515.8156      4.5034   -999.2500
  2321.7500      0.0000    516.5115      4.5429   -999.2500
  2322.0000      0.0000    512.8841      4.5330   -999.2500
  2322.2500      0.0000    499.4656      4.4020   -999.2500
  2322.5000      0.0000    466.2511      4.0631   -999.2500
  2322.7500      0.0000    403.6367      3.4565   -999.2500
  2323.0000      0.0000    312.2198      2.6206   -999.2500
  2323.2500      0.0000    208.4640      1.7159   -999.2500
  2323.5000      0.0000    116.8198      0.9450   -999.2500
  2323.7500      0.0000     53.8001      0.4290   -999.2500
  2324.0000      0.0000     20.0563      0.1581   -999.2500
  2324.2500      0.0000      5.9864      0.0467   -999.2500
  2324.5000      0.0000      1.4177      0.0110   -999.2500
  2324.7500      0.0000      0.2624      0.0020   -999.2500
  2325.0000      0.0000      0.0349      0.0003   -999.2500
  2325.2500      0.0000   -999.2500   -999.2500   -999.2500
  2325.5000      0.0000   -999.2500   -999.2500   -999.2500
  2325.7500      0.0000   -999.2500   -999.2500   -999.2500
  2326.0000      0.0000   -999.2500   -999.2500   -999.2500
  2326.2500      0.0000   -999.2500   -999.2500   -999.2500
  2326.5000      0.0000   -999.2500   -999.2500   -999.2500
  2326.7500      0.0000   -999.2500   -999.2500   -999.2500
  2327.0000      0.0000   -999.2500   -999.2500   -999.2500
  2327.2500      0.0000   -999.2500   -999.2500   -999.2500
  2327.5000      0.0000   -999.2500   -999.2500   -999.2500
  2327.7500      0.0000   -999.2500   -999.2500   -999.2500
  2328.0000      0.0000   -999.2500   -999.2500   -999.2500
  2328.2500      0.0000   -999.2500   -999.2500   -999.2500
  2328.5000      0.0000   -999.2500   -999.2500   -999.2500
  2328.7500      0.0000   -999.2500   -999.2500   -999.2500
  2329.0000      0.0000   -999.2500   -999.2500   -999.2500
  2329.2500      0.0000   -999.2500   -999.2500   -999.2500
  2329.5000      0.0000   -999.2500   -999.2500   -999.2500
  2329.7500      0.0000   -999.2500   -999.2500   -999.2500
  2330.0000      0.0000   -999.2500   -999.2500   -999.2500
  2330.2500      0.0000   -999.2500   -999.2500   -999.2500
  2330.5000      2.0000   -999.2500   -999.2500   -999.2500
  2330.7500      0.0000   -999.2500   -999.2500   -999.2500
  2331.0000   -999.2500   -999.2500   -999.2500   -999.2500
  2331.2500   -999.2500   -999.2500   -999.2500   -999.2500
  2331.5000   -999.2500   -999.2500   -999.2500   -999.2500
