~Version Information
VERS.                      2.0: CWLS Log ASCII Standard - VERSION 2.0
WRAP.                       NO: One line per depth step
~Well Information Block
STRT.FT               620.0000: 
STOP.FT              3067.2500: 
STEP.FT                 0.2500: 
NULL.                -999.2500: 
COMP.          Pioneer Natural Resources: COMPANY
WELL.          Interceptor 43-13 Kv: WELL
FLD.           Purgatoire River: FIELD
LOC.           2073' FSL & 519' FEL--: LOCATION
PROV.                 Colorado: PROVINCE
CNTY.               Las Animas: COUNTRY
SRVC.                Patterson: SERVICE COMPANY
DATE.          Sat Jan 14 19:35:17 2006: LOG DATE
UWI.           05 071 08655 00: UNIQUE WELL ID
~Curve Information Block
DEPT.FT            0 000 00 00: Depth
SN.Ohm-m                      : IEL Short Normal
SP.mV                         : IEL Spontaneous Potential
DIR.Ohm-m                     : IEL Induction Resistivity
GR.GAPI                       : Gamma Ray
~Parameter Information Block
~A  Depth        SN          SP         DIR          GR     
# ...
  3032.0000     23.1372     64.3513     22.7357    114.9275
  3032.2500     22.8803     64.5004     22.4117    116.7222
  3032.5000     22.6713     64.5958     22.1222    119.2177
  3032.7500     22.5175     64.6340     21.8796    120.1315
  3033.0000     22.4153     64.6150     21.6934    120.1476
  3033.2500     22.3548     64.5426     21.5669    119.5475
  3033.5000     22.3233     64.4242     21.4918    118.5111
  3033.7500     22.3084     64.2704     21.4511    118.0441
  3034.0000     22.3022     64.0945     21.4285    117.2496
  3034.2500     22.3039     63.9111     21.4199    115.3769
  3034.5000     22.3171     63.7349     21.4357    106.6926
  3034.7500     22.3460     63.5788     21.4936     94.9798
  3035.0000     22.3918     63.4519     21.6030     69.0343
  3035.2500     22.4514     63.3584     21.7529     49.4556
  3035.5000     22.5180     63.2968     21.9125     24.2115
  3035.7500     22.5834     63.2606     22.0461     12.8564
  3036.0000     22.6405     63.2390     22.1305      3.8633
  3036.2500     22.6841     63.2196     22.1618      1.4524
  3036.5000     22.7105     63.1904     22.1489      0.2535
  3036.7500     22.7185     63.1415     22.1064      0.0640
  3037.0000     22.7125     63.0665     22.0537      0.0044
  3037.2500     22.7039     62.9625     22.0166   -999.2500
  3037.5000     22.7057     62.8288     22.0213   -999.2500
  3037.7500     22.7241     62.6658     22.0847   -999.2500
  3038.0000     22.7539     62.4745     22.2048   -999.2500
  3038.2500     22.7838     62.2556     22.3595   -999.2500
  3038.5000     22.8041     62.0105     22.5152   -999.2500
  3038.7500     22.8099     61.7419     22.6405   -999.2500
  3039.0000     22.7976     61.4553     22.7167   -999.2500
  3039.2500     22.7618     61.1591     22.7387   -999.2500
  3039.5000     22.6974     60.8651     22.7070   -999.2500
  3039.7500     22.6056     60.5888     22.6240   -999.2500
  3040.0000     22.4980     60.3486     22.4972   -999.2500
  3040.2500     22.3916     60.1655     22.3440   -999.2500
  3040.5000     22.2999     60.0615     22.1875   -999.2500
  3040.7500     22.2260     60.0575     22.0468   -999.2500
  3041.0000     22.1649     60.1695     21.9308   -999.2500
  3041.2500     22.1084     60.4049     21.8395   -999.2500
  3041.5000     22.0500     60.7582     21.7682   -999.2500
  3041.7500     21.9874     61.2102     21.7113   -999.2500
  3042.0000     21.9255     61.7292     21.6620   -999.2500
  3042.2500     21.8763     62.2762     21.6118   -999.2500
  3042.5000     21.8533     62.8113     21.5531   -999.2500
  3042.7500     21.8646     63.3014     21.4848   -999.2500
  3043.0000     21.9103     63.7256     21.4151   -999.2500
  3043.2500     21.9849     64.0773     21.3563   -999.2500
  3043.5000     22.0800     64.3630     21.3163   -999.2500
  3043.7500     22.1854     64.5976     21.2963   -999.2500
  3044.0000     22.2921     64.7990     21.2973   -999.2500
  3044.2500     22.3958     64.9821     21.3252   -999.2500
  3044.5000     22.4992     65.1549     21.3858   -999.2500
  3044.7500     22.6092     65.3171     21.4752   -999.2500
  3045.0000     22.7302     65.4612     21.5782   -999.2500
  3045.2500     22.8617     65.5760     21.6799   -999.2500
  3045.5000     22.9994     65.6501     21.7800   -999.2500
  3045.7500     23.1397     65.6755     21.8962   -999.2500
  3046.0000     23.2798     65.6505     22.0508   -999.2500
  3046.2500     23.4174     65.5794     22.2507   -999.2500
  3046.5000     23.5489     65.4723     22.4747   -999.2500
  3046.7500     23.6698     65.3419     22.6785   -999.2500
  3047.0000     23.7778     65.2019     22.8166   -999.2500
  3047.2500     23.8738     65.0639     22.8677   -999.2500
  3047.5000     23.9591     64.9359     22.8430   -999.2500
  3047.7500     24.0327     64.8218     22.7754   -999.2500
  3048.0000     24.0924     64.7210     22.7010   -999.2500
  3048.2500     24.1379     64.6297     22.6484   -999.2500
  3048.5000     24.1687     64.5418     22.6361   -999.2500
  3048.7500     24.1824     64.4510     22.6711   -999.2500
  3049.0000     24.1756     64.3519     22.7459   -999.2500
  3049.2500     24.1501     64.2411     22.8404   -999.2500
  3049.5000     24.1164     64.1177     22.9292   -999.2500
  3049.7500     24.0907     63.9834     22.9911   -999.2500
  3050.0000     24.0858     63.8418     23.0166   -999.2500
  3050.2500     24.1035     63.6972     23.0077   -999.2500
  3050.5000     24.1363     63.5540     22.9741   -999.2500
  3050.7500     24.1721     63.4160     22.9270   -999.2500
  3051.0000     24.1993     63.2853     22.8765   -999.2500
  3051.2500     24.2097     63.1631     22.8311   -999.2500
  3051.5000     24.1999     63.0494     22.7987   -999.2500
  3051.7500     24.1721     62.9435     22.7823   -999.2500
  3052.0000     24.1330     62.8447     22.7724   -999.2500
  3052.2500     24.0917     62.7517     22.7451   -999.2500
  3052.5000     24.0590     62.6624     22.6729   -999.2500
  3052.7500     24.0446     62.5731     22.5453   -999.2500
  3053.0000     24.0552     62.4781     22.3813   -999.2500
  3053.2500     24.0909     62.3693     22.2222   -999.2500
  3053.5000     24.1456     62.2370     22.1107   -999.2500
  3053.7500     24.2127     62.0721     22.0735   -999.2500
  3054.0000     24.2902     61.8678     22.1206   -999.2500
  3054.2500     24.3802     61.6226     22.4564   -999.2500
  3054.5000     24.4842     61.3417     22.6894   -999.2500
  3054.7500     24.5985     61.0378     23.0193   -999.2500
  3055.0000     24.7172     60.7298     23.4246   -999.2500
  3055.2500     24.8368     60.4409     23.8486   -999.2500
  3055.5000     24.9595     60.1951     24.2159   -999.2500
  3055.7500     25.0897     60.0141     24.4742   -999.2500
  3056.0000     25.2272     59.9137     24.6258   -999.2500
  3056.2500     25.3624     59.9028     24.7294   -999.2500
  3056.5000     25.4774     59.9822     24.8827   -999.2500
  3056.7500     25.5541     60.1460     25.2300   -999.2500
  3057.0000     25.5806     60.3833     26.0135   -999.2500
  3057.2500     25.5541     60.6799     27.6681   -999.2500
  3057.5000     25.4816     61.0203     30.9920   -999.2500
  3057.7500     25.3784     61.3888     36.9207   -999.2500
  3058.0000     25.2632     61.7694     49.9630   -999.2500
  3058.2500     25.1489     62.1466     80.1981   -999.2500
  3058.5000     25.0358     62.5023    178.3808   -999.2500
  3058.7500     24.9123     62.8211   3449.2183   -999.2500
  3059.0000     24.7636     63.0853 100000.0000   -999.2500
  3059.2500     24.5848     63.2741 100000.0000   -999.2500
  3059.5000     24.3894     63.3575 100000.0000   -999.2500
  3059.7500     24.2052     63.2883 100000.0000   -999.2500
  3060.0000     24.0609     62.9894 100000.0000   -999.2500
  3060.2500     23.9667     62.3425 100000.0000   -999.2500
  3060.5000     23.9048     61.1808 100000.0000   -999.2500
  3060.7500     23.8381     59.2945 100000.0000   -999.2500
  3061.0000     23.7303     56.4538 100000.0000   -999.2500
  3061.2500     23.5610     52.4515 100000.0000   -999.2500
  3061.5000     23.3073     47.1610 100000.0000   -999.2500
  3061.7500     22.8833     40.5926 100000.0000   -999.2500
  3062.0000     22.0460     32.9306 100000.0000   -999.2500
  3062.2500     20.3667     24.5323 100000.0000   -999.2500
  3062.5000     17.4334     15.8824 100000.0000   -999.2500
  3062.7500     13.2784      7.5112 100000.0000   -999.2500
  3063.0000      8.6267     -0.1011 100000.0000   -999.2500
  3063.2500      4.5466     -6.6051 100000.0000   -999.2500
  3063.5000      1.7523    -11.8265 100000.0000   -999.2500
  3063.7500      0.2599    -15.7648 100000.0000   -999.2500
  3064.0000     -0.3613    -18.5557 100000.0000   -999.2500
  3064.2500     -0.5628    -20.4138 100000.0000   -999.2500
  3064.5000     -0.6137    -21.5761 100000.0000   -999.2500
  3064.7500     -0.6237    -22.2592 100000.0000   -999.2500
  3065.0000   -999.2500    -22.6363 100000.0000   -999.2500
  3065.2500   -999.2500    -22.8319 100000.0000   -999.2500
