~Version Information
 VERS.                                  2.0 : CWLS LAS VERSION
 WRAP.                                   NO : WRAPING MODE
 SWARE .                 MController 2.5.0J : SOFTWARE VERSION
~Well Information
 WELL.YWAM 7-32R : WELL
 COMP.                Petrogulf Corporation : COMPANY
 FLD.                      Purgatoire River : FIELD
 LOC.                 SW/NE Sec 7 T33S R67W : LOCATION
 DATE.9/28/05 : DATE(S) LOGGED
 SRVC.       BLANCO Geological Services LLC : SERVICE COMPANY
 STAT.                                   CO : STATE
 CNTY.                           Las Animas : COUNTY
 CTRY.                                  USA : COUNTRY
 API.                       05-071-08518-00 : API NUMBER
 STRT.FT                               1.00 : START DEPTH
 STOP.FT                            2100.00 : STOP DEPTH
 STEP.FT                               1.00 : DEPTH INCREMENT
 NULL.                                -9999 : NULL VALUE
~Curve information
 DEPTH.FT                                   :
 ROP.MIN/FT                                 :
 GAS.UNITS                                  :
~ASCII Log data
# ...
       201.0         0.28          4.5 
       202.0         0.27          4.3 
       203.0         0.27          4.5 
       204.0         0.27          4.6 
       205.0         0.30          4.5 
       206.0         1.23          4.8 
       207.0         0.28          4.5 
       208.0         0.23          4.8 
       209.0         0.23          4.7 
       210.0         0.23          4.6 
       211.0         0.23          4.4 
       212.0         0.20          4.3 
       213.0         0.23          4.6 
       214.0         0.20          4.2 
       215.0         0.27          4.5 
       216.0         0.27          4.4 
       217.0         0.27          4.4 
       218.0         0.27          4.1 
       219.0         0.32          4.1 
       220.0         0.27          4.4 
       221.0         0.33          4.3 
       222.0         0.33          4.4 
       223.0         0.33          4.4 
       224.0         0.23          4.2 
       225.0         0.20          4.4 
       226.0         0.27          4.2 
       227.0         0.27          4.1 
       228.0         0.27          4.4 
       229.0         0.27          4.6 
       230.0         0.28          4.6 
       231.0         0.27          4.5 
       232.0         0.23          4.3 
       233.0         0.27          4.6 
       234.0         0.27          4.3 
       235.0         0.27          4.2 
       236.0         1.20          4.7 
       237.0         0.32          4.7 
       238.0         0.33          4.4 
       239.0         0.33          4.6 
       240.0         0.33          4.5 
       241.0         0.33          4.5 
       242.0         0.33          4.6 
       243.0         0.30          4.6 
       244.0         0.27          4.5 
       245.0         0.27          4.6 
       246.0         0.27          4.6 
       247.0         0.23          4.4 
       248.0         0.28          4.7 
       249.0         0.27          4.4 
       250.0         0.27          4.8 
       251.0         0.27          4.5 
       252.0         0.27          4.4 
       253.0         0.23          4.5 
       254.0         0.23          4.5 
       255.0         0.27          4.4 
       256.0         0.30          4.4 
       257.0         0.27          4.4 
       258.0         0.27          4.3 
       259.0         0.27          4.2 
       260.0         0.28          4.3 
       261.0         0.20          4.4 
       262.0         0.27          4.2 
       263.0         0.27          4.5 
       264.0         0.27          4.4 
       265.0         0.27          4.2 
       266.0         1.13          4.2 
       267.0         0.23          4.5 
       268.0         0.27          4.6 
       269.0         0.38          4.4 
       270.0         0.30          4.4 
       271.0         0.23          4.1 
       272.0         0.27          4.3 
       273.0         0.27          4.3 
       274.0         0.20          4.6 
       275.0         0.23          4.6 
       276.0         0.30          4.2 
       277.0         0.33          4.3 
       278.0         0.27          4.4 
       279.0         0.33          4.4 
       280.0         0.42          4.2 
       281.0         0.33          4.5 
       282.0         0.30          4.2 
       283.0         0.37          4.1 
       284.0         0.40          4.5 
       285.0         0.33          4.2 
       286.0         0.27          4.3 
       287.0         0.27          4.3 
       288.0         0.23          4.7 
       289.0         0.23          4.3 
       290.0         0.27          4.3 
       291.0         0.28          4.3 
       292.0         0.23          4.4 
       293.0         0.20          4.5 
       294.0         0.27          4.6 
       295.0         0.23          4.6 
       296.0         1.40          4.9 
       297.0         0.30          4.9 
       298.0         0.27          4.7 
       299.0         0.27          4.8 
       300.0         0.25          4.6 
       301.0         0.27          4.4 
       302.0         0.27          5.0 
       303.0         0.27          4.8 
       304.0         0.30          4.7 
       305.0         0.23          4.6 
       306.0         0.33          4.9 
       307.0         0.27          4.7 
       308.0         0.27          4.6 
       309.0         0.27          4.6 
       310.0         0.30          4.4 
       311.0         0.27          4.4 
       312.0         0.22          4.6 
       313.0         0.23          4.7 
       314.0         0.30          4.7 
       315.0         0.33          4.7 
       316.0         0.40          4.5 
       317.0         0.37          4.5 
       318.0         0.27          4.6 
       319.0         0.43          4.4 
       320.0         0.30          4.3 
       321.0         0.27          4.7 
       322.0         0.58          4.6 
       323.0         0.63          4.5 
       324.0         0.27          4.4 
       325.0         0.30          4.7 
       326.0         1.13          4.6 
       327.0         0.30          4.8 
       328.0         0.25          4.4 
       329.0         0.23          4.6 
       330.0         0.20          4.4 
       331.0         0.13          4.8 
       332.0         0.17          4.6 
       333.0         0.20          4.4 
       334.0         0.27          4.5 
       335.0         0.23          4.7 
       336.0         0.27          4.7 
       337.0         0.23          4.4 
       338.0         0.23          4.5 
       339.0         0.27          4.3 
       340.0         0.23          4.2 
       341.0         0.27          4.6 
       342.0         0.23          4.8 
       343.0         0.28          4.5 
       344.0         0.27          4.3 
       345.0         0.43          4.6 
       346.0         0.27          4.7 
       347.0         0.37          4.5 
       348.0         0.60          4.3 
       349.0         0.47          4.6 
       350.0         0.30          4.6 
       351.0         0.13          4.8 
       352.0         0.17          4.2 
       353.0         0.18          4.3 
       354.0         0.23          4.8 
       355.0         0.23          4.6 
       356.0         1.60          5.9 
       357.0         0.33          6.6 
       358.0         0.30          6.4 
       359.0         0.27          6.8 
       360.0         0.38          6.5 
       361.0         0.33          6.7 
       362.0         0.23          6.3 
       363.0         0.23          6.6 
       364.0         0.23          6.7 
       365.0         0.30          6.5 
       366.0         0.40          6.8 
       367.0         0.43          6.8 
       368.0         0.23          6.5 
       369.0         0.17          6.4 
       370.0         0.17          6.5 
       371.0         0.20          6.6 
       372.0         0.25          6.3 
       373.0         0.20          6.5 
       374.0         0.20          6.2 
       375.0         0.23          6.2 
       376.0         0.27          6.4 
       377.0         0.23          6.0 
       378.0         0.30          6.2 
       379.0         0.37          6.2 
       380.0         0.33          6.3 
       381.0         0.27          6.1 
       382.0         0.27          6.1 
       383.0         0.23          6.2 
       384.0         0.20          6.5 
       385.0         0.12          7.3 
       386.0         1.23         15.8 
       387.0         0.17          7.5 
       388.0         0.17          7.3 
       389.0         0.23          6.9 
       390.0         0.23          7.2 
       391.0         0.23          7.1 
       392.0         0.20          6.7 
       393.0         0.17          7.0 
       394.0         0.13          6.2 
       395.0         0.13          5.8 
       396.0         0.17          5.9 
       397.0         0.25          6.2 
       398.0         0.23          6.3 
       399.0         0.27          5.8 
       400.0         0.23          6.5 
