~Version Information
VERS.                      2.0: CWLS Log ASCII Standard - VERSION 2.0
WRAP.                       NO: One line per depth step
~Well Information Block
STRT.FT                -7.5000: 
STOP.FT              1310.7500: 
STEP.FT                 0.2500: 
NULL.                -999.2500: 
COMP.          Pioneer Natural Resources: COMPANY
WELL.          Challenger 31-29: WELL
FLD.           Purgatorie River: FIELD
LOC.           51' FNL & 1923' FEL------: LOCATION
STAT.                       CO: State
CNTY.               Las Animas: COUNTY
CTRY. USA : Country
SECT. 29 : Section
TOWN. 33S : Township
RANG. 65W : Range
SRVC.          Patterson Wireline: SERVICE COMPANY
DATE.          Wed Sep 21 12:11:38 2005: LOG DATE
API.           05 071 08514 00: UNIQUE WELL ID
~Curve Information Block
DEPT.FT            0 000 00 00: Depth
CCL.                          : Casing Collar Locator
TT3.usec                      : CBL 3' Travel Time
AMP3.mV                       : CBL 3' Amplitude
GR.GAPI                       : Gamma Ray
~Parameter Information Block
~A  Depth       CCL         TT3         AMP3         GR     
# ...
   260.5000      0.0000    856.0242     15.1686     65.9596
   260.7500      0.0000    848.8248     15.1626     68.2956
   261.0000      0.0000    868.1992     15.1785     70.4814
   261.2500      0.0000    905.6428     15.2046     71.7307
   261.5000      0.0000    940.8195     15.2376     71.7832
   261.7500      0.0000    955.1705     15.2913     71.5001
   262.0000      0.0000    947.4644     15.3801     72.1560
   262.2500      0.0000    934.4653     15.4902     74.0311
   262.5000      0.0000    934.9960     15.5719     76.1157
   262.7500      0.0000    955.0912     15.5695     77.4489
   263.0000      0.0000    987.3110     15.4631     78.4441
   263.2500      0.0000   1019.5717     15.2821     80.5902
   263.5000      0.0000   1043.3986     15.0782     84.9736
   263.7500      0.0000   1057.0223     14.8865     91.2334
   264.0000      0.0000   1063.7466     14.7108     97.6508
   264.2500      0.0000   1068.3019     14.5401    102.0354
   264.5000      0.0000   1074.0808     14.3714    103.0579
   264.7500      0.0000   1082.0570     14.2148    101.3407
   265.0000      0.0000   1090.7498     14.0830     98.9682
   265.2500      0.0000   1096.8219     13.9798     97.5036
   265.5000      0.0000   1095.8546     13.9041     96.8448
   265.7500      0.0000   1083.2892     13.8610     96.2781
   266.0000      0.0000   1057.0394     13.8630     95.9175
   266.2500      0.0000   1022.0158     13.9214     96.4961
   266.5000      0.0000    991.3066     14.0432     98.2624
   266.7500      0.0000    978.3719     14.2318    100.7589
   267.0000      0.0000    985.3096     14.4820    103.2351
   267.2500      0.0000   1000.8726     14.7721    104.6221
   267.5000      0.0000   1012.1680     15.0657    103.4449
   267.7500      0.0000   1016.2916     15.3270     98.4774
   268.0000      0.0000   1018.3772     15.5349     89.6750
   268.2500      0.0000   1021.6417     15.6831     78.3871
   268.5000      0.0000   1024.4965     15.7740     66.6502
   268.7500      0.0000   1025.6964     15.8170     56.2885
   269.0000      0.0000   1025.6926     15.8272     48.4734
   269.2500      0.0000   1021.9998     15.8213     43.5478
   269.5000      0.0000   1008.4119     15.8125     40.8838
   269.7500      0.0000    980.9145     15.8076     39.2910
   270.0000      0.0000    942.0908     15.8076     38.0899
   270.2500      0.0000    899.8900     15.8106     37.6926
   270.5000      0.0000    864.1520     15.8162     38.9205
   270.7500      0.0000    842.9454     15.8318     41.8779
   271.0000      0.0000    839.6745     15.8763     45.5984
   271.2500      0.0000    854.0771     15.9728     48.6705
   271.5000      0.0000    885.8572     16.1300     50.1257
   271.7500      0.0000    934.0106     16.3272     49.9081
   272.0000      0.0000    991.7403     16.5183     48.7520
   272.2500      0.0000   1046.3463     16.6585     47.6145
   272.5000      0.0000   1086.8280     16.7297     46.9852
   272.7500      0.0000   1110.0691     16.7434     46.6193
   273.0000      0.0000   1119.3507     16.7255     45.9758
   273.2500      0.0000   1119.1995     16.7018     44.8443
   273.5000      0.0000   1112.0667     16.6933     43.3223
   273.7500      0.0000   1097.8490     16.7142     41.2832
   274.0000      0.0000   1075.4156     16.7647     38.4464
   274.2500      0.0000   1045.5861     16.8269     35.1565
   274.5000      0.0000   1013.3143     16.8708     32.6132
   274.7500      0.0000    986.2806     16.8679     32.0558
   275.0000      0.0000    971.0135     16.7998     33.8918
   275.2500      0.0000    970.5090     16.6644     37.5080
   275.5000      0.0000    984.0513     16.4845     41.6036
   275.7500      0.0000   1006.8724     16.3058     44.8099
   276.0000      0.0000   1030.5614     16.1757     46.3628
   276.2500      0.0000   1046.8101     16.1122     46.3095
   276.5000      0.0000   1052.2607     16.0905     45.0630
   276.7500      0.0000   1049.9438     16.0634     42.9711
   277.0000      0.0000   1047.2823     16.0000     40.4029
   277.2500      0.0000   1052.0704     15.9093     37.9033
   277.5000      0.0000   1066.7435     15.8264     35.9790
   277.7500      0.0000   1085.8014     15.7780     34.8342
   278.0000      0.0000   1101.0193     15.7614     34.3670
   278.2500      0.0000   1108.7515     15.7562     34.2168
   278.5000      0.0000   1110.9639     15.7530     33.8727
   278.7500      0.0000   1110.9211     15.7632     33.1836
   279.0000      0.0000   1109.2949     15.7985     32.8287
   279.2500      0.0000   1102.5226     15.8434     33.7476
   279.5000      0.0000   1083.1240     15.8542     35.9154
   279.7500      0.0000   1043.5859     15.7921     38.1176
   280.0000      0.0000    983.6731     15.6574     39.1844
   280.2500      0.0000    914.4384     15.4867     39.2187
   280.5000      0.0000    852.4365     15.3066     39.4385
   280.7500      0.0000    808.1751     15.0836     40.9492
   281.0000      0.0000    780.3044     14.7177     43.7580
   281.2500      0.0000    759.9159     14.1168     46.8573
   281.5000      0.0000    740.0449     13.3158     49.1386
   281.7500      0.0000    724.0488     12.5065     50.2745
   282.0000      0.0000    726.5293     11.8857     50.8694
   282.2500      0.0000    761.2115     11.4772     51.8394
   282.5000      0.0000    822.7061     11.1676     53.6352
   282.7500      0.0000    884.3472     10.8921     56.0257
   283.0000      0.0000    920.6455     10.6967     58.5939
   283.2500     -2.0000    929.9793     10.6351     61.3729
   283.5000      2.0000    930.8159     10.6941     64.8482
   283.7500      0.0000    938.9724     10.8262     69.2775
   284.0000      0.0000    951.8533     11.0299     74.2463
   284.2500      0.0000    950.9416     11.3967     79.0203
   284.5000      0.0000    918.8528     12.0484     83.0057
   284.7500      0.0000    861.0198     12.9667     85.8071
   285.0000      0.0000    811.4395     13.9163     87.4726
   285.2500      0.0000    806.9796     14.6277     88.9588
   285.5000      0.0000    851.6878     15.0262     91.7011
   285.7500      0.0000    912.0686     15.2113     96.2038
   286.0000      0.0000    948.8926     15.2779    101.3139
   286.2500      0.0000    948.3582     15.2481    105.0811
   286.5000      0.0000    923.3648     15.1312    105.9851
   286.7500      0.0000    894.0321     14.9719    103.3351
   287.0000      0.0000    871.9594     14.8372     97.2586
   287.2500      0.0000    858.1390     14.7793     88.9441
   287.5000      0.0000    848.5111     14.8126     80.6428
   287.7500      0.0000    839.7485     14.9138     74.7197
   288.0000      0.0000    831.8686     15.0451     72.3349
   288.2500      0.0000    826.8262     15.1754     73.1284
   288.5000      0.0000    824.6371     15.2921     76.0976
   288.7500      0.0000    821.4020     15.3955     80.3672
   289.0000      0.0000    810.6931     15.4839     85.0244
   289.2500      0.0000    785.2065     15.5475     88.7535
   289.5000      0.0000    738.9402     15.5813     90.3493
   289.7500      0.0000    674.1848     15.5972     89.7442
   290.0000      0.0000    608.0908     15.6177     88.1860
   290.2500      0.0000    564.3275     15.6559     87.2194
   290.5000      0.0000    551.6936     15.7049     87.6050
   290.7500      0.0000    554.9603     15.7449     89.0216
   291.0000      0.0000    553.4987     15.7614     90.4209
   291.2500      0.0000    546.7939     15.7588     90.7335
   291.5000      0.0000    554.2243     15.7576     89.5973
   291.7500      0.0000    587.8980     15.7759     87.5004
   292.0000      0.0000    631.2491     15.8175     85.2340
   292.2500      0.0000    649.3702     15.8773     83.3005
   292.5000      0.0000    620.1419     15.9560     81.8314
   292.7500      0.0000    552.7028     16.0617     80.8864
   293.0000      0.0000    476.2109     16.2003     80.6830
   293.2500      0.0000    415.3231     16.3691     81.3527
   293.5000      0.0000    377.8277     16.5611     82.5041
   293.7500      0.0000    359.9548     16.7685     83.3585
