~Version Information
VERS.                      2.0: CWLS Log ASCII Standard - VERSION 2.0
WRAP.                       NO: One line per depth step
~Well Information Block
STRT.FT                -7.2500: 
STOP.FT              1334.7500: 
STEP.FT                 0.2500: 
NULL.                -999.2500: 
COMP.          Pioneer Natural Resources: COMPANY
WELL.          Buffet 41-36 Tr: WELL
FLD.           Purgatorie River: FIELD
LOC.           119' FNL & 271' FEL--: LOCATION
PROV.                       CO: PROVINCE
CNTY.               Las Animas: COUNTRY
SRVC.          Patterson Wireline: SERVICE COMPANY
DATE.          Tue Jan 03 09:43:31 2006: LOG DATE
UWI.           05 071 08627 00: UNIQUE WELL ID
~Curve Information Block
DEPT.FT            0 000 00 00: Depth
CCL.                          : Casing Collar Locator
TT3.usec                      : CBL 3' Travel Time
AMP3.mV                       : CBL 3' Amplitude
GR.GAPI                       : Gamma Ray
~Parameter Information Block
~A  Depth       CCL         TT3         AMP3         GR     
# ...
   763.2500      0.0000    797.8129      6.0297    123.3792
   763.5000      2.0000    801.0302      5.9543    120.0278
   763.7500      0.0000    800.4976      5.9145    118.2133
   764.0000      0.0000    802.2956      5.9199    118.6954
   764.2500      0.0000    810.2366      5.9954    120.6681
   764.5000      0.0000    819.6584      6.1427    122.7657
   764.7500      0.0000    819.1439      6.3118    124.6305
   765.0000      0.0000    801.0082      6.4316    126.9107
   765.2500      0.0000    768.9512      6.4885    129.8467
   765.5000      0.0000    734.5507      6.5428    132.4885
   765.7500      0.0000    707.9303      6.6439    133.5821
   766.0000      0.0000    692.6022      6.7670    132.9236
   766.2500      0.0000    686.9499      6.8530    131.5145
   766.5000      0.0000    687.9779      6.8718    130.3188
   766.7500      0.0000    693.0179      6.8274    129.0620
   767.0000      0.0000    699.3011      6.7282    126.6282
   767.2500      0.0000    704.0046      6.5744    122.7065
   767.5000      0.0000    706.0914      6.3640    118.7003
   767.7500      0.0000    707.7631      6.0982    116.6735
   768.0000      0.0000    712.8411      5.7814    117.3541
   768.2500      0.0000    723.4158      5.4230    119.3335
   768.5000      0.0000    738.5369      5.0483    120.2492
   768.7500      0.0000    755.7870      4.7088    118.6051
   769.0000      0.0000    772.8970      4.4720    114.6105
   769.2500      0.0000    787.6423      4.3914    109.7583
   769.5000      0.0000    797.6297      4.4773    105.7850
   769.7500      0.0000    801.3583      4.6965    103.7519
   770.0000      0.0000    799.1168      4.9996    103.8329
   770.2500      0.0000    792.4218      5.3476    105.7040
   770.5000      0.0000    783.0554      5.7163    108.6073
   770.7500      0.0000    772.7193      6.0861    111.0628
   771.0000      0.0000    762.5462      6.4458    111.5719
   771.2500      0.0000    752.2484      6.8122    110.2465
   771.5000      0.0000    740.3568      7.2294    109.1529
   771.7500      0.0000    726.1331      7.7293    110.6468
   772.0000      0.0000    711.1990      8.2802    115.8734
   772.2500      0.0000    698.8027      8.7794    124.6103
   772.5000      0.0000    691.4688      9.1041    135.0724
   772.7500      0.0000    689.4141      9.1853    143.6994
   773.0000      0.0000    690.6913      9.0440    146.9141
   773.2500      0.0000    692.3986      8.7667    144.1509
   773.5000      0.0000    692.2757      8.4509    138.4226
   773.7500      0.0000    689.8973      8.1647    133.2968
   774.0000      0.0000    686.5265      7.9337    129.7543
   774.2500      0.0000    683.8113      7.7492    126.3586
   774.5000      0.0000    682.7601      7.5877    121.9993
   774.7500      0.0000    683.7195      7.4301    117.8610
   775.0000      0.0000    686.7005      7.2698    116.7783
   775.2500      0.0000    691.3217      7.1090    120.9870
   775.5000      0.0000    696.5197      6.9506    130.2924
   775.7500      0.0000    700.7581      6.7979    142.0011
   776.0000      0.0000    703.1303      6.6583    152.7979
   776.2500      0.0000    704.6110      6.5428    161.2025
   776.5000      0.0000    707.7944      6.4600    168.3085
   776.7500      0.0000    714.7482      6.4127    175.6216
   777.0000      0.0000    725.0311      6.4034    182.1388
   777.2500      0.0000    735.9065      6.4367    184.3617
   777.5000      0.0000    744.2891      6.5132    179.6879
   777.7500      0.0000    748.5614      6.6236    169.3324
   778.0000      0.0000    749.2456      6.7518    157.6291
   778.2500      0.0000    748.6505      6.8809    149.0779
   778.5000      0.0000    749.8212      6.9949    146.0970
   778.7500      0.0000    754.9119      7.0749    148.2255
   779.0000      0.0000    763.5583      7.0989    152.7113
   779.2500      0.0000    772.3000      7.0536    156.4978
   779.5000      0.0000    776.2452      6.9485    157.9769
   779.7500      0.0000    772.9015      6.8168    156.7778
   780.0000      0.0000    764.9883      6.6980    152.6608
   780.2500      0.0000    758.3286      6.6111    145.6764
   780.5000      0.0000    756.2344      6.5459    137.2895
   780.7500      0.0000    756.7437      6.4825    130.2697
   781.0000      0.0000    755.6821      6.4167    126.9948
   781.2500      0.0000    751.4266      6.3623    127.9744
   781.5000      0.0000    746.3130      6.3339    132.0745
   781.7500      0.0000    744.2839      6.3295    137.8179
   782.0000      0.0000    747.5919      6.3282    144.0829
   782.2500      0.0000    755.1570      6.2988    149.8406
   782.5000      0.0000    763.4742      6.2200    154.1048
   782.7500      0.0000    769.2656      6.1005    156.4904
   783.0000      0.0000    772.3546      5.9814    157.4183
   783.2500      0.0000    776.7234      5.9110    157.4102
   783.5000      0.0000    788.5440      5.9110    156.3462
   783.7500      0.0000    812.4937      5.9642    153.8037
   784.0000      0.0000    848.0599      6.0337    150.1105
   784.2500      0.0000    886.6226      6.0903    146.5134
   784.5000      0.0000    912.8480      6.1204    144.0638
   784.7500      0.0000    914.0037      6.1173    142.8400
   785.0000      0.0000    890.5408      6.0795    142.5610
   785.2500      0.0000    855.2491      6.0174    143.3592
   785.5000      0.0000    821.4494      5.9577    145.3972
   785.7500      0.0000    794.6088      5.9367    148.0461
   786.0000      0.0000    774.8248      5.9861    149.8597
   786.2500      0.0000    762.3575      6.1125    149.2689
   786.5000      0.0000    757.7732      6.2868    145.5304
   786.7500      0.0000    759.2073      6.4577    139.5624
   787.0000      0.0000    763.0210      6.5811    133.6887
   787.2500      0.0000    766.7703      6.6363    130.0184
   787.5000      0.0000    769.6031      6.6260    128.9795
   787.7500      0.0000    770.7277      6.5728    129.3445
   788.0000      0.0000    769.3928      6.5131    129.4146
   788.2500      0.0000    765.6360      6.4766    128.2170
   788.5000      0.0000    759.7933      6.4705    125.8709
   788.7500      0.0000    752.2856      6.4888    123.1470
   789.0000      0.0000    744.8882      6.5305    120.9207
   789.2500      0.0000    740.8492      6.5960    120.0226
   789.5000      0.0000    742.0524      6.6718    121.2964
   789.7500      0.0000    746.3447      6.7338    125.2965
   790.0000      0.0000    749.0432      6.7678    131.4279
   790.2500      0.0000    747.4702      6.7745    137.5617
   790.5000      0.0000    743.2456      6.7590    141.2603
   790.7500      0.0000    739.8110      6.7247    141.6267
   791.0000      0.0000    738.7073      6.6786    139.5177
   791.2500      0.0000    738.9183      6.6343    136.2063
   791.5000      0.0000    738.6940      6.6063    132.5532
   791.7500      0.0000    736.8127      6.6023    129.1414
   792.0000      0.0000    732.7811      6.6192    126.2096
   792.2500      0.0000    727.1158      6.6426    123.3065
   792.5000      0.0000    721.3171      6.6541    119.6055
   792.7500      0.0000    716.9995      6.6420    114.8045
   793.0000      0.0000    715.2623      6.6074    109.4262
   793.2500      0.0000    717.2630      6.5603    104.1573
   793.5000      0.0000    724.9122      6.5157     99.2896
   793.7500      0.0000    739.8152      6.4922     94.9954
   794.0000      0.0000    760.4285      6.5070     91.5923
   794.2500      0.0000    780.3961      6.5679     89.0042
   794.5000      0.0000    791.1811      6.6670     86.2708
   794.7500      0.0000    786.8966      6.7827     82.2512
   795.0000      0.0000    765.7196      6.8889     76.9528
   795.2500      0.0000    727.8533      6.9623     71.8538
   795.5000      0.0000    676.4832      6.9879     68.6371
   795.7500      0.0000    622.5248      6.9624     67.6221
   796.0000      0.0000    584.4001      6.9000     67.5005
   796.2500      0.0000    578.5774      6.8293     66.5439
   796.5000      0.0000    609.1685      6.7793     63.9354
