~Version Information
VERS.                      2.0: CWLS Log ASCII Standard - VERSION 2.0
WRAP.                       NO: One line per depth step
~Well Information Block
STRT.FT               480.0000: 
STOP.FT              1946.0000: 
STEP.FT                 0.2500: 
NULL.                -999.2500: 
COMP.          XTO Energy Inc.: COMPANY
WELL.          Golden Eagle 19-15: WELL
FLD.           Purgatoire River: FIELD
LOC.           1121' FSL & 2332' FEL--: LOCATION
CNTY.               Las Animas: COUNTY
SRVC.                Patterson: SERVICE COMPANY
DATE.          Sun Mar 12 15:00:51 2006: LOG DATE
UWI.           05 071 08717 00: UNIQUE WELL ID
STAT.                 Colorado: STATE
~Curve Information Block
DEPT.FT            0 000 00 00: Depth
SP.mV                         : DIL Spontaneous Potential
RILD.Ohm-m                    : DIL Deep Resistivity
RILM.Ohm-m                    : DIL Medium Resistivity
RLL3.Ohm-m                    : DIL Shallow Resistivity
GR.GAPI                       : Gamma Ray
~Parameter Information Block
~A  Depth        SP         RILD        RILM        RLL3         GR     
# ...
   676.0000   2005.0000     19.0012     19.7885   2000.0000    106.3830
   676.2500   2005.0000     18.9524     19.5746   2000.0000    106.4746
   676.5000   2005.0000     18.8833     19.3192   2000.0000    106.5079
   676.7500   2005.0000     18.7771     19.0290   2000.0000    106.5875
   677.0000   2005.0000     18.6279     18.7220   2000.0000    107.1486
   677.2500   2005.0000     18.4469     18.4256   2000.0000    107.9377
   677.5000   2005.0000     18.2547     18.1693   2000.0000    109.5096
   677.7500   2005.0000     18.0696     17.9723   2000.0000    110.3917
   678.0000   2005.0000     17.8979     17.8349   2000.0000    110.6558
   678.2500   2005.0000     17.7326     17.7398   2000.0000    109.9801
   678.5000   2005.0000     17.5582     17.6615   2000.0000    108.3186
   678.7500   2005.0000     17.3561     17.5780   2000.0000    107.4801
   679.0000   2005.0000     17.1099     17.4739   2000.0000    107.7890
   679.2500   2005.0000     16.8062     17.3340   2000.0000    109.4021
   679.5000   2005.0000     16.4357     17.1350   2000.0000    113.5991
   679.7500   2005.0000     15.9957     16.8433   2000.0000    116.8648
   680.0000   2005.0000     15.4918     16.4252   2000.0000    121.1947
   680.2500   2005.0000     14.9368     15.8664   2000.0000    123.5001
   680.5000   2005.0000     14.3488     15.1864   2000.0000    126.7734
   680.7500   2005.0000     13.7479     14.4330   2000.0000    129.3090
   681.0000   2005.0000     13.1529     13.6621   2000.0000    133.6532
   681.2500   2005.0000     12.5773     12.9166   2000.0000    136.4709
   681.5000   2005.0000     12.0265     12.2202   2000.0000    139.7889
   681.7500   2005.0000     11.4987     11.5798   2000.0000    141.1509
   682.0000   2005.0000     10.9901     10.9934   2000.0000    141.9162
   682.2500   2005.0000     10.5006     10.4558   2000.0000    141.8996
   682.5000   2005.0000     10.0372      9.9620   2000.0000    142.2929
   682.7500   2005.0000      9.6105      9.5093   2000.0000    143.5192
   683.0000   2005.0000      9.2301      9.0981   2000.0000    146.6953
   683.2500   2005.0000      8.9003      8.7314   2000.0000    148.7261
   683.5000   2005.0000      8.6190      8.4128   2000.0000    149.6878
   683.7500   2005.0000      8.3803      8.1450   2000.0000    148.5612
   684.0000   2005.0000      8.1778      7.9271   2000.0000    145.4603
   684.2500   2005.0000      8.0057      7.7548   2000.0000    143.7801
   684.5000   2005.0000      7.8595      7.6218   2000.0000    143.4454
   684.7500   2005.0000      7.7355      7.5213   2000.0000    144.5290
   685.0000   2005.0000      7.6313      7.4479   2000.0000    146.3377
   685.2500   2005.0000      7.5453      7.3970   2000.0000    146.6799
   685.5000   2005.0000      7.4770      7.3648   2000.0000    145.6130
   685.7500   2005.0000      7.4259      7.3484   2000.0000    144.3784
   686.0000   2005.0000      7.3903      7.3463   2000.0000    142.8409
   686.2500   2005.0000      7.3666      7.3579   2000.0000    142.4130
   686.5000   2005.0000      7.3495      7.3826   2000.0000    142.7205
   686.7500   2005.0000      7.3336      7.4172   2000.0000    143.3235
   687.0000   2005.0000      7.3155      7.4548   2000.0000    144.3475
   687.2500   2005.0000      7.2952      7.4856   2000.0000    144.9948
   687.5000   2005.0000      7.2768      7.5005   2000.0000    146.0648
   687.7500   2005.0000      7.2666      7.4955   2000.0000    147.0097
   688.0000   2005.0000      7.2712      7.4733   2000.0000    148.9016
   688.2500   2005.0000      7.2955      7.4430   2000.0000    150.3676
   688.5000   2005.0000      7.3414      7.4172   2000.0000    152.2868
   688.7500   2005.0000      7.4071      7.4108   2000.0000    152.8452
   689.0000   2005.0000      7.4868      7.4383   2000.0000    151.6969
   689.2500   2005.0000      7.5713      7.5123   2000.0000    149.3728
   689.5000   2005.0000      7.6503      7.6406   2000.0000    144.0146
   689.7500   2005.0000      7.7165      7.8235   2000.0000    139.8023
   690.0000   2005.0000      7.7680      8.0506   2000.0000    133.1961
   690.2500   2005.0000      7.8084      8.3010   2000.0000    128.5022
   690.5000   2005.0000      7.8447      8.5452   2000.0000    120.8352
   690.7500   2005.0000      7.8845      8.7526   2000.0000    115.8628
   691.0000   2005.0000      7.9346      8.9019   2000.0000    110.6870
   691.2500   2005.0000      8.0003      8.9894   2000.0000    109.8448
   691.5000   2005.0000      8.0852      9.0294   2000.0000    112.7626
   691.7500   2005.0000      8.1902      9.0466   2000.0000    116.6439
   692.0000   2005.0000      8.3116      9.0640   2000.0000    123.0661
   692.2500   2005.0000      8.4408      9.0948   2000.0000    126.4716
   692.5000   2005.0000      8.5670      9.1398   2000.0000    128.8212
   692.7500   2005.0000      8.6800      9.1917   2000.0000    128.3539
   693.0000   2005.0000      8.7743      9.2413   2000.0000    125.5504
   693.2500   2005.0000      8.8505      9.2842   2000.0000    123.3092
   693.5000   2005.0000      8.9154      9.3233   2000.0000    120.8375
   693.7500   2005.0000      8.9798      9.3664   2000.0000    120.0084
   694.0000   2005.0000      9.0551      9.4222   2000.0000    119.5441
   694.2500   2005.0000      9.1514      9.4963   2000.0000    119.3951
   694.5000   2005.0000      9.2742      9.5907   2000.0000    119.0089
   694.7500   2005.0000      9.4242      9.7062   2000.0000    118.5646
   695.0000   2005.0000      9.5980      9.8452   2000.0000    117.8425
   695.2500   2005.0000      9.7908     10.0144   2000.0000    117.6836
   695.5000   2005.0000      9.9985     10.2235   2000.0000    118.4858
   695.7500   2005.0000     10.2183     10.4828   2000.0000    119.5891
   696.0000   2005.0000     10.4458     10.7986   2000.0000    120.9420
   696.2500   2005.0000     10.6739     11.1699   2000.0000    120.9432
   696.5000   2005.0000     10.8940     11.5855   2000.0000    119.4596
   696.7500   2005.0000     11.1003     12.0227   2000.0000    117.9770
   697.0000   2005.0000     11.2900     12.4507   2000.0000    115.8673
   697.2500   2005.0000     11.4623     12.8380   2000.0000    114.7409
   697.5000   2005.0000     11.6152     13.1614   2000.0000    113.5473
   697.7500   2005.0000     11.7443     13.4100   2000.0000    113.1568
   698.0000   2005.0000     11.8442     13.5825   2000.0000    113.3105
   698.2500   2005.0000     11.9102     13.6791   2000.0000    113.8478
   698.5000   2005.0000     11.9391     13.6945   2000.0000    114.9080
   698.7500   2005.0000     11.9297     13.6193   2000.0000    115.4936
   699.0000   2005.0000     11.8817     13.4509   2000.0000    115.8230
   699.2500   2005.0000     11.7954     13.2039   2000.0000    115.5839
   699.5000   2005.0000     11.6728     12.9076   2000.0000    114.6709
   699.7500   2005.0000     11.5176     12.5931   2000.0000    113.9777
   700.0000   2005.0000     11.3367     12.2812   2000.0000    113.4454
   700.2500   2005.0000     11.1402     11.9806   2000.0000    113.6277
   700.5000   2005.0000     10.9410     11.6935   2000.0000    114.4658
   700.7500   2005.0000     10.7525     11.4212   2000.0000    115.0838
   701.0000   2005.0000     10.5851     11.1663   2000.0000    115.9366
   701.2500   2005.0000     10.4441     10.9324   2000.0000    116.6856
   701.5000   2005.0000     10.3286     10.7243   2000.0000    118.3857
   701.7500   2005.0000     10.2333     10.5474   2000.0000    119.6192
   702.0000   2005.0000     10.1512     10.4069   2000.0000    120.5298
   702.2500   2005.0000     10.0757     10.3054   2000.0000    120.1223
   702.5000   2005.0000     10.0010     10.2403   2000.0000    118.6973
   702.7500   2005.0000      9.9213     10.2046   2000.0000    118.2147
   703.0000   2005.0000      9.8307     10.1889   2000.0000    119.4378
   703.2500   2005.0000      9.7253     10.1830   2000.0000    121.3604
   703.5000   2005.0000      9.6079     10.1755   2000.0000    124.2818
   703.7500   2005.0000      9.4880     10.1520   2000.0000    125.3103
