~Version Information
VERS.                      2.0: CWLS Log ASCII Standard - VERSION 2.0
WRAP.                       NO: One line per depth step
~Well Information Block
STRT.FT               264.2500: 
STOP.FT              1134.7500: 
STEP.FT                 0.2500: 
NULL.                -999.2500: 
COMP.          Pioneer Natural Resources: COMPANY
WELL.          Black Cat 13-32 Tr: WELL
FLD.           Purgatoire River: FIELD
LOC.           1679' FSL & 1150' FWL--: LOCATION
CNTY.               Las Animas: COUNTY
SRVC.                Patterson: SERVICE COMPANY
DATE.          Tue Mar 07 10:58:06 2006: LOG DATE
UWI.           05 071 08721 00: UNIQUE WELL ID
STAT.                 Colorado: STATE
~Curve Information Block
DEPT.FT            0 000 00 00: Depth
SN.Ohm-m                      : IEL Short Normal
SP.mV                         : IEL Spontaneous Potential
DIR.Ohm-m                     : IEL Induction Resistivity
GR.GAPI                       : Gamma Ray
~Parameter Information Block
~A  Depth        SN          SP         DIR          GR     
# ...
   565.7500    549.1087   -535.1656     30.5846    125.2283
   566.0000    576.6836   -534.1436     29.8887    126.5481
   566.2500    589.6035   -533.1730     29.2395    127.8625
   566.5000    594.4925   -532.2277     28.6585    129.9675
   566.7500    595.9684   -531.2642     28.1484    130.9133
   567.0000    596.2468   -530.2358     27.7057    131.3328
   567.2500    596.0552   -529.1089     27.3289    131.1636
   567.5000    595.5129   -527.8737     27.0147    130.6524
   567.7500    594.6912   -526.5489     26.7463    130.2515
   568.0000    593.8718   -525.1796     26.4897    129.7903
   568.2500    593.4521   -523.8267     26.2035    129.7900
   568.5000    593.4257   -522.5532     25.8550    130.4841
   568.7500    592.8719   -521.4095     25.4336    131.3678
   569.0000    589.9103   -520.4253     24.9558    133.0888
   569.2500    582.6241   -519.6097     24.4608    134.3428
   569.5000    571.2197   -518.9596     23.9935    135.9520
   569.7500    559.8891   -518.4709     23.5857    136.4863
   570.0000    555.0499   -518.1500     23.2465    136.2400
   570.2500    559.9205   -518.0176     22.9675    135.6975
   570.5000    571.3480   -518.1046     22.7348    135.0154
   570.7500    583.0192   -518.4434     22.5373    134.5658
   571.0000    590.8579   -519.0558     22.3665    133.0502
   571.2500    594.6423   -519.9449     22.2150    131.2098
   571.5000    596.0015   -521.0916     22.0769    127.6579
   571.7500    596.3709   -522.4589     21.9515    125.2442
   572.0000    596.4476   -524.0002     21.8464    122.0841
   572.2500    596.4615   -525.6722     21.7748    120.3841
   572.5000    596.4615   -527.4421     21.7498    118.4146
   572.7500    596.4615   -529.2947     21.7774    117.4060
   573.0000    596.4615   -531.2297     21.8525    116.2235
   573.2500    596.4615   -533.2533     21.9599    115.7063
   573.5000    596.4615   -535.3653     22.0773    115.6780
   573.7500    596.4615   -537.5480     22.1804    116.3006
   574.0000    596.4615   -539.7592     22.2480    117.8970
   574.2500    596.4615   -541.9334     22.2691    118.9580
   574.5000    596.4587   -543.9915     22.2478    119.9605
   574.7500    596.4296   -545.8520     22.2025    120.2603
   575.0000    596.2571   -547.4398     22.1597    120.6288
   575.2500    595.4727   -548.6827     22.1443    121.0728
   575.5000    592.6217   -549.5040     22.1743    122.0778
   575.7500    584.3336   -549.8114     22.2596    122.6988
   576.0000    565.0135   -549.4914     22.4038    122.8025
   576.2500    528.8012   -548.4219     22.6040    122.0907
   576.5000    473.9947   -546.5049     22.8500    120.3060
   576.7500    406.4711   -543.7157     23.1227    119.0796
   577.0000    337.6181   -540.1559     23.3949    117.2484
   577.2500    277.5399   -536.0891     23.6338    115.7179
   577.5000    229.9076   -531.9376     23.8063    113.0012
   577.7500    192.7381   -528.2292     23.8896    111.5901
   578.0000    162.9198   -525.4982     23.8819    111.3865
   578.2500    139.9204   -524.1631     23.8047    112.6623
   578.5000    126.4139   -524.4189     23.6936    115.6497
   578.7500    126.7057   -526.1766     23.5806    117.4715
   579.0000    145.4346   -529.0820     23.4813    118.9088
   579.2500    186.6086   -532.6009     23.3911    118.9437
   579.5000    250.3002   -536.1478     23.2929    118.3299
   579.7500    328.1115   -539.2153     23.1711    118.0213
   580.0000    403.8380   -541.4642     23.0225    118.2260
   580.2500    460.0552   -542.7570     22.8553    118.8081
   580.5000    483.4126   -543.1387     22.6789    120.0003
   580.7500    466.9909   -542.7815     22.4977    120.6430
   581.0000    415.1122   -541.9221     22.3148    120.7192
   581.2500    347.9141   -540.8075     22.1394    120.0883
   581.5000    295.6467   -539.6578     21.9858    118.7960
   581.7500    282.9369   -538.6472     21.8646    118.3429
   582.0000    315.6762   -537.8973     21.7750    118.9140
   582.2500    379.9442   -537.4799     21.7075    119.9761
   582.5000    451.8398   -537.4246     21.6519    121.7397
   582.7500    511.1905   -537.7295     21.6031    122.5198
   583.0000    550.2953   -538.3696     21.5585    122.4981
   583.2500    572.4243   -539.3032     21.5096    121.5107
   583.5000    584.1550   -540.4756     21.4396    118.7112
   583.7500    589.8815   -541.8154     21.3318    116.4298
   584.0000    591.2744   -543.2361     21.1820    113.7127
   584.2500    588.7648   -544.6392     21.0036    113.1917
   584.5000    582.6511   -545.9222     20.8179    115.2947
   584.7500    573.4287   -546.9896     20.6378    118.6534
   585.0000    561.1036   -547.7624     20.4629    125.5694
   585.2500    544.2947   -548.1857     20.2873    130.3848
   585.5000    521.0892   -548.2292     20.1134    136.3028
   585.7500    491.3495   -547.8834     19.9580    138.8477
   586.0000    457.1130   -547.1476     19.8445    140.1451
   586.2500    420.1962   -546.0157     19.7907    139.2386
   586.5000    380.7496   -544.4574     19.8028    135.6691
   586.7500    339.1683   -542.4020     19.8815    132.5408
   587.0000    298.8340   -539.7228     20.0331    128.0449
   587.2500    266.1385   -536.2233     20.2752    125.4580
   587.5000    247.5460   -531.6249     20.6306    121.7598
   587.7500    246.3667   -525.5677     21.1173    119.0734
   588.0000    261.8942   -517.6153     21.7394    114.5842
   588.2500    290.6657   -507.2786     22.4832    111.4125
   588.5000    326.7539   -494.0598     23.3190    106.6611
   588.7500    360.1701   -477.5175     24.2075    103.7069
   589.0000    378.0065   -457.3582     25.1111    100.0174
   589.2500    371.8270   -433.5304     26.0033     98.0721
   589.5000    344.6673   -406.3134     26.8671     95.2660
   589.7500    308.6660   -376.3834     27.6853     93.0444
   590.0000    275.7947   -344.8285     28.4349     89.3067
   590.2500    251.5334   -313.1093     29.0931     87.1067
   590.5000    235.2844   -282.9666     29.6463     85.0892
   590.7500    224.3879   -256.2890     30.0877     84.5635
   591.0000    218.8966   -234.9595     30.4070     84.1759
   591.2500    225.0682   -220.6924     30.5839     83.7698
   591.5000    253.6665   -214.8651     30.5944     82.9956
   591.7500    310.8101   -218.3469     30.4282     82.7005
   592.0000    387.9166   -231.3382     30.1004     83.1507
   592.2500    462.0929   -253.2456     29.6504     84.3365
   592.5000    507.8399   -282.6440     29.1246     87.7586
   592.7500    508.8689   -317.3706     28.5561     90.9168
   593.0000    463.3290   -354.7657     27.9540     95.7356
   593.2500    385.1490   -392.0334     27.3113     98.2183
   593.5000    300.6465   -426.6400     26.6237    100.3836
   593.7500    236.2335   -456.6517     25.9004    101.0640
   594.0000    204.0174   -480.9262     25.1593    101.7044
   594.2500    198.4193   -499.1201     24.4173    102.2194
   594.5000    204.4203   -511.5367     23.6893    103.3961
   594.7500    207.6456   -518.8799     22.9942    104.3939
   595.0000    201.5676   -521.9991     22.3542    105.8442
   595.2500    191.5498   -521.6823     21.7847    106.6687
   595.5000    192.0849   -518.5423     21.2865    108.0943
   595.7500    215.4244   -512.9815     20.8509    109.6133
   596.0000    260.5051   -505.2329     20.4773    113.0551
   596.2500    314.8554   -495.4415     20.1874    115.7580
   596.5000    368.1659   -483.7661     20.0229    119.2364
   596.7500    419.9902   -470.4812     20.0278    120.6091
   597.0000    471.8881   -456.0647     20.2268    120.9085
   597.2500    517.7664   -441.2531     20.6116    119.9802
   597.5000    546.7889   -427.0486     21.1400    117.0182
   597.7500    552.3089   -414.6560     21.7457    113.9918
   598.0000    534.8770   -405.3351     22.3576    107.9438
   598.2500    501.0276   -400.1981     22.9189    103.2909
   598.5000    463.4923   -399.9748     23.3984     96.8019
   598.7500    438.9593   -404.8122     23.7844     93.7251
   599.0000    437.4153   -414.1725     24.0672     91.9913
