~Version Information
VERS.                      2.0: CWLS Log ASCII Standard - VERSION 2.0
WRAP.                       NO: One line per depth step
~Well Information Block
STRT.FT               400.0000: 
STOP.FT              1804.7000: 
STEP.FT                 0.1000: 
NULL.                -999.2500: 
COMP.          Pioneer Natural Resources: COMPANY
WELL.           Lynch 43-30 Tr: WELL
FLD.           Purgatoire River: FIELD
LOC.           1431' FSL & 296' FEL--: LOCATION
PROV.                 Colorado: PROVINCE
CNTY.               Las Animas: COUNTRY
SRVC.                Patterson: SERVICE COMPANY
DATE.          Thu Jul 28 10:43:37 2005: LOG DATE
UWI.           05 071 08447 00: UNIQUE WELL ID
~Curve Information Block
DEPT.FT            0 000 00 00: Depth
DCAL.in                       : CDL Caliper
RHOB.g/cc                     : CDL Bulk Density
RHOC.g/cc                     : CDL Density Correction
DPOR.pu                       : CDL Density Porosity
NPOR.pu                       : Neutron Porosity
GR.GAPI                       : Gamma Ray
~Parameter Information Block
~A  Depth       DCAL        RHOB        RHOC        DPOR        NPOR         GR     
# ...
   678.4000      8.1812      2.6454      0.1477      0.2783     26.7902    163.4139
   678.5000      8.1759      2.6515      0.1419     -0.0885     26.4985    156.7456
   678.6000      8.1759      2.6287      0.1218      1.2890     26.0939    139.8880
   678.7000      8.1759      2.5912      0.0999      3.5625     25.4594    124.2208
   678.8000      8.1732      2.5556      0.0864      5.7235     25.0633    118.4771
   678.9000      8.1732      2.5321      0.0709      7.1426     25.4347    127.0719
   679.0000      8.1751      2.5308      0.0591      7.2272     26.2834    143.1004
   679.1000      8.1751      2.5536      0.0800      5.8428     26.9445    152.0986
   679.2000      8.1751      2.5902      0.0779      3.6231     27.1178    149.7602
   679.3000      8.1802      2.6222      0.1103      1.6841     27.0842    144.0298
   679.4000      8.1802      2.6291      0.1038      1.2691     27.1880    139.3523
   679.5000      8.1831      2.6064      0.0934      2.6399     27.2328    135.5662
   679.6000      8.1831      2.5691      0.0739      4.9014     26.8737    135.9651
   679.7000      8.1831      2.5351      0.0617      6.9619     26.2828    139.0415
   679.8000      8.1834      2.5165      0.0595      8.0930     25.7731    137.2601
   679.9000      8.1834      2.5206      0.0487      7.8417     25.5448    131.0328
   680.0000      8.1819      2.5422      0.0808      6.5339     25.8464    129.6361
   680.1000      8.1819      2.5577      0.0901      5.5939     26.3706    135.3693
   680.2000      8.1819      2.5526      0.0802      5.9028     26.5697    138.2545
   680.3000      8.1817      2.5352      0.0811      6.9602     26.5188    133.3546
   680.4000      8.1817      2.5249      0.0626      7.5839     26.3986    129.0341
   680.5000      8.1825      2.5377      0.0759      6.8057     26.2369    129.8015
   680.6000      8.1825      2.5667      0.1018      5.0488     26.3755    130.1688
   680.7000      8.1825      2.5899      0.1099      3.6440     26.7695    128.5084
   680.8000      8.1828      2.5995      0.1146      3.0591     26.9968    128.0310
   680.9000      8.1828      2.6099      0.1021      2.4332     27.1335    130.4947
   681.0000      8.1850      2.6323      0.1233      1.0728     27.4156    138.5606
   681.1000      8.1850      2.6495      0.1491      0.0278     27.7922    148.1195
   681.2000      8.1850      2.6400      0.1311      0.6064     27.9400    147.9383
   681.3000      8.1912      2.6131      0.1139      2.2358     27.7706    138.6375
   681.4000      8.1912      2.5944      0.1026      3.3700     27.6668    132.0013
   681.5000      8.2009      2.5952      0.1016      3.3194     28.0144    134.5420
   681.6000      8.2009      2.6044      0.1185      2.7608     28.8839    142.9815
   681.7000      8.2009      2.6066      0.1024      2.6290     29.7941    149.2822
   681.8000      8.2089      2.6014      0.0973      2.9483     30.4066    149.6559
   681.9000      8.2089      2.5915      0.0911      3.5455     30.9188    146.0135
   682.0000      8.2211      2.5728      0.0858      4.6782     31.2077    140.2230
   682.1000      8.2211      2.5463      0.0601      6.2875     30.9773    136.3090
   682.2000      8.2211      2.5236      0.0515      7.6621     30.4680    139.0742
   682.3000      8.2309      2.5141      0.0408      8.2343     29.9777    146.0208
   682.4000      8.2309      2.5151      0.0492      8.1728     29.7958    152.6648
   682.5000      8.2035      2.5155      0.0488      8.1486     29.7788    157.1849
   682.6000      8.2035      2.5110      0.0431      8.4265     29.5666    156.9402
   682.7000      8.2035      2.5076      0.0374      8.6281     29.1994    151.8000
   682.8000      8.1462      2.5065      0.0502      8.6959     28.8081    149.7586
   682.9000      8.1462      2.4982      0.0484      9.1981     28.5527    154.1486
   683.0000      8.1122      2.4817      0.0409     10.2026     28.5881    159.2631
   683.1000      8.1122      2.4699      0.0258     10.9172     28.6816    160.6145
   683.2000      8.1122      2.4683      0.0518     11.0101     28.4724    156.5606
   683.3000      8.1054      2.4710      0.0386     10.8484     28.0798    151.2002
   683.4000      8.1054      2.4806      0.0415     10.2685     27.5574    150.4054
   683.5000      8.1052      2.4990      0.0636      9.1500     26.8282    154.0175
   683.6000      8.1052      2.5201      0.0592      7.8729     26.2504    157.1773
   683.7000      8.1052      2.5409      0.0751      6.6131     26.1635    157.4812
   683.8000      8.1058      2.5591      0.0802      5.5121     26.4640    157.7811
   683.9000      8.1058      2.5743      0.0827      4.5906     26.7814    157.2616
   684.0000      8.1046      2.5902      0.0823      3.6215     26.6805    154.1066
   684.1000      8.1046      2.6034      0.1014      2.8227     26.2110    151.9727
   684.2000      8.1046      2.6065      0.0906      2.6341     25.8328    149.3246
   684.3000      8.1021      2.6059      0.0791      2.6751     25.9461    142.4019
   684.4000      8.1021      2.6073      0.0897      2.5849     26.5040    138.1202
   684.5000      8.1017      2.6015      0.0878      2.9407     26.8569    142.6072
   684.6000      8.1017      2.5860      0.0664      3.8771     26.7855    148.9543
   684.7000      8.1017      2.5769      0.0528      4.4314     26.6227    149.7210
   684.8000      8.1019      2.5809      0.0633      4.1873     26.6455    147.5480
   684.9000      8.1019      2.5848      0.0635      3.9504     26.7913    147.2232
   685.0000      8.1013      2.5800      0.0471      4.2443     26.9064    147.0238
   685.1000      8.1013      2.5738      0.0442      4.6206     26.9809    143.5835
   685.2000      8.1013      2.5760      0.0299      4.4844     26.9793    137.8493
   685.3000      8.1022      2.5852      0.0465      3.9256     26.9246    132.1859
   685.4000      8.1022      2.5897      0.0398      3.6575     26.8735    127.3503
   685.5000      8.1049      2.5864      0.0305      3.8558     27.1209    124.0308
   685.6000      8.1049      2.5826      0.0266      4.0878     27.7807    122.6959
   685.7000      8.1049      2.5803      0.0314      4.2241     28.4835    123.8588
   685.8000      8.1043      2.5789      0.0181      4.3092     28.8453    125.3001
   685.9000      8.1043      2.5793      0.0287      4.2871     28.7892    124.6950
   686.0000      8.0995      2.5793      0.0225      4.2865     28.5814    124.6314
   686.1000      8.0995      2.5775      0.0251      4.3960     28.4575    127.9608
   686.2000      8.0995      2.5753      0.0217      4.5280     28.5115    133.8364
   686.3000      8.0941      2.5773      0.0251      4.4067     28.7708    138.0921
   686.4000      8.0941      2.5921      0.0157      3.5070     28.8748    137.5722
   686.5000      8.0904      2.6191      0.0480      1.8733     28.5766    135.2948
   686.6000      8.0904      2.6396      0.0530      0.6282     28.1646    132.4203
   686.7000      8.0904      2.6406      0.0534      0.5704     27.7494    125.3427
   686.8000      8.0892      2.6277      0.0418      1.3516     27.0023    115.3305
   686.9000      8.0892      2.6129      0.0391      2.2473     26.0871    110.8820
   687.0000      8.0889      2.6001      0.0358      3.0253     25.4998    113.2005
   687.1000      8.0889      2.5842      0.0379      3.9874     25.2924    115.3538
   687.2000      8.0889      2.5646      0.0228      5.1740     25.6757    117.1078
   687.3000      8.0879      2.5534      0.0129      5.8522     26.7129    118.3348
   687.4000      8.0879      2.5599      0.0232      5.4609     27.7537    116.7730
   687.5000      8.0894      2.5756      0.0334      4.5089     28.4671    117.7978
   687.6000      8.0894      2.5853      0.0436      3.9210     29.1902    123.7951
   687.7000      8.0894      2.5828      0.0322      4.0752     29.8390    129.9064
   687.8000      8.0941      2.5673      0.0470      5.0104     29.9289    133.3115
   687.9000      8.0941      2.5411      0.0270      6.5983     29.6774    132.8102
