~Version Information
VERS.                      2.0: CWLS Log ASCII Standard - VERSION 2.0
WRAP.                       NO: One line per depth step
~Well Information Block
STRT.FT               845.0000: 
STOP.FT              2102.0000: 
STEP.FT                 0.1000: 
NULL.                -999.2500: 
COMP.          Petrogulf Corporation: COMPANY
WELL.               YWAM 7-32R: WELL
FLD.           Purgatorie River: FIELD
LOC.           2355' FNL & 2376' FEL: LOCATION
PROV.                 Colorado: PROVINCE
CNTY.               Las Animas: COUNTRY
SRVC.                Patterson: SERVICE COMPANY
DATE.          Fri Sep 30 11:07:31 2005: LOG DATE
UWI.                          : UNIQUE WELL ID
~Curve Information Block
DEPT.FT            0 000 00 00: Depth
DCAL.in                       : CDL Caliper
RHOB.g/cc                     : CDL Bulk Density
RHOC.g/cc                     : CDL Density Correction
DPOR.pu                       : CDL Density Porosity
GR.GAPI                       : Gamma Ray
NPOR.pu                       : Neutron Porosity
~Parameter Information Block
~A  Depth       DCAL        RHOB        RHOC        DPOR         GR         NPOR    
# ...
  1344.2000      8.1095      2.0070      0.0946     38.9710    116.5508     29.0972
  1344.3000      8.0433      2.0349      0.1447     37.2773    120.1085     29.5048
  1344.4000      8.0433      2.0948      0.2129     33.6463    117.4126     30.1105
  1344.5000      8.0544      2.1793      0.2583     28.5255    112.4993     30.5995
  1344.6000      8.0544      2.2808      0.2695     22.3762    110.6920     30.5018
  1344.7000      8.0544      2.3875      0.2587     15.9076    112.9809     29.8750
  1344.8000      8.1169      2.4736      0.2807     10.6897    116.6525     29.2087
  1344.9000      8.1169      2.5228      0.1288      7.7077    120.0118     28.8154
  1345.0000      8.0106      2.5493      0.1223      6.1058    121.8303     28.6152
  1345.1000      8.0106      2.5652      0.1260      5.1392    121.6528     28.4254
  1345.2000      8.0106      2.5745      0.0635      4.5739    120.9649     28.0470
  1345.3000      7.6917      2.5861      0.0505      3.8721    121.8620     27.3186
  1345.4000      7.6917      2.5971      0.0922      3.2052    123.4589     26.1751
  1345.5000      7.5954      2.5956      0.0600      3.2998    123.9584     24.9014
  1345.6000      7.5954      2.5832      0.0452      4.0491    122.7209     23.8803
  1345.7000      7.5954      2.5721      0.0703      4.7198    120.3984     23.0829
  1345.8000      7.6451      2.5662      0.0868      5.0815    118.7509     22.3419
  1345.9000      7.6451      2.5632      0.0233      5.2602    117.4340     21.6474
  1346.0000      7.6562      2.5689      0.0298      4.9154    115.1070     21.1530
  1346.1000      7.6562      2.5816      0.0885      4.1429    114.3260     20.8528
  1346.2000      7.6562      2.5852      0.0744      3.9296    116.8957     20.5342
  1346.3000      7.6620      2.5738      0.0372      4.6157    118.9822     20.2928
  1346.4000      7.6620      2.5584      0.0414      5.5494    118.7323     20.5189
  1346.5000      7.5982      2.5447      0.0154      6.3841    119.7522     21.2104
  1346.6000      7.5982      2.5281      0.0162      7.3864    125.0222     21.7497
  1346.7000      7.5982      2.5075      0.0078      8.6387    133.3755     21.7611
  1346.8000      7.5857      2.4874      0.0158      9.8574    141.6585     21.4795
  1346.9000      7.5857      2.4675      0.0320     11.0578    144.6960     21.4361
  1347.0000      7.5452      2.4485      0.0087     12.2142    140.7537     21.8782
  1347.1000      7.5452      2.4337      0.0049     13.1102    136.5316     22.5183
  1347.2000      7.5452      2.4155      0.0439     14.2121    137.4547     22.7632
  1347.3000      7.5656      2.3819      0.0269     16.2478    142.6311     22.4289
  1347.4000      7.5656      2.3230      0.0498     19.8172    148.4348     22.1734
  1347.5000      7.4550      2.2388     -0.0087     24.9221    152.1761     22.5583
  1347.6000      7.4550      2.1633     -0.0474     29.4988    152.5308     23.3169
  1347.7000      7.4550      2.1404     -0.0361     30.8846    149.5471     23.8432
  1347.8000      7.3198      2.1786     -0.0046     28.5696    145.0043     23.8888
  1347.9000      7.3198      2.2546      0.1249     23.9657    142.9909     23.7009
  1348.0000      7.0021      2.3494      0.1622     18.2161    144.1187     23.4955
  1348.1000      7.0021      2.4549      0.2763     11.8253    142.7047     23.3643
  1348.2000      7.0021      2.5422      0.4321      6.5317    134.7171     23.2854
  1348.3000      7.1924      2.5870      0.3766      3.8206    121.8862     22.9467
  1348.4000      7.1924      2.6054      0.3348      2.7027    110.6020     22.2907
  1348.5000      7.3333      2.6153      0.3529      2.1051    105.5763     21.7037
  1348.6000      7.3333      2.6095      0.3020      2.4574    104.8776     21.3690
  1348.7000      7.3333      2.5861      0.2264      3.8733    104.4147     21.2199
  1348.8000      7.2798      2.5607      0.1365      5.4125    103.7013     21.0698
  1348.9000      7.2798      2.5369      0.1643      6.8518    102.3365     20.6984
  1349.0000      7.3174      2.4914      0.1726      9.6124     98.1644     20.0676
  1349.1000      7.3174      2.4153      0.1033     14.2270     93.6215     19.5186
  1349.2000      7.3174      2.3436      0.0366     18.5716     91.1719     19.2697
  1349.3000      7.2823      2.3144      0.0391     20.3405     88.6214     19.0499
  1349.4000      7.2823      2.3318      0.0327     19.2873     85.7248     18.8161
  1349.5000      7.0334      2.3813      0.0849     16.2822     84.7170     18.8250
  1349.6000      7.0334      2.4531      0.1399     11.9334     85.5919     18.8236
  1349.7000      7.0334      2.5396      0.2595      6.6920     87.4091     18.4262
  1349.8000      7.0944      2.6164      0.4038      2.0339     88.9545     17.7722
  1349.9000      7.0944      2.6553      0.3295     -0.3190     89.6211     17.3314
  1350.0000      7.2096      2.6580      0.3182     -0.4873     90.0512     17.3594
  1350.1000      7.2096      2.6457      0.2718      0.2621     90.3261     17.6040
  1350.2000      7.2096      2.6291      0.2725      1.2644     89.0095     17.8103
  1350.3000      7.2310      2.6108      0.2073      2.3747     86.1371     17.8094
  1350.4000      7.2310      2.6020      0.1673      2.9097     83.9956     17.4903
  1350.5000      7.3128      2.6111      0.1527      2.3606     82.9065     16.9667
  1350.6000      7.3128      2.6259      0.1558      1.4606     80.9097     16.4841
  1350.7000      7.3128      2.6274      0.1846      1.3670     78.5337     16.0681
  1350.8000      7.3881      2.6118      0.1284      2.3128     77.9601     15.6552
  1350.9000      7.3881      2.5947      0.1033      3.3509     76.8801     15.3843
  1351.0000      7.3607      2.5885      0.1329      3.7260     73.0228     15.1985
  1351.1000      7.3607      2.5885      0.0947      3.7293     69.5832     14.9107
  1351.2000      7.3607      2.5866      0.1037      3.8422     67.1488     14.6187
  1351.3000      7.3390      2.5800      0.1114      4.2437     64.0947     14.6903
  1351.4000      7.3390      2.5716      0.0667      4.7536     63.4320     14.9304
  1351.5000      7.3489      2.5690      0.0497      4.9088     66.2233     14.6623
  1351.6000      7.3489      2.5767      0.0987      4.4429     68.4518     13.9504
  1351.7000      7.3489      2.5924      0.0879      3.4898     68.7878     13.5623
  1351.8000      7.3720      2.6054      0.1253      2.7036     69.3145     13.8400
  1351.9000      7.3720      2.5996      0.1288      3.0527     70.0307     14.2307
  1352.0000      7.4402      2.5758      0.0886      4.4982     70.4012     14.2922
  1352.1000      7.4402      2.5503      0.0570      6.0410     71.6132     14.3934
  1352.2000      7.4402      2.5350      0.0701      6.9691     72.4025     14.8056
  1352.3000      7.4726      2.5335      0.0762      7.0629     70.2367     15.1972
  1352.4000      7.4726      2.5419      0.0987      6.5540     67.7119     15.2040
  1352.5000      7.4199      2.5533      0.0816      5.8618     69.0093     14.8574
  1352.6000      7.4199      2.5761      0.0654      4.4767     72.2980     14.6116
  1352.7000      7.4199      2.6190      0.1656      1.8791     72.6846     14.8067
  1352.8000      7.4102      2.6581      0.2277     -0.4892     70.7852     15.0719
  1352.9000      7.4102      2.6706      0.1889     -1.2459     70.9880     14.9668
  1353.0000      7.4025      2.6695      0.1572     -1.1847     73.3723     14.5518
  1353.1000      7.4025      2.6655      0.1936     -0.9376     76.8478     14.4243
  1353.2000      7.4025      2.6432      0.1828      0.4118     82.5768     14.9717
  1353.3000      7.3836      2.5951      0.1480      3.3286     88.7046     15.9053
  1353.4000      7.3836      2.5365      0.0847      6.8773     92.6387     16.9335
  1353.5000      7.3587      2.4931      0.0353      9.5087     95.8339     17.9314
  1353.6000      7.3587      2.4810      0.0366     10.2440     99.9172     18.6927
  1353.7000      7.3587      2.4970      0.0421      9.2751    102.4859     19.3311
