~Version Information
VERS.                      2.0: CWLS Log ASCII Standard - VERSION 2.0
WRAP.                       NO: One line per depth step
~Well Information Block
STRT.FT               615.0000: 
STOP.FT              2815.0000: 
STEP.FT                 0.2500: 
NULL.                -999.2500: 
COMP.          Pioneer Natural Resources: COMPANY
WELL.              Loews 41-32: WELL
FLD.           Purgatoire River: FIELD
LOC.           751' FNL & 128' FEL: LOCATION
CNTY.               Las Animas: COUNTY
SRVC.                Patterson: SERVICE COMPANY
DATE.          Sun Feb 12 02:27:11 2006: LOG DATE
UWI.           05 071 08693 00: UNIQUE WELL ID
STAT.                 Colorado: STATE
~Curve Information Block
DEPT.FT            0 000 00 00: Depth
SN.Ohm-m                      : IEL Short Normal
SP.mV                         : IEL Spontaneous Potential
DIR.Ohm-m                     : IEL Induction Resistivity
GR.GAPI                       : Gamma Ray
~Parameter Information Block
~A  Depth        SN          SP         DIR          GR     
# ...
  1486.0000     29.4992    -24.5993     27.8892    107.2825
  1486.2500     30.5222    -24.4216     28.1987    105.2896
  1486.5000     31.4880    -24.1686     28.4607    102.5708
  1486.7500     32.3462    -23.8598     28.7253    101.0222
  1487.0000     33.2621    -23.5173     29.0533     98.5082
  1487.2500     34.3929    -23.1594     29.4873     96.3072
  1487.5000     35.6794    -22.7981     30.0314     92.0989
  1487.7500     36.9210    -22.4393     30.6486     88.8962
  1488.0000     38.0337    -22.0837     31.2747     83.7391
  1488.2500     39.0937    -21.7279     31.8448     79.9651
  1488.5000     40.1410    -21.3682     32.3188     73.5026
  1488.7500     41.1075    -21.0074     32.6935     68.7644
  1489.0000     41.9339    -20.6598     32.9973     61.9139
  1489.2500     42.6618    -20.3482     33.2721     58.2396
  1489.5000     43.4057    -20.0977     33.5489     55.0757
  1489.7500     44.2199    -19.9315     33.8183     54.7820
  1490.0000     45.0173    -19.8678     34.0040     56.7199
  1490.2500     45.6372    -19.9127     33.9580     59.0976
  1490.5000     45.8811    -20.0568     33.5042     63.7059
  1490.7500     45.5187    -20.2827     32.5254     67.5837
  1491.0000     44.3752    -20.5765     31.0356     75.3041
  1491.2500     42.3567    -20.9299     29.1821     81.9483
  1491.5000     39.4773    -21.3298     27.1777     93.3114
  1491.7500     35.9615    -21.7486     25.2172    100.5310
  1492.0000     32.1147    -22.1458     23.4255    108.6779
  1492.2500     28.1395    -22.4796     21.8484    112.1629
  1492.5000     24.3058    -22.7199     20.4727    116.3410
  1492.7500     21.0380    -22.8556     19.2568    119.7537
  1493.0000     18.5724    -22.8954     18.1553    126.6344
  1493.2500     16.7533    -22.8628     17.1344    132.0012
  1493.5000     15.2967    -22.7852     16.1782    140.0943
  1493.7500     14.0871    -22.6835     15.2879    144.8858
  1494.0000     13.1731    -22.5653     14.4728    150.2264
  1494.2500     12.5627    -22.4246     13.7393    152.4186
  1494.5000     12.1804    -22.2485     13.0853    154.6069
  1494.7500     12.0189    -22.0253     12.5037    156.1076
  1495.0000     12.0594    -21.7533     11.9903    158.8112
  1495.2500     12.0868    -21.4458     11.5469    160.6455
  1495.5000     11.9061    -21.1315     11.1787    163.3376
  1495.7500     11.6190    -20.8466     10.8894    165.3922
  1496.0000     11.4318    -20.6198     10.6785    168.8996
  1496.2500     11.3754    -20.4593     10.5410    170.8144
  1496.5000     11.3503    -20.3536     10.4658    171.3896
  1496.7500     11.2706    -20.2833     10.4362    169.8552
  1497.0000     11.1186    -20.2344     10.4322    165.3556
  1497.2500     10.9694    -20.2034     10.4366    161.4817
  1497.5000     10.9211    -20.1933     10.4396    154.9542
  1497.7500     10.9817    -20.2064     10.4397    150.6118
  1498.0000     11.1049    -20.2378     10.4401    146.0033
  1498.2500     11.2686    -20.2747     10.4444    145.4428
  1498.5000     11.4386    -20.3013     10.4563    148.6655
  1498.7500     11.5552    -20.3089     10.4827    152.2659
  1499.0000     11.5836    -20.3048     10.5375    156.9308
  1499.2500     11.5322    -20.3114     10.6396    158.6399
  1499.5000     11.4595    -20.3518     10.8068    159.6561
  1499.7500     11.4210    -20.4337     11.0497    160.2889
  1500.0000     11.3974    -20.5438     11.3689    162.2047
  1500.2500     11.3464    -20.6562     11.7558    163.7103
  1500.5000     11.2760    -20.7452     12.1963    164.1859
  1500.7500     11.2806    -20.7945     12.6749    161.9789
  1501.0000     11.5680    -20.8013     13.1783    153.6729
  1501.2500     12.3554    -20.7756     13.6966    145.0755
  1501.5000     13.6734    -20.7357     14.2233    129.6886
  1501.7500     15.3436    -20.7004     14.7542    119.3599
  1502.0000     17.2286    -20.6806     15.2868    105.4778
  1502.2500     19.4572    -20.6747     15.8203     97.4133
  1502.5000     22.1803    -20.6704     16.3528     87.0461
  1502.7500     25.0904    -20.6519     16.8774     81.9514
  1503.0000     27.4047    -20.6077     17.3779     79.3362
  1503.2500     28.3710    -20.5358     17.8265     82.1039
  1503.5000     27.8195    -20.4436     18.1873     93.0114
  1503.7500     26.2682    -20.3442     18.4225    103.3423
  1504.0000     24.4229    -20.2532     18.5029    119.4987
  1504.2500     22.6818    -20.1856     18.4222    128.6657
  1504.5000     21.1622    -20.1548     18.2068    138.5740
  1504.7500     19.8703    -20.1696     17.9102    142.9615
  1505.0000     18.7803    -20.2304     17.5934    147.2982
  1505.2500     17.9033    -20.3278     17.3025    148.9191
  1505.5000     17.2488    -20.4482     17.0605    149.2741
  1505.7500     16.7832    -20.5832     16.8727    148.1558
  1506.0000     16.4983    -20.7351     16.7382    145.1198
  1506.2500     16.4149    -20.9142     16.6550    142.7753
  1506.5000     16.5273    -21.1315     16.6179    139.3281
  1506.7500     16.8082    -21.3939     16.6118    136.7961
  1507.0000     17.1991    -21.7043     16.6110    131.4699
  1507.2500     17.6077    -22.0615     16.5885    126.4074
  1507.5000     17.9745    -22.4604     16.5311    116.8869
  1507.7500     18.3223    -22.8899     16.4492    110.2366
  1508.0000     18.7112    -23.3347     16.3709    102.3973
  1508.2500     19.0640    -23.7803     16.3252    100.0722
  1508.5000     19.0652    -24.2159     16.3235    102.1895
  1508.7500     18.4935    -24.6328     16.3519    107.0304
  1509.0000     17.5881    -25.0204     16.3769    117.5046
  1509.2500     16.7686    -25.3677     16.3624    125.1645
  1509.5000     16.2001    -25.6689     16.2867    135.5776
  1509.7500     15.8428    -25.9260     16.1504    141.1684
  1510.0000     15.6056    -26.1452     15.9671    147.2322
  1510.2500     15.3779    -26.3330     15.7470    149.6122
  1510.5000     15.1315    -26.4963     15.4901    150.3695
  1510.7500     14.9173    -26.6419     15.1961    149.0437
  1511.0000     14.6873    -26.7724     14.8793    145.2562
  1511.2500     14.3296    -26.8754     14.5707    142.4146
  1511.5000     13.8781    -26.9187     14.3043    139.0340
  1511.7500     13.4972    -26.8631     14.0995    137.8360
  1512.0000     13.2734    -26.6904     13.9543    137.7641
  1512.2500     13.1106    -26.4192     13.8510    138.5533
  1512.5000     12.9164    -26.0956     13.7687    139.9231
  1512.7500     12.7928    -25.7676     13.6948    140.3521
  1513.0000     12.8565    -25.4695     13.6302    140.1246
  1513.2500     13.0233    -25.2158     13.5870    140.0009
  1513.5000     13.1065    -25.0011     13.5822    141.1723
  1513.7500     13.0320    -24.8040     13.6310    142.9369
  1514.0000     12.9025    -24.6001     13.7422    145.4952
  1514.2500     12.8850    -24.3771     13.9148    145.9385
  1514.5000     13.0562    -24.1375     14.1361    143.9728
  1514.7500     13.3635    -23.8901     14.3842    141.5126
  1515.0000     13.7158    -23.6421     14.6337    137.7066
  1515.2500     14.0913    -23.3935     14.8645    135.5576
  1515.5000     14.5158    -23.1367     15.0678    132.6034
  1515.7500     14.9309    -22.8596     15.2458    130.4428
  1516.0000     15.2203    -22.5557     15.4048    126.7595
  1516.2500     15.4018    -22.2346     15.5470    124.1243
  1516.5000     15.6713    -21.9263     15.6682    119.9768
  1516.7500     16.1980    -21.6699     15.7622    117.1340
  1517.0000     16.8745    -21.4903     15.8257    113.4779
  1517.2500     17.3714    -21.3806     15.8594    112.2288
  1517.5000     17.5199    -21.3085     15.8671    113.1366
  1517.7500     17.4623    -21.2430     15.8556    115.5171
  1518.0000     17.3276    -21.1736     15.8365    120.8089
  1518.2500     17.0316    -21.1065     15.8247    125.0244
  1518.5000     16.5006    -21.0483     15.8329    132.0289
  1518.7500     15.8243    -20.9987     15.8660    136.7688
  1519.0000     15.1759    -20.9545     15.9206    142.5543
  1519.2500     14.7338    -20.9159     15.9903    144.7219
