~Version Information
VERS.                      2.0: CWLS Log ASCII Standard - VERSION 2.0
WRAP.                       NO: One line per depth step
~Well Information Block
STRT.FT                -7.0000: 
STOP.FT              2517.5000: 
STEP.FT                 0.2500: 
NULL.                -999.2500: 
COMP.          Pioneer Natural Resources: COMPANY
WELL.          Horsefeathers 24-34: WELL
FLD.           Purgatoire River: FIELD
LOC.           183' FSL & 1570' FWL: LOCATION
CNTY.               Las Animas: COUNTY
SRVC.                         : SERVICE COMPANY
DATE.          Fri Mar 17 10:06:37 2006: LOG DATE
UWI.           05 071 08675 00: UNIQUE WELL ID
STAT.                       CO: STATE
~Curve Information Block
DEPT.FT            0 000 00 00: Depth
GR.GAPI                       : Gamma Ray
CCL.                          : Casing Collar Locator
TT3.usec                      : CBL 3' Travel Time
AMP3.mV                       : CBL 3' Amplitude
~Parameter Information Block
~A  Depth        GR         CCL         TT3         AMP3    
# ...
  1634.5000     94.5109      0.0000    473.5536      5.0454
  1634.7500     94.3119      0.0000    467.3251      5.0452
  1635.0000     94.1948      0.0000    462.3769      5.0375
  1635.2500     95.1421      0.0000    459.1059      5.0308
  1635.5000     97.4822      0.0000    456.6725      5.0372
  1635.7500    100.4516      0.0000    454.3642      5.0626
  1636.0000    102.7347      0.0000    452.4296      5.1045
  1636.2500    103.5555      0.0000    451.7986      5.1551
  1636.5000    103.3002      0.0000    453.0056      5.2049
  1636.7500    103.1941      0.0000    455.5531      5.2472
  1637.0000    104.4779      0.0000    458.4648      5.2804
  1637.2500    107.5836      0.0000    461.2691      5.3099
  1637.5000    111.6641      0.0000    464.1912      5.3417
  1637.7500    114.9887      0.0000    467.4050      5.3747
  1638.0000    116.1523      0.0000    470.2386      5.3980
  1638.2500    114.9795      0.0000    471.3011      5.3995
  1638.5000    112.3187      0.0000    469.4622      5.3772
  1638.7500    109.3058      0.0000    464.5296      5.3433
  1639.0000    106.8336      0.0000    457.0457      5.3160
  1639.2500    105.1474      0.0000    447.9813      5.3059
  1639.5000    103.5723      0.0000    438.8036      5.3090
  1639.7500    100.9597      0.0000    431.2332      5.3122
  1640.0000     96.8463      0.0000    426.4952      5.3058
  1640.2500     92.0626      0.0000    424.9764      5.2898
  1640.5000     87.9136      0.0000    426.6227      5.2685
  1640.7500     84.9822      0.0000    431.1816      5.2440
  1641.0000     83.1066      0.0000    437.6672      5.2140
  1641.2500     82.1128      0.0000    443.9359      5.1737
  1641.5000     81.7938      0.0000    447.6371      5.1209
  1641.7500     81.3354      0.0000    448.1054      5.0615
  1642.0000     79.7357      0.0000    446.9884      5.0077
  1642.2500     77.0812      0.0000    446.5761      4.9687
  1642.5000     74.7578      0.0000    447.7506      4.9456
  1642.7500     74.2233      0.0000    449.9071      4.9336
  1643.0000     75.9577      0.0000    452.2208      4.9269
  1643.2500     79.4239      0.0000    454.1888      4.9208
  1643.5000     83.4632      0.0000    455.4893      4.9123
  1643.7500     86.7855      0.0000    456.3354      4.9019
  1644.0000     88.5476      0.0000    457.7071      4.8929
  1644.2500     88.6406      0.0000    460.4601      4.8889
  1644.5000     87.4299      0.0000    464.3787      4.8915
  1644.7500     85.3325      0.0000    468.6578      4.9001
  1645.0000     82.6601      0.0000    472.9821      4.9148
  1645.2500     79.7536      0.0000    477.6613      4.9376
  1645.5000     77.1717      0.0000    482.9682      4.9727
  1645.7500     75.5923      0.0000    489.1703      5.0250
  1646.0000     75.3241      0.0000    497.3246      5.0971
  1646.2500     75.9346      0.0000    508.7512      5.1841
  1646.5000     76.6119      0.0000    522.2991      5.2707
  1646.7500     77.0366      0.0000    532.8016      5.3396
  1647.0000     77.7722      0.0000    534.3608      5.3835
  1647.2500     79.7118      0.0000    525.8492      5.4064
  1647.5000     83.0159      0.0000    512.4252      5.4135
  1647.7500     86.4347      0.0000    502.0405      5.4054
  1648.0000     87.8858      0.0000    500.7622      5.3833
  1648.2500     86.1562      0.0000    509.4466      5.3502
  1648.5000     82.0350      0.0000    522.8408      5.3079
  1648.7500     77.5713      0.0000    532.7900      5.2579
  1649.0000     74.4904      0.0000    534.2707      5.2072
  1649.2500     73.4529      0.0000    528.5207      5.1676
  1649.5000     74.2845      0.0000    519.9874      5.1464
  1649.7500     76.3836      0.0000    511.3482      5.1397
  1650.0000     78.9789      0.0000    502.0262      5.1375
  1650.2500     81.2610      0.0000    490.3217      5.1349
  1650.5000     82.4182      0.0000    475.8981      5.1367
  1650.7500     81.7569      0.0000    460.5087      5.1511
  1651.0000     78.9937      0.0000    447.0473      5.1794
  1651.2500     74.5861      0.0000    437.8897      5.2126
  1651.5000     69.8630      0.0000    433.5003      5.2375
  1651.7500     66.5847      0.0000    432.1942      5.2470
  1652.0000     65.8495      0.0000    431.3734      5.2465
  1652.2500     67.2622      0.0000    429.3988      5.2491
  1652.5000     69.4039      0.0000    426.4097      5.2682
  1652.7500     71.1331      0.0000    423.4812      5.3136
  1653.0000     72.3122      0.0000    421.3613      5.3851
  1653.2500     73.3114      0.0000    420.0932      5.4633
  1653.5000     74.0374      0.0000    419.3904      5.5141
  1653.7500     73.7815      0.0000    419.0114      5.5140
  1654.0000     72.3570      0.0000    418.8463      5.4695
  1654.2500     71.1087      0.0000    418.8934      5.4074
  1654.5000     72.0478      0.0000    419.3078      5.3496
  1654.7500     75.7792      0.0000    420.5294      5.3040
  1655.0000     80.7344      0.0000    423.3172      5.2699
  1655.2500     84.6254      0.0000    428.4009      5.2449
  1655.5000     86.2468      0.0000    435.7801      5.2255
  1655.7500     85.7624      0.0000    444.4844      5.2076
  1656.0000     83.9001      0.0000    453.6374      5.1903
  1656.2500     81.3601      0.0000    464.2529      5.1776
  1656.5000     78.7352      0.0000    479.5068      5.1748
  1656.7500     76.6400      0.0000    501.5084      5.1784
  1657.0000     75.8803      0.0000    526.3342      5.1695
  1657.2500     77.2736      0.0000    543.5056      5.1224
  1657.5000     80.8074      0.0000    543.7180      5.0286
  1657.7500     84.9191      0.0000    528.1237      4.9156
  1658.0000     87.1952      0.0000    508.4445      4.8322
  1658.2500     86.2581      0.0000    497.7301      4.8090
  1658.5000     82.8796      1.9897    501.7179      4.8388
  1658.7500     79.0934      1.3083    517.6008      4.8983
  1659.0000     76.4118      0.0000    538.9937      4.9885
  1659.2500     75.0340      0.0000    561.9485      5.1532
  1659.5000     74.4116      0.0000    586.1782      5.4522
  1659.7500     74.1093      0.0000    610.0083      5.8861
  1660.0000     74.1471      0.0000    625.7347      6.3369
  1660.2500     74.8798      0.0000    623.2922      6.6187
  1660.5000     76.6253      0.0000    600.0682      6.6296
  1660.7500     79.2412      0.0000    565.5507      6.4394
  1661.0000     82.2153      0.0000    534.4033      6.2093
  1661.2500     85.4066      0.0000    515.3148      6.0513
  1661.5000     89.4733      0.0000    507.0993      5.9786
  1661.7500     95.3014      0.0000    503.4064      5.9519
  1662.0000    103.1247      0.0000    498.8729      5.9323
  1662.2500    112.1821      0.0000    491.6652      5.9009
  1662.5000    120.8882      0.0000    482.9091      5.8557
  1662.7500    127.4579      0.0000    474.9839      5.8069
  1663.0000    130.9206      0.0000    469.9328      5.7687
  1663.2500    131.5886      0.0000    468.6719      5.7499
  1663.5000    130.2468      0.0000    470.8253      5.7482
  1663.7500    127.1210      0.0000    474.6747      5.7545
  1664.0000    122.1410      0.0000    477.6202      5.7602
  1664.2500    116.0380      0.0000    477.9200      5.7636
  1664.5000    110.5077      0.0000    476.9035      5.7715
  1664.7500    107.0424      0.0000    479.6904      5.7941
  1665.0000    105.6848      0.0000    493.3945      5.8371
  1665.2500    104.9783      0.0000    523.1479      5.8944
  1665.5000    103.2515      0.0000    567.4710      5.9498
  1665.7500    100.1483      0.0000    616.6650      5.9873
  1666.0000     96.9861      0.0000    657.5330      6.0015
  1666.2500     95.6239      0.0000    681.6840      5.9974
  1666.5000     97.0139      0.0000    689.4413      5.9804
  1666.7500    100.8265      0.0000    686.1125      5.9463
  1667.0000    106.2112      0.0000    676.6613      5.8865
  1667.2500    112.5027      0.0000    665.3170      5.8027
  1667.5000    119.1341      0.0000    657.4899      5.7171
  1667.7500    125.3809      0.0000    657.7040      5.6602
