~Version Information
VERS.                      2.0: CWLS Log ASCII Standard - VERSION 2.0
WRAP.                       NO: One line per depth step
~Well Information Block
STRT.FT                 0.0000: 
STOP.FT              1201.0000: 
STEP.FT                 0.2500: 
NULL.                -999.2500: 
COMP.          Pioneer Natural Resources: COMPANY
WELL.             Margaux 11-1: WELL
FLD.           Purgatoire River: FIELD
LOC.           1154' FNL & 472' FWL --------: LOCATION
PROV.                 Colorado: PROVINCE
CNTY.               Las Animas: COUNTRY
SRVC.                         : SERVICE COMPANY
DATE.          Thu Jan 05 11:16:55 2006: LOG DATE
UWI.                          : UNIQUE WELL ID
~Curve Information Block
DEPT.FT            0 000 00 00: Depth
CCL.                          : Casing Collar Locator
TT3.usec                      : CBL 3' Travel Time
AMP3.mV                       : CBL 3' Amplitude
AMP5.mV                       : CBL 5' Amplitude
GR.GAPI                       : Gamma Ray
~Parameter Information Block
~A  Depth       CCL         TT3         AMP3        AMP5         GR     
# ...
   560.0000      0.0000    720.8047      8.2319      1.2933     84.5135
   560.2500      0.0000    720.1265      8.0519      1.4902     89.1607
   560.5000      0.0000    721.4372      7.8825      1.8065     93.1070
   560.7500      0.0000    724.1447      7.7551      2.1458     96.8234
   561.0000      0.0000    727.2592      7.6823      2.3885    100.5640
   561.2500      0.0000    729.4221      7.6540      2.4474    104.0666
   561.5000      0.0000    729.6288      7.6477      2.3066    106.7975
   561.7500      0.0000    727.8795      7.6454      2.0344    109.0147
   562.0000      0.0000    725.2783      7.6400      1.7599    112.5466
   562.2500      0.0000    723.4250      7.6284      1.5990    119.6316
   562.5000      0.0000    722.7644      7.6048      1.5630    130.5104
   562.7500      0.0000    720.8985      7.5619      1.5464    142.6281
   563.0000      0.0000    713.8867      7.5023      1.4345    152.5030
   563.2500      0.0000    700.7903      7.4473      1.2256    158.0131
   563.5000      0.0000    686.2643      7.4248      1.0340    158.7890
   563.7500      0.0000    676.7495      7.4395      0.9748    155.1883
   564.0000      0.0000    674.1663      7.4582      1.0599    147.7149
   564.2500      0.0000    674.9890      7.4286      1.1984    137.3276
   564.5000      0.0000    675.6204      7.3190      1.2864    125.6460
   564.7500      0.0000    677.4169      7.1453      1.3005    114.5147
   565.0000      0.0000    686.0402      6.9631      1.3142    105.4226
   565.2500      0.0000    706.3160      6.8325      1.4185     99.2500
   565.5000      0.0000    737.5242      6.7845      1.6243     96.1382
   565.7500      0.0000    772.9123      6.8115      1.8431     95.4151
   566.0000      0.0000    803.8059      6.8834      1.9592     95.9052
   566.2500      0.0000    824.9133      6.9736      1.9160     96.5843
   566.5000      0.0000    836.2615      7.0731      1.7481     96.9730
   566.7500      0.0000    840.9869      7.1822      1.5526     97.0799
   567.0000      0.0000    842.2748      7.2894      1.4291     97.1764
   567.2500      0.0000    842.0052      7.3605      1.4250     97.4875
   567.5000      0.0000    840.8060      7.3553      1.5173     97.9779
   567.7500      0.0000    838.1053      7.2627      1.6350     98.8480
   568.0000      0.0000    832.0098      7.1212      1.7027    101.3348
   568.2500      0.0000    819.7805      6.9955      1.6791    107.2797
   568.5000      0.0000    799.8796      6.9320      1.5771    117.3796
   568.7500      0.0000    774.7520      6.9337      1.4583    129.9936
   569.0000      0.0000    750.9363      6.9720      1.3986    141.8194
   569.2500      0.0000    734.3077      7.0143      1.4413    149.8466
   569.5000      0.0000    724.7423      7.0473      1.5712    153.0799
   569.7500      0.0000    716.7883      7.0818      1.7333    152.8951
   570.0000      0.0000    705.1936      7.1358      1.8718    151.8615
   570.2500      0.0000    688.1291      7.2073      1.9459    151.9238
   570.5000      0.0000    666.4149      7.2699      1.9319    153.3145
   570.7500      0.0000    642.6830      7.2975      1.8421    154.7403
   571.0000      0.0000    621.1483      7.2913      1.7365    154.1721
   571.2500      0.0000    605.9012      7.2772      1.6844    149.7058
   571.5000      0.0000    599.0993      7.2793      1.7003    140.6422
   571.7500      0.0000    601.5570      7.2998      1.7331    128.5321
   572.0000      0.0000    614.5212      7.3225      1.7322    116.8975
   572.2500      0.0000    639.4238      7.3355      1.7125    109.0601
   572.5000      0.0000    675.0419      7.3452      1.7406    106.0295
   572.7500      0.0000    714.5323      7.3655      1.8578    106.6776
   573.0000      0.0000    745.9831      7.3962      2.0234    109.4007
   573.2500      0.0000    758.0463      7.4244      2.1432    112.9732
   573.5000      0.0000    747.1387      7.4433      2.1551    116.3231
   573.7500      0.0000    719.5086      7.4621      2.0855    118.4575
   574.0000      0.0000    686.3702      7.4939      2.0188    118.9671
   574.2500      0.0000    657.9323      7.5412      2.0030    118.6415
   574.5000      0.0000    641.4720      7.5901      1.9919    119.3752
   574.7500      0.0000    641.3433      7.6182      1.8911    122.8968
   575.0000      0.0000    657.1488      7.6039      1.6621    129.4461
   575.2500      0.0000    681.9293      7.5261      1.3654    137.9570
   575.5000      0.0000    704.7974      7.3608      1.1064    147.1459
   575.7500      0.0000    717.1617      7.0897      0.9489    155.7644
   576.0000      0.0000    717.0879      6.7176      0.8824    162.2373
   576.2500      0.0000    708.7258      6.2717      0.8564    165.1209
   576.5000      0.0000    698.9283      5.7783      0.8394    164.1159
   576.7500      0.0000    693.6556      5.2606      0.8471    160.2562
   577.0000      0.0000    695.3875      4.7786      0.9162    155.1475
   577.2500      0.0000    702.9335      4.4471      1.0477    150.1633
   577.5000      0.0000    714.1796      4.3591      1.1877    146.1885
   577.7500      0.0000    728.4243      4.4869      1.2732    143.7575
   578.0000     -2.0000    744.8562      4.6946      1.2901    143.1775
   578.2500      0.0000    759.3430      4.8506      1.2650    144.4991
   578.5000      0.0000    765.0548      4.9175      1.2153    147.2545
   578.7500      0.0000    757.9654      4.9606      1.1433    150.2823
   579.0000      0.0000    741.3288      5.1012      1.0770    152.2580
   579.2500      0.0000    723.5223      5.4290      1.0734    152.6821
   579.5000      0.0000    711.2567      5.9106      1.1587    152.0865
   579.7500      0.0000    704.7571      6.3953      1.2870    151.1635
   580.0000      0.0000    698.6616      6.7489      1.3828    149.9158
   580.2500      0.0000    687.0519      6.9631      1.4204    147.6694
   580.5000      0.0000    668.5786      7.1109      1.4451    143.6804
   580.7500      0.0000    648.0289      7.2367      1.5133    137.7383
   581.0000      0.0000    633.1345      7.3305      1.6280    130.3395
   581.2500      0.0000    628.8877      7.3787      1.7441    122.3781
   581.5000      0.0000    634.0649      7.4013      1.8265    114.8271
   581.7500      0.0000    642.5887      7.4423      1.8909    108.6086
   582.0000      0.0000    648.2018      7.5385      1.9842    104.2617
   582.2500      0.0000    648.5283      7.6940      2.1248    101.5733
   582.5000      0.0000    645.6866      7.8794      2.2627     99.9519
   582.7500      0.0000    643.6135      8.0550      2.3014     99.4749
   583.0000      0.0000    644.8023      8.1970      2.1681    101.3444
   583.2500      0.0000    649.1664      8.3051      1.8812    106.9829
   583.5000      0.0000    655.1295      8.3923      1.5592    116.3328
   583.7500      0.0000    660.9542      8.4676      1.3559    126.8189
   584.0000      0.0000    665.1962      8.5253      1.3609    134.2918
   584.2500      0.0000    666.9187      8.5482      1.5444    135.7461
   584.5000      0.0000    666.2241      8.5221      1.7853    131.5774
   584.7500      0.0000    664.5347      8.4511      1.9588    125.2854
   585.0000      0.0000    663.8896      8.3604      2.0206    121.0890
   585.2500      0.0000    665.6062      8.2830      2.0248    121.7137
   585.5000      0.0000    669.6816      8.2432      2.0541    127.5743
   585.7500      0.0000    675.4804      8.2478      2.1262    137.0704
   586.0000      0.0000    682.3412      8.2855      2.1837    147.5856
   586.2500      0.0000    688.9150      8.3336      2.1819    156.6959
   586.5000      0.0000    692.4197      8.3707      2.1575    162.7670
   586.7500      0.0000    689.9921      8.3877      2.1857    164.9594
   587.0000      0.0000    681.7299      8.3853      2.2813    163.4245
   587.2500      0.0000    671.9268      8.3665      2.3773    159.6030
   587.5000      0.0000    666.1397      8.3356      2.4070    155.7794
   587.7500      0.0000    666.6539      8.2998      2.3795    153.8983
