~Version Information
VERS.                      2.0: CWLS Log ASCII Standard - VERSION 2.0
WRAP.                       NO: One line per depth step
~Well Information Block
STRT.FT               670.0000: 
STOP.FT              2108.5000: 
STEP.FT                 0.1000: 
NULL.                -999.2500: 
COMP.          Petrogulf Corporation: COMPANY
WELL.           Montoya 12-44R: WELL
FLD.           Purgatorie River: FIELD
LOC.           713' FSL & 798' FEL: LOCATION
PROV.                 Colorado: PROVINCE
CNTY.               Las Animas: COUNTRY
SRVC.                Patterson: SERVICE COMPANY
DATE.          Mon Oct 03 07:50:59 2005: LOG DATE
UWI.           05-071-08538               : UNIQUE WELL ID
~Curve Information Block
DEPT.FT            0 000 00 00: Depth
DCAL.in                       : CDL Caliper
RHOB.g/cc                     : CDL Bulk Density
RHOC.g/cc                     : CDL Density Correction
DPOR.pu                       : CDL Density Porosity
GR.GAPI                       : Gamma Ray
NPOR.pu                       : Neutron Porosity
~Parameter Information Block
~A  Depth       DCAL        RHOB        RHOC        DPOR         GR         NPOR    
# ...
  1994.8000      7.8335      2.5780      0.0327      4.3646    143.7241     28.5234
  1994.9000      7.8335      2.5858      0.0190      3.8913    140.8761     28.7507
  1995.0000      7.8363      2.5947      0.0806      3.3522    144.3606     28.7415
  1995.1000      7.8363      2.5908      0.0336      3.5877    149.6892     28.3671
  1995.2000      7.8363      2.5855      0.0206      3.9066    150.4628     27.9827
  1995.3000      7.8587      2.5897      0.0374      3.6516    146.2189     27.9032
  1995.4000      7.8587      2.5962      0.0172      3.2622    143.0277     27.9915
  1995.5000      7.8913      2.6006      0.0470      2.9936    145.6002     28.0107
  1995.6000      7.8913      2.5954      0.0814      3.3087    149.6631     27.9517
  1995.7000      7.8913      2.5735      0.0544      4.6384    149.0508     27.9023
  1995.8000      7.8611      2.5517      0.0198      5.9571    143.3374     27.8548
  1995.9000      7.8611      2.5492      0.0452      6.1086    136.0980     27.7721
  1996.0000      7.8626      2.5639      0.0087      5.2208    133.2057     27.5691
  1996.1000      7.8626      2.5822      0.0542      4.1067    135.0660     27.1223
  1996.2000      7.8626      2.5926      0.0324      3.4810    134.4295     26.6296
  1996.3000      7.8402      2.5985      0.0395      3.1214    129.6860     26.4142
  1996.4000      7.8402      2.6002      0.0936      3.0170    127.5463     26.4955
  1996.5000      7.8221      2.5873      0.0446      3.7973    129.1759     26.7770
  1996.6000      7.8221      2.5642      0.0035      5.2029    128.7341     27.0060
  1996.7000      7.8221      2.5450      0.0242      6.3666    126.5119     26.7833
  1996.8000      7.8151      2.5378      0.0062      6.7975    127.9863     26.1199
  1996.9000      7.8151      2.5382      0.0231      6.7782    132.6585     25.5407
  1997.0000      7.8161      2.5349      0.0302      6.9751    134.9517     25.3314
  1997.1000      7.8161      2.5291      0.0148      7.3283    134.5200     25.2994
  1997.2000      7.8161      2.5348     -0.0107      6.9796    133.2719     25.3114
  1997.3000      7.8206      2.5555      0.0175      5.7246    131.6558     25.6392
  1997.4000      7.8206      2.5720      0.0729      4.7272    131.8459     26.3702
  1997.5000      7.8156      2.5697      0.0635      4.8639    134.6762     27.0181
  1997.6000      7.8156      2.5577      0.0038      5.5910    138.9026     27.3936
  1997.7000      7.8156      2.5512      0.0244      5.9888    142.5996     27.7539
  1997.8000      7.8189      2.5545      0.0287      5.7868    142.6966     28.1235
  1997.9000      7.8189      2.5675      0.0120      4.9995    140.7143     28.3964
  1998.0000      7.8199      2.5853      0.0807      3.9198    142.0299     28.4224
  1998.1000      7.8199      2.5930      0.0852      3.4565    145.5928     28.1328
  1998.2000      7.8199      2.5834      0.0678      4.0392    148.1964     27.9091
  1998.3000      7.8227      2.5709      0.0092      4.7923    151.0907     28.0347
  1998.4000      7.8227      2.5726      0.0173      4.6905    153.2417     28.1222
  1998.5000      7.8212      2.5823      0.0491      4.1055    151.0304     27.8557
  1998.6000      7.8212      2.5863      0.0022      3.8587    146.1725     27.5362
  1998.7000      7.8212      2.5894      0.0327      3.6705    143.7675     27.5071
  1998.8000      7.8224      2.5972      0.0353      3.1991    144.8079     27.7492
  1998.9000      7.8224      2.6014      0.0691      2.9476    145.6517     28.0848
  1999.0000      7.8246      2.6005      0.0069      2.9999    145.5937     28.4653
  1999.1000      7.8246      2.6071      0.0691      2.6023    146.0765     28.6016
  1999.2000      7.8246      2.6150      0.0833      2.1236    148.1969     28.1836
  1999.3000      7.8178      2.6074      0.0448      2.5833    152.8445     27.6393
  1999.4000      7.8178      2.5931      0.0057      3.4489    157.0465     27.2754
  1999.5000      7.8161      2.5869      0.0501      3.8226    158.1931     26.8509
  1999.6000      7.8161      2.5849      0.0890      3.9431    155.6273     26.5332
  1999.7000      7.8161      2.5869      0.0342      3.8247    148.7630     26.5287
  1999.8000      7.8100      2.5958      0.0618      3.2831    140.3391     26.4193
  1999.9000      7.8100      2.5961      0.0764      3.2658    133.8353     25.7369
  2000.0000      7.8025      2.5797      0.0453      4.2615    130.5423     24.7886
  2000.1000      7.8025      2.5606      0.0337      5.4197    130.5172     24.3887
  2000.2000      7.8025      2.5490      0.0292      6.1239    131.9643     24.6786
  2000.3000      7.8068      2.5529      0.0098      5.8848    133.4212     25.1116
  2000.4000      7.8068      2.5784      0.0003      4.3423    134.1264     25.3198
  2000.5000      7.8239      2.6028      0.0526      2.8596    132.4088     25.3371
  2000.6000      7.8239      2.6008      0.0378      2.9804    130.1887     25.1789
  2000.7000      7.8239      2.5861      0.0375      3.8724    132.3936     24.7283
  2000.8000      7.8262      2.5785      0.0505      4.3322    138.6385     24.2647
  2000.9000      7.8262      2.5791      0.0426      4.2946    142.6958     24.3405
  2001.0000      7.8176      2.5852      0.0350      3.9249    141.3729     25.0256
  2001.1000      7.8176      2.5900      0.0219      3.6384    140.2516     25.8779
  2001.2000      7.8176      2.5871      0.0382      3.8125    143.6578     26.4363
  2001.3000      7.8052      2.5793      0.0467      4.2860    146.9748     26.4621
  2001.4000      7.8052      2.5765      0.0187      4.4535    145.8967     26.0461
  2001.5000      7.8042      2.5863      0.0445      3.8624    140.8205     25.6293
  2001.6000      7.8042      2.6009      0.0799      2.9760    134.7123     25.4897
  2001.7000      7.8042      2.6080      0.0337      2.5450    133.5448     25.4943
  2001.8000      7.8071      2.6031      0.0764      2.8407    138.0215     25.4945
  2001.9000      7.8071      2.5897      0.0127      3.6521    140.6714     25.3621
  2002.0000      7.7995      2.5786      0.0300      4.3267    140.4449     25.1144
  2002.1000      7.7995      2.5746      0.0081      4.5719    141.4473     25.2082
  2002.2000      7.7995      2.5745      0.0238      4.5744    142.8584     25.8008
  2002.3000      7.8071      2.5748      0.0602      4.5577    143.5919     26.3215
  2002.4000      7.8071      2.5800      0.0306      4.2419    143.7157     26.4460
  2002.5000      7.8139      2.5943      0.0229      3.3760    140.7806     26.5139
  2002.6000      7.8139      2.6026      0.0782      2.8725    136.1752     26.5766
  2002.7000      7.8139      2.5927      0.0075      3.4753    135.6048     26.3979
  2002.8000      7.8244      2.5745      0.0132      4.5772    138.4074     26.0968
  2002.9000      7.8244      2.5568      0.0222      5.6480    140.3404     25.9019
  2003.0000      7.8153      2.5458     -0.0188      6.3144    140.7626     25.8214
  2003.1000      7.8153      2.5498      0.0033      6.0702    142.0213     25.7380
  2003.2000      7.8153      2.5657      0.0167      5.1072    144.8972     25.6770
  2003.3000      7.8098      2.5823      0.0488      4.1051    144.3658     25.9448
  2003.4000      7.8098      2.5896      0.0509      3.6629    138.2218     26.4313
  2003.5000      7.7931      2.5875      0.0520      3.7903    134.0755     26.5328
  2003.6000      7.7931      2.5801      0.0591      4.2371    135.9484     26.0836
  2003.7000      7.7931      2.5701     -0.0160      4.8401    138.1855     25.5212
  2003.8000      7.7879      2.5686      0.0194      4.9356    136.3779     25.2865
  2003.9000      7.7879      2.5813      0.0369      4.1641    134.1530     25.6639
  2004.0000      7.8084      2.6006      0.0559      2.9918    135.1319     26.3921
  2004.1000      7.8084      2.6138      0.0643      2.1925    137.5313     26.5841
  2004.2000      7.8084      2.6139      0.0390      2.1850    138.7344     25.9201
  2004.3000      7.8009      2.6087      0.0308      2.5021    137.8337     25.1001
