~Version Information
 VERS.                                  2.0 : CWLS LAS VERSION
 WRAP.                                   NO : WRAPING MODE
 SWARE .                 MController 2.5.0N : SOFTWARE VERSION
~Well Information
 WELL.                    Hanginstone 21-27 : WELL
 COMP.   Pioneer Natural Resources USA, Inc : COMPANY
 FLD.                      Purgatoire River : FIELD
 LOC.                NE/NW Sec 27 T32S R67W : LOCATION
 DATE.                         1/05-07/2006 : DATE(S) LOGGED
 SRVC.       BLANCO Geological Services LLC : SERVICE COMPANY
 STAT.                                   CO : STATE
 CNTY.                           Las Animas : COUNTY
 CTRY.                                  USA : COUNTRY
 API.                       05-071-08632-00 : API NUMBER
 STRT.FT                             907.00 : START DEPTH
 STOP.FT                            2970.00 : STOP DEPTH
 STEP.FT                               1.00 : DEPTH INCREMENT
 NULL.                                -9999 : NULL VALUE
~Curve information
 DEPTH.FT                                   :
 ROP.MIN/FT                                 :
 GAS.UNITS                                  :
~ASCII Log data
# ...
      1307.0         0.50          6.1 
      1308.0         0.47          5.9 
      1309.0         0.33          5.9 
      1310.0         0.37          5.8 
      1311.0         0.37          5.4 
      1312.0         0.47          5.7 
      1313.0         0.45          6.0 
      1314.0         0.43          5.7 
      1315.0         0.43          6.0 
      1316.0         0.37          5.7 
      1317.0         0.37          5.4 
      1318.0         0.37          5.4 
      1319.0         0.40          5.7 
      1320.0         0.30          5.6 
      1321.0         0.23          5.6 
      1322.0         0.32          5.7 
      1323.0         0.13          5.5 
      1324.0         0.07          5.4 
      1325.0         1.60          5.7 
      1326.0         0.17          5.5 
      1327.0         0.63          5.6 
      1328.0         0.13          5.9 
      1329.0         3.05          5.7 
      1330.0         0.23          5.5 
      1331.0         0.62          5.6 
      1332.0         0.40          6.1 
      1333.0         0.47          5.8 
      1334.0         0.37          6.3 
      1335.0         0.30          6.5 
      1336.0         0.43          6.5 
      1337.0         0.47          6.7 
      1338.0         0.47          6.3 
      1339.0         0.42          6.0 
      1340.0         0.30          5.7 
      1341.0         0.57          5.9 
      1342.0         0.50          5.9 
      1343.0         0.50          6.3 
      1344.0         0.43          6.7 
      1345.0         0.43          7.2 
      1346.0         0.52          7.6 
      1347.0         0.43          9.2 
      1348.0         0.33          9.3 
      1349.0         0.27          8.3 
      1350.0         0.33          8.4 
      1351.0         0.37          7.5 
      1352.0         0.53          6.9 
      1353.0         0.43          6.6 
      1354.0         0.57          6.0 
      1355.0         0.45          6.6 
      1356.0         0.37          5.8 
      1357.0         0.53          6.2 
      1358.0         0.33          6.0 
      1359.0         0.52          6.3 
      1360.0         0.40          6.7 
      1361.0         6.27          7.5 
      1362.0         0.50          5.6 
      1363.0         0.47          5.6 
      1364.0         0.30          5.9 
      1365.0         0.33          5.6 
      1366.0         0.33          6.2 
      1367.0         0.47          5.9 
      1368.0         0.58          6.1 
      1369.0         0.43          5.2 
      1370.0         0.60          5.2 
      1371.0         0.50          5.2 
      1372.0         0.40          5.0 
      1373.0         0.27          7.9 
      1374.0         0.27         14.0 
      1375.0         0.30         19.2 
      1376.0         0.27         20.6 
      1377.0         0.28         24.0 
      1378.0         0.27         20.1 
      1379.0         0.33         20.2 
      1380.0         0.47         17.9 
      1381.0         0.30         14.3 
      1382.0         0.27         14.4 
      1383.0         0.27         13.1 
      1384.0         0.27         12.4 
      1385.0         0.23         12.5 
      1386.0         0.20         11.9 
      1387.0         0.27         11.7 
      1388.0         0.38         11.8 
      1389.0         0.33         11.4 
      1390.0         0.50         11.3 
      1391.0         7.30         19.8 
      1392.0         0.40         18.5 
      1393.0         0.63         18.1 
      1394.0         0.50         16.4 
      1395.0         0.48         17.2 
      1396.0         0.37         16.1 
      1397.0         0.40         14.8 
      1398.0         0.47         12.4 
      1399.0         0.63         12.1 
      1400.0         0.70         11.0 
      1401.0         0.75         10.4 
      1402.0         0.57         10.5 
      1403.0         0.60          9.9 
      1404.0         0.47          9.7 
      1405.0         0.50          9.9 
      1406.0         0.57          9.6 
      1407.0         0.68         10.1 
      1408.0         0.47          9.5 
      1409.0         0.50          9.5 
      1410.0         0.53          9.2 
      1411.0         0.43          9.4 
      1412.0         0.40          9.9 
      1413.0         0.50          9.5 
      1414.0         0.52          9.5 
      1415.0         0.53          9.6 
      1416.0         0.50          9.8 
      1417.0         0.57          9.6 
      1418.0         0.33          9.3 
      1419.0         0.20          9.5 
      1420.0         0.10          9.2 
      1421.0         7.75         10.2 
      1422.0         0.07          9.3 
      1423.0         0.50          9.4 
      1424.0         0.47          9.2 
      1425.0         0.50          9.2 
      1426.0         0.47          9.2 
      1427.0         0.60          9.4 
      1428.0         0.65          9.8 
      1429.0         0.63          9.7 
      1430.0         0.60          9.7 
      1431.0         0.53          9.7 
      1432.0         0.37          9.1 
      1433.0         0.47          9.4 
      1434.0         0.57          9.3 
      1435.0         0.62          9.0 
      1436.0         0.63          9.2 
      1437.0         0.57          9.2 
      1438.0         0.57          9.1 
      1439.0         0.57          9.6 
      1440.0         0.58         10.5 
      1441.0         0.60         10.8 
      1442.0         0.60         10.7 
      1443.0         0.63         10.5 
      1444.0         0.60          9.7 
      1445.0         0.60          9.3 
      1446.0         0.58          8.9 
      1447.0         0.57          9.0 
      1448.0         0.57          8.7 
      1449.0         0.83          9.2 
      1450.0         0.77          8.8 
      1451.0         7.05          9.2 
      1452.0         0.13          9.2 
      1453.0         0.53          9.4 
      1454.0         0.30          9.4 
      1455.0         0.40          9.4 
      1456.0         0.27         10.0 
      1457.0         0.30          9.6 
      1458.0         0.27          9.5 
      1459.0         0.30         11.4 
      1460.0         0.33         10.7 
      1461.0         0.30         10.2 
      1462.0         0.28          9.4 
      1463.0         0.37          9.0 
      1464.0         0.37          9.0 
      1465.0         0.40          8.9 
      1466.0         0.30          8.7 
      1467.0         0.37          9.1 
      1468.0         0.43         11.0 
      1469.0         0.37         12.8 
      1470.0         0.40         14.2 
      1471.0         0.42         16.0 
      1472.0         0.33         23.0 
      1473.0         0.37         23.4 
      1474.0         0.47         18.3 
      1475.0         0.40         15.5 
      1476.0         0.50         13.4 
      1477.0         0.43         12.4 
      1478.0         0.50         11.2 
      1479.0         0.55         10.8 
      1480.0         0.53         10.0 
      1481.0         7.77          9.4 
      1482.0         0.50          5.8 
      1483.0         0.43          5.8 
      1484.0         0.45          5.5 
      1485.0         0.47          6.1 
      1486.0         0.50          6.0 
      1487.0         0.47          5.1 
      1488.0         0.47          4.8 
      1489.0         0.47          4.8 
      1490.0         0.40          4.6 
      1491.0         0.45          4.2 
      1492.0         0.43          4.0 
      1493.0         0.47          4.0 
      1494.0         0.40          4.0 
      1495.0         0.37          3.8 
      1496.0         0.27          3.4 
      1497.0         0.30          3.5 
      1498.0         0.20          3.3 
      1499.0         0.20          3.5 
      1500.0         0.37          3.5 
      1501.0         0.62          3.5 
      1502.0         0.53          3.6 
      1503.0         0.57          3.8 
      1504.0         0.53          3.9 
      1505.0         0.87          4.3 
      1506.0         1.08          4.4 
