~Version Information
VERS.                      2.0: CWLS Log ASCII Standard - VERSION 2.0
WRAP.                       NO: One line per depth step
~Well Information Block
STRT.FT               245.0000: 
STOP.FT              1273.7000: 
STEP.FT                 0.1000: 
NULL.                -999.2500: 
COMP.          Pioneer Natural Resources: COMPANY
WELL.                 Ray 34-6: WELL
FLD.           Purgatoire River: FIELD
LOC.           684' FSL & 2254' FEL--: LOCATION
CNTY.               Las Animas: COUNTY
SRVC.                Patterson: SERVICE COMPANY
DATE.          Fri May 26 09:17:30 2006: LOG DATE
UWI.           05 071 08695 00: UNIQUE WELL ID
STAT.                 Colorado: STATE
~Curve Information Block
DEPT.FT            0 000 00 00: Depth
DCAL.in                       : CDL Caliper
RHOB.g/cc                     : CDL Bulk Density
RHOC.g/cc                     : CDL Density Correction
DPOR.pu                       : CDL Density Porosity
NPOR.pu                       : Neutron Porosity
GR.GAPI                       : Gamma Ray
~Parameter Information Block
~A  Depth       DCAL        RHOB        RHOC        DPOR        NPOR         GR     
# ...
  1041.8000      7.9178      2.5576      0.0052      5.5998     25.0602     86.9565
  1041.9000      7.9178      2.5497      0.0342      6.0780     24.8377     90.9150
  1042.0000      7.9170      2.5477      0.0062      6.2014     24.5150     95.4740
  1042.1000      7.9170      2.5612      0.0310      5.3814     24.2542     96.6308
  1042.2000      7.9170      2.5803      0.0575      4.2216     24.1794     95.2497
  1042.3000      7.9191      2.5841      0.0581      3.9915     24.0535     95.6333
  1042.4000      7.9191      2.5714      0.0077      4.7638     23.7905     99.1371
  1042.5000      7.9210      2.5556      0.0280      5.7200     23.5662    104.7604
  1042.6000      7.9210      2.5440      0.0207      6.4233     23.4168    112.5620
  1042.7000      7.9210      2.5364      0.0476      6.8822     23.4717    123.4285
  1042.8000      7.9209      2.5281      0.0430      7.3889     23.7586    137.8108
  1042.9000      7.9209      2.5200      0.0300      7.8799     23.9290    152.7732
  1043.0000      7.9200      2.5189      0.0681      7.9471     23.8761    162.6306
  1043.1000      7.9200      2.5215      0.0238      7.7866     23.7757    159.8002
  1043.2000      7.9200      2.5185      0.0590      7.9686     23.6723    145.7586
  1043.3000      7.9193      2.5048      0.0498      8.8001     23.6866    134.5177
  1043.4000      7.9193      2.4793      0.0793     10.3427     23.8892    133.0136
  1043.5000      7.9203      2.4391      0.0389     12.7817     24.1433    134.6862
  1043.6000      7.9203      2.3862      0.0236     15.9867     24.2754    133.3808
  1043.7000      7.9203      2.3361     -0.0504     19.0240     24.1489    129.1817
  1043.8000      7.9232      2.3060     -0.0508     20.8467     23.7893    127.3756
  1043.9000      7.9232      2.2930     -0.0012     21.6368     23.1984    131.8195
  1044.0000      7.9300      2.2777      0.0188     22.5659     22.1829    139.6327
  1044.1000      7.9300      2.2506     -0.0002     24.2045     20.8761    147.3133
  1044.2000      7.9300      2.2271     -0.0184     25.6321     19.6430    154.5542
  1044.3000      7.9398      2.2265      0.0425     25.6674     18.6545    160.9567
  1044.4000      7.9398      2.2455      0.1031     24.5149     17.7869    165.2964
  1044.5000      7.9441      2.2718      0.0614     22.9217     16.9258    166.2658
  1044.6000      7.9441      2.2964      0.1168     21.4303     16.2809    161.5548
  1044.7000      7.9441      2.3077      0.0902     20.7435     16.0015    156.2470
  1044.8000      7.9423      2.3004      0.0839     21.1879     16.0331    158.0075
  1044.9000      7.9423      2.2784      0.0756     22.5196     16.1355    161.9619
  1045.0000      7.9414      2.2578      0.0517     23.7705     16.0439    160.3552
  1045.1000      7.9414      2.2608      0.0509     23.5860     15.9607    154.0593
  1045.2000      7.9414      2.2931      0.0706     21.6294     16.3049    147.9172
  1045.3000      7.9430      2.3399      0.0948     18.7920     16.9903    148.8651
  1045.4000      7.9430      2.3876      0.1022     15.9051     17.5250    158.9545
  1045.5000      7.9444      2.4303      0.1357     13.3178     17.7722    167.4261
  1045.6000      7.9444      2.4621      0.1462     11.3881     18.0059    163.3503
  1045.7000      7.9444      2.4798      0.1622     10.3179     18.4864    150.5671
  1045.8000      7.9438      2.4919      0.1146      9.5797     19.2954    139.0150
  1045.9000      7.9438      2.5131      0.1126      8.2941     20.1737    134.5928
  1046.0000      7.9435      2.5385      0.1440      6.7568     20.9002    135.8473
  1046.1000      7.9435      2.5580      0.0879      5.5780     21.6193    137.1947
  1046.2000      7.9435      2.5770      0.0976      4.4242     22.2771    136.8395
  1046.3000      7.9529      2.5900      0.0955      3.6349     22.6339    135.8158
  1046.4000      7.9529      2.5834      0.0795      4.0382     22.6396    134.4975
  1046.5000      7.9757      2.5645      0.0694      5.1831     22.3582    132.4583
  1046.6000      7.9757      2.5483      0.0448      6.1654     22.0355    130.7776
  1046.7000      7.9757      2.5348      0.0661      6.9816     21.8144    132.4814
  1046.8000      8.0024      2.5215      0.0175      7.7899     21.5624    137.2123
  1046.9000      8.0024      2.5128      0.0737      8.3164     21.3003    140.6125
  1047.0000      8.0206      2.5096      0.0500      8.5075     21.2720    140.7737
  1047.1000      8.0206      2.5142      0.0414      8.2289     21.5931    139.6616
  1047.2000      8.0206      2.5247      0.0671      7.5925     22.0773    140.0315
  1047.3000      8.0291      2.5323      0.0596      7.1303     22.2354    139.5074
  1047.4000      8.0291      2.5338      0.0651      7.0436     21.9199    132.6381
  1047.5000      8.0323      2.5311      0.0572      7.2056     21.6344    124.1201
  1047.6000      8.0323      2.5267      0.0695      7.4745     21.7558    123.4900
  1047.7000      8.0323      2.5225      0.0284      7.7283     22.0183    130.3624
  1047.8000      8.0335      2.5241      0.0403      7.6274     22.0779    134.5276
  1047.9000      8.0335      2.5277      0.0817      7.4120     22.0179    129.8961
  1048.0000      8.0345      2.5168      0.0795      8.0730     21.9847    122.5542
  1048.1000      8.0345      2.4928      0.0233      9.5303     21.8606    117.0606
  1048.2000      8.0345      2.4770      0.0163     10.4866     21.5659    110.9857
  1048.3000      8.0340      2.4791      0.0452     10.3592     21.2915    106.0743
  1048.4000      8.0340      2.4900      0.0654      9.6955     21.2451    107.7936
  1048.5000      8.0328      2.4951      0.0809      9.3870     21.4802    115.4352
  1048.6000      8.0328      2.4875      0.0223      9.8458     21.8839    121.4455
  1048.7000      8.0328      2.4703      0.0616     10.8891     22.0961    123.6001
  1048.8000      8.0325      2.4441      0.0430     12.4794     21.8500    125.7775
  1048.9000      8.0325      2.4128      0.0241     14.3756     21.3092    128.1240
  1049.0000      8.0340      2.3824      0.0360     16.2159     20.8101    130.3169
  1049.1000      8.0340      2.3507      0.0104     18.1398     20.4468    132.0387
  1049.2000      8.0340      2.3092      0.0114     20.6547     20.0843    130.5095
  1049.3000      8.0393      2.2486     -0.0064     24.3259     19.6383    126.1754
  1049.4000      8.0393      2.1701     -0.0570     29.0855     19.1659    122.6572
  1049.5000      8.0461      2.0842     -0.0644     34.2900     18.6274    119.8976
  1049.6000      8.0461      1.9909     -0.0385     39.9484     17.9756    115.7049
  1049.7000      8.0461      1.8811     -0.0522     46.6024     17.2142    110.1974
  1049.8000      8.0478      1.7605     -0.1032     53.9116     16.1882    105.6259
  1049.9000      8.0478      1.6511     -0.1811     60.5412     14.9801    103.7484
  1050.0000      8.0453      1.5671     -0.1564     65.6309     13.8309    101.6573
  1050.1000      8.0453      1.4996     -0.1466     69.7228     12.7912     95.2331
  1050.2000      8.0453      1.4366     -0.1094     73.5404     11.8267     85.3406
  1050.3000      8.0437      1.3843     -0.0933     76.7061     10.8768     76.3227
  1050.4000      8.0437      1.3556     -0.0486     78.4506      9.8208     71.6511
  1050.5000      8.0438      1.3490      0.0256     78.8492      8.6247     68.5721
  1050.6000      8.0438      1.3493      0.0808     78.8321      7.5962     63.4324
  1050.7000      8.0438      1.3478      0.0602     78.9236      7.1387     59.5852
  1050.8000      8.0551      1.3532      0.0496     78.5965      7.0891     59.3923
  1050.9000      8.0551      1.3688      0.1007     77.6505      6.9169     60.9970
  1051.0000      8.1017      1.3842      0.0815     76.7145      6.5149     61.7977
  1051.1000      8.1017      1.4020      0.0679     75.6373      6.2114     60.4367
  1051.2000      8.1017      1.4421      0.0359     73.2048      6.2369     59.2525
  1051.3000      8.1864      1.5149      0.0895     68.7964      6.4639     60.9612
