~Version Information
VERS.                      2.0: CWLS Log ASCII Standard - VERSION 2.0
WRAP.                       NO: One line per depth step
~Well Information Block
STRT.FT               309.8000: 
STOP.FT              2184.7000: 
STEP.FT                 0.1000: 
NULL.                -999.2500: 
COMP.          Pioneer Natural Resources: COMPANY
WELL.             AMX 13-13 Tr: WELL
FLD.           Purgatoire River: FIELD
LOC.           2401' FSL & 895' FWL--: LOCATION
PROV.                 Colorado: PROVINCE
CNTY.               Las Animas: COUNTRY
SRVC.                Patterson: SERVICE COMPANY
DATE.          Thu Dec 22 15:57:57 2005: LOG DATE
UWI.           05 071 08631 00: UNIQUE WELL ID
~Curve Information Block
DEPT.FT            0 000 00 00: Depth
DCAL.in                       : CDL Caliper
RHOB.g/cc                     : CDL Bulk Density
RHOC.g/cc                     : CDL Density Correction
DPOR.pu                       : CDL Density Porosity
GR.GAPI                       : Gamma Ray
~Parameter Information Block
~A  Depth       DCAL        RHOB        RHOC        DPOR         GR     
# ...
   567.4000      8.2755      2.5344      0.1084      7.0071    141.6245
   567.5000      8.2777      2.5129      0.0891      8.3073    135.4627
   567.6000      8.2777      2.4733      0.0343     10.7092    130.4035
   567.7000      8.2777      2.4367      0.0092     12.9294    131.9460
   567.8000      8.2798      2.4336     -0.0612     13.1142    135.9777
   567.9000      8.2798      2.4695      0.0294     10.9408    138.0420
   568.0000      8.2794      2.5074      0.0837      8.6417    137.0378
   568.1000      8.2794      2.5123      0.0958      8.3450    133.6208
   568.2000      8.2794      2.4928      0.0099      9.5266    132.2250
   568.3000      8.2772      2.4753      0.0460     10.5849    134.9576
   568.4000      8.2772      2.4758      0.0250     10.5546    136.6823
   568.5000      8.2759      2.5037      0.0558      8.8646    133.0350
   568.6000      8.2759      2.5392      0.1524      6.7133    126.4631
   568.7000      8.2759      2.5522      0.0973      5.9260    122.1389
   568.8000      8.2763      2.5516      0.0963      5.9625    123.4587
   568.9000      8.2763      2.5576      0.0938      5.5985    127.9740
   569.0000      8.2766      2.5709      0.1155      4.7941    129.7165
   569.1000      8.2766      2.5834      0.1326      4.0353    126.7030
   569.2000      8.2766      2.5839      0.1368      4.0033    121.1419
   569.3000      8.2761      2.5661      0.1115      5.0826    115.9641
   569.4000      8.2761      2.5452      0.0079      6.3509    112.6871
   569.5000      8.2742      2.5425      0.0494      6.5137    109.2721
   569.6000      8.2742      2.5537      0.0722      5.8353    105.5243
   569.7000      8.2742      2.5604      0.0477      5.4311    104.2866
   569.8000      8.2702      2.5583      0.0629      5.5598    106.3079
   569.9000      8.2702      2.5580      0.0397      5.5737    108.5494
   570.0000      8.2666      2.5609      0.0502      5.3987    108.3649
   570.1000      8.2666      2.5575      0.0309      5.6084    107.1449
   570.2000      8.2666      2.5459      0.0392      6.3115    106.4721
   570.3000      8.2621      2.5295      0.0249      7.3053    108.4838
   570.4000      8.2621      2.5187     -0.0016      7.9594    113.4737
   570.5000      8.2564      2.5291     -0.0115      7.3284    116.8330
   570.6000      8.2564      2.5579      0.0498      5.5820    116.1662
   570.7000      8.2564      2.5797      0.0781      4.2628    112.0412
   570.8000      8.2533      2.5792      0.0341      4.2936    104.2753
   570.9000      8.2533      2.5643      0.0363      5.1961     96.2292
   571.0000      8.2540      2.5525      0.0201      5.9113     94.2089
   571.1000      8.2540      2.5591      0.0217      5.5096     98.1253
   571.2000      8.2540      2.5751      0.1068      4.5385    101.6634
   571.3000      8.2548      2.5814      0.0306      4.1590     99.6714
   571.4000      8.2548      2.5851      0.0165      3.9346     92.5299
   571.5000      8.2543      2.5964      0.0559      3.2511     86.5284
   571.6000      8.2543      2.6032      0.0915      2.8371     87.1713
   571.7000      8.2543      2.5967      0.0155      3.2273     91.8835
   571.8000      8.2549      2.5842      0.0053      3.9908     95.2766
   571.9000      8.2549      2.5743     -0.0010      4.5904     95.6830
   572.0000      8.2557      2.5765     -0.0256      4.4552     93.5490
   572.1000      8.2557      2.5940      0.0153      3.3944     89.1749
   572.2000      8.2557      2.6058     -0.0033      2.6808     84.1331
   572.3000      8.2545      2.5883      0.0172      3.7364     81.0245
   572.4000      8.2545      2.5539     -0.0186      5.8264     80.3002
   572.5000      8.2521      2.5360     -0.0494      6.9094     79.8867
   572.6000      8.2521      2.5439     -0.0086      6.4288     78.9492
   572.7000      8.2521      2.5504      0.0835      6.0347     78.8377
   572.8000      8.2500      2.5364      0.0033      6.8829     79.0197
   572.9000      8.2500      2.5193     -0.0092      7.9186     77.5538
   573.0000      8.2436      2.5128      0.0016      8.3176     75.3705
   573.1000      8.2436      2.5109     -0.0031      8.4281     74.4983
   573.2000      8.2436      2.5152     -0.0014      8.1670     75.2357
   573.3000      8.2306      2.5319      0.0118      7.1587     75.7858
   573.4000      8.2306      2.5502      0.0382      6.0475     74.5634
   573.5000      8.2169      2.5513      0.0832      5.9806     71.7825
   573.6000      8.2169      2.5427      0.0186      6.5002     70.0201
   573.7000      8.2169      2.5536      0.0658      5.8399     71.4951
   573.8000      8.2087      2.5772      0.1103      4.4098     73.5921
   573.9000      8.2087      2.5767      0.1020      4.4447     73.3512
   574.0000      8.2057      2.5483      0.0574      6.1631     72.7818
   574.1000      8.2057      2.5218      0.0457      7.7700     74.0598
   574.2000      8.2057      2.5072      0.0665      8.6560     74.5846
   574.3000      8.2029      2.4857      0.0659      9.9553     73.0783
   574.4000      8.2029      2.4545     -0.0616     11.8479     72.3305
   574.5000      8.2033      2.4394     -0.0564     12.7644     73.6746
   574.6000      8.2033      2.4559     -0.0277     11.7645     73.9468
   574.7000      8.2033      2.4900      0.0389      9.6985     71.7609
   574.8000      8.2071      2.5132      0.0473      8.2882     69.0625
   574.9000      8.2071      2.5094      0.0302      8.5211     65.7942
   575.0000      8.2096      2.4832      0.0171     10.1091     60.6421
   575.1000      8.2096      2.4536     -0.0057     11.9003     55.2684
   575.2000      8.2096      2.4389      0.0088     12.7930     53.7438
   575.3000      8.2099      2.4384      0.0140     12.8253     54.9472
   575.4000      8.2099      2.4446      0.0112     12.4501     54.1293
   575.5000      8.2093      2.4600     -0.0033     11.5122     51.6345
   575.6000      8.2093      2.4773      0.0349     10.4692     49.5477
   575.7000      8.2093      2.4761      0.0351     10.5418     49.1598
   575.8000      8.2078      2.4623     -0.0245     11.3737     51.3255
   575.9000      8.2078      2.4588      0.0168     11.5863     54.9993
   576.0000      8.2049      2.4660      0.0391     11.1539     58.6554
   576.1000      8.2049      2.4720      0.0327     10.7849     61.1060
   576.2000      8.2049      2.4719      0.0497     10.7922     62.8094
   576.3000      8.2015      2.4700      0.0407     10.9076     64.8946
   576.4000      8.2015      2.4746      0.0733     10.6308     65.7307
   576.5000      8.1991      2.4850      0.0954     10.0015     63.8788
   576.6000      8.1991      2.4941      0.0849      9.4485     61.5714
   576.7000      8.1991      2.4947      0.0599      9.4109     60.9274
   576.8000      8.1980      2.4859      0.0667      9.9431     60.8147
   576.9000      8.1980      2.4770      0.0304     10.4838     60.3131
   577.0000      8.1999      2.4720      0.0707     10.7885     60.1358
   577.1000      8.1999      2.4692      0.0304     10.9594     61.0863
   577.2000      8.1999      2.4761      0.0282     10.5389     63.2618
   577.3000      8.2041      2.4974      0.0674      9.2460     65.9241
   577.4000      8.2041      2.5239      0.0646      7.6399     69.0797
   577.5000      8.2051      2.5366      0.0741      6.8723     72.1295
   577.6000      8.2051      2.5239      0.0418      7.6427     73.6905
   577.7000      8.2051      2.4989      0.0404      9.1587     75.3038
   577.8000      8.2017      2.4825      0.0082     10.1509     79.5849
   577.9000      8.2017      2.4820      0.0437     10.1798     85.6382
   578.0000      8.1979      2.4891      0.0216      9.7502     89.8146
   578.1000      8.1979      2.4942      0.0372      9.4417     92.5293
   578.2000      8.1979      2.4906      0.0327      9.6621     97.3093
   578.3000      8.1974      2.4791      0.0244     10.3577    102.7322
   578.4000      8.1974      2.4661      0.0422     11.1477    106.3314
   578.5000      8.1992      2.4496      0.0175     12.1438    108.4558
