~Version Information
VERS.                      2.0: CWLS Log ASCII Standard - VERSION 2.0
WRAP.                       NO: One line per depth step
~Well Information Block
STRT.FT               550.0000: 
STOP.FT              1500.5000: 
STEP.FT                 0.2500: 
NULL.                -999.2500: 
COMP.          Pioneer Natural Resources: COMPANY
WELL.          Surtees 23-34 Tr: WELL
FLD.           Purgatoire River: FIELD
LOC.           1559' FSL & 1997' FWL: LOCATION
PROV.                 Colorado: PROVINCE
CNTY.               Las Animas: COUNTRY
SRVC.                Patterson: SERVICE COMPANY
DATE.          Tue Jul 26 23:47:42 2005: LOG DATE
UWI.           05 071 08449 00: UNIQUE WELL ID
~Curve Information Block
DEPT.FT            0 000 00 00: Depth
SN.Ohm-m                      : IEL Short Normal
SP.mV                         : IEL Spontaneous Potential
DIR.Ohm-m                     : IEL Induction Resistivity
GR.GAPI                       : Gamma Ray
~Parameter Information Block
~A  Depth        SN          SP         DIR          GR     
# ...
   985.5000   2000.0000   2000.0000      9.4907    136.0365
   985.7500   2000.0000   2000.0000      9.4093    135.3303
   986.0000   2000.0000   2000.0000      9.3226    136.0798
   986.2500   2000.0000   2000.0000      9.2367    137.6061
   986.5000   2000.0000   2000.0000      9.1598    140.2855
   986.7500   2000.0000   2000.0000      9.0994    141.8114
   987.0000   2000.0000   2000.0000      9.0614    143.8237
   987.2500   2000.0000   2000.0000      9.0508    145.3022
   987.5000   2000.0000   2000.0000      9.0723    147.6034
   987.7500   2000.0000   2000.0000      9.1288    148.6913
   988.0000   2000.0000   2000.0000      9.2187    148.9212
   988.2500   2000.0000   2000.0000      9.3353    148.0484
   988.5000   2000.0000   2000.0000      9.4694    145.2117
   988.7500   2000.0000   2000.0000      9.6136    142.2020
   989.0000   2000.0000   2000.0000      9.7658    136.1376
   989.2500   2000.0000   2000.0000      9.9285    131.6384
   989.5000   2000.0000   2000.0000     10.1063    125.7823
   989.7500   2000.0000   2000.0000     10.3038    123.2017
   990.0000   2000.0000   2000.0000     10.5257    121.5450
   990.2500   2000.0000   2000.0000     10.7795    121.4888
   990.5000   2000.0000   2000.0000     11.0752    121.8151
   990.7500   2000.0000   2000.0000     11.4232    121.6546
   991.0000   2000.0000   2000.0000     11.8293    120.0066
   991.2500   2000.0000   2000.0000     12.2906    117.7527
   991.5000   2000.0000   2000.0000     12.7953    113.0862
   991.7500   2000.0000   2000.0000     13.3265    109.8709
   992.0000   2000.0000   2000.0000     13.8680    106.3572
   992.2500   2000.0000   2000.0000     14.4093    105.3515
   992.5000   2000.0000   2000.0000     14.9481    105.5951
   992.7500   2000.0000   2000.0000     15.4906    106.3679
   993.0000   2000.0000   2000.0000     16.0508    107.3959
   993.2500   2000.0000   2000.0000     16.6458    107.5548
   993.5000   2000.0000   2000.0000     17.2870    106.7380
   993.7500   2000.0000   2000.0000     17.9702    105.7005
   994.0000   2000.0000   2000.0000     18.6734    104.3125
   994.2500   2000.0000   2000.0000     19.3670    104.0436
   994.5000   2000.0000   2000.0000     20.0268    104.6638
   994.7500   2000.0000   2000.0000     20.6409    104.9654
   995.0000   2000.0000   2000.0000     21.2057    103.2836
   995.2500   2000.0000   2000.0000     21.7261    100.2263
   995.5000   2000.0000   2000.0000     22.2248     94.0094
   995.7500   2000.0000   2000.0000     22.7515     90.2823
   996.0000   2000.0000   2000.0000     23.3761     87.1300
   996.2500   2000.0000   2000.0000     24.1635     86.4764
   996.5000   2000.0000   2000.0000     25.1499     85.6452
   996.7500   2000.0000   2000.0000     26.3330     83.9928
   997.0000   2000.0000   2000.0000     27.6748     79.2893
   997.2500   2000.0000   2000.0000     29.1086     75.1348
   997.5000   2000.0000   2000.0000     30.5435     68.4279
   997.7500   2000.0000   2000.0000     31.8743     64.0398
   998.0000   2000.0000   2000.0000     33.0025     58.0273
   998.2500   2000.0000   2000.0000     33.8679     54.6639
   998.5000   2000.0000   2000.0000     34.4768     50.9541
   998.7500   2000.0000   2000.0000     34.9016     49.3678
   999.0000   2000.0000   2000.0000     35.2472     47.8579
   999.2500   2000.0000   2000.0000     35.6081     47.0874
   999.5000   2000.0000   2000.0000     36.0418     45.9911
   999.7500   2000.0000   2000.0000     36.5670     45.2712
  1000.0000   2000.0000   2000.0000     37.1693     44.0294
  1000.2500   2000.0000   2000.0000     37.8102     42.8580
  1000.5000   2000.0000   2000.0000     38.4304     40.3207
  1000.7500   2000.0000   2000.0000     38.9527     38.2229
  1001.0000   2000.0000   2000.0000     39.2839     35.0987
  1001.2500   2000.0000   2000.0000     39.3288     33.4709
  1001.5000   2000.0000   2000.0000     39.0268     32.1461
  1001.7500   2000.0000   2000.0000     38.3804     31.9032
  1002.0000   2000.0000   2000.0000     37.4402     31.8607
  1002.2500   2000.0000   2000.0000     36.2649     31.7674
  1002.5000   2000.0000   2000.0000     34.9055     31.7991
  1002.7500   2000.0000   2000.0000     33.4294     32.5134
  1003.0000   2000.0000   2000.0000     31.9314     35.8629
  1003.2500   2000.0000   2000.0000     30.5107     40.2510
  1003.5000   2000.0000   2000.0000     29.2377     50.6625
  1003.7500   2000.0000   2000.0000     28.1485     59.9208
  1004.0000   2000.0000   2000.0000     27.2580     75.4447
  1004.2500   2000.0000   2000.0000     26.5639     85.2451
  1004.5000   2000.0000   2000.0000     26.0301     96.6641
  1004.7500   2000.0000   2000.0000     25.5691    101.3446
  1005.0000   2000.0000   2000.0000     25.0551    103.6544
  1005.2500   2000.0000   2000.0000     24.3822    102.1707
  1005.5000   2000.0000   2000.0000     23.5290     96.1604
  1005.7500   2000.0000   2000.0000     22.5695     90.5018
  1006.0000   2000.0000   2000.0000     21.6144     81.5579
  1006.2500   2000.0000   2000.0000     20.7373     76.4901
  1006.5000   2000.0000   2000.0000     19.9461     71.9354
  1006.7500   2000.0000   2000.0000     19.2038     71.6050
  1007.0000   2000.0000   2000.0000     18.4703     75.4529
  1007.2500   2000.0000   2000.0000     17.7296     80.4385
  1007.5000   2000.0000   2000.0000     16.9906     89.9381
  1007.7500   2000.0000   2000.0000     16.2707     96.5762
  1008.0000   2000.0000   2000.0000     15.5799    105.6017
  1008.2500   2000.0000   2000.0000     14.9175    110.5949
  1008.5000   2000.0000   2000.0000     14.2782    116.5749
  1008.7500   2000.0000   2000.0000     13.6593    119.8036
  1009.0000   2000.0000   2000.0000     13.0653    123.9479
  1009.2500   2000.0000   2000.0000     12.5063    126.4112
  1009.5000   2000.0000   2000.0000     11.9951    129.6375
  1009.7500   2000.0000   2000.0000     11.5426    131.3131
  1010.0000   2000.0000   2000.0000     11.1551    133.1054
  1010.2500   2000.0000   2000.0000     10.8354    134.2143
  1010.5000   2000.0000   2000.0000     10.5862    136.7011
  1010.7500   2000.0000   2000.0000     10.4132    139.0795
  1011.0000   2000.0000   2000.0000     10.3254    142.8206
  1011.2500   2000.0000   2000.0000     10.3322    144.4358
  1011.5000   2000.0000   2000.0000     10.4411    144.1425
  1011.7500   2000.0000   2000.0000     10.6555    142.0510
  1012.0000   2000.0000   2000.0000     10.9739    137.3444
  1012.2500   2000.0000   2000.0000     11.3863    134.2763
  1012.5000   2000.0000   2000.0000     11.8724    130.8324
  1012.7500   2000.0000   2000.0000     12.4007    128.7088
  1013.0000   2000.0000   2000.0000     12.9332    122.8486
  1013.2500   2000.0000   2000.0000     13.4353    115.5054
  1013.5000   2000.0000   2000.0000     13.8866     99.2598
  1013.7500   2000.0000   2000.0000     14.2887     86.9134
  1014.0000   2000.0000   2000.0000     14.6656     71.0132
  1014.2500   2000.0000   2000.0000     15.0546     64.3229
  1014.5000   2000.0000   2000.0000     15.4909     61.2164
  1014.7500   2000.0000   2000.0000     15.9909     63.2191
  1015.0000   2000.0000   2000.0000     16.5436     70.8897
  1015.2500   2000.0000   2000.0000     17.1123     78.3619
  1015.5000   2000.0000   2000.0000     17.6443     91.6792
  1015.7500   2000.0000   2000.0000     18.0768    100.8067
  1016.0000   2000.0000   2000.0000     18.3393    112.6602
  1016.2500   2000.0000   2000.0000     18.3666    118.4264
  1016.5000     20.6069    -21.1335     18.1286    123.5140
  1016.7500     20.5048    -21.0963     17.6590    124.8205
  1017.0000     20.5903    -21.0068     17.0493    124.5533
  1017.2500     20.6228    -20.8803     16.4092    123.7510
  1017.5000     20.4094    -20.7404     15.8250    123.6200
  1017.7500     19.9062    -20.6061     15.3408    125.1214
  1018.0000     19.1719    -20.4890     14.9614    129.4686
  1018.2500     18.2855    -20.4031     14.6661    132.6159
  1018.5000     17.3635    -20.3717     14.4262    135.4526
  1018.7500     16.5745    -20.4167     14.2184    135.3709
