~Version Information
VERS.                      2.0: CWLS Log ASCII Standard - VERSION 2.0
WRAP.                       NO: One line per depth step
~Well Information Block
STRT.FT               400.0000: 
STOP.FT              2232.0000: 
STEP.FT                 0.2500: 
NULL.                -999.2500: 
COMP.          Evergreen Operating Corporation: COMPANY
WELL.                Croc 42-9: WELL
FLD.           Purgatorie River: FIELD
LOC.           2262' FNL & 238' FEL: LOCATION
STAT.                 Colorado: State
CNTY.               Las Animas: COUNTY
CTRY. USA : Country
SECT. 9 : Section
TOWN. 32S : Township
RANG. 66W : Range
SRVC.                Patterson: SERVICE COMPANY
DATE.          Wed Jul 21 23:25:54 2004: LOG DATE
API.           05 071 08106 00: UNIQUE WELL ID
~Curve Information Block
DEPT.FT            0 000 00 00: Depth
SN.Ohm-m                      : IEL Short Normal
SP.mV                         : IEL Spontaneous Potential
DIR.Ohm-m                     : IEL Induction Resistivity
GR.GAPI                       : Gamma Ray
~Parameter Information Block
~A  Depth        SN          SP         DIR          GR     
# ...
  1840.5000     32.2620    115.7966     27.1466     62.0530
  1840.7500     32.1645    115.7784     27.3135     63.2825
  1841.0000     32.1216    115.7813     27.3983     65.2222
  1841.2500     32.1778    115.8023     27.3494     65.7681
  1841.5000     32.3441    115.8294     27.1869     65.2007
  1841.7500     32.5752    115.8466     26.9921     64.4607
  1842.0000     32.7730    115.8394     26.8579     63.7253
  1842.2500     32.8764    115.8006     26.8451     63.4312
  1842.5000     32.9459    115.7370     26.9717     62.6488
  1842.7500     33.0934    115.6683     27.2291     61.7973
  1843.0000     33.3789    115.6159     27.5987     60.5758
  1843.2500     33.7992    115.5902     28.0527     60.2064
  1843.5000     34.3084    115.5860     28.5369     60.4556
  1843.7500     34.8435    115.5899     28.9538     60.7683
  1844.0000     35.3625    115.5899     29.1710     60.3462
  1844.2500     35.8475    115.5822     29.0666     59.0383
  1844.5000     36.2778    115.5721     28.5830     55.8172
  1844.7500     36.5977    115.5713     27.7400     53.4788
  1845.0000     36.6813    115.5902     26.6030     50.8021
  1845.2500     36.3216    115.6323     25.2520     50.0072
  1845.5000     35.2861    115.6968     23.7731     51.0097
  1845.7500     33.4331    115.7882     22.2559     53.7130
  1846.0000     30.8167    115.9205     20.7798     61.6838
  1846.2500     27.7388    116.1106     19.3955     69.6100
  1846.5000     24.6819    116.3652     18.1188     84.1596
  1846.7500     22.0717    116.6728     16.9379     94.4217
  1847.0000     20.0932    117.0066     15.8301    108.7529
  1847.2500     18.7026    117.3359     14.7768    116.9386
  1847.5000     17.7350    117.6358     13.7727    126.6388
  1847.7500     17.0054    117.8896     12.8245    131.1491
  1848.0000     16.3668    118.0905     11.9445    134.7508
  1848.2500     15.7281    118.2480     11.1446    135.3817
  1848.5000     15.0701    118.3877     10.4351    135.3469
  1848.7500     14.4354    118.5354      9.8229    135.8527
  1849.0000     13.8773    118.6967      9.3083    138.5542
  1849.2500     13.4152    118.8520      8.8840    141.3952
  1849.5000     13.0327    118.9741      8.5358    145.3974
  1849.7500     12.7050    119.0481      8.2472    146.6419
  1850.0000     12.4273    119.0740      8.0051    145.3547
  1850.2500     12.2088    119.0617      7.8017    142.7862
  1850.5000     12.0400    119.0264      7.6347    138.1279
  1850.7500     11.8842    118.9849      7.5044    135.5455
  1851.0000     11.7038    118.9476      7.4128    133.4850
  1851.2500     11.4806    118.9137      7.3619    133.2701
  1851.5000     11.2520    118.8752      7.3537    133.6568
  1851.7500     11.1325    118.8273      7.3899    133.5545
  1852.0000     11.2051    118.7734      7.4697    131.7816
  1852.2500     11.4225    118.7211      7.5892    129.4949
  1852.5000     11.6950    118.6744      7.7405    125.6415
  1852.7500     11.9787    118.6302      7.9127    123.8327
  1853.0000     12.2534    118.5791      8.0949    123.1941
  1853.2500     12.4866    118.5133      8.2794    123.7729
  1853.5000     12.6081    118.4346      8.4647    124.3598
  1853.7500     12.5273    118.3589      8.6561    123.5046
  1854.0000     12.2281    118.3124      8.8631    119.6743
  1854.2500     11.8643    118.3219      9.0967    116.0102
  1854.5000     11.7333    118.4045      9.3664    111.2456
  1854.7500     12.0900    118.5606      9.6783    110.1522
  1855.0000     12.9462    118.7702     10.0333    113.1854
  1855.2500     14.0864    118.9988     10.4251    117.9354
  1855.5000     15.2610    119.2116     10.8401    126.4624
  1855.7500     16.2997    119.3849     11.2572    131.1922
  1856.0000     17.1243    119.5095     11.6490    134.8774
  1856.2500     17.7446    119.5878     11.9850    135.0434
  1856.5000     18.2249    119.6332     12.2376    133.0052
  1856.7500     18.6161    119.6661     12.3910    130.7168
  1857.0000     18.9209    119.7029     12.4475    126.1966
  1857.2500     19.1267    119.7473     12.4276    122.5632
  1857.5000     19.2416    119.7911     12.3623    116.9125
  1857.7500     19.2919    119.8233     12.2817    113.7225
  1858.0000     19.3148    119.8382     12.2062    111.1043
  1858.2500     19.3383    119.8392     12.1413    111.3566
  1858.5000     19.3242    119.8365     12.0797    114.7238
  1858.7500     19.1387    119.8419     12.0065    118.3611
  1859.0000     18.6252    119.8638     11.9063    124.7426
  1859.2500     17.7449    119.9045     11.7667    129.2706
  1859.5000     16.6261    119.9596     11.5777    136.1607
  1859.7500     15.3968    120.0194     11.3338    140.3993
  1860.0000     14.0866    120.0740     11.0392    144.8990
  1860.2500     12.8428    120.1164     10.7122    145.7995
  1860.5000     12.0157    120.1410     10.3818    143.2647
  1860.7500     11.8832    120.1404     10.0787    139.4090
  1861.0000     12.4513    120.1054      9.8254    132.4510
  1861.2500     13.4784    120.0310      9.6322    128.3780
  1861.5000     14.5679    119.9216      9.4978    124.4599
  1861.7500     15.3303    119.7923      9.4141    123.4508
  1862.0000     15.5516    119.6644      9.3712    124.1624
  1862.2500     15.2248    119.5585      9.3607    126.0032
  1862.5000     14.4948    119.4870      9.3764    130.3734
  1862.7500     13.6265    119.4488      9.4124    133.7550
  1863.0000     12.9322    119.4315      9.4611    138.0713
  1863.2500     12.6145    119.4255      9.5123    139.7903
  1863.5000     12.6833    119.4352      9.5569    140.4689
  1863.7500     13.0402    119.4708      9.5901    139.9636
  1864.0000     13.5773    119.5281      9.6134    138.3774
  1864.2500     14.1596    119.5847      9.6329    137.2041
  1864.5000     14.6301    119.6216      9.6549    136.4458
  1864.7500     14.9040    119.6412      9.6827    137.2057
  1865.0000     15.0002    119.6614      9.7146    140.1528
  1865.2500     14.9861    119.6960      9.7457    142.6568
  1865.5000     14.9385    119.7402      9.7694    146.0476
  1865.7500     14.9312    119.7748      9.7794    147.6983
  1866.0000     14.9942    119.7830      9.7703    149.1152
  1866.2500     15.0866    119.7649      9.7372    149.5235
  1866.5000     15.1331    119.7373      9.6753    149.9642
  1866.7500     15.0714    119.7200      9.5796    150.3534
  1867.0000     14.8391    119.7201      9.4481    150.6849
  1867.2500     14.3231    119.7281      9.2864    150.4172
  1867.5000     13.4053    119.7259      9.1093    149.4197
  1867.7500     12.1536    119.7001      8.9374    148.6723
  1868.0000     10.8950    119.6525      8.7891    147.6329
  1868.2500     10.0195    119.5957      8.6731    147.0035
  1868.5000      9.7800    119.5366      8.5852    146.4158
  1868.7500     10.2257    119.4636      8.5108    146.4178
  1869.0000     11.1819    119.3526      8.4335    146.8858
  1869.2500     12.2910    119.1868      8.3445    147.2367
  1869.5000     13.1876    118.9714      8.2471    147.1842
  1869.7500     13.7046    118.7348      8.1546    146.3328
  1870.0000     13.9000    118.5159      8.0832    143.5293
  1870.2500     13.9221    118.3444      8.0483    141.1659
  1870.5000     13.8870    118.2261      8.0631    138.9086
  1870.7500     13.8537    118.1464      8.1393    139.2880
  1871.0000     13.8586    118.0932      8.2853    142.5017
  1871.2500     13.9301    118.0784      8.5021    145.1537
  1871.5000     14.0795    118.1297      8.7808    147.2406
  1871.7500     14.2932    118.2517      9.1016    146.2968
  1872.0000     14.5234    118.3995      9.4395    140.9876
  1872.2500     14.6966    118.5022      9.7730    135.3856
  1872.5000     14.7528    118.5164     10.0913    125.1314
  1872.7500     14.6846    118.4563     10.3961    117.4982
  1873.0000     14.5878    118.3770     10.6969    105.6061
  1873.2500     14.6948    118.3351     11.0065     98.4351
  1873.5000     15.2408    118.3596     11.3378     91.4044
  1873.7500     16.2091    118.4437     11.7023     90.2670
