~Version Information
VERS.                      2.0: CWLS Log ASCII Standard - VERSION 2.0
WRAP.                       NO: One line per depth step
~Well Information Block
STRT.FT               245.0000: 
STOP.FT              1273.7500: 
STEP.FT                 0.2500: 
NULL.                -999.2500: 
COMP.          Pioneer Natural Resources: COMPANY
WELL.                 Ray 34-6: WELL
FLD.           Purgatoire River: FIELD
LOC.           684' FSL & 2254' FEL--: LOCATION
CNTY.               Las Animas: COUNTY
SRVC.                Patterson: SERVICE COMPANY
DATE.          Fri May 26 03:08:09 2006: LOG DATE
UWI.           05 071 08695 00: UNIQUE WELL ID
STAT.                 Colorado: STATE
~Curve Information Block
DEPT.FT            0 000 00 00: Depth
SN.Ohm-m                      : IEL Short Normal
SP.mV                         : IEL Spontaneous Potential
DIR.Ohm-m                     : IEL Induction Resistivity
GR.GAPI                       : Gamma Ray
~Parameter Information Block
~A  Depth        SN          SP         DIR          GR     
# ...
  1049.0000    685.7410   -562.3427     13.2315    121.7829
  1049.2500    685.7410   -562.3784     13.7728    120.2362
  1049.5000    685.7410   -562.4125     14.5239    114.1216
  1049.7500    685.7410   -562.4443     15.4836    107.6599
  1050.0000    685.7410   -562.4733     16.6209     95.6195
  1050.2500    685.7410   -562.4991     17.8638     87.1268
  1050.5000    685.7410   -562.5218     19.0993     75.9313
  1050.7500    685.7410   -562.5414     20.1888     70.7172
  1051.0000    685.7410   -562.5582     20.9972     67.6035
  1051.2500    685.7410   -562.5723     21.4283     68.8798
  1051.5000    685.7410   -562.5839     21.4550     75.3019
  1051.7500    685.7410   -562.5930     21.1278     81.8075
  1052.0000    685.7410   -562.5999     20.5523     92.8719
  1052.2500    685.7410   -562.6048     19.8472     99.7318
  1052.5000    685.7410   -562.6078     19.1102    107.2040
  1052.7500    685.7410   -562.6093     18.4076    109.7598
  1053.0000    685.7410   -562.6096     17.7820    110.5597
  1053.2500    685.7410   -562.6091     17.2647    110.0341
  1053.5000    685.7410   -562.6083     16.8816    109.2098
  1053.7500    685.7410   -562.6076     16.6518    109.1005
  1054.0000    685.7410   -562.6074     16.5821    109.7664
  1054.2500    685.7410   -562.6080     16.6628    110.7568
  1054.5000    685.7410   -562.6094     16.8665    113.0518
  1054.7500    685.7410   -562.6118     17.1533    114.9677
  1055.0000    685.7410   -562.6154     17.4774    117.7374
  1055.2500    685.7410   -562.6199     17.7913    119.0756
  1055.5000    685.7410   -562.6255     18.0468    119.9761
  1055.7500    685.7410   -562.6322     18.1986    119.8465
  1056.0000    685.7410   -562.6397     18.2133    118.6760
  1056.2500    685.7410   -562.6480     18.0805    117.4028
  1056.5000    685.7410   -562.6569     17.8169    115.2557
  1056.7500    685.7410   -562.6664     17.4587    113.9348
  1057.0000    685.7410   -562.6764     17.0472    112.2586
  1057.2500    685.7410   -562.6870     16.6160    111.3419
  1057.5000    685.7410   -562.6985     16.1841    110.4971
  1057.7500    685.7410   -562.7112     15.7574    110.5849
  1058.0000    685.7410   -562.7256     15.3334    112.1437
  1058.2500    685.7410   -562.7422     14.9104    114.1293
  1058.5000    685.7410   -562.7612     14.4951    117.8926
  1058.7500    685.7410   -562.7827     14.1034    120.3493
  1059.0000    685.7410   -562.8066     13.7560    123.2217
  1059.2500    685.7410   -562.8326     13.4696    124.5251
  1059.5000    685.7410   -562.8600     13.2534    125.7903
  1059.7500    685.7410   -562.8881     13.1099    126.1963
  1060.0000    685.7410   -562.9161     13.0369    125.9209
  1060.2500    685.7410   -562.9435     13.0277    125.1546
  1060.5000    685.7410   -562.9695     13.0689    123.8309
  1060.7500    685.7410   -562.9941     13.1415    123.5376
  1061.0000    685.7410   -563.0169     13.2248    124.9423
  1061.2500    685.7410   -563.0381     13.3023    127.0442
  1061.5000    685.7410   -563.0576     13.3628    130.5259
  1061.7500    685.7410   -563.0757     13.3972    131.9383
  1062.0000    685.7410   -563.0925     13.3933    131.7340
  1062.2500    685.7410   -563.1078     13.3363    130.4514
  1062.5000    685.7410   -563.1215     13.2140    128.4226
  1062.7500    685.7410   -563.1334     13.0239    127.7655
  1063.0000    685.7410   -563.1431     12.7769    128.2113
  1063.2500    685.7410   -563.1503     12.4952    129.3053
  1063.5000    685.7410   -563.1547     12.2065    131.7759
  1063.7500    685.7410   -563.1563     11.9368    133.8300
  1064.0000    685.7410   -563.1555     11.7046    137.1493
  1064.2500    685.7410   -563.1528     11.5182    139.1312
  1064.5000    685.7410   -563.1490     11.3765    141.1577
  1064.7500    685.7410   -563.1454     11.2703    141.8430
  1065.0000    685.7410   -563.1429     11.1853    142.3517
  1065.2500    685.7410   -563.1424     11.1057    142.6141
  1065.5000    685.7410   -563.1444     11.0184    142.7470
  1065.7500    685.7410   -563.1493     10.9159    142.3455
  1066.0000    685.7410   -563.1569     10.7972    140.9702
  1066.2500    685.7410   -563.1667     10.6666    140.0036
  1066.5000    685.7410   -563.1780     10.5322    139.3286
  1066.7500    685.7410   -563.1902     10.4024    139.4842
  1067.0000    685.7410   -563.2025     10.2844    140.3049
  1067.2500    685.7410   -563.2144     10.1820    141.1724
  1067.5000    685.7410   -563.2256     10.0976    143.0948
  1067.7500    685.7410   -563.2358     10.0345    144.6565
  1068.0000    685.7410   -563.2451      9.9993    146.4065
  1068.2500    685.7410   -563.2537     10.0013    146.4500
  1068.5000    685.7410   -563.2617     10.0499    144.2402
  1068.7500    685.7410   -563.2692     10.1522    141.3915
  1069.0000    685.7410   -563.2765     10.3098    135.6208
  1069.2500    685.7410   -563.2836     10.5187    131.0329
  1069.5000    685.7410   -563.2905     10.7677    123.2863
  1069.7500    685.7410   -563.2971     11.0391    117.7452
  1070.0000    685.7410   -563.3033     11.3086    109.8301
  1070.2500    685.7410   -563.3088     11.5469    105.8537
  1070.5000    685.7410   -563.3135     11.7243    103.7493
  1070.7500    685.7410   -563.3171     11.8186    105.5155
  1071.0000    685.7410   -563.3193     11.8232    112.4391
  1071.2500    685.7410   -563.3201     11.7492    118.7866
  1071.5000    685.7410   -563.3195     11.6202    128.1257
  1071.7500    685.7410   -563.3174     11.4638    132.6872
  1072.0000    685.7410   -563.3139     11.3036    135.7514
  1072.2500    685.7410   -563.3093     11.1569    135.6321
  1072.5000    685.7410   -563.3036     11.0347    134.2452
  1072.7500    685.7410   -563.2972     10.9434    133.8113
  1073.0000    685.7410   -563.2905     10.8869    134.7121
  1073.2500    685.7410   -563.2836     10.8677    135.6611
  1073.5000    685.7410   -563.2767     10.8897    135.7019
  1073.7500    685.7410   -563.2700     10.9597    134.4048
  1074.0000    685.7410   -563.2636     11.0875    131.6837
  1074.2500    685.7410   -563.2576     11.2819    130.4899
  1074.5000    685.7410   -563.2518     11.5447    130.7084
  1074.7500    685.7410   -563.2462     11.8667    131.9912
  1075.0000    685.7410   -563.2405     12.2266    134.2237
  1075.2500    685.7410   -563.2346     12.5971    134.9269
  1075.5000    685.7410   -563.2282     12.9509    133.6826
  1075.7500    685.7410   -563.2213     13.2663    131.3980
  1076.0000    685.7410   -563.2136     13.5288    127.2687
  1076.2500    685.7410   -563.2051     13.7316    125.2057
  1076.5000    685.7410   -563.1957     13.8768    124.2798
  1076.7500    685.7410   -563.1854     13.9773    124.9571
  1077.0000    685.7410   -563.1746     14.0546    126.7759
  1077.2500    685.7410   -563.1631     14.1327    127.8509
  1077.5000    685.7410   -563.1516     14.2320    128.6235
  1077.7500    685.7410   -563.1401     14.3660    128.4508
  1078.0000    685.7410   -563.1291     14.5432    126.7907
  1078.2500    685.7410   -563.1188     14.7703    124.3378
  1078.5000    685.7410   -563.1097     15.0554    118.2400
  1078.7500    685.7410   -563.1017     15.4075    112.9271
  1079.0000    685.7410   -563.0953     15.8321    104.6424
  1079.2500    685.7410   -563.0901     16.3223     99.9002
  1079.5000    685.7410   -563.0862     16.8516     95.2015
  1079.7500    685.7410   -563.0834     17.3705     94.1261
  1080.0000    685.7410   -563.0812     17.8124     95.8852
  1080.2500    685.7410   -563.0795     18.1039     99.0128
  1080.5000    685.7410   -563.0776     18.1843    105.3340
  1080.7500    685.7410   -563.0751     18.0301    109.8455
  1081.0000    685.7410   -563.0718     17.6734    116.3801
  1081.2500    685.7410   -563.0672     17.1961    120.4290
  1081.5000    685.7410   -563.0611     16.7011    125.5724
  1081.7500    685.7410   -563.0534     16.2806    128.0325
  1082.0000    685.7410   -563.0442     16.0008    130.1504
  1082.2500    685.7410   -563.0334     15.9017    130.7512
