~Version Information
VERS.                      2.0: CWLS Log ASCII Standard - VERSION 2.0
WRAP.                       NO: One line per depth step
~Well Information Block
STRT.FT               240.0000: 
STOP.FT               940.5000: 
STEP.FT                 0.1000: 
NULL.                -999.2500: 
COMP.          Pioneer Natural Resources: COMPANY
WELL.               Ernie 31-6: WELL
FLD.           Purgatoire River: FIELD
LOC.           681' FNL & 2138' FEL: LOCATION
CNTY.               Las Animas: COUNTY
SRVC.                Patterson: SERVICE COMPANY
DATE.          Tue May 30 07:05:10 2006: LOG DATE
UWI.           05 071 08716 00: UNIQUE WELL ID
STAT.                 Colorado: STATE
~Curve Information Block
DEPT.FT            0 000 00 00: Depth
DCAL.in                       : CDL Caliper
RHOB.g/cc                     : CDL Bulk Density
RHOC.g/cc                     : CDL Density Correction
DPOR.pu                       : CDL Density Porosity
GR.GAPI                       : Gamma Ray
NPOR.pu                       : Neutron Porosity
~Parameter Information Block
~A  Depth       DCAL        RHOB        RHOC        DPOR         GR         NPOR    
# ...
   374.4000      8.0105      2.6039      0.0783      2.7930    102.7225     22.3943
   374.5000      8.0090      2.5716      0.0458      4.7490    103.0205     22.3155
   374.6000      8.0090      2.5322     -0.0508      7.1369     98.1363     22.4459
   374.7000      8.0090      2.5107      0.0164      8.4422     89.5527     22.7633
   374.8000      8.0059      2.5054     -0.0073      8.7634     83.1735     22.6631
   374.9000      8.0059      2.5089      0.0040      8.5525     81.7140     21.7026
   375.0000      8.0041      2.5185      0.0012      7.9688     80.7600     20.8160
   375.1000      8.0041      2.5349     -0.0091      6.9764     78.7701     20.8495
   375.2000      8.0041      2.5621      0.0315      5.3270     78.0031     21.3855
   375.3000      8.0070      2.5905      0.0374      3.6053     74.8562     21.6235
   375.4000      8.0070      2.5964      0.0792      3.2458     67.4364     21.4996
   375.5000      8.0063      2.5716      0.0395      4.7529     62.0794     21.5440
   375.6000      8.0063      2.5389      0.0294      6.7329     61.3472     21.8610
   375.7000      8.0063      2.5299     -0.0221      7.2799     62.3878     21.8791
   375.8000      8.0071      2.5480      0.0640      6.1827     64.2043     21.2777
   375.9000      8.0071      2.5642      0.0701      5.2001     67.5768     20.7825
   376.0000      8.0183      2.5650      0.0303      5.1488     72.4876     21.0423
   376.1000      8.0183      2.5655      0.0192      5.1227     76.0704     21.3326
   376.2000      8.0183      2.5672      0.0638      5.0210     75.8595     21.0549
   376.3000      8.0081      2.5601      0.0138      5.4509     72.4597     20.9486
   376.4000      8.0081      2.5490      0.0158      6.1195     67.9410     21.3866
   376.5000      8.0053      2.5419      0.0145      6.5502     68.6028     21.7184
   376.6000      8.0053      2.5334      0.0532      7.0687     77.3493     21.8022
   376.7000      8.0053      2.5240     -0.0359      7.6390     85.2808     21.7399
   376.8000      8.0037      2.5303     -0.0094      7.2533     86.7005     21.1687
   376.9000      8.0037      2.5541      0.0531      5.8111     88.8978     20.7012
   377.0000      8.0002      2.5792      0.0829      4.2922     94.8241     21.0532
   377.1000      8.0002      2.5890      0.0868      3.6953     99.0426     21.8996
   377.2000      8.0002      2.5694      0.0908      4.8854    102.7114     22.7974
   377.3000      7.9937      2.5230      0.0520      7.6967    112.6225     23.3660
   377.4000      7.9937      2.4718     -0.0175     10.7985    126.5477     23.5351
   377.5000      8.0090      2.4351      0.0005     13.0254    133.7472     23.5827
   377.6000      8.0090      2.4212     -0.0083     13.8679    131.9617     23.2652
   377.7000      8.0090      2.4284      0.0241     13.4275    130.5992     22.2479
   377.8000      8.0103      2.4428      0.0427     12.5594    134.2110     20.9296
   377.9000      8.0103      2.4517      0.0136     12.0165    138.9930     19.8506
   378.0000      8.0121      2.4581      0.0298     11.6314    141.7406     19.6689
   378.1000      8.0121      2.4680      0.0815     11.0302    142.8059     20.5194
   378.2000      8.0121      2.4846      0.1086     10.0244    143.6334     21.4017
   378.3000      8.0125      2.5069      0.1490      8.6751    144.9261     21.5684
   378.4000      8.0125      2.5171      0.2196      8.0529    144.4573     21.2746
   378.5000      8.0089      2.4984      0.1638      9.1856    141.2375     20.9752
   378.6000      8.0089      2.4590      0.1130     11.5752    137.9969     20.9394
   378.7000      8.0089      2.4108      0.1186     14.4967    136.9439     21.2921
   378.8000      8.0128      2.3638      0.0673     17.3449    136.7767     22.1762
   378.9000      8.0128      2.3389      0.0471     18.8548    132.1840     23.6025
   379.0000      8.0115      2.3552      0.0403     17.8647    122.8679     25.0690
   379.1000      8.0115      2.4149      0.1385     14.2509    118.0584     26.1690
   379.2000      8.0115      2.5017      0.1644      8.9908    122.6610     27.1110
   379.3000      8.0114      2.5906      0.2405      3.5971    128.9510     27.9216
   379.4000      8.0114      2.6522      0.3321     -0.1351    130.6634     28.1451
   379.5000      8.0139      2.6720      0.2981     -1.3359    128.5450     27.6235
   379.6000      8.0139      2.6666      0.2842     -1.0090    121.7849     27.2788
   379.7000      8.0139      2.6545      0.2663     -0.2708    110.3575     27.7990
   379.8000      8.0099      2.6413      0.1761      0.5244    100.1159     28.1509
   379.9000      8.0099      2.6300      0.1794      1.2118     93.5534     27.2672
   380.0000      8.0134      2.6256      0.0685      1.4811     89.5190     25.7091
   380.1000      8.0134      2.6361      0.0804      0.8395     87.5426     24.6517
   380.2000      8.0134      2.6489      0.1046      0.0692     86.6946     24.4715
   380.3000      8.0097      2.6407      0.0845      0.5665     87.8433     24.4604
   380.4000      8.0097      2.6120      0.0348      2.3055     93.5099     23.9898
   380.5000      8.0087      2.5816      0.0449      4.1484    100.7178     23.4727
   380.6000      8.0087      2.5667     -0.0251      5.0505    103.9351     23.5299
   380.7000      8.0087      2.5750      0.0199      4.5442    107.3268     23.9567
   380.8000      8.0043      2.5960      0.0147      3.2700    114.6179     24.1019
   380.9000      8.0043      2.6058      0.0411      2.6792    123.0983     23.8330
   381.0000      8.0084      2.5924      0.0465      3.4897    131.1510     23.5982
   381.1000      8.0084      2.5714      0.0074      4.7613    134.3522     23.6198
   381.2000      8.0084      2.5623      0.0304      5.3170    129.8930     23.7953
   381.3000      8.0095      2.5673     -0.0112      5.0134    120.6086     23.9499
   381.4000      8.0095      2.5805      0.0523      4.2124    110.3848     23.7184
   381.5000      8.0123      2.5896      0.0899      3.6578    103.4862     22.9790
   381.6000      8.0123      2.5854      0.0700      3.9152    101.9865     21.9410
   381.7000      8.0123      2.5728      0.0497      4.6766    103.7640     21.0610
   381.8000      8.0094      2.5641      0.0253      5.2087    107.6321     21.0009
   381.9000      8.0094      2.5572      0.0611      5.6225    114.5563     21.8962
   382.0000      8.0079      2.5373      0.0500      6.8328    120.3142     22.8940
   382.1000      8.0079      2.5097     -0.0030      8.5012    120.7898     23.1370
   382.2000      8.0079      2.4996     -0.0071      9.1151    120.6863     23.0899
   382.3000      8.0019      2.5162      0.0163      8.1101    127.3110     23.6289
   382.4000      8.0019      2.5420      0.0653      6.5435    137.4553     24.6881
   382.5000      7.9978      2.5557      0.0826      5.7178    140.3970     25.8213
   382.6000      7.9978      2.5616      0.0770      5.3574    135.0739     26.8094
   382.7000      7.9978      2.5826      0.0753      4.0860    132.1666     27.5484
   382.8000      7.9987      2.6163      0.1522      2.0396    133.8071     27.7449
   382.9000      7.9987      2.6396      0.1196      0.6274    133.4203     27.1834
   383.0000      8.0115      2.6510      0.1241     -0.0608    132.5573     26.5562
   383.1000      8.0115      2.6617      0.1367     -0.7076    133.7561     26.6855
   383.2000      8.0115      2.6727      0.1467     -1.3757    131.6736     27.1350
   383.3000      8.0144      2.6801      0.1111     -1.8220    123.4051     27.4138
   383.4000      8.0144      2.6781      0.1077     -1.7046    112.7821     27.5453
   383.5000      8.0192      2.6599      0.0844     -0.6012    104.6433     27.2129
   383.6000      8.0192      2.6289      0.0540      1.2806     99.7377     26.4648
   383.7000      8.0192      2.6015      0.0156      2.9400     96.5437     25.8048
   383.8000      8.0116      2.5939      0.0158      3.4024     93.1552     25.3388
   383.9000      8.0116      2.6080      0.0162      2.5464     87.8584     24.8935
