~Version Information
VERS.                      2.0: CWLS Log ASCII Standard - VERSION 2.0
WRAP.                       NO: One line per depth step
~Well Information Block
STRT.FT                -9.5000: 
STOP.FT              1401.5000: 
STEP.FT                 0.2500: 
NULL.                -999.2500: 
COMP.          Pioneer Natural Resources: COMPANY
WELL.             John K 12-28: WELL
FLD.           Purgatorie River: FIELD
LOC.           1476' FNL & 465' FWL--: LOCATION
CNTY.               Las Animas: COUNTY
SRVC.          Patterson Wireline: SERVICE COMPANY
DATE.          Fri Apr 28 08:36:46 2006: LOG DATE
UWI.           05 071 08723 00: UNIQUE WELL ID
STAT.                       CO: STATE
~Curve Information Block
DEPT.FT            0 000 00 00: Depth
CCL.                          : Casing Collar Locator
TT3.usec                      : CBL 3' Travel Time
AMP3.mV                       : CBL 3' Amplitude
GR.GAPI                       : Gamma Ray
~Parameter Information Block
~A  Depth       CCL         TT3         AMP3         GR     
# ...
    91.0000      0.0000    832.6607     13.3237     99.4185
    91.2500      0.0000    836.3961     13.3349     96.9298
    91.5000      0.0000    840.7294     13.3829     94.5475
    91.7500      0.0000    847.8228     13.4822     93.1217
    92.0000      0.0000    858.4369     13.6282     92.2282
    92.2500      0.0000    871.2994     13.8039     91.0254
    92.5000      0.0000    881.8542     13.9890     89.1399
    92.7500      0.0000    880.1732     14.1674     86.9743
    93.0000      0.0000    853.1324     14.3253     85.5536
    93.2500      0.0000    795.3705     14.4439     85.9908
    93.5000      0.0000    721.5762     14.4955     88.8941
    93.7500      0.0000    663.7347     14.4515     94.0431
    94.0000      0.0000    649.0524     14.3031    100.1504
    94.2500      0.0000    678.5460     14.0736    104.9374
    94.5000      0.0000    729.2963     13.8052    106.3255
    94.7500      0.0000    775.8244     13.5335    104.2615
    95.0000      0.0000    805.8938     13.2723    101.2094
    95.2500      0.0000    819.3981     13.0184    100.4795
    95.5000      0.0000    820.7430     12.7637    103.7634
    95.7500      0.0000    815.9346     12.5027    109.9095
    96.0000      0.0000    813.2549     12.2352    115.8818
    96.2500      0.0000    821.2574     11.9727    119.0563
    96.5000      0.0000    843.8427     11.7381    118.6492
    96.7500      0.0000    877.1515     11.5540    115.0550
    97.0000      0.0000    910.5590     11.4274    108.6499
    97.2500      0.0000    931.0107     11.3483    100.1601
    97.5000      0.0000    929.8618     11.3031     91.6608
    97.7500      0.0000    908.7762     11.2862     85.7379
    98.0000      0.0000    878.5900     11.3003     83.2679
    98.2500      0.0000    851.4475     11.3460     82.6808
    98.5000      0.0000    834.0504     11.4101     81.6916
    98.7500      0.0000    826.8098     11.4666     79.5536
    99.0000      0.0000    826.6269     11.4915     77.5844
    99.2500      0.0000    829.6796     11.4790     77.6216
    99.5000      0.0000    832.9763     11.4458     80.0367
    99.7500      0.0000    835.0697     11.4150     83.3901
   100.0000      0.0000    836.3756     11.3981     85.9288
   100.2500      0.0000    838.5442     11.3929     87.0656
   100.5000      0.0000    842.5076     11.3981     87.4124
   100.7500      0.0000    846.9000     11.4214     87.9206
   101.0000      0.0000    848.9640     11.4717     89.1959
   101.2500      0.0000    847.1984     11.5498     91.1032
   101.5000      0.0000    842.6345     11.6462     92.6685
   101.7500      0.0000    836.9598     11.7418     92.8257
   102.0000      0.0000    829.4822     11.8107     91.6591
   102.2500      0.0000    816.9600     11.8325     90.7059
   102.5000      0.0000    797.4695     11.8054     91.7411
   102.7500      0.0000    774.0830     11.7451     95.1778
   103.0000      0.0000    753.4738     11.6748     99.5228
   103.2500      0.0000    740.7242     11.6187    102.3082
   103.5000      0.0000    736.0769     11.5973    101.9385
   103.7500      0.0000    736.2533     11.6199     98.8783
   104.0000      0.0000    737.7452     11.6817     94.8203
   104.2500      0.0000    738.7350     11.7683     90.8105
   104.5000      0.0000    738.9181     11.8622     86.6534
   104.7500      0.0000    738.2236     11.9460     81.9646
   105.0000      0.0000    735.3053     12.0085     77.0927
   105.2500      0.0000    726.0923     12.0535     72.7008
   105.5000      0.0000    703.5556     12.0994     68.8113
   105.7500      0.0000    660.9382     12.1676     64.7534
   106.0000      0.0000    598.2747     12.2707     60.1272
   106.2500      0.0000    526.1776     12.4101     55.5416
   106.5000      0.0000    460.7379     12.5757     52.2964
   106.7500      0.0000    413.1663     12.7480     51.4960
   107.0000      0.0000    384.5956     12.9057     53.3021
   107.2500      0.0000    369.6781     13.0337     56.6620
   107.5000      0.0000    362.9224     13.1240     59.7827
   107.7500      0.0000    361.4612     13.1732     61.2047
   108.0000      0.0000    364.1502     13.1839     60.7517
   108.2500      0.0000    370.4306     13.1674     59.5646
   108.5000      0.0000    380.9722     13.1393     59.1110
   108.7500      0.0000    397.6900     13.1135     59.9908
   109.0000      0.0000    420.4917     13.0979     61.6677
   109.2500      0.0000    444.1043     13.0915     63.1448
   109.5000      0.0000    462.2495     13.0821     63.5978
   109.7500      0.0000    477.2335     13.0539     62.6541
   110.0000      0.0000    501.0011     13.0038     60.6621
   110.2500      0.0000    541.4830     12.9475     58.5706
   110.5000      0.0000    588.9332     12.9068     57.1426
   110.7500      0.0000    619.9202     12.8936     56.4252
   111.0000      0.0000    616.1289     12.9083     56.0651
   111.2500      0.0000    580.0450     12.9461     55.7835
   111.5000      0.0000    534.1103     12.9981     55.5911
   111.7500      0.0000    504.5921     13.0513     55.9506
   112.0000      0.0000    504.0578     13.0925     57.5796
   112.2500      0.0000    526.6804     13.1139     60.6327
   112.5000      0.0000    557.3757     13.1143     64.1129
   112.7500      0.0000    583.8481     13.1000     66.3694
   113.0000      0.0000    603.1775     13.0836     66.2366
   113.2500      0.0000    620.2586     13.0778     63.8280
   113.5000      0.0000    639.0582     13.0865     60.3850
   113.7500      0.0000    654.5129     13.1007     57.2363
   114.0000      0.0000    654.6517     13.0969     54.8491
   114.2500      0.0000    631.6103     13.0360     52.9995
   114.5000      0.0000    590.3934     12.8760     51.6219
   114.7500      0.0000    546.7386     12.6077     51.0453
   115.0000      0.0000    516.3798     12.2825     51.4780
   115.2500      0.0000    507.8416     11.9686     52.6740
   115.5000      0.0000    524.8652     11.6549     54.0889
   115.7500      0.0000    568.5919     11.2453     54.9723
   116.0000      0.0000    632.0924     10.6922     54.3412
   116.2500      0.0000    698.7106     10.0903     51.4380
   116.5000      0.0000    753.2648      9.5908     46.7045
   116.7500      0.0000    793.5421      9.2646     42.2047
   117.0000     -2.0000    826.4330      9.0899     40.5032
   117.2500      2.0000    853.3723      9.0332     42.6578
   117.5000      0.0000    862.7935      9.1126     47.2868
   117.7500      0.0000    838.9317      9.3910     51.7942
   118.0000      0.0000    779.2368      9.8998     54.4826
   118.2500      0.0000    703.4312     10.5416     55.5356
   118.5000      0.0000    643.3732     11.1096     56.3159
   118.7500      0.0000    620.7471     11.4665     57.8879
   119.0000      0.0000    632.9735     11.6663     60.0092
   119.2500      0.0000    660.1118     11.8458     61.4463
   119.5000      0.0000    683.3848     12.0577     61.2161
   119.7500      0.0000    696.1821     12.2627     59.2826
   120.0000      0.0000    701.5551     12.4193     56.1898
   120.2500      0.0000    704.8889     12.5195     52.6351
   120.5000      0.0000    709.6240     12.5646     49.5316
   120.7500      0.0000    716.5652     12.5498     47.8887
   121.0000      0.0000    724.4824     12.4711     48.1880
   121.2500      0.0000    731.3323     12.3338     49.9529
   121.5000      0.0000    735.5750     12.1538     52.1315
   121.7500      0.0000    736.8594     11.9518     53.8825
   122.0000      0.0000    735.9676     11.7445     54.9026
   122.2500      0.0000    734.5207     11.5384     55.1938
   122.5000      0.0000    734.4146     11.3313     54.9464
   122.7500      0.0000    736.7465     11.1221     54.7972
   123.0000      0.0000    740.9246     10.9221     55.7227
   123.2500      0.0000    744.9235     10.7577     58.1242
   123.5000      0.0000    746.5911     10.6556     61.1022
   123.7500      0.0000    744.9445     10.6242     63.0375
   124.0000      0.0000    740.5389     10.6501     62.9494
   124.2500      0.0000    735.0871     10.7108     61.2220
