~Version Information
VERS.                      2.0: CWLS Log ASCII Standard - VERSION 2.0
WRAP.                       NO: One line per depth step
~Well Information Block
STRT.FT               240.0000: 
STOP.FT               940.5000: 
STEP.FT                 0.1000: 
NULL.                -999.2500: 
COMP.          Pioneer Natural Resources: COMPANY
WELL.               Ernie 31-6: WELL
FLD.           Purgatoire River: FIELD
LOC.           681' FNL & 2138' FEL: LOCATION
CNTY.               Las Animas: COUNTY
SRVC.                Patterson: SERVICE COMPANY
DATE.          Tue May 30 07:05:10 2006: LOG DATE
UWI.           05 071 08716 00: UNIQUE WELL ID
STAT.                 Colorado: STATE
~Curve Information Block
DEPT.FT            0 000 00 00: Depth
DCAL.in                       : CDL Caliper
RHOB.g/cc                     : CDL Bulk Density
RHOC.g/cc                     : CDL Density Correction
DPOR.pu                       : CDL Density Porosity
GR.GAPI                       : Gamma Ray
NPOR.pu                       : Neutron Porosity
~Parameter Information Block
~A  Depth       DCAL        RHOB        RHOC        DPOR         GR         NPOR    
# ...
   518.4000      7.9785      2.4184      0.0926     14.0342    148.7807     19.5557
   518.5000      7.9696      2.4345      0.0806     13.0621    153.4559     19.3426
   518.6000      7.9696      2.4641      0.1286     11.2672    153.8164     19.9611
   518.7000      7.9696      2.4987      0.1249      9.1674    148.4211     20.7665
   518.8000      7.9688      2.5262      0.1411      7.5050    140.1131     20.9207
   518.9000      7.9688      2.5325      0.1677      7.1216    136.1770     20.5304
   519.0000      7.9674      2.5163      0.1228      8.1024    137.5676     20.3529
   519.1000      7.9674      2.4995      0.0696      9.1214    141.4966     20.5664
   519.2000      7.9674      2.5019      0.1038      8.9769    145.5692     20.4835
   519.3000      7.9654      2.5166      0.1276      8.0877    141.6145     19.9577
   519.4000      7.9654      2.5273      0.0904      7.4356    128.4196     19.8432
   519.5000      7.9679      2.5340      0.0840      7.0315    116.1242     20.1858
   519.6000      7.9679      2.5455      0.0895      6.3339    110.0130     20.1783
   519.7000      7.9679      2.5589      0.1466      5.5202    107.8326     19.5532
   519.8000      7.9669      2.5610      0.1386      5.3926    107.4046     18.4990
   519.9000      7.9669      2.5483      0.0970      6.1620    107.8941     17.6209
   520.0000      7.9676      2.5326      0.0649      7.1151    107.1150     17.5257
   520.1000      7.9676      2.5288      0.0550      7.3466    103.6288     17.7318
   520.2000      7.9676      2.5426      0.0572      6.5091    100.0562     17.7134
   520.3000      7.9663      2.5664      0.1006      5.0672    100.6502     17.8436
   520.4000      7.9663      2.5861      0.1237      3.8719    107.0691     18.2620
   520.5000      7.9664      2.5950      0.1240      3.3313    113.6613     18.5366
   520.6000      7.9664      2.5914      0.1206      3.5545    114.4631     18.5597
   520.7000      7.9664      2.5784      0.0932      4.3394    114.1688     18.3134
   520.8000      7.9682      2.5742      0.0640      4.5954    116.8559     17.4184
   520.9000      7.9682      2.5892      0.0807      3.6853    113.5147     16.0541
   521.0000      7.9681      2.6047      0.1379      2.7476     96.4162     14.9855
   521.1000      7.9681      2.5999      0.0687      3.0340     75.8412     14.5314
   521.2000      7.9681      2.5852      0.0345      3.9243     66.6785     14.4869
   521.3000      7.9659      2.5815      0.0256      4.1539     71.3784     14.4715
   521.4000      7.9659      2.5824      0.0763      4.0942     82.3412     14.0131
   521.5000      7.9660      2.5685      0.0203      4.9378     90.2685     13.2335
   521.6000      7.9660      2.5434      0.0142      6.4620     91.3700     12.9354
   521.7000      7.9660      2.5220      0.0115      7.7579     88.8006     13.2265
   521.8000      7.9689      2.5137      0.0000      8.2627     87.6972     13.5738
   521.9000      7.9689      2.5176      0.0281      8.0226     87.3888     13.8401
   522.0000      7.9690      2.5212      0.0333      7.8077     86.0559     13.9512
   522.1000      7.9690      2.5200      0.0032      7.8809     86.3739     13.8687
   522.2000      7.9690      2.5203      0.0373      7.8620     89.2698     14.1355
   522.3000      7.9691      2.5219      0.0484      7.7656     93.7001     14.8903
   522.4000      7.9691      2.5289      0.0329      7.3385     98.1124     15.5675
   522.5000      7.9699      2.5510      0.0587      6.0008    100.9936     16.0230
   522.6000      7.9699      2.5812      0.0610      4.1669    104.0837     16.5081
   522.7000      7.9699      2.6018      0.0760      2.9217    108.9605     17.1704
   522.8000      7.9683      2.6073      0.1003      2.5906    111.0485     18.1612
   522.9000      7.9683      2.6066      0.0898      2.6293    109.6233     19.4563
   523.0000      7.9686      2.6102      0.0841      2.4151    108.8917     20.4506
   523.1000      7.9686      2.6234      0.0519      1.6140    110.7990     20.8131
   523.2000      7.9686      2.6387      0.1429      0.6822    117.4420     21.2185
   523.3000      7.9665      2.6418      0.0752      0.4984    126.7399     22.0643
   523.4000      7.9665      2.6346      0.0622      0.9358    130.3259     22.9231
   523.5000      7.9647      2.6233      0.0815      1.6183    123.5634     23.2700
   523.6000      7.9647      2.6106      0.0386      2.3855    115.3601     23.0947
   523.7000      7.9647      2.6004      0.0873      3.0063    117.7197     23.3552
   523.8000      7.9690      2.5925      0.0509      3.4822    128.8526     24.5192
   523.9000      7.9690      2.5951      0.0392      3.3255    137.5973     25.4259
   524.0000      7.9681      2.6164      0.1140      2.0339    136.5928     24.9447
   524.1000      7.9681      2.6485      0.1425      0.0925    128.3087     23.7131
   524.2000      7.9681      2.6815      0.1272     -1.9108    119.3501     23.0802
   524.3000      7.9677      2.7114      0.1450     -3.7213    115.1569     23.1808
   524.4000      7.9677      2.7373      0.1565     -5.2934    115.2955     23.1858
   524.5000      7.9682      2.7643      0.1707     -6.9290    113.4604     22.7854
   524.6000      7.9682      2.7884      0.2022     -8.3901    105.4899     22.5380
   524.7000      7.9682      2.7959      0.1673     -8.8402     95.3692     22.4957
   524.8000      7.9676      2.7859      0.1432     -8.2361     91.3768     21.9456
   524.9000      7.9676      2.7598      0.1487     -6.6550     98.5025     20.9506
   525.0000      7.9671      2.7183      0.0780     -4.1402    110.3909     20.3186
   525.1000      7.9671      2.6816      0.0526     -1.9166    113.6134     20.0943
   525.2000      7.9671      2.6637      0.0437     -0.8278    104.7820     19.8582
   525.3000      7.9671      2.6561      0.0418     -0.3684     94.7683     19.5723
   525.4000      7.9671      2.6471      0.0805      0.1770     92.2037     19.1803
   525.5000      7.9676      2.6320      0.0577      1.0912     93.7417     18.6296
   525.6000      7.9676      2.6142      0.0377      2.1727     94.9616     18.2695
   525.7000      7.9676      2.6032      0.0219      2.8358     95.6502     18.2846
   525.8000      7.9683      2.6035      0.0135      2.8202     95.3617     18.3673
   525.9000      7.9683      2.6039      0.0597      2.7949     91.8271     18.5468
   526.0000      7.9678      2.5975      0.0562      3.1844     86.3930     19.1961
   526.1000      7.9678      2.5960      0.0478      3.2706     85.4837     20.2167
   526.2000      7.9678      2.6044      0.0872      2.7643     90.8056     20.8114
   526.3000      7.9660      2.6090      0.0411      2.4861     94.9081     20.5036
   526.4000      7.9660      2.5960      0.0516      3.2742     92.4490     19.7676
   526.5000      7.9668      2.5659     -0.0011      5.0984     85.7086     19.3108
   526.6000      7.9668      2.5393     -0.0445      6.7085     78.0354     19.4627
   526.7000      7.9668      2.5334      0.0034      7.0656     72.1902     19.9184
   526.8000      7.9660      2.5439      0.0032      6.4294     72.3059     20.1245
   526.9000      7.9660      2.5605      0.0108      5.4235     78.8335     20.0421
   527.0000      7.9648      2.5698      0.0411      4.8622     84.8478     19.8890
   527.1000      7.9648      2.5658      0.0217      5.1020     84.5329     19.5851
   527.2000      7.9648      2.5644      0.0145      5.1888     81.7103     19.4971
   527.3000      7.9671      2.5770      0.0142      4.4256     82.5929     19.7789
   527.4000      7.9671      2.5895      0.0424      3.6693     86.4363     19.9272
   527.5000      7.9669      2.5814      0.0437      4.1556     89.2884     20.1010
   527.6000      7.9669      2.5616     -0.0091      5.3560     90.7785     20.7578
   527.7000      7.9669      2.5523      0.0087      5.9190     93.7526     21.6133
   527.8000      7.9703      2.5504      0.0415      6.0377    100.1480     22.3568
   527.9000      7.9703      2.5437      0.0252      6.4404    106.9920     23.0085
