~Version Information
VERS.                      2.0: CWLS Log ASCII Standard - VERSION 2.0
WRAP.                       NO: One line per depth step
~Well Information Block
STRT.FT                10.0000: 
STOP.FT               907.0000: 
STEP.FT                 0.1000: 
NULL.                -999.2500: 
COMP.          Pioneer Natural Resources: COMPANY
WELL.           Hartford 31-18: WELL
FLD.           Purgatorie River: FIELD
LOC.           375' FNL & 1660' FEL: LOCATION
PROV.                 Colorado: PROVINCE
CNTY.               Las Animas: COUNTRY
SRVC.                Patterson: SERVICE COMPANY
DATE.          Mon Nov 21 07:39:41 2005: LOG DATE
UWI.            05-071-08555              : UNIQUE WELL ID
~Curve Information Block
DEPT.FT            0 000 00 00: Depth
DCAL.in                       : CDL Caliper
RHOB.g/cc                     : CDL Bulk Density
RHOC.g/cc                     : CDL Density Correction
DPOR.pu                       : CDL Density Porosity
GR.GAPI                       : Gamma Ray
NPOR.pu                       : Neutron Porosity
~Parameter Information Block
~A  Depth       DCAL        RHOB        RHOC        DPOR         GR         NPOR    
# ...
   125.2000     -3.1029      2.5058      2.4995     -0.0029    142.0029     33.3495
   125.3000     -3.1029      2.4304      2.4915     -0.0044    142.7294     31.2208
   125.4000     -3.1029      2.3769      2.4564     -0.0055    146.0116     29.5409
   125.5000     -3.1029      2.3473      2.4677     -0.0061    148.6734     29.0049
   125.6000     -3.1029      2.3302      2.4704     -0.0064    148.0539     29.1407
   125.7000     -3.1029      2.3149      2.4863     -0.0067    143.7094     29.0548
   125.8000     -3.1029      2.3016      2.4424     -0.0070    139.3340     28.2644
   125.9000     -3.1029      2.2952      2.4746     -0.0071    138.3481     27.0813
   126.0000     -3.1029      2.2937      2.4594     -0.0071    139.9658     26.0866
   126.1000     -3.1029      2.2934      2.4391     -0.0071    143.4234     25.5448
   126.2000     -3.1029      2.2925      2.4551     -0.0072    148.2055     25.3705
   126.3000     -3.1029      2.2868      2.4528     -0.0073    151.3318     25.2056
   126.4000     -3.1029      2.2725      2.4467     -0.0076    150.5381     24.9029
   126.5000     -3.1029      2.2576      2.4234     -0.0079    148.4819     24.9180
   126.6000     -3.1029      2.2514      2.4754     -0.0080    146.8067     25.4944
   126.7000     -3.1029      2.2532      2.4408     -0.0079    143.5439     25.8658
   126.8000     -3.1029      2.2643      2.4332     -0.0077    139.3951     25.6883
   126.9000     -3.1029      2.2805      2.5004     -0.0074    137.6561     25.5387
   127.0000     -3.1029      2.2853      2.4884     -0.0073    137.9314     25.5938
   127.1000     -3.1029      2.2732      2.4713     -0.0075    138.7174     25.7376
   127.2000     -3.1029      2.2559      2.4510     -0.0079    144.0858     25.8460
   127.3000     -3.1029      2.2458      2.4366     -0.0081    154.3500     26.0126
   127.4000     -3.1029      2.2466      2.4434     -0.0081    162.3223     26.4950
   127.5000     -3.1029      2.2570      2.4785     -0.0079    165.5888     26.9078
   127.6000     -3.1029      2.2740      2.4910     -0.0075    164.8506     26.8825
   127.7000     -3.1029      2.2904      2.5194     -0.0072    158.6146     26.6637
   127.8000     -3.1029      2.3013      2.4966     -0.0070    149.9263     26.5105
   127.9000     -3.1029      2.3069      2.5143     -0.0069    145.6380     26.3472
   128.0000     -3.1029      2.3026      2.5075     -0.0070    146.9776     25.9893
   128.1000     -3.1029      2.2891      2.4503     -0.0072    149.6080     25.6690
   128.2000     -3.1029      2.2783      2.4767     -0.0074    149.9344     25.6735
   128.3000     -3.1029      2.2778      2.4591     -0.0074    147.9971     25.8347
   128.4000     -3.1029      2.2837      2.4850     -0.0073    146.7207     25.9284
   128.5000     -3.1029      2.2850      2.4949     -0.0073    148.4547     25.9078
   128.6000     -3.1029      2.2781      2.4829     -0.0074    152.9336     25.9027
   128.7000     -3.1029      2.2733      2.4814     -0.0075    157.2558     26.0914
   128.8000     -3.1029      2.2732      2.5044     -0.0075    160.5025     26.5721
   128.9000     -3.1029      2.2711      2.4709     -0.0076    163.3556     27.1726
   129.0000     -3.1029      2.2711      2.4441     -0.0076    163.3887     27.4094
   129.1000     -3.1029      2.2805      2.4918     -0.0074    161.1435     27.1911
   129.2000     -3.1029      2.2931      2.5094     -0.0071    160.5845     27.0157
   129.3000     -3.1029      2.3029      2.4901     -0.0069    161.5208     26.9978
   129.4000     -3.1029      2.3078      2.5017     -0.0068    159.7208     26.9240
   129.5000     -3.1029      2.3008      2.5143     -0.0070    156.4945     26.7881
   129.6000     -3.1029      2.2836      2.4913     -0.0073    156.5979     26.8276
   129.7000     -3.1029      2.2717      2.4773     -0.0076    158.6847     27.2619
   129.8000     -3.1029      2.2710      2.4802     -0.0076    159.9512     27.7695
   129.9000     -3.1029      2.2667      2.5060     -0.0077    162.0692     27.8311
   130.0000     -3.1029      2.2517      2.4437     -0.0080    165.2901     27.5074
   130.1000     -3.1029      2.2425      2.4580     -0.0082    168.1217     27.2169
   130.2000     -3.1029      2.2465      2.4684     -0.0081    169.6020     27.1546
   130.3000     -3.1029      2.2482      2.4813     -0.0080    166.1588     27.2750
   130.4000     -3.1029      2.2378      2.4626     -0.0082    159.0541     27.3882
   130.5000     -3.1029      2.2276      2.4361     -0.0085    155.3949     27.2707
   130.6000     -3.1029      2.2293      2.4351     -0.0084    153.9195     27.0637
   130.7000     -3.1029      2.2365      2.4649     -0.0083    149.6585     27.0349
   130.8000     -3.1029      2.2362      2.4623     -0.0083    147.2736     27.0975
   130.9000     -3.1029      2.2280      2.4634     -0.0084    149.4287     26.9727
   131.0000     -3.1029      2.2237      2.4384     -0.0085    150.3549     26.7243
   131.1000     -3.1029      2.2282      2.4645     -0.0084    149.6791     26.7802
   131.2000     -3.1029      2.2321      2.4669     -0.0084    152.1741     27.1946
   131.3000     -3.1029      2.2303      2.4521     -0.0084    156.4764     27.5501
   131.4000     -3.1029      2.2278      2.4758     -0.0084    157.3140     27.7571
   131.5000     -3.1029      2.2288      2.4663     -0.0084    155.2092     28.0693
   131.6000     -3.1029      2.2352      2.4662     -0.0083    152.2225     28.4856
   131.7000     -3.1029      2.2440      2.4656     -0.0081    147.6551     28.9060
   131.8000     -3.1029      2.2439      2.4889     -0.0081    142.3404     29.3674
   131.9000     -3.1029      2.2258      2.4801     -0.0085    138.5607     29.5762
   132.0000     -3.1029      2.2021      2.4276     -0.0090    139.2285     29.2335
   132.1000     -3.1029      2.1948      2.4568     -0.0091    142.4198     28.8005
   132.2000     -3.1029      2.2029      2.4761     -0.0089    141.0568     28.7723
   132.3000     -3.1029      2.2117      2.4729     -0.0088    134.2545     29.0668
   132.4000     -3.1029      2.2177      2.4765     -0.0087    127.6019     29.3010
   132.5000     -3.1029      2.2234      2.4671     -0.0085    125.3144     29.3687
   132.6000     -3.1029      2.2255      2.4783     -0.0085    127.9351     29.6177
   132.7000     -3.1029      2.2213      2.4708     -0.0086    134.7341     30.1113
   132.8000     -3.1029      2.2168      2.4533     -0.0087    143.1917     30.2642
   132.9000     -3.1029      2.2212      2.4660     -0.0086    149.1787     29.7523
   133.0000     -3.1029      2.2319      2.4857     -0.0084    150.5452     28.9400
   133.1000     -3.1029      2.2380      2.4635     -0.0082    148.1245     28.3805
   133.2000     -3.1029      2.2381      2.4907     -0.0082    145.3456     28.3751
   133.3000     -3.1029      2.2390      2.4855     -0.0082    146.9528     28.6650
   133.4000     -3.1029      2.2437      2.4771     -0.0081    154.3214     28.9873
   133.5000     -3.1029      2.2474      2.4922     -0.0081    161.7375     29.4044
   133.6000     -3.1029      2.2389      2.5123     -0.0082    163.9589     29.6648
   133.7000     -3.1029      2.2187      2.4508     -0.0086    163.4977     29.5043
   133.8000     -3.1029      2.2055      2.4242     -0.0089    161.0709     29.1510
   133.9000     -3.1029      2.2082      2.4318     -0.0088    156.1968     28.9086
   134.0000     -3.1029      2.2152      2.4450     -0.0087    154.6456     28.8462
   134.1000     -3.1029      2.2197      2.4668     -0.0086    157.3085     28.8354
   134.2000     -3.1029      2.2313      2.4268     -0.0084    157.8933     28.7688
   134.3000     -3.1029      2.2539      2.4650     -0.0079    155.5425     28.6341
   134.4000     -3.1029      2.2732      2.4965     -0.0075    153.4434     28.3059
   134.5000     -3.1029      2.2764      2.4996     -0.0075    155.3562     27.8956
   134.6000     -3.1029      2.2648      2.4778     -0.0077    164.2813     27.8257
   134.7000     -3.1029      2.2487      2.4526     -0.0080    175.1321     28.0658
