~Version Information
VERS.                      2.0: CWLS Log ASCII Standard - VERSION 2.0
WRAP.                       NO: One line per depth step
~Well Information Block
STRT.FT               595.0000: 
STOP.FT              1693.0000: 
STEP.FT                 0.1000: 
NULL.                -999.2500: 
COMP.          Pioneer Natural Resources: COMPANY
WELL.          Rollerball 34-30: WELL
FLD.           Purgatoire River: FIELD
LOC.           893' FSL & 2408' FEL: LOCATION
CNTY.               Las Animas: COUNTY
SRVC.                Patterson: SERVICE COMPANY
DATE.          Tue Feb 14 15:43:01 2006: LOG DATE
UWI.           05 071 08581 00: UNIQUE WELL ID
STAT.                 Colorado: STATE
~Curve Information Block
DEPT.FT            0 000 00 00: Depth
DCAL.in                       : CDL Caliper
RHOB.g/cc                     : CDL Bulk Density
RHOC.g/cc                     : CDL Density Correction
DPOR.pu                       : CDL Density Porosity
GR.GAPI                       : Gamma Ray
NPOR.pu                       : Neutron Porosity
~Parameter Information Block
~A  Depth       DCAL        RHOB        RHOC        DPOR         GR         NPOR    
# ...
  1391.8000      8.0278      1.8920      0.1663     45.9400     86.0290     30.5563
  1391.9000      8.0278      2.0177      0.2176     38.3187     91.2945     30.7417
  1392.0000      8.0242      2.1482      0.2440     30.4116     94.2287     31.0788
  1392.1000      8.0242      2.2795      0.2237     22.4519     98.6554     31.3540
  1392.2000      8.0242      2.3895      0.2333     15.7853    106.7616     31.4528
  1392.3000      8.0215      2.4595      0.1806     11.5462    116.8570     31.1587
  1392.4000      8.0215      2.4981      0.0950      9.2069    121.4330     30.0804
  1392.5000      8.0152      2.5194      0.1240      7.9146    118.4669     28.4333
  1392.6000      8.0152      2.5164      0.0907      8.0971    116.2781     27.4272
  1392.7000      8.0152      2.4928      0.0547      9.5280    119.6853     27.5331
  1392.8000      8.0131      2.4793      0.0315     10.3433    124.9683     27.9475
  1392.9000      8.0131      2.4955      0.0594      9.3634    127.3775     28.1432
  1393.0000      8.0125      2.5149      0.1322      8.1865    126.6428     28.4183
  1393.1000      8.0125      2.5022      0.0580      8.9579    123.7336     28.6592
  1393.2000      8.0125      2.4721      0.0082     10.7794    116.4217     28.4239
  1393.3000      8.0110      2.4676     -0.0109     11.0557    105.9759     27.9491
  1393.4000      8.0110      2.5097      0.0095      8.5014     98.5272     27.3664
  1393.5000      8.0097      2.5844      0.0417      3.9764     95.1782     26.9794
  1393.6000      8.0097      2.6562      0.0871     -0.3778     90.9392     27.4198
  1393.7000      8.0097      2.7099      0.0535     -3.6333     82.6154     28.3714
  1393.8000      8.0104      2.7602      0.0813     -6.6794     74.6431     28.9446
  1393.9000      8.0104      2.8071      0.1356     -9.5220     72.0639     28.7767
  1394.0000      8.0096      2.8233      0.1492    -10.5023     72.5277     28.3019
  1394.1000      8.0096      2.7996      0.0540     -9.0656     72.8058     27.7927
  1394.2000      8.0096      2.7608      0.0292     -6.7124     73.4879     26.8743
  1394.3000      8.0096      2.7241     -0.0777     -4.4880     75.5724     25.6287
  1394.4000      8.0096      2.6875     -0.1351     -2.2744     77.2409     24.8352
  1394.5000      8.0085      2.6476     -0.1515      0.1437     75.6195     25.0074
  1394.6000      8.0085      2.6106     -0.1386      2.3897     73.3333     25.6982
  1394.7000      8.0085      2.5885     -0.1214      3.7293     74.0456     25.9997
  1394.8000      8.0087      2.5816     -0.0443      4.1444     77.0031     25.8796
  1394.9000      8.0087      2.5831     -0.0352      4.0563     80.0285     26.1713
  1395.0000      8.0095      2.5885      0.0153      3.7267     83.4405     26.9225
  1395.1000      8.0095      2.5889      0.0222      3.7050     86.5999     27.5035
  1395.2000      8.0095      2.5792      0.0367      4.2906     86.1895     27.4943
  1395.3000      8.0084      2.5639      0.0164      5.2210     84.7363     27.0508
  1395.4000      8.0084      2.5498     -0.0029      6.0742     84.6983     26.5649
  1395.5000      8.0083      2.5398      0.0225      6.6778     82.0342     26.1894
  1395.6000      8.0083      2.5281      0.0129      7.3854     79.1291     25.9369
  1395.7000      8.0083      2.5194      0.0094      7.9172     79.9438     25.3945
  1395.8000      8.0087      2.5341     -0.0050      7.0224     80.2551     24.9079
  1395.9000      8.0087      2.5781      0.0306      4.3596     76.0387     25.3721
  1396.0000      8.0067      2.6253      0.0750      1.4968     69.4603     26.7793
  1396.1000      8.0067      2.6515      0.0570     -0.0938     66.3856     27.9185
  1396.2000      8.0067      2.6630      0.0701     -0.7897     67.4652     27.5394
  1396.3000      8.0052      2.6701      0.0761     -1.2202     68.5537     26.1531
  1396.4000      8.0052      2.6665      0.1282     -0.9979     69.3247     25.0243
  1396.5000      8.0068      2.6481      0.0518      0.1142     69.3813     24.4800
  1396.6000      8.0068      2.6268      0.0055      1.4036     65.9558     24.4030
  1396.7000      8.0068      2.6073      0.0236      2.5889     60.4116     24.5892
  1396.8000      8.0021      2.5832     -0.0267      4.0504     58.3982     24.2650
  1396.9000      8.0021      2.5600     -0.0635      5.4518     61.9523     23.2889
  1397.0000      8.0038      2.5552     -0.0641      5.7466     66.0623     22.7959
  1397.1000      8.0038      2.5759      0.0725      4.4907     66.0881     23.3057
  1397.2000      8.0038      2.6086      0.1145      2.5077     63.9816     24.1566
  1397.3000      8.0118      2.6369      0.1004      0.7949     63.7979     24.7864
  1397.4000      8.0118      2.6452      0.1655      0.2908     65.0321     24.9233
  1397.5000      8.0404      2.6263      0.0989      1.4392     65.6903     24.3656
  1397.6000      8.0404      2.5933      0.0569      3.4385     65.6443     23.8092
  1397.7000      8.0404      2.5627      0.0411      5.2920     65.7923     24.1691
  1397.8000      8.0467      2.5442      0.0436      6.4142     67.7998     25.0409
  1397.9000      8.0467      2.5405      0.0411      6.6344     71.3082     25.2863
  1398.0000      8.0475      2.5468      0.0175      6.2526     73.4296     24.9971
  1398.1000      8.0475      2.5552      0.0556      5.7450     70.3140     25.1674
  1398.2000      8.0475      2.5610      0.0520      5.3952     63.3652     25.4692
  1398.3000      8.0468      2.5650      0.0324      5.1544     59.4890     25.0245
  1398.4000      8.0468      2.5692      0.0426      4.8996     61.2051     24.0560
  1398.5000      8.0456      2.5734      0.0078      4.6410     64.6941     23.4367
  1398.6000      8.0456      2.5797      0.0320      4.2627     64.2581     23.6385
  1398.7000      8.0456      2.5898      0.0286      3.6503     57.4632     24.2978
  1398.8000      8.0469      2.5958      0.0723      3.2856     48.9796     24.9206
  1398.9000      8.0469      2.5912      0.0273      3.5664     45.4652     25.2417
  1399.0000      8.0502      2.5857     -0.0047      3.8985     49.3037     24.7203
  1399.1000      8.0502      2.5856      0.0249      3.9037     58.1485     23.4857
  1399.2000      8.0502      2.5793      0.0449      4.2840     66.5763     22.6199
  1399.3000      8.0463      2.5592      0.0031      5.5010     68.9024     22.8757
  1399.4000      8.0463      2.5349      0.0256      6.9754     66.6898     23.9161
  1399.5000      8.0459      2.5194     -0.0123      7.9134     65.8083     24.6927
  1399.6000      8.0459      2.5133      0.0157      8.2837     66.8949     24.9283
  1399.7000      8.0459      2.5101     -0.0358      8.4759     65.4972     25.0344
  1399.8000      8.0468      2.5113     -0.0221      8.4032     59.6263     24.9269
  1399.9000      8.0468      2.5179      0.0100      8.0036     55.8532     24.6943
  1400.0000      8.0447      2.5295      0.0189      7.3060     59.0218     24.5181
  1400.1000      8.0447      2.5441      0.0293      6.4159     63.8349     23.9482
  1400.2000      8.0447      2.5489      0.0612      6.1248     65.2580     23.1056
  1400.3000      8.0482      2.5385     -0.0149      6.7561     65.3098     22.6730
  1400.4000      8.0482      2.5277      0.0193      7.4134     66.8229     22.6844
  1400.5000      8.0455      2.5235      0.0248      7.6668     67.4413     23.0975
  1400.6000      8.0455      2.5231      0.0013      7.6924     63.2348     23.8136
  1400.7000      8.0455      2.5304     -0.0085      7.2502     56.2694     24.4773
  1400.8000      8.0480      2.5458      0.0200      6.3174     52.2501     25.0878
  1400.9000      8.0480      2.5591      0.0479      5.5102     54.3278     25.3631
  1401.0000      8.0479      2.5604      0.0307      5.4298     60.4002     24.8489
  1401.1000      8.0479      2.5528      0.0521      5.8921     64.3929     24.0580
  1401.2000      8.0479      2.5486      0.0522      6.1434     63.1699     23.7517
  1401.3000      8.0464      2.5553      0.0510      5.7381     59.0163     24.0770
