~Version Information
VERS.                      2.0: CWLS Log ASCII Standard - VERSION 2.0
WRAP.                       NO: One line per depth step
~Well Information Block
STRT.FT               245.0000: 
STOP.FT              1208.2500: 
STEP.FT                 0.2500: 
NULL.                -999.2500: 
COMP.          Pioneer Natural Resources: COMPANY
WELL.              Davida 34-8: WELL
FLD.           Purgatoire River: FIELD
LOC.           418' FSL & 1923' FEL--: LOCATION
CNTY.               Las Animas: COUNTY
SRVC.                Patterson: SERVICE COMPANY
DATE.          Sat Mar 18 07:00:13 2006: LOG DATE
UWI.           05 071 08722 00: UNIQUE WELL ID
STAT.                 Colorado: STATE
~Curve Information Block
DEPT.FT            0 000 00 00: Depth
GR.GAPI                       : Gamma Ray
DIR.Ohm-m                     : IEL Induction Resistivity
~Parameter Information Block
~A  Depth        GR         DIR     
# ...
   468.0000    114.7287     13.9902
   468.2500    115.6488     13.6300
   468.5000    117.6514     13.2143
   468.7500    119.5420     12.7820
   469.0000    123.1566     12.3712
   469.2500    125.8518     12.0161
   469.5000    129.9350     11.7421
   469.7500    132.6477     11.5616
   470.0000    136.6332     11.4729
   470.2500    138.8810     11.4640
   470.5000    140.6456     11.5203
   470.7500    140.3179     11.6327
   471.0000    137.4900     11.8023
   471.2500    134.3679     12.0402
   471.5000    128.7310     12.3623
   471.7500    124.8160     12.7801
   472.0000    119.0810     13.2905
   472.2500    115.3642     13.8645
   472.5000    109.9765     14.4388
   472.7500    106.5871     14.9180
   473.0000    102.0823     15.1955
   473.2500     99.8825     15.1936
   473.5000     99.0945     14.9000
   473.7500    101.0101     14.3755
   474.0000    107.8327     13.7260
   474.2500    114.3576     13.0617
   474.5000    125.1027     12.4681
   474.7500    131.7405     11.9962
   475.0000    139.5202     11.6649
   475.2500    142.7687     11.4688
   475.5000    144.1940     11.3869
   475.7500    142.7257     11.3918
   476.0000    137.1359     11.4584
   476.2500    131.4876     11.5713
   476.5000    121.0356     11.7299
   476.7500    113.6570     11.9459
   477.0000    104.3516     12.2341
   477.2500    100.7671     12.5979
   477.5000    100.4048     13.0165
   477.7500    102.8300     13.4424
   478.0000    107.8408     13.8148
   478.2500    110.7176     14.0848
   478.5000    113.5955     14.2388
   478.7500    115.0314     14.3019
   479.0000    117.6648     14.3210
   479.2500    119.8694     14.3413
   479.5000    122.4796     14.3927
   479.7500    122.4861     14.4879
   480.0000    118.5243     14.6304
   480.2500    113.4779     14.8217
   480.5000    104.3912     15.0634
   480.7500     98.9728     15.3530
   481.0000     94.0645     15.6806
   481.2500     93.4913     16.0307
   481.5000     96.3900     16.3887
   481.7500    100.2375     16.7456
   482.0000    107.5524     17.0984
   482.2500    112.5712     17.4475
   482.5000    118.7198     17.7956
   482.7500    121.0584     18.1463
   483.0000    121.0462     18.5037
   483.2500    118.7595     18.8707
   483.5000    113.0629     19.2476
   483.7500    108.7441     19.6277
   484.0000    103.0086     19.9920
   484.2500    100.2426     20.3051
   484.5000     98.0924     20.5199
   484.7500     98.0630     20.5921
   485.0000    100.0841     20.4992
   485.2500    102.5559     20.2525
   485.5000    106.9952     19.8948
   485.7500    109.7862     19.4868
   486.0000    112.8862     19.0874
   486.2500    113.9451     18.7396
   486.5000    113.7259     18.4645
   486.7500    112.2927     18.2642
   487.0000    108.3122     18.1245
   487.2500    104.7358     18.0153
   487.5000     99.0714     17.8885
   487.7500     95.9930     17.6835
   488.0000     93.9272     17.3452
   488.2500     94.8111     16.8495
   488.5000     99.6722     16.2153
   488.7500    104.9570     15.4942
   489.0000    115.0967     14.7449
   489.2500    122.7689     14.0116
   489.5000    134.5021     13.3201
   489.7500    141.6762     12.6838
   490.0000    150.1059     12.1137
   490.2500    153.6527     11.6222
   490.5000    155.8305     11.2213
   490.7500    155.5712     10.9199
   491.0000    153.3641     10.7238
   491.2500    150.9418     10.6379
   491.5000    146.0411     10.6684
   491.7500    141.9606     10.8223
   492.0000    134.7897     11.1034
   492.2500    129.4272     11.5082
   492.5000    120.3739     12.0207
   492.7500    113.4839     12.6105
   493.0000    102.3725     13.2350
   493.2500     95.4618     13.8462
   493.5000     87.9059     14.3974
   493.7500     85.5078     14.8490
   494.0000     86.2438     15.1735
   494.2500     89.5250     15.3599
   494.5000     98.0187     15.4148
   494.7500    105.2557     15.3550
   495.0000    116.2681     15.1947
   495.2500    122.3734     14.9375
   495.5000    128.3711     14.5822
   495.7500    130.2904     14.1386
   496.0000    131.0853     13.6425
   496.2500    131.1521     13.1539
   496.5000    132.1654     12.7401
   496.7500    133.8950     12.4554
   497.0000    137.2784     12.3300
   497.2500    138.9239     12.3661
   497.5000    138.6631     12.5403
   497.7500    136.2290     12.8075
   498.0000    129.6913     13.1097
   498.2500    124.2327     13.3895
   498.5000    116.1583     13.6044
   498.7500    111.8787     13.7339
   499.0000    108.6566     13.7779
   499.2500    109.2023     13.7471
   499.5000    113.9055     13.6540
   499.7500    118.7865     13.5106
   500.0000    126.6099     13.3294
   500.2500    131.1136     13.1240
   500.5000    135.8471     12.9065
   500.7500    137.4213     12.6847
   501.0000    137.2166     12.4633
   501.2500    135.4626     12.2500
   501.5000    131.1060     12.0582
   501.7500    127.7507     11.9048
   502.0000    123.5874     11.8032
   502.2500    122.2782     11.7560
   502.5000    123.1925     11.7506
   502.7500    125.3489     11.7588
   503.0000    129.4996     11.7407
   503.2500    132.2101     11.6553
   503.5000    135.7795     11.4749
   503.7500    137.7873     11.1980
   504.0000    140.1206     10.8512
   504.2500    141.2710     10.4773
   504.5000    142.9344     10.1197
   504.7500    144.3349      9.8110
   505.0000    146.7434      9.5700
   505.2500    148.0634      9.4032
   505.5000    148.7585      9.3076
   505.7500    148.1453      9.2735
   506.0000    145.6527      9.2857
   506.2500    143.0903      9.3252
   506.5000    138.4441      9.3704
   506.7500    135.3700      9.3996
   507.0000    131.8773      9.3932
   507.2500    130.7706      9.3379
   507.5000    131.2517      9.2286
   507.7500    132.8050      9.0703
   508.0000    135.9897      8.8767
   508.2500    137.9766      8.6659
   508.5000    140.0468      8.4550
   508.7500    140.8382      8.2553
   509.0000    141.5340      8.0715
   509.2500    141.8669      7.9045
   509.5000    142.2740      7.7564
   509.7500    142.4560      7.6342
   510.0000    142.6488      7.5496
   510.2500    142.8717      7.5171
   510.5000    143.5286      7.5501
   510.7500    144.0874      7.6586
   511.0000    144.7037      7.8486
   511.2500    144.7125      8.1211
   511.5000    143.7065      8.4726
   511.7500    142.1681      8.8938
   512.0000    138.5454      9.3705
   512.2500    135.4593      9.8866
   512.5000    130.3958     10.4285
   512.7500    127.0979     10.9888
   513.0000    122.7742     11.5655
   513.2500    120.4669     12.1568
   513.5000    118.0126     12.7553
   513.7500    117.2207     13.3422
   514.0000    117.8897     13.8874
   514.2500    119.8777     14.3557
   514.5000    124.8083     14.7192
   514.7500    128.4341     14.9692
   515.0000    132.2256     15.1201
   515.2500    132.8939     15.2036
   515.5000    131.3611     15.2598
   515.7500    129.3259     15.3288
   516.0000    125.6063     15.4467
   516.2500    122.7986     15.6430
   516.5000    118.3173     15.9364
   516.7500    115.6154     16.3279
   517.0000    112.9419     16.7940
   517.2500    112.1576     17.2848
   517.5000    111.5371     17.7355
   517.7500    110.8806     18.0875
   518.0000    109.4437     18.3082
   518.2500    108.5416     18.3958
   518.5000    107.4733     18.3707
   518.7500    106.7581     18.2620
   519.0000    105.8273     18.1003
   519.2500    105.9050     17.9135
   519.5000    107.8307     17.7218
   519.7500    109.8793     17.5308
   520.0000    112.2994     17.3268
   520.2500    112.8769     17.0835
   520.5000    113.0615     16.7816
   520.7500    113.8407     16.4284
   521.0000    117.1300     16.0598
   521.2500    120.4815     15.7234
   521.5000    125.6706     15.4561
   521.7500    128.1348     15.2740
   522.0000    128.8550     15.1776
   522.2500    127.0437     15.1619
   522.5000    121.7504     15.2229
   522.7500    117.6791     15.3564
   523.0000    112.8210     15.5563
   523.2500    111.0379     15.8140
   523.5000    110.3823     16.1190
