~Version Information
VERS.                      2.0: CWLS Log ASCII Standard - VERSION 2.0
WRAP.                       NO: One line per depth step
~Well Information Block
STRT.FT               240.0000: 
STOP.FT              1159.2000: 
STEP.FT                 0.1000: 
NULL.                -999.2500: 
COMP.          Pioneer Natural Resources: COMPANY
WELL.               Ryan 41-17: WELL
FLD.           Purgatoire River: FIELD
LOC.           822' FNL & 532' FEL--: LOCATION
CNTY.               Las Animas: COUNTY
SRVC.                Patterson: SERVICE COMPANY
DATE.          Fri Mar 17 07:19:36 2006: LOG DATE
UWI.           05 071 08719 00: UNIQUE WELL ID
STAT.                 Colorado: STATE
~Curve Information Block
DEPT.FT            0 000 00 00: Depth
DCAL.in                       : CDL Caliper
RHOB.g/cc                     : CDL Bulk Density
RHOC.g/cc                     : CDL Density Correction
DPOR.pu                       : CDL Density Porosity
NPOR.pu                       : Neutron Porosity
GR.GAPI                       : Gamma Ray
~Parameter Information Block
~A  Depth       DCAL        RHOB        RHOC        DPOR        NPOR         GR     
# ...
   652.8000      8.2929      2.5562      0.0608      5.6824     26.0862     89.2208
   652.9000      8.2929      2.4987     -0.0075      9.1706     26.0162     91.7554
   653.0000      8.2957      2.4571     -0.0654     11.6934     25.7250     96.4798
   653.1000      8.2957      2.4575     -0.0246     11.6644     25.4262    101.9327
   653.2000      8.2957      2.4772      0.0171     10.4724     25.4095    107.6946
   653.3000      8.2759      2.4834      0.0480     10.0959     25.4889    115.8256
   653.4000      8.2759      2.4779     -0.0005     10.4286     25.4978    125.2021
   653.5000      8.1964      2.4824      0.0084     10.1555     25.3833    131.5682
   653.6000      8.1964      2.4928      0.0498      9.5252     25.0357    136.0483
   653.7000      8.1964      2.4880      0.0462      9.8210     24.6210    141.5583
   653.8000      8.1367      2.4703      0.0263     10.8891     24.3400    145.7474
   653.9000      8.1367      2.4549      0.0788     11.8266     24.1054    147.3445
   654.0000      8.2235      2.4450      0.0419     12.4245     23.7661    150.2932
   654.1000      8.2235      2.4387      0.0294     12.8047     23.3857    153.6239
   654.2000      8.2235      2.4343      0.0060     13.0710     23.0503    153.1848
   654.3000      8.2983      2.4343      0.0153     13.0738     22.7130    152.3229
   654.4000      8.2983      2.4466      0.0369     12.3295     22.3013    152.4576
   654.5000      8.2403      2.4701      0.1225     10.9023     21.9330    148.6549
   654.6000      8.2403      2.4919      0.0960      9.5804     21.7803    143.2845
   654.7000      8.2403      2.5045      0.0973      8.8155     21.8210    142.7977
   654.8000      8.1661      2.5071      0.1059      8.6602     21.8179    146.3378
   654.9000      8.1661      2.5076      0.0565      8.6326     21.6887    150.5950
   655.0000      8.1992      2.5134      0.1276      8.2811     21.8637    153.1736
   655.1000      8.1992      2.5214      0.0718      7.7968     22.5345    154.0804
   655.2000      8.1992      2.5307      0.0775      7.2301     23.1755    154.0234
   655.3000      8.1907      2.5350      0.0841      6.9713     23.5949    150.9935
   655.4000      8.1907      2.5288      0.0605      7.3468     24.2371    147.4967
   655.5000      8.1392      2.5217     -0.0041      7.7763     25.0170    146.0650
   655.6000      8.1392      2.5214      0.0480      7.7963     25.4476    140.9099
   655.7000      8.1392      2.5241      0.0145      7.6285     25.5983    131.3743
   655.8000      8.1773      2.5215      0.0287      7.7850     25.7555    123.9715
   655.9000      8.1773      2.5025      0.0313      8.9397     25.6565    118.8719
   656.0000      8.1707      2.4634      0.0029     11.3116     25.1396    115.5570
   656.1000      8.1707      2.4069      0.0097     14.7323     24.5801    117.1235
   656.2000      8.1707      2.3384     -0.0061     18.8866     24.3153    123.8966
   656.3000      8.1129      2.2649     -0.0577     23.3392     24.2000    129.3902
   656.4000      8.1129      2.1908     -0.0562     27.8304     23.8294    127.8990
   656.5000      8.1234      2.1236     -0.1287     31.9020     22.9769    127.0692
   656.6000      8.1234      2.0662     -0.0814     35.3832     21.5796    134.4817
   656.7000      8.1234      2.0021     -0.0391     39.2654     19.8965    141.8335
   656.8000      8.0908      1.9241     -0.0824     43.9961     18.2851    138.7355
   656.9000      8.0908      1.8566     -0.0891     48.0842     16.6935    128.7233
   657.0000      8.0294      1.8290     -0.0097     49.7587     14.9512    122.7111
   657.1000      8.0294      1.8444      0.1034     48.8235     13.2652    122.3389
   657.2000      8.0294      1.8881      0.1229     46.1781     12.0832    121.6505
   657.3000      8.0678      1.9520      0.1371     42.3052     11.5024    120.2324
   657.4000      8.0678      2.0315      0.2093     37.4823     11.1801    119.3705
   657.5000      8.1033      2.1115      0.2150     32.6393     10.8769    119.8829
   657.6000      8.1033      2.1776      0.2092     28.6286     10.8031    122.3428
   657.7000      8.1033      2.2337      0.2138     25.2296     11.3652    123.4810
   657.8000      8.0036      2.2977      0.1953     21.3517     12.2772    121.2791
   657.9000      8.0036      2.3765      0.2350     16.5750     12.9258    118.4306
   658.0000      7.8971      2.4448      0.3071     12.4353     13.3806    117.6936
   658.1000      7.8971      2.4765      0.1943     10.5166     14.0244    118.1815
   658.2000      7.8971      2.4877      0.1284      9.8383     15.0045    116.1556
   658.3000      7.8865      2.5068      0.1222      8.6764     16.0772    112.6691
   658.4000      7.8865      2.5330      0.1458      7.0880     16.7315    112.4966
   658.5000      7.9999      2.5512      0.0965      5.9872     17.0034    114.5584
   658.6000      7.9999      2.5535      0.1150      5.8514     17.3325    114.2637
   658.7000      7.9999      2.5402      0.0907      6.6555     17.8509    111.9901
   658.8000      8.1737      2.5279      0.0611      7.4019     18.4739    111.4273
   658.9000      8.1737      2.5324      0.0888      7.1264     19.2449    111.9040
   659.0000      8.2109      2.5456      0.0848      6.3283     20.0125    109.2125
   659.1000      8.2109      2.5578      0.0353      5.5870     20.2904    102.1334
   659.2000      8.2109      2.5729      0.0236      4.6716     20.1672     94.1644
   659.3000      8.1761      2.5841      0.0816      3.9950     20.1722     88.7990
   659.4000      8.1761      2.5813      0.0433      4.1646     20.5067     84.1844
   659.5000      8.2449      2.5751      0.0554      4.5411     21.0590     79.0378
   659.6000      8.2449      2.5743      0.0471      4.5878     21.5192     75.5992
   659.7000      8.2449      2.5635      0.0640      5.2415     21.5980     74.4305
   659.8000      8.2973      2.5321      0.0037      7.1468     21.2934     71.9440
   659.9000      8.2973      2.5029     -0.0239      8.9180     20.8283     66.9530
   660.0000      8.1936      2.4960      0.0179      9.3312     20.5190     63.6236
   660.1000      8.1936      2.5002      0.0813      9.0762     20.3986     64.1853
   660.2000      8.1936      2.5069      0.0245      8.6701     20.1461     66.9886
   660.3000      7.9929      2.5237      0.0333      7.6536     19.9274     68.5017
   660.4000      7.9929      2.5414      0.0537      6.5845     20.2868     67.4783
   660.5000      7.8822      2.5443      0.0483      6.4048     20.9551     67.2350
   660.6000      7.8822      2.5421      0.0162      6.5413     21.1396     69.2932
   660.7000      7.8822      2.5452      0.0640      6.3490     20.8426     71.3141
   660.8000      7.8927      2.5471      0.0319      6.2386     20.5601     72.3287
   660.9000      7.8927      2.5419      0.0484      6.5529     20.3248     72.2458
   661.0000      8.0104      2.5332      0.0173      7.0809     20.1623     72.4278
   661.1000      8.0104      2.5307      0.0139      7.2319     20.3538     76.6310
   661.2000      8.0104      2.5338      0.0646      7.0407     20.8501     84.5466
   661.3000      8.1938      2.5310      0.0605      7.2105     21.4681     91.8983
   661.4000      8.1938      2.5258      0.0887      7.5247     22.0812     95.3496
   661.5000      8.3092      2.5364      0.0439      6.8863     22.4714     94.5407
   661.6000      8.3092      2.5751      0.0719      4.5409     22.6172     92.6824
   661.7000      8.3092      2.6361      0.0807      0.8400     22.5952     92.4349
   661.8000      8.3393      2.6940      0.1355     -2.6661     22.4675     94.2315
   661.9000      8.3393      2.7264      0.0943     -4.6287     22.3621     96.3963
   662.0000      8.3491      2.7409      0.0944     -5.5113     22.4251     97.7987
   662.1000      8.3491      2.7412      0.1427     -5.5299     22.7222    101.1050
   662.2000      8.3491      2.7131      0.1078     -3.8271     23.0739    107.7083
   662.3000      8.3618      2.6721     -0.0212     -1.3395     23.3498    115.3061
