~Version Information
VERS.                      2.0: CWLS Log ASCII Standard - VERSION 2.0
WRAP.                       NO: One line per depth step
~Well Information Block
STRT.FT                 0.0000: 
STOP.FT              2473.5000: 
STEP.FT                 0.2500: 
NULL.                -999.2500: 
COMP.          Petrogulf Corporation: COMPANY
WELL.          Montoya 18-11V-B: WELL
FLD.           Purgatorie River: FIELD
LOC.           848' FNL & 619' FWL: LOCATION
PROV.                 Colorado: PROVINCE
CNTY.               Las Animas: COUNTRY
SRVC.                Patterson: SERVICE COMPANY
DATE.          Wed Nov 09 10:15:13 2005: LOG DATE
UWI.                          : UNIQUE WELL ID
~Curve Information Block
DEPT.FT            0 000 00 00: Depth
CCL.                          : Casing Collar Locator
TT3.usec                      : CBL 3' Travel Time
AMP3.mV                       : CBL 3' Amplitude
GR.GAPI                       : Gamma Ray
~Parameter Information Block
~A  Depth       CCL         TT3         AMP3         GR     
     0.0000   -999.2500   1197.0000      0.8568     69.1534
     0.2500      0.0000   1197.0000      0.9178     73.0325
     0.5000      0.0000   1197.0000      0.9567     75.9221
     0.7500      0.0000   1197.0000      0.9490     78.4426
     1.0000      0.0000   1197.0000      0.9109     80.6232
     1.2500      0.0000   1197.0000      0.8796     81.9215
     1.5000      0.0000   1197.0000      0.8810     82.0535
     1.7500      0.0000   1197.0000      0.9108     81.7041
     2.0000      0.0000   1197.0000      0.9415     82.1965
     2.2500      0.0000   1197.0000      0.9439     84.4102
     2.5000      0.0000   1197.0000      0.9149     88.0248
     2.7500      0.0000   1197.0000      0.8813     91.7614
     3.0000      0.0000   1197.0000      0.8703     94.3811
     3.2500      0.0000   1197.0000      0.8917     95.5070
     3.5000      0.0000   1197.0000      0.9301     95.5265
     3.7500      0.0000   1197.0000      0.9476     94.9045
     4.0000      0.0000   1197.0000      0.9342     93.8513
     4.2500      0.0000   1197.0000      0.9105     92.5989
     4.5000      0.0000   1197.0000      0.8817     91.6187
     4.7500      0.0000   1197.0000      0.8526     91.2379
     5.0000      0.0000   1197.0000      0.8371     91.0816
     5.2500      0.0000   1197.0000      0.8299     90.1621
     5.5000      2.0000   1197.0000      0.8345     87.7791
     5.7500     -2.0000   1197.0000      0.8607     84.5193
     6.0000      0.0000   1197.0000      0.8769     82.1750
     6.2500      0.0000   1197.0000      0.8614     82.2088
     6.5000      0.0000   1197.0000      0.8452     84.2299
     6.7500      0.0000   1197.0000      0.8450     86.2497
     7.0000      0.0000   1197.0000      0.8539     86.3869
     7.2500      0.0000   1197.0000      0.8755     84.1709
     7.5000      0.0000   1197.0000      0.9000     80.4933
     7.7500      0.0000   1197.0000      0.9157     76.6716
     8.0000      0.0000   1197.0000      0.9382     73.4535
     8.2500      0.0000   1197.0000      0.9626     70.6673
     8.5000      0.0000   1197.0000      0.9582     67.8328
     8.7500      0.0000   1197.0000      0.9336     65.0886
     9.0000      0.0000   1197.0000      0.9198     63.2778
     9.2500      0.0000   1197.0000      0.9160     63.0221
     9.5000      0.0000   1197.0000      0.9185     64.0193
     9.7500      0.0000   1197.0000      0.9354     65.3477
    10.0000      0.0000   1197.0000      0.9501     66.0739
    10.2500      0.0000   1197.0000      0.9448     65.4172
    10.5000      0.0000   1197.0000      0.9334     62.9089
    10.7500      0.0000   1197.0000      0.9159     58.9903
    11.0000      0.0000   1197.0000      0.8685     55.1720
    11.2500      0.0000   1196.9658      0.8129     53.0181
    11.5000      0.0000   1196.5657      0.8032     52.9739
    11.7500      0.0000   1193.5383      0.8451     54.3366
    12.0000      0.0000   1178.6989      0.9683     56.0905
    12.2500      0.0000   1130.4946      1.5981     57.5707
    12.5000      0.0000   1023.4512      4.2915     58.5164
    12.7500      0.0000    853.0330     12.0343     58.7318
    13.0000      0.0000    649.0408     26.6695     57.8757
    13.2500      0.0000    463.1869     44.6855     55.7792
    13.5000      0.0000    338.6875     59.0865     53.0028
    13.7500      0.0000    280.4215     66.6222     50.7665
    14.0000      0.0000    262.0966     69.3030     50.0771
    14.2500      0.0000    258.3033     70.0474     50.9355
    14.5000      0.0000    257.7980     70.2552     52.4226
    14.7500      0.0000    257.7730     70.2679     53.5183
    15.0000      0.0000    257.7986     70.1671     53.9741
    15.2500      0.0000    257.8105     70.0689     54.4944
    15.5000      0.0000    257.8034     70.0702     55.9846
    15.7500      0.0000    257.7917     70.1707     58.6236
    16.0000      0.0000    257.7854     70.3383     61.8324
    16.2500      0.0000    257.7776     70.5384     65.0679
    16.5000      0.0000    257.7638     70.6625     68.2623
    16.7500      0.0000    257.7527     70.6032     71.3997
    17.0000      0.0000    257.7467     70.4076     74.1031
    17.2500      0.0000    257.7305     70.2220     75.9912
    17.5000      0.0000    257.6971     70.1373     77.1405
    17.7500      0.0000    257.6642     70.1524     77.7539
    18.0000      0.0000    257.6497     70.2019     77.6044
    18.2500      0.0000    257.6512     70.2222     76.3181
    18.5000      0.0000    257.6538     70.2160     74.1002
    18.7500      0.0000    257.6476     70.2133     71.8290
    19.0000      0.0000    257.6400     70.2217     70.5559
    19.2500      0.0000    257.6461     70.2450     71.1368
    19.5000      0.0000    257.6680     70.2946     74.0624
    19.7500      0.0000    257.6906     70.3582     79.2226
    20.0000      0.0000    257.6980     70.4112     85.8540
    20.2500      0.0000    257.6843     70.5099     92.8322
    20.5000      0.0000    257.6532     70.7457     98.9270
    20.7500      0.0000    257.6213     71.0229    103.0953
    21.0000      0.0000    257.6135     71.1142    105.1142
    21.2500      0.0000    257.6398     71.0283    105.7592
    21.5000      0.0000    257.6862     71.0113    105.8334
    21.7500      0.0000    257.7312     71.1480    105.2405
    22.0000      0.0000    257.7604     71.2863    103.4281
    22.2500      0.0000    257.7729     71.3046    100.4412
    22.5000      0.0000    257.7810     71.2143     97.1988
    22.7500      0.0000    257.7922     71.0989     94.8764
    23.0000      0.0000    257.7987     71.0740     94.0936
    23.2500      0.0000    257.7940     71.1631     94.6210
    23.5000      0.0000    257.7856     71.2176     95.8212
    23.7500      0.0000    257.7818     71.1370     97.1963
    24.0000      0.0000    257.7828     71.0462     98.4562
    24.2500      0.0000    257.7858     71.1055     99.3764
    24.5000      0.0000    257.7877     71.2872     99.7764
    24.7500      0.0000    257.7854     71.4465     99.4769
    25.0000      0.0000    257.7805     71.4961     98.2585
    25.2500      0.0000    257.7734     71.4597     95.9945
    25.5000      0.0000    257.7564     71.4210     92.8311
    25.7500      0.0000    257.7319     71.4305     89.2854
    26.0000      0.0000    257.7202     71.4657     86.2357
    26.2500      0.0000    257.7278     71.4849     84.6727
    26.5000      0.0000    257.7327     71.4820     85.2725
    26.7500      0.0000    257.7186     71.4911     88.0373
    27.0000      0.0000    257.6991     71.5670     92.1276
    27.2500      0.0000    257.6914     71.7292     96.0142
    27.5000      0.0000    257.6897     71.9173     98.0467
    27.7500      0.0000    257.6843     72.0662     97.2555
    28.0000      0.0000    257.6868     72.1976     93.9953
    28.2500      0.0000    257.7162     72.3366     89.9338
    28.5000      0.0000    257.7706     72.4386     87.1247
    28.7500      0.0000    257.8215     72.4986     86.7392
    29.0000      0.0000    257.8376     72.6019     88.5394
    29.2500      0.0000    257.8123     72.7967     91.3402
    29.5000      0.0000    257.7623     73.0394     93.8009
    29.7500      0.0000    257.7111     73.2602     95.1818
    30.0000      0.0000    257.6805     73.3797     95.8131
    30.2500      0.0000    257.6765     73.3411     96.6253
    30.5000      0.0000    257.6859     73.1926     98.0112
    30.7500      0.0000    257.6931     73.0475     99.4997
    31.0000      0.0000    257.6914     72.9825    100.6086
    31.2500      0.0000    257.6838     73.0206    101.4673
    31.5000      0.0000    257.6793     73.1434    102.4695
    31.7500      0.0000    257.6855     73.2851    103.8140
    32.0000      0.0000    257.7030     73.3680    105.4660
    32.2500      0.0000    257.7170     73.3542    107.1299
    32.5000      0.0000    257.7101     73.1946    108.2829
    32.7500      0.0000    257.6941     72.6684    108.6301
    33.0000      0.0000    257.7240     71.2171    108.5266
    33.2500      0.0000    257.9286     68.2847    108.7249
