~Version Information
VERS.                      2.0: CWLS Log ASCII Standard - VERSION 2.0
WRAP.                       NO: One line per depth step
~Well Information Block
STRT.FT               485.0000: 
STOP.FT              1030.5000: 
STEP.FT                 0.1000: 
NULL.                -999.2500: 
COMP.          Pioneer Natural Resources: COMPANY
WELL.          Red Raider 22-15: WELL
FLD.           Purgatoire River: FIELD
LOC.           1809' FNL & 2107' FWL: LOCATION
CNTY.               Las Animas: COUNTY
SRVC.                Patterson: SERVICE COMPANY
DATE.          Tue Apr 11 10:06:17 2006: LOG DATE
UWI.           05 071 08718 00: UNIQUE WELL ID
STAT.                 Colorado: STATE
~Curve Information Block
DEPT.FT            0 000 00 00: Depth
DCAL.in                       : CDL Caliper
RHOB.g/cc                     : CDL Bulk Density
RHOC.g/cc                     : CDL Density Correction
DPOR.pu                       : CDL Density Porosity
GR.GAPI                       : Gamma Ray
NPOR.pu                       : Neutron Porosity
~Parameter Information Block
~A  Depth       DCAL        RHOB        RHOC        DPOR         GR         NPOR    
# ...
   917.0000      7.8913      2.4143      0.0575     14.2854     82.2004     19.8956
   917.1000      7.8913      2.4048      0.0708     14.8610     81.4403     19.2200
   917.2000      7.8913      2.3942      0.0013     15.5055     83.1773     18.8606
   917.3000      7.8910      2.3971      0.0297     15.3288     85.7062     18.5925
   917.4000      7.8910      2.4084      0.0495     14.6451     89.2196     18.2267
   917.5000      7.8898      2.4153      0.0273     14.2252     92.3567     18.1660
   917.6000      7.8898      2.4192      0.0483     13.9858     91.4276     18.6472
   917.7000      7.8898      2.4255      0.0212     13.6083     86.4057     19.4071
   917.8000      7.8901      2.4319      0.0544     13.2211     81.5745     19.8713
   917.9000      7.8901      2.4293      0.0531     13.3756     81.3207     19.5694
   918.0000      7.8919      2.4136      0.0535     14.3251     86.3639     18.8349
   918.1000      7.8919      2.3923      0.0447     15.6164     89.6641     18.5282
   918.2000      7.8919      2.3765      0.0297     16.5778     87.1690     19.0454
   918.3000      7.8932      2.3738      0.0186     16.7394     83.1836     19.4353
   918.4000      7.8932      2.3817      0.0195     16.2631     80.0807     18.8398
   918.5000      7.8926      2.3878      0.0383     15.8912     78.5037     18.0968
   918.6000      7.8926      2.3824      0.0239     16.2173     78.9921     17.9036
   918.7000      7.8926      2.3724      0.0100     16.8263     79.6789     17.9221
   918.8000      7.8913      2.3788     -0.0010     16.4343     79.1363     18.2272
   918.9000      7.8913      2.4066      0.0468     14.7493     78.6260     18.9584
   919.0000      7.8905      2.4335      0.0881     13.1232     79.1859     19.5908
   919.1000      7.8905      2.4397      0.0805     12.7474     79.1147     19.7555
   919.2000      7.8905      2.4285      0.0579     13.4257     78.2158     19.6629
   919.3000      7.8907      2.4185      0.0417     14.0282     79.9129     19.6094
   919.4000      7.8907      2.4242      0.0248     13.6821     84.3014     19.6578
   919.5000      7.8911      2.4443      0.0269     12.4671     88.1784     19.5738
   919.6000      7.8911      2.4637      0.0600     11.2929     92.7284     19.3980
   919.7000      7.8911      2.4673      0.0519     11.0719     98.0749     19.4944
   919.8000      7.8913      2.4565      0.0328     11.7273     99.1599     19.8314
   919.9000      7.8913      2.4432      0.0255     12.5346     94.9973     20.1774
   920.0000      7.8918      2.4351      0.0055     13.0260     91.2683     20.3820
   920.1000      7.8918      2.4316      0.0472     13.2374     91.3562     20.3626
   920.2000      7.8918      2.4268      0.0419     13.5270     92.4891     20.2897
   920.3000      7.8920      2.4171      0.0349     14.1153     91.5680     20.2151
   920.4000      7.8920      2.4031      0.0088     14.9613     89.2862     19.8737
   920.5000      7.8908      2.3885      0.0119     15.8482     89.1647     19.3393
   920.6000      7.8908      2.3776     -0.0009     16.5112     91.8649     18.9393
   920.7000      7.8908      2.3745      0.0178     16.6952     93.6411     18.5790
   920.8000      7.8893      2.3800      0.0161     16.3609     92.8461     18.3948
   920.9000      7.8893      2.3885     -0.0040     15.8459     92.2934     18.9756
   921.0000      7.8893      2.3929      0.0201     15.5830     92.6602     20.0644
   921.1000      7.8893      2.3931      0.0076     15.5679     91.5688     20.7887
   921.2000      7.8893      2.3967      0.0268     15.3545     87.8544     20.9568
   921.3000      7.8900      2.4080      0.0282     14.6640     84.9996     20.8868
   921.4000      7.8900      2.4188      0.0584     14.0132     89.4679     20.7804
   921.5000      7.8906      2.4215      0.0418     13.8490     99.9478     20.6850
   921.6000      7.8906      2.4226      0.0450     13.7830    106.7579     20.4233
   921.7000      7.8906      2.4277      0.0182     13.4726    106.1356     19.8743
   921.8000      7.8912      2.4320      0.0430     13.2118    102.5849     19.2890
   921.9000      7.8912      2.4294      0.0236     13.3689    101.1400     19.0052
   922.0000      7.8917      2.4247      0.0097     13.6560    103.3919     19.1097
   922.1000      7.8917      2.4241      0.0136     13.6915    103.9864     19.4095
   922.2000      7.8917      2.4276      0.0109     13.4786    100.2128     19.7827
   922.3000      7.8920      2.4337      0.0331     13.1082     98.0440     20.3556
   922.4000      7.8920      2.4349      0.0716     13.0348    102.3517     20.8380
   922.5000      7.8921      2.4258      0.0505     13.5887    109.9516     20.6371
   922.6000      7.8921      2.4162      0.0283     14.1724    113.0491     20.0854
   922.7000      7.8921      2.4162      0.0599     14.1706    109.4082     19.6893
   922.8000      7.8919      2.4219      0.0378     13.8223    101.6553     19.2807
   922.9000      7.8919      2.4244      0.0660     13.6699     93.1018     18.7809
   923.0000      7.8920      2.4165      0.0274     14.1503     86.8818     18.5042
   923.1000      7.8920      2.3984      0.0480     15.2456     84.6465     18.7466
   923.2000      7.8920      2.3856      0.0339     16.0260     84.8434     19.7007
   923.3000      7.8927      2.3918      0.0509     15.6492     84.6325     21.2005
   923.4000      7.8927      2.4072      0.0797     14.7157     85.2480     22.2185
   923.5000      7.8918      2.4129      0.0805     14.3685     86.5703     22.0112
   923.6000      7.8918      2.4067      0.0380     14.7481     83.5401     21.2227
   923.7000      7.8918      2.4028      0.0207     14.9823     76.0545     20.8407
   923.8000      7.8903      2.4131      0.0359     14.3591     72.2245     21.0749
   923.9000      7.8903      2.4300      0.0836     13.3363     75.2627     21.3616
   924.0000      7.8909      2.4347      0.0719     13.0496     81.0748     21.2843
   924.1000      7.8909      2.4307      0.0200     13.2880     85.7973     21.4313
   924.2000      7.8909      2.4361      0.0319     12.9661     86.8487     22.1992
   924.3000      7.8917      2.4483      0.0426     12.2238     85.7017     22.6967
   924.4000      7.8917      2.4654      0.0032     11.1880     85.6951     22.3494
   924.5000      7.8918      2.4981      0.0257      9.2081     85.1862     21.7852
   924.6000      7.8918      2.5410      0.0721      6.6083     81.2309     21.2022
   924.7000      7.8918      2.5695      0.0928      4.8804     76.9623     20.5706
   924.8000      7.8927      2.5703      0.0815      4.8330     78.3383     20.2920
   924.9000      7.8927      2.5544      0.0413      5.7926     83.0211     20.6352
   925.0000      7.8932      2.5317      0.0626      7.1727     83.7298     21.4707
   925.1000      7.8932      2.4991      0.0328      9.1479     81.5163     22.2511
   925.2000      7.8932      2.4669     -0.0217     11.0971     85.9776     22.5004
   925.3000      7.8922      2.4584     -0.0382     11.6149     98.3592     22.3910
   925.4000      7.8922      2.4754      0.0227     10.5842    107.5248     22.1831
   925.5000      7.8912      2.5009      0.0129      9.0350    107.5736     21.9865
   925.6000      7.8912      2.5261      0.0747      7.5114    104.1817     21.8984
   925.7000      7.8912      2.5443      0.0854      6.4091    104.7690     21.7957
   925.8000      7.8909      2.5429      0.1476      6.4930    110.3616     21.6014
   925.9000      7.8909      2.5195      0.0836      7.9096    115.1205     21.3343
   926.0000      7.8912      2.4935      0.0618      9.4842    115.6992     21.0912
   926.1000      7.8912      2.4827      0.0413     10.1404    116.2736     21.2195
   926.2000      7.8912      2.4873      0.0332      9.8610    117.1887     21.7197
   926.3000      7.8915      2.4954      0.0333      9.3719    114.4963     22.1111
   926.4000      7.8915      2.4891      0.0424      9.7517    110.7663     22.2518
   926.5000      7.8912      2.4648      0.0087     11.2268    110.9574     22.6147
