~Version Information
VERS.                      2.0: CWLS Log ASCII Standard - VERSION 2.0
WRAP.                       NO: One line per depth step
~Well Information Block
STRT.FT               452.0000: 
STOP.FT              1726.5000: 
STEP.FT                 0.1000: 
NULL.                -999.2500: 
COMP.          Pioneer Natural Resources: COMPANY
WELL.          Parrothead 31-31 Tr: WELL
FLD.           Purgatoire River: FIELD
LOC.           496' FNL & 1546' FEL: LOCATION
PROV.                 Colorado: PROVINCE
CNTY.               Las Animas: COUNTRY
SRVC.                Patterson: SERVICE COMPANY
DATE.          Thu Nov 10 07:29:36 2005: LOG DATE
UWI.           05 071 08610 00: UNIQUE WELL ID
~Curve Information Block
DEPT.FT            0 000 00 00: Depth
DCAL.in                       : CDL Caliper
RHOB.g/cc                     : CDL Bulk Density
RHOC.g/cc                     : CDL Density Correction
DPOR.pu                       : CDL Density Porosity
GR.GAPI                       : Gamma Ray
NPOR.pu                       : Neutron Porosity
~Parameter Information Block
~A  Depth       DCAL        RHOB        RHOC        DPOR         GR         NPOR    
# ...
   701.6000      8.0148      2.3382      0.0320     18.8951    163.4658     24.0465
   701.7000      8.0148      2.3174      0.0107     20.1574    153.0311     24.1603
   701.8000      8.0237      2.3060     -0.0289     20.8474    143.1095     24.0404
   701.9000      8.0237      2.3228      0.0219     19.8277    139.1513     24.4096
   702.0000      8.0613      2.3599      0.0918     17.5818    143.7189     25.2982
   702.1000      8.0613      2.3940      0.1033     15.5122    153.3490     26.5903
   702.2000      8.0613      2.4173      0.0752     14.1027    161.8424     28.0943
   702.3000      8.1207      2.4362      0.1079     12.9572    167.1794     29.3427
   702.4000      8.1207      2.4574      0.0948     11.6716    167.3382     29.9946
   702.5000      8.0985      2.4856      0.1209      9.9626    160.6705     30.2536
   702.6000      8.0985      2.5133      0.2006      8.2846    153.8187     30.3061
   702.7000      8.0985      2.5251      0.1132      7.5700    153.5873     30.0389
   702.8000      8.0972      2.5180      0.0625      8.0013    157.8547     29.7030
   702.9000      8.0972      2.5007      0.0519      9.0496    162.7625     29.6124
   703.0000      8.1060      2.4985     -0.0352      9.1815    166.6341     29.5703
   703.1000      8.1060      2.5259      0.0099      7.5242    164.8135     29.2983
   703.2000      8.1060      2.5500      0.0697      6.0625    158.2112     28.8511
   703.3000      8.0917      2.5389      0.0458      6.7361    153.6286     28.4706
   703.4000      8.0917      2.4979      0.0324      9.2176    152.4710     28.3142
   703.5000      8.0800      2.4489     -0.0246     12.1892    151.2869     28.3733
   703.6000      8.0800      2.4253     -0.1147     13.6172    150.4541     28.2573
   703.7000      8.0800      2.4402      0.0099     12.7151    155.3392     27.5127
   703.8000      8.0769      2.4599      0.0258     11.5227    163.8024     26.6136
   703.9000      8.0769      2.4522      0.0381     11.9893    170.4497     26.2564
   704.0000      8.0523      2.4249     -0.0312     13.6403    177.7075     26.2234
   704.1000      8.0523      2.4113     -0.0007     14.4670    185.6723     25.9993
   704.2000      8.0523      2.4248      0.0490     13.6494    187.3406     25.7319
   704.3000      8.0686      2.4481      0.0809     12.2342    181.2754     25.6579
   704.4000      8.0686      2.4599      0.0900     11.5202    174.4782     25.4880
   704.5000      8.0918      2.4551      0.0487     11.8151    171.1287     24.6549
   704.6000      8.0918      2.4417      0.1428     12.6243    168.8503     23.2710
   704.7000      8.0918      2.4192      0.1258     13.9860    166.8267     22.1413
   704.8000      8.0882      2.3765      0.1330     16.5730    167.2223     21.4021
   704.9000      8.0882      2.3075      0.0608     20.7597    167.5851     20.3594
   705.0000      8.0179      2.2177      0.0282     26.1992    161.2756     18.9751
   705.1000      8.0179      2.1143     -0.0292     32.4640    147.0973     18.0247
   705.2000      8.0179      2.0042     -0.0376     39.1397    135.6100     17.7346
   705.3000      8.0229      1.8979     -0.0825     45.5824    135.1613     17.6458
   705.4000      8.0229      1.8094     -0.1021     50.9451    136.2086     17.5002
   705.5000      8.0738      1.7518     -0.0562     54.4343    129.3391     17.3578
   705.6000      8.0738      1.7256     -0.0703     56.0215    121.6687     17.2781
   705.7000      8.0738      1.7154      0.0086     56.6420    119.1698     17.1797
   705.8000      8.1115      1.7031      0.0589     57.3875    116.4444     16.3216
   705.9000      8.1115      1.6858      0.0272     58.4336    109.9453     14.7852
   706.0000      8.1316      1.6634      0.1746     59.7948    104.3447     13.9848
   706.1000      8.1316      1.6289      0.0915     61.8842    103.0752     14.0748
   706.2000      8.1316      1.5827      0.1073     64.6819    102.3452     14.0890
   706.3000      8.1320      1.5230      0.0723     68.3025     98.6106     13.8679
   706.4000      8.1320      1.4576      0.0103     72.2664     92.7360     14.0138
   706.5000      8.0510      1.4210     -0.0230     74.4819     87.4399     14.4881
   706.6000      8.0510      1.4435      0.0408     73.1218     84.2615     14.8004
   706.7000      8.0510      1.5245      0.1261     68.2092     81.3030     15.0161
   706.8000      8.0563      1.6447      0.1986     60.9259     80.6080     15.8069
   706.9000      8.0563      1.7807      0.2775     52.6843     83.8782     17.5315
   707.0000      8.1999      1.9117      0.3264     44.7432     86.9445     19.4045
   707.1000      8.1999      2.0242      0.3756     37.9293     89.4671     20.3036
   707.2000      8.1999      2.1062      0.3840     32.9559     95.1197     20.7340
   707.3000      8.4025      2.1547      0.2582     30.0201    103.3064     22.2344
   707.4000      8.4025      2.1887      0.1811     27.9588    111.7157     24.7037
   707.5000      8.1845      2.2322      0.1108     25.3234    119.9117     26.6299
   707.6000      8.1845      2.2947      0.1050     21.5332    128.2040     27.6716
   707.7000      8.1845      2.3695      0.1304     16.9987    134.7133     28.6279
   707.8000      8.0668      2.4408      0.1403     12.6760    137.5102     29.6200
   707.9000      8.0668      2.4953      0.1894      9.3765    134.1654     30.1788
   708.0000      8.0437      2.5302      0.1266      7.2605    124.2231     30.2661
   708.1000      8.0437      2.5540      0.1144      5.8187    113.9724     30.0993
   708.2000      8.0437      2.5725      0.1003      4.6997    110.8539     29.4523
   708.3000      8.0541      2.5845      0.0590      3.9716    115.9600     28.0627
   708.4000      8.0541      2.5956      0.0204      3.2961    123.6386     26.8399
   708.5000      8.0288      2.6117      0.0289      2.3195    125.6722     26.9189
   708.6000      8.0288      2.6199      0.1050      1.8267    123.3429     28.0301
   708.7000      8.0288      2.6105      0.0358      2.3935    123.7943     28.8808
   708.8000      8.0044      2.5970      0.0096      3.2136    124.8273     28.7321
   708.9000      8.0044      2.5795      0.0535      4.2709    123.4372     27.9667
   709.0000      7.9949      2.5477     -0.0065      6.2023    121.7564     27.2510
   709.1000      7.9949      2.5148      0.0111      8.1928    119.6963     26.9994
   709.2000      7.9949      2.5074     -0.0115      8.6406    117.8821     27.1747
   709.3000      8.0003      2.5263      0.0715      7.4989    116.5907     27.2777
   709.4000      8.0003      2.5406      0.0316      6.6308    114.4022     26.8582
   709.5000      8.0065      2.5371      0.0237      6.8397    113.3021     26.1736
   709.6000      8.0065      2.5366      0.0170      6.8709    116.4504     25.7485
   709.7000      8.0065      2.5535      0.0688      5.8501    123.7982     25.4350
   709.8000      8.0349      2.5773      0.0610      4.4051    130.0248     24.8816
   709.9000      8.0349      2.5984      0.0965      3.1283    131.0184     24.4854
   710.0000      8.0518      2.6190      0.1302      1.8780    126.7582     24.6642
   710.1000      8.0518      2.6390      0.1254      0.6670    120.2343     25.0453
   710.2000      8.0518      2.6454      0.1263      0.2807    119.1047     25.5547
   710.3000      7.9960      2.6300      0.0925      1.2135    126.2715     26.5634
   710.4000      7.9960      2.6066      0.0865      2.6281    133.8372     27.4585
   710.5000      7.9900      2.5887      0.1140      3.7150    136.3143     27.5024
   710.6000      7.9900      2.5804      0.0990      4.2185    138.1363     27.2023
   710.7000      7.9900      2.5779      0.1692      4.3667    142.1470     27.3216
   710.8000      8.0086      2.5639      0.0832      5.2169    144.6055     27.2854
   710.9000      8.0086      2.5379      0.0520      6.7918    141.9735     26.4290
   711.0000      8.0185      2.5123      0.0842      8.3453    135.7171     25.7145
   711.1000      8.0185      2.4885      0.0507      9.7860    132.6487     25.8788
