~Version Information
VERS.                      2.0: CWLS Log ASCII Standard - VERSION 2.0
WRAP.                       NO: One line per depth step
~Well Information Block
STRT.FT                -7.5000: 
STOP.FT              2228.7500: 
STEP.FT                 0.2500: 
NULL.                -999.2500: 
COMP.          Pioneer Natural Resources: COMPANY
WELL.          McDonald 33-31 R: WELL
FLD.           Purgatorie River: FIELD
LOC.           1386' FSL & 1926' FEL: LOCATION
STAT.                       CO: State
CNTY.               Las Animas: COUNTY
CTRY.                      USA: Country
SECT.                       31: Section
TOWN.                      32S: Township
RANG.                      66W: Range
SRVC.          Patterson Wireline: SERVICE COMPANY
DATE.          Wed Sep 28 13:29:18 2005: LOG DATE
API.           05 071 08533 00: API#
~Curve Information Block
DEPT.FT            0 000 00 00: Depth
CCL.                          : Casing Collar Locator
TT3.usec                      : CBL 3' Travel Time
AMP3.mV                       : CBL 3' Amplitude
GR.GAPI                       : Gamma Ray
~Parameter Information Block
~A  Depth       CCL         TT3         AMP3         GR     
# ...
   863.5000      0.0000    701.9876      8.6920     82.1707
   863.7500      0.0000    701.6943      8.4673     90.9093
   864.0000      0.0000    701.9972      8.1350    101.3344
   864.2500      0.0000    704.7477      7.6878    112.8206
   864.5000      0.0000    713.1163      7.1918    123.5036
   864.7500      0.0000    727.8943      6.7839    130.8484
   865.0000      0.0000    745.2850      6.5820    133.3015
   865.2500      0.0000    759.7197      6.5969    131.2644
   865.5000      0.0000    768.6844      6.7443    127.0148
   865.7500      2.0000    774.2076      6.9343    123.9209
   866.0000     -2.0000    779.9274      7.1443    124.8979
   866.2500      0.0000    787.3690      7.4264    130.5808
   866.5000      0.0000    795.0372      7.8686    138.8011
   866.7500      0.0000    800.1693      8.5292    146.0662
   867.0000      0.0000    800.7057      9.3595    149.7212
   867.2500      0.0000    796.2938     10.1626    149.0726
   867.5000      0.0000    788.2876     10.6787    145.0959
   867.7500      0.0000    778.8361     10.7753    139.5592
   868.0000      0.0000    769.7189     10.5504    134.5276
   868.2500      0.0000    761.9393     10.2299    132.1756
   868.5000      0.0000    756.2332      9.9854    133.7529
   868.7500      0.0000    753.5803      9.8558    137.8389
   869.0000      0.0000    754.6904      9.7879    140.4026
   869.2500      0.0000    758.9724      9.7143    137.9530
   869.5000      0.0000    764.4659      9.6018    130.7601
   869.7500      0.0000    769.2249      9.4566    122.3269
   870.0000      0.0000    772.4417      9.3051    116.0069
   870.2500      0.0000    773.8652      9.1743    113.0883
   870.5000      0.0000    772.6661      9.0853    113.8670
   870.7500      0.0000    767.6274      9.0516    118.7186
   871.0000      0.0000    758.3895      9.0768    126.9486
   871.2500      0.0000    746.2360      9.1424    135.4260
   871.5000      0.0000    733.6826      9.1994    139.8367
   871.7500      0.0000    723.0646      9.1782    137.7859
   872.0000      0.0000    715.2282      9.0269    130.5113
   872.2500      0.0000    709.7896      8.7543    121.6817
   872.5000      0.0000    706.6433      8.4368    114.7920
   872.7500      0.0000    706.9550      8.1732    111.4276
   873.0000      0.0000    712.7345      8.0255    111.3540
   873.2500      0.0000    725.2378      7.9965    113.8099
   873.5000      0.0000    742.7877      8.0481    118.3617
   873.7500      0.0000    759.8584      8.1332    124.5086
   874.0000      0.0000    769.3945      8.2189    131.1079
   874.2500      0.0000    767.2273      8.2929    136.8134
   874.5000      0.0000    754.6594      8.3557    140.8382
   874.7500      0.0000    737.0811      8.4111    142.8501
   875.0000      0.0000    720.3536      8.4646    142.3537
   875.2500      0.0000    708.0051      8.5219    138.8756
   875.5000      0.0000    700.6547      8.5823    133.0989
   875.7500      0.0000    697.0808      8.6313    127.2842
   876.0000      0.0000    695.6424      8.6450    123.8485
   876.2500      0.0000    695.1583      8.6079    123.5865
   876.5000      0.0000    695.0601      8.5264    125.6210
   876.7500      0.0000    695.2073      8.4272    128.5169
   877.0000      0.0000    695.7288      8.3410    130.8186
   877.2500      0.0000    697.0218      8.2849    131.1999
   877.5000      0.0000    699.6598      8.2574    129.1777
   877.7500      0.0000    703.8795      8.2468    125.6079
   878.0000      0.0000    708.8045      8.2404    121.8353
   878.2500      0.0000    712.5106      8.2256    118.5316
   878.5000      0.0000    713.7371      8.1867    115.6534
   878.7500      0.0000    713.9306      8.1087    113.0062
   879.0000      0.0000    717.0144      7.9894    110.2680
   879.2500      0.0000    726.0784      7.8483    106.8350
   879.5000      0.0000    739.7150      7.7217    102.4082
   879.7500      0.0000    752.1151      7.6434     97.9165
   880.0000      0.0000    757.8973      7.6243     95.4057
   880.2500      0.0000    756.6868      7.6509     96.3991
   880.5000      0.0000    751.6490      7.7004    100.3023
   880.7500      0.0000    744.0443      7.7559    104.8026
   881.0000      0.0000    731.4619      7.8089    107.8720
   881.2500      0.0000    711.7775      7.8546    109.0863
   881.5000      0.0000    687.1308      7.8918    109.2484
   881.7500      0.0000    663.6973      7.9222    109.3191
   882.0000      0.0000    648.6077      7.9477    109.7275
   882.2500      0.0000    646.2462      7.9696    110.3726
   882.5000      0.0000    655.4628      7.9902    111.2063
   882.7500      0.0000    670.2117      8.0130    112.7682
   883.0000      0.0000    683.9839      8.0391    115.8257
   883.2500      0.0000    694.0618      8.0663    120.3712
   883.5000      0.0000    702.1099      8.0892    125.2519
   883.7500      0.0000    711.7175      8.0986    128.9024
   884.0000      0.0000    725.4348      8.0864    130.3041
   884.2500      0.0000    742.8828      8.0549    129.3601
   884.5000      0.0000    760.6431      8.0203    126.8432
   884.7500      0.0000    773.9160      8.0001    124.0723
   885.0000      0.0000    778.8685      8.0021    122.2112
   885.2500      0.0000    774.3777      8.0280    121.7189
   885.5000      0.0000    762.4420      8.0804    122.5964
   885.7500      0.0000    747.1104      8.1555    124.7909
   886.0000      0.0000    732.4067      8.2336    127.9303
   886.2500      0.0000    720.6005      8.2845    130.9772
   886.5000      0.0000    712.0679      8.2852    132.7392
   886.7500      0.0000    706.3267      8.2314    132.7930
   887.0000      0.0000    702.7926      8.1364    131.6142
   887.2500      0.0000    700.8494      8.0186    129.7338
   887.5000      0.0000    699.8658      7.8911    127.1242
   887.7500      0.0000    699.3774      7.7621    123.7022
   888.0000      0.0000    699.1621      7.6432    120.1652
   888.2500      0.0000    699.1267      7.5524    117.6847
   888.5000      0.0000    699.1837      7.5043    116.6519
   888.7500      0.0000    699.2210      7.5010    116.4265
   889.0000      0.0000    699.1445      7.5333    116.6996
   889.2500      0.0000    698.9149      7.5893    118.3945
   889.5000      0.0000    698.4654      7.6571    122.4841
   889.7500      0.0000    697.4941      7.7251    128.2407
   890.0000      0.0000    695.3398      7.7823    133.4780
   890.2500      0.0000    691.2697      7.8220    136.5874
   890.5000      0.0000    685.2069      7.8434    137.6488
   890.7500      0.0000    678.2883      7.8517    137.3869
   891.0000      0.0000    672.5616      7.8551    135.8980
   891.2500      0.0000    669.9813      7.8641    133.0587
   891.5000      0.0000    671.4799      7.8887    129.6547
   891.7500      0.0000    676.5428      7.9359    127.2162
   892.0000      0.0000    683.3784      8.0063    126.7688
   892.2500      0.0000    689.7867      8.0929    128.0927
   892.5000      0.0000    694.3138      8.1822    129.9606
   892.7500      0.0000    696.7572      8.2587    130.8528
   893.0000      0.0000    697.7308      8.3106    129.8857
   893.2500      0.0000    697.9572      8.3370    127.4601
   893.5000      0.0000    697.9111      8.3517    124.7962
   893.7500      0.0000    697.8026      8.3788    122.6522
   894.0000      0.0000    697.5069      8.4418    120.8929
   894.2500      0.0000    696.1469      8.5516    119.4023
   894.5000      0.0000    691.3732      8.7002    118.7674
   894.7500      0.0000    679.2517      8.8639    119.6839
   895.0000      0.0000    656.3313      9.0165    122.0021
   895.2500      0.0000    623.6970      9.1370    124.5298
   895.5000      0.0000    589.1127      9.2083    125.7093
   895.7500      0.0000    563.4028      9.2167    124.6310
   896.0000      0.0000    553.6517      9.1597    121.5675
   896.2500      0.0000    559.9487      9.0569    117.3760
   896.5000      0.0000    577.5626      8.9473    112.3236
   896.7500      0.0000    600.4269      8.8693    105.7288
