~Version Information
VERS.                      2.0: CWLS Log ASCII Standard - VERSION 2.0
WRAP.                       NO: One line per depth step
~Well Information Block
STRT.FT               660.0000: 
STOP.FT              2488.5000: 
STEP.FT                 0.1000: 
NULL.                -999.2500: 
COMP.          Petrogulf Corporation: COMPANY
WELL.          Montoya 18-11V-B: WELL
FLD.           Purgatorie River: FIELD
LOC.           848' FNL & 619' FWL: LOCATION
PROV.                 Colorado: PROVINCE
CNTY.               Las Animas: COUNTRY
SRVC.                Patterson: SERVICE COMPANY
DATE.          Wed Oct 05 07:28:13 2005: LOG DATE
UWI.                          : UNIQUE WELL ID
~Curve Information Block
DEPT.FT            0 000 00 00: Depth
DCAL.in                       : CDL Caliper
RHOB.g/cc                     : CDL Bulk Density
RHOC.g/cc                     : CDL Density Correction
DPOR.pu                       : CDL Density Porosity
GR.GAPI                       : Gamma Ray
NPOR.pu                       : Neutron Porosity
~Parameter Information Block
~A  Depth       DCAL        RHOB        RHOC        DPOR         GR         NPOR    
# ...
  1389.6000      8.5639      2.2026      0.2314     27.1126    145.0725     21.8881
  1389.7000      8.5639      2.2096      0.1691     26.6918    145.7893     22.8461
  1389.8000      8.4222      2.2322      0.1553     25.3216    149.4789     23.5146
  1389.9000      8.4222      2.2635      0.1043     23.4253    151.2658     23.9934
  1390.0000      8.2000      2.2936      0.1080     21.6021    149.8959     24.5155
  1390.1000      8.2000      2.3260      0.0878     19.6354    145.2051     24.9259
  1390.2000      8.2000      2.3666      0.1062     17.1741    140.4607     25.0798
  1390.3000      8.1678      2.4058      0.1736     14.8007    141.7742     25.1605
  1390.4000      8.1678      2.4309      0.1875     13.2802    150.2341     25.3199
  1390.5000      8.2125      2.4468      0.1721     12.3178    159.0846     25.3780
  1390.6000      8.2125      2.4596      0.1925     11.5402    160.2962     25.1070
  1390.7000      8.2125      2.4626      0.1751     11.3566    155.1067     24.6157
  1390.8000      8.3871      2.4600      0.1185     11.5133    150.3171     23.9934
  1390.9000      8.3871      2.4726      0.1270     10.7505    149.5988     23.4223
  1391.0000      8.3208      2.5039      0.1899      8.8524    153.1769     23.2961
  1391.1000      8.3208      2.5377      0.1547      6.8050    155.0995     23.5679
  1391.2000      8.3208      2.5660      0.1942      5.0921    152.3673     23.8067
  1391.3000      8.2918      2.5845      0.2175      3.9676    150.0503     23.8053
  1391.4000      8.2918      2.5854      0.1613      3.9149    151.7368     23.7078
  1391.5000      8.1637      2.5654      0.1615      5.1290    157.5741     23.6811
  1391.6000      8.1637      2.5273      0.1006      7.4385    162.8681     23.7723
  1391.7000      8.1637      2.4842      0.0153     10.0460    163.2862     24.0565
  1391.8000      8.0564      2.4562      0.0284     11.7452    161.9780     24.4864
  1391.9000      8.0564      2.4485      0.0753     12.2097    161.7369     24.7986
  1392.0000      8.0232      2.4483      0.0857     12.2259    160.8957     24.7515
  1392.1000      8.0232      2.4499      0.0969     12.1297    157.8190     24.4848
  1392.2000      8.0232      2.4669      0.0320     11.0940    151.9841     24.3975
  1392.3000      8.0101      2.5098      0.0967      8.4943    145.1396     24.5969
  1392.4000      8.0101      2.5652      0.1652      5.1389    140.6536     24.9373
  1392.5000      8.0138      2.6175      0.1717      1.9725    137.2010     25.2930
  1392.6000      8.0138      2.6649      0.2409     -0.9059    131.6979     25.4736
  1392.7000      8.0138      2.6953      0.3233     -2.7459    124.3997     25.3113
  1392.8000      7.9975      2.6968      0.2503     -2.8351    117.9076     25.0540
  1392.9000      7.9975      2.6829      0.2101     -1.9910    113.5434     25.0268
  1393.0000      7.9734      2.6619      0.1776     -0.7200    109.9075     25.0758
  1393.1000      7.9734      2.6228      0.1421      1.6469    104.2336     24.8805
  1393.2000      7.9734      2.5707      0.0224      4.8063     95.8601     24.3529
  1393.3000      7.9592      2.5326      0.0430      7.1132     88.2890     23.6205
  1393.4000      7.9592      2.5132      0.0817      8.2887     85.2687     22.8960
  1393.5000      7.9493      2.4991      0.0250      9.1481     86.5877     22.2775
  1393.6000      7.9493      2.4901      0.0393      9.6891     89.0250     21.7091
  1393.7000      7.9493      2.4852      0.0291      9.9888     90.8769     21.1465
  1393.8000      7.9476      2.4747      0.0409     10.6269     91.4280     20.5914
  1393.9000      7.9476      2.4574      0.0134     11.6753     89.2008     20.1897
  1394.0000      7.9499      2.4413      0.0141     12.6505     85.4613     20.0464
  1394.1000      7.9499      2.4355     -0.0102     13.0025     82.8475     19.8359
  1394.2000      7.9499      2.4415      0.0266     12.6373     82.0373     19.4017
  1394.3000      7.9457      2.4442      0.0255     12.4730     82.7029     19.0312
  1394.4000      7.9457      2.4367     -0.0155     12.9250     83.8907     18.8553
  1394.5000      7.9484      2.4355     -0.0138     12.9975     83.2349     18.8247
  1394.6000      7.9484      2.4443      0.0339     12.4641     79.7316     18.8896
  1394.7000      7.9484      2.4449      0.0561     12.4330     75.9509     18.9108
  1394.8000      7.9439      2.4285      0.0385     13.4246     75.3859     18.7798
  1394.9000      7.9439      2.4111     -0.0174     14.4818     77.1258     18.5442
  1395.0000      7.9426      2.4089     -0.0146     14.6096     78.1089     18.3775
  1395.1000      7.9426      2.4159      0.0141     14.1870     78.7187     18.3507
  1395.2000      7.9426      2.4178      0.0378     14.0739     79.9069     18.2697
  1395.3000      7.9279      2.4135      0.0323     14.3321     80.0412     18.0185
  1395.4000      7.9279      2.4093      0.0283     14.5849     78.0027     17.7816
  1395.5000      7.9099      2.4062      0.0477     14.7730     75.4047     17.6692
  1395.6000      7.9099      2.4023      0.0456     15.0101     74.0082     17.5268
  1395.7000      7.9099      2.3995      0.0336     15.1820     73.8680     17.2158
  1395.8000      7.9145      2.4007      0.0307     15.1115     73.7628     16.9337
  1395.9000      7.9145      2.4075      0.0357     14.6975     73.7463     16.9402
  1396.0000      7.8986      2.4248      0.0074     13.6459     74.3642     17.1369
  1396.1000      7.8986      2.4495      0.0711     12.1492     75.0671     17.3526
  1396.2000      7.8986      2.4603      0.0958     11.4999     76.3075     17.5160
  1396.3000      7.9033      2.4487      0.0289     12.1994     78.0295     17.5555
  1396.4000      7.9033      2.4309      0.0800     13.2768     78.8806     17.4692
  1396.5000      7.9350      2.4201      0.0197     13.9350     79.6852     17.3155
  1396.6000      7.9350      2.4234      0.0479     13.7350     81.8526     17.1543
  1396.7000      7.9350      2.4443      0.0312     12.4693     83.9490     17.0632
  1396.8000      7.9483      2.4798      0.1063     10.3123     84.5415     17.1749
  1396.9000      7.9483      2.5182      0.0932      7.9855     85.3800     17.4566
  1397.0000      7.9481      2.5447      0.1256      6.3808     86.6476     17.6532
  1397.1000      7.9481      2.5542      0.0959      5.8045     85.5576     17.7041
  1397.2000      7.9481      2.5555      0.0669      5.7282     81.9505     17.7332
  1397.3000      7.9443      2.5546      0.1231      5.7824     79.3394     17.8164
  1397.4000      7.9443      2.5451      0.0873      6.3573     80.5896     18.1070
  1397.5000      7.9411      2.5246      0.0480      7.5995     84.2146     18.5638
  1397.6000      7.9411      2.5018      0.0135      8.9812     87.4299     18.9269
  1397.7000      7.9411      2.4920      0.0117      9.5784     89.8732     19.1514
  1397.8000      7.9502      2.5023      0.0364      8.9510     91.0474     19.3195
  1397.9000      7.9502      2.5106      0.0748      8.4502     91.8414     19.3834
  1398.0000      7.9443      2.4863      0.0808      9.9216     93.6945     19.3232
  1398.1000      7.9443      2.4387      0.0289     12.8067     93.8901     19.2196
  1398.2000      7.9443      2.4049     -0.0399     14.8538     91.6319     19.2341
  1398.3000      7.9303      2.3991      0.0284     15.2038     89.4656     19.3952
  1398.4000      7.9303      2.4062      0.0303     14.7733     87.8498     19.5446
  1398.5000      7.9447      2.4103      0.0174     14.5273     85.5455     19.5500
  1398.6000      7.9447      2.4108      0.0201     14.4957     82.3308     19.2661
  1398.7000      7.9447      2.4194      0.0478     13.9778     79.9363     18.8320
  1398.8000      7.9464      2.4391      0.0747     12.7830     79.7859     18.5369
  1398.9000      7.9464      2.4541      0.1067     11.8748     80.0191     18.3544
  1399.0000      7.9511      2.4494      0.1184     12.1579     77.8560     18.2173
  1399.1000      7.9511      2.4320      0.0450     13.2151     73.9133     18.1221
