~Version Information
VERS.                      2.0: CWLS Log ASCII Standard - VERSION 2.0
WRAP.                       NO: One line per depth step
~Well Information Block
STRT.FT                 0.0000: 
STOP.FT              1877.2500: 
STEP.FT                 0.2500: 
NULL.                -999.2500: 
COMP.          Pioneer Natural Resources: COMPANY
WELL.            Corazon 13-10: WELL
FLD.           Purgatoire River: FIELD
LOC.           2510' FSL & 439' FWL--------: LOCATION
PROV.                 Colorado: PROVINCE
CNTY.               Las Animas: COUNTRY
SRVC.                         : SERVICE COMPANY
DATE.          Mon Dec 19 14:34:49 2005: LOG DATE
UWI.                          : UNIQUE WELL ID
~Curve Information Block
DEPT.FT            0 000 00 00: Depth
CCL.                          : Casing Collar Locator
TT3.usec                      : CBL 3' Travel Time
AMP3.mV                       : CBL 3' Amplitude
AMP5.mV                       : CBL 5' Amplitude
GR.GAPI                       : Gamma Ray
~Parameter Information Block
~A  Depth       CCL         TT3         AMP3        AMP5         GR     
# ...
   504.0000      0.0000    729.2607     19.0557      4.2279     95.8116
   504.2500      0.0000    729.3448     18.9476      4.5962     96.3570
   504.5000      0.0000    729.1231     18.8510      4.7883     95.1496
   504.7500      0.0000    728.6973     18.8113      4.8705     93.0982
   505.0000      0.0000    728.2029     18.8416      4.8933     90.6661
   505.2500      0.0000    727.7963     18.9105      4.8750     88.2049
   505.5000      0.0000    727.5642     18.9728      4.8144     86.5243
   505.7500      0.0000    727.5032     19.0015      4.7156     86.4145
   506.0000      0.0000    727.5955     18.9888      4.6009     87.7019
   506.2500      0.0000    727.9236     18.9315      4.4990     89.2796
   506.5000      0.0000    728.7283     18.8281      4.4199     90.2394
   506.7500      0.0000    730.2921     18.6818      4.3458     90.7201
   507.0000      0.0000    732.5623     18.4999      4.2477     91.3684
   507.2500      0.0000    734.7748     18.2954      4.1088     92.2163
   507.5000      0.0000    735.7261     18.0936      3.9356     92.5664
   507.7500      0.0000    734.7747     17.9255      3.7530     91.8298
   508.0000      0.0000    732.4779     17.8010      3.5921     89.8293
   508.2500      0.0000    730.0126     17.6900      3.4781     86.2066
   508.5000      0.0000    728.1454     17.5415      3.4179     80.3404
   508.7500      0.0000    726.9305     17.3245      3.3953     72.4070
   509.0000      0.0000    726.0898     17.0521      3.3855     64.1771
   509.2500      0.0000    725.3359     16.7689      3.3711     58.3407
   509.5000      0.0000    724.3668     16.5212      3.3435     56.9693
   509.7500      0.0000    722.8666     16.3340      3.3010     60.4219
   510.0000      0.0000    720.8206     16.2093      3.2506     67.3674
   510.2500      0.0000    718.8772     16.1391      3.2041     75.6605
   510.5000      0.0000    718.0913     16.1188      3.1709     83.2000
   510.7500      0.0000    718.9888     16.1479      3.1553     88.3152
   511.0000      0.0000    720.9990     16.2259      3.1570     90.1354
   511.2500      0.0000    723.0035     16.3503      3.1788     89.3541
   511.5000      0.0000    724.2906     16.5167      3.2279     88.4762
   511.7500      0.0000    724.8524     16.7140      3.2999     90.3134
   512.0000      0.0000    725.0085     16.9197      3.3680     95.6190
   512.2500      0.0000    725.0101     17.1069      3.4085    102.3734
   512.5000      0.0000    724.9308     17.2590      3.4275    107.6301
   512.7500      0.0000    724.7135     17.3761      3.4492    109.9382
   513.0000      0.0000    724.1837     17.4662      3.4877    110.0559
   513.2500      0.0000    723.1080     17.5341      3.5433    109.7620
   513.5000      0.0000    721.4730     17.5786      3.6201    110.1672
   513.7500      0.0000    719.8256     17.6033      3.7313    110.8236
   514.0000      0.0000    719.0887     17.6319      3.8791    110.3363
   514.2500      0.0000    719.7510     17.7040      4.0379    108.1899
   514.5000      0.0000    721.3401     17.8455      4.1670    105.9311
   514.7500      0.0000    722.8681     18.0392      4.2362    105.9335
   515.0000      0.0000    723.6284     18.2316      4.2400    108.7895
   515.2500      0.0000    723.4012     18.3752      4.1914    112.5251
   515.5000      0.0000    722.1983     18.4624      4.1084    114.8001
   515.7500      0.0000    720.2580     18.5154      4.0095    115.5166
   516.0000      0.0000    718.2957     18.5501      3.9118    116.8027
   516.2500      0.0000    717.2744     18.5625      3.8243    120.5336
   516.5000      0.0000    717.5057     18.5481      3.7506    126.2598
   516.7500      0.0000    718.1856     18.5283      3.6992    131.6710
   517.0000      0.0000    718.2498     18.5471      3.6757    134.6967
   517.2500      0.0000    717.6499     18.6428      3.6701    134.8420
   517.5000      0.0000    717.4067     18.8275      3.6715    132.8836
   517.7500      0.0000    718.3707     19.0841      3.6892    129.9059
   518.0000      0.0000    720.2960     19.3736      3.7384    126.7416
   518.2500      0.0000    722.2461     19.6451      3.8164    123.9562
   518.5000      0.0000    723.5480     19.8521      3.9053    121.8769
   518.7500      0.0000    724.1481     19.9624      3.9827    120.3802
   519.0000      0.0000    724.3389     19.9625      4.0252    118.8045
   519.2500      0.0000    724.4280     19.8637      4.0250    116.4415
   519.5000      0.0000    724.6188     19.7012      4.0033    113.2213
   519.7500      0.0000    725.0063     19.5184      3.9896    109.6974
   520.0000      0.0000    725.5743     19.3530      3.9917    106.3364
   520.2500      0.0000    726.2443     19.2369      3.9947    103.2088
   520.5000      0.0000    727.0537     19.1955      3.9770    100.4447
   520.7500      0.0000    728.4106     19.2305      3.9278     98.6121
   521.0000      0.0000    731.1035     19.3035      3.8634     98.5423
   521.2500      0.0000    735.7452     19.3481      3.8216    100.9230
   521.5000      0.0000    741.8129     19.3062      3.8268    105.9190
   521.7500      0.0000    747.2106     19.1588      3.8642    112.9682
   522.0000      0.0000    749.2912     18.9295      3.8927    120.8848
   522.2500      0.0000    746.8351     18.6620      3.8757    128.1706
   522.5000      0.0000    741.0949     18.3999      3.8076    133.4769
   522.7500      0.0000    734.7803     18.1822      3.7156    136.2420
   523.0000      0.0000    730.0764     18.0436      3.6334    137.0429
   523.2500      0.0000    727.6055     18.0023      3.5778    137.0989
   523.5000      0.0000    726.8391     18.0386      3.5495    137.4118
   523.7500      0.0000    727.0255     18.0949      3.5401    138.4873
   524.0000      0.0000    727.7748     18.1108      3.5355    140.6095
   524.2500      0.0000    729.2091     18.0703      3.5333    144.0429
   524.5000      0.0000    731.8033     18.0083      3.5500    148.6975
   524.7500      0.0000    735.7904     17.9682      3.5937    153.4646
   525.0000      0.0000    740.2419     17.9607      3.6408    156.2418
   525.2500      0.0000    742.8005     17.9666      3.6648    155.3776
   525.5000      0.0000    740.7440     17.9654      3.6761    151.3152
   525.7500      0.0000    732.1906     17.9586      3.7047    146.3631
   526.0000      0.0000    715.2060     17.9736      3.7549    142.5628
   526.2500      0.0000    685.5640     18.0472      3.8075    140.0654
   526.5000      0.0000    637.8149     18.1998      3.8567    137.6521
   526.7500      0.0000    571.8121     18.4215      3.9093    134.2396
   527.0000      0.0000    498.4053     18.6848      3.9586    129.6492
   527.2500      0.0000    436.0050     18.9693      3.9946    124.4213
   527.5000      0.0000    400.7545     19.2642      4.0291    119.2028
   527.7500      0.0000    400.7193     19.5448      4.0794    114.2306
   528.0000      0.0000    435.8513     19.7650      4.1388    109.4589
   528.2500      0.0000    497.1805     19.8882      4.1912    105.1729
   528.5000      0.0000    565.5084     19.9199      4.2358    102.1735
   528.7500      0.0000    617.8715     19.8997      4.2722    101.3293
   529.0000      0.0000    641.4419     19.8712      4.2807    103.1207
   529.2500      0.0000    641.3870     19.8668      4.2486    107.4611
   529.5000      0.0000    632.1989     19.9033      4.1974    113.5991
   529.7500      0.0000    620.5483     19.9755      4.1619    120.2665
   530.0000      0.0000    599.6871     20.0585      4.1616    126.1406
   530.2500      0.0000    562.3978     20.1285      4.2021    130.2813
   530.5000      0.0000    514.5222     20.1806      4.2826    132.3091
   530.7500      0.0000    470.4590     20.2265      4.3877    132.3817
   531.0000      0.0000    438.2764     20.2818      4.4946    131.0505
   531.2500      0.0000    415.2488     20.3534      4.5904    129.1014
   531.5000      0.0000    396.9683     20.4277      4.6647    127.4967
   531.7500      0.0000    385.1494     20.4713      4.6963    127.2517
