~Version Information
VERS.                      2.0: CWLS Log ASCII Standard - VERSION 2.0
WRAP.                       NO: One line per depth step
~Well Information Block
STRT.FT               547.0000: 
STOP.FT              1685.5000: 
STEP.FT                 0.1000: 
NULL.                -999.2500: 
COMP.          Pioneer Natural Resources: COMPANY
WELL.           Pedri 42-33 Tr: WELL
FLD.           Purgatorie River: FIELD
LOC.           1933' FNL & 662' FEL: LOCATION
PROV.                 Colorado: PROVINCE
CNTY.               Las Animas: COUNTRY
SRVC.                Patterson: SERVICE COMPANY
DATE.          Mon Dec 19 13:36:44 2005: LOG DATE
UWI.                          : UNIQUE WELL ID
~Curve Information Block
DEPT.FT            0 000 00 00: Depth
DCAL.in                       : CDL Caliper
RHOB.g/cc                     : CDL Bulk Density
RHOC.g/cc                     : CDL Density Correction
DPOR.pu                       : CDL Density Porosity
GR.GAPI                       : Gamma Ray
~Parameter Information Block
~A  Depth       DCAL        RHOB        RHOC        DPOR         GR     
# ...
   916.6000      8.1054      2.0205      0.1722     38.1490    102.0990
   916.7000      8.1054      2.0351      0.1906     37.2657     99.3688
   916.8000      8.1298      2.0051      0.1799     39.0845     98.1524
   916.9000      8.1298      1.9456      0.1161     42.6884     98.4303
   917.0000      8.0903      1.8738      0.1164     47.0443     98.5627
   917.1000      8.0903      1.7910      0.0302     52.0588     97.4448
   917.2000      8.0903      1.7091     -0.0431     57.0229     96.8239
   917.3000      8.1630      1.6505     -0.0744     60.5732     97.8775
   917.4000      8.1630      1.6224     -0.0575     62.2783     99.1203
   917.5000      8.1530      1.6251     -0.0405     62.1136     98.9416
   917.6000      8.1530      1.6704     -0.0307     59.3713     97.0715
   917.7000      8.1530      1.7638      0.0740     53.7077     95.5604
   917.8000      8.1933      1.8889      0.1773     46.1247     96.3746
   917.9000      8.1933      2.0264      0.1731     37.7943     98.3430
   918.0000      8.2313      2.1649      0.2587     29.4002    100.2450
   918.1000      8.2313      2.2994      0.2429     21.2488    103.8512
   918.2000      8.2313      2.4264      0.2574     13.5503    108.9018
   918.3000      8.1772      2.5257      0.2390      7.5359    112.9428
   918.4000      8.1772      2.5819      0.1954      4.1296    116.6526
   918.5000      8.1091      2.6088      0.1011      2.4963    121.0851
   918.6000      8.1091      2.6192      0.1496      1.8654    126.0753
   918.7000      8.1091      2.6105      0.1475      2.3924    129.6978
   918.8000      8.0661      2.5900      0.0991      3.6338    128.4006
   918.9000      8.0661      2.5720      0.0708      4.7268    123.4246
   919.0000      8.0344      2.5505      0.0641      6.0276    119.3843
   919.1000      8.0344      2.5150      0.0234      8.1807    117.9985
   919.2000      8.0344      2.4813     -0.0009     10.2244    118.5510
   919.3000      8.1499      2.4727      0.0056     10.7469    120.5504
   919.4000      8.1499      2.4851      0.0200      9.9935    124.0614
   919.5000      8.1212      2.4947      0.0405      9.4094    126.8342
   919.6000      8.1212      2.4949      0.0311      9.3970    125.1153
   919.7000      8.1212      2.5011      0.0510      9.0243    119.8209
   919.8000      8.1561      2.5207      0.0713      7.8380    115.7412
   919.9000      8.1561      2.5477      0.0930      6.2025    113.0820
   920.0000      8.0874      2.5721      0.1425      4.7202    109.6705
   920.1000      8.0874      2.5836      0.1927      4.0262    106.8324
   920.2000      8.0874      2.5792      0.2067      4.2880    105.5729
   920.3000      8.0296      2.5677      0.1961      4.9854    105.8810
   920.4000      8.0296      2.5623      0.1527      5.3174    106.9730
   920.5000      7.8823      2.5720      0.1486      4.7298    106.1351
   920.6000      7.8823      2.5969      0.1559      3.2177    104.1729
   920.7000      7.8823      2.6331      0.1854      1.0230    103.4675
   920.8000      7.8436      2.6826      0.1535     -1.9773    103.2648
   920.9000      7.8436      2.7368      0.2747     -5.2612    102.8286
   921.0000      7.9097      2.7667      0.2913     -7.0749    101.2510
   921.1000      7.9097      2.7655      0.2245     -7.0013     97.6982
   921.2000      7.9097      2.7530      0.2004     -6.2419     94.1160
   921.3000      7.9263      2.7387      0.1451     -5.3754     93.3950
   921.4000      7.9263      2.7198      0.1121     -4.2279     95.1956
   921.5000      7.9284      2.6931      0.0777     -2.6113     96.2371
   921.6000      7.9284      2.6632      0.0734     -0.7996     94.7456
   921.7000      7.9284      2.6431      0.0462      0.4157     93.0311
   921.8000      7.9747      2.6388      0.0457      0.6809     92.4263
   921.9000      7.9747      2.6343      0.0843      0.9510     90.1941
   922.0000      7.9849      2.6111      0.0674      2.3594     87.3779
   922.1000      7.9849      2.5803      0.0153      4.2262     89.5406
   922.2000      7.9849      2.5700      0.0166      4.8478     96.1241
   922.3000      7.9896      2.5868      0.0186      3.8296    101.6245
   922.4000      7.9896      2.6096      0.0758      2.4503    104.9303
   922.5000      8.0153      2.6145      0.1108      2.1529    106.9955
   922.6000      8.0153      2.5983      0.0471      3.1332    108.0327
   922.7000      8.0153      2.5842     -0.0122      3.9878    108.7708
   922.8000      7.9857      2.5975      0.0702      3.1799    109.0795
   922.9000      7.9857      2.6296      0.0981      1.2370    109.1083
   923.0000      7.9949      2.6522      0.0877     -0.1334    108.9840
   923.1000      7.9949      2.6576      0.0721     -0.4628    109.1726
   923.2000      7.9949      2.6578      0.0805     -0.4748    110.6685
   923.3000      7.9856      2.6594      0.0786     -0.5722    112.6697
   923.4000      7.9856      2.6566      0.1041     -0.4022    113.6417
   923.5000      8.0063      2.6480      0.0203      0.1237    113.2029
   923.6000      8.0063      2.6385      0.0714      0.6966    112.3882
   923.7000      8.0063      2.6213      0.0669      1.7386    112.7909
   923.8000      8.0042      2.5982     -0.0190      3.1400    114.0515
   923.9000      8.0042      2.5886     -0.0147      3.7198    113.1101
   924.0000      8.0374      2.5979      0.0362      3.1560    108.5013
   924.1000      8.0374      2.6120      0.0441      2.3055    104.7533
   924.2000      8.0374      2.6163      0.0391      2.0396    106.1084
   924.3000      8.0797      2.6085     -0.0177      2.5140    111.1421
   924.4000      8.0797      2.6012     -0.0054      2.9551    116.5119
   924.5000      8.0834      2.6036      0.0181      2.8122    118.1473
   924.6000      8.0834      2.6072      0.0757      2.5919    114.9837
   924.7000      8.0834      2.6092      0.0152      2.4715    111.9394
   924.8000      8.0779      2.6146      0.0870      2.1473    112.1031
   924.9000      8.0779      2.6123      0.0605      2.2873    111.9420
   925.0000      8.0438      2.6013     -0.0075      2.9513    109.2957
   925.1000      8.0438      2.5974      0.0149      3.1878    107.4884
   925.2000      8.0438      2.6022      0.0368      2.8997    107.9807
   925.3000      8.0028      2.6132      0.0756      2.2316    108.3014
   925.4000      8.0028      2.6332      0.0790      1.0170    107.7473
   925.5000      7.9749      2.6564      0.1652     -0.3888    107.5608
   925.6000      7.9749      2.6710      0.1751     -1.2732    107.7860
   925.7000      7.9749      2.6737      0.1681     -1.4361    106.8544
   925.8000      7.9321      2.6694      0.1204     -1.1736    103.6232
   925.9000      7.9321      2.6701      0.0793     -1.2160    100.5150
   926.0000      7.8932      2.6796      0.1180     -1.7943    100.2638
   926.1000      7.8932      2.6811      0.0926     -1.8863    102.0621
   926.2000      7.8932      2.6688      0.0677     -1.1382    103.3769
   926.3000      7.9469      2.6628      0.0842     -0.7749    103.4002
   926.4000      7.9469      2.6764      0.1155     -1.5981    104.0446
   926.5000      7.9445      2.6924      0.1305     -2.5716    105.6299
   926.6000      7.9445      2.6837      0.1268     -2.0431    106.5739
   926.7000      7.9445      2.6497      0.0345      0.0188    106.9894
   926.8000      7.9572      2.6146      0.0318      2.1434    108.3551
   926.9000      7.9572      2.6019      0.0159      2.9155    110.6500
   927.0000      7.9987      2.6189      0.0643      1.8867    112.1558
   927.1000      7.9987      2.6431      0.1020      0.4183    110.8541
   927.2000      7.9987      2.6382      0.1311      0.7161    106.9296
   927.3000      8.0232      2.5977      0.0897      3.1704    104.2838
   927.4000      8.0232      2.5576      0.0196      5.5977    105.5170
   927.5000      8.0000      2.5508      0.0538      6.0109    109.6560
   927.6000      8.0000      2.5678      0.0871      4.9834    113.7292
   927.7000      8.0000      2.5877      0.0193      3.7765    115.7174
