~Version Information
VERS.                      2.0: CWLS Log ASCII Standard - VERSION 2.0
WRAP.                       NO: One line per depth step
~Well Information Block
STRT.FT               595.0000: 
STOP.FT              1693.0000: 
STEP.FT                 0.1000: 
NULL.                -999.2500: 
COMP.          Pioneer Natural Resources: COMPANY
WELL.          Rollerball 34-30: WELL
FLD.           Purgatoire River: FIELD
LOC.           893' FSL & 2408' FEL: LOCATION
CNTY.               Las Animas: COUNTY
SRVC.                Patterson: SERVICE COMPANY
DATE.          Tue Feb 14 15:43:01 2006: LOG DATE
UWI.           05 071 08581 00: UNIQUE WELL ID
STAT.                 Colorado: STATE
~Curve Information Block
DEPT.FT            0 000 00 00: Depth
DCAL.in                       : CDL Caliper
RHOB.g/cc                     : CDL Bulk Density
RHOC.g/cc                     : CDL Density Correction
DPOR.pu                       : CDL Density Porosity
GR.GAPI                       : Gamma Ray
NPOR.pu                       : Neutron Porosity
~Parameter Information Block
~A  Depth       DCAL        RHOB        RHOC        DPOR         GR         NPOR    
# ...
  1603.0000      7.8843      2.3544     -0.0183     17.9144     84.1166     20.4170
  1603.1000      7.8843      2.3673      0.0424     17.1334     85.7890     20.1866
  1603.2000      7.8843      2.3731      0.0298     16.7816     88.5452     20.5859
  1603.3000      7.8846      2.3644      0.0160     17.3083     88.2186     20.8306
  1603.4000      7.8846      2.3556     -0.0128     17.8395     85.4687     20.5754
  1603.5000      7.8884      2.3574      0.0209     17.7316     84.3158     20.4618
  1603.6000      7.8884      2.3622      0.0523     17.4437     86.3828     20.6759
  1603.7000      7.8884      2.3648      0.0121     17.2870     89.3452     20.2774
  1603.8000      7.8855      2.3726      0.0175     16.8125     92.3713     19.2445
  1603.9000      7.8855      2.3867      0.0215     15.9575     95.0721     18.8695
  1604.0000      7.8843      2.3968      0.0354     15.3475     93.9480     19.5202
  1604.1000      7.8843      2.3990      0.0054     15.2122     89.2435     20.2137
  1604.2000      7.8843      2.3985      0.0236     15.2435     86.3373     20.2998
  1604.3000      7.8833      2.3939      0.0652     15.5217     85.5577     20.3587
  1604.4000      7.8833      2.3868      0.0079     15.9536     84.4419     20.7042
  1604.5000      7.8833      2.3869      0.0291     15.9432     84.8622     20.9433
  1604.6000      7.8833      2.3910      0.0279     15.7000     87.3218     21.1544
  1604.7000      7.8833      2.3897      0.0059     15.7757     88.9471     21.4054
  1604.8000      7.8840      2.3850      0.0195     16.0586     90.6328     21.4932
  1604.9000      7.8840      2.3797      0.0555     16.3791     96.1129     21.6317
  1605.0000      7.8956      2.3711      0.0288     16.9007    103.0784     22.2081
  1605.1000      7.8956      2.3621      0.0080     17.4481    103.5822     22.8682
  1605.2000      7.8956      2.3615      0.0209     17.4855     98.7120     22.4079
  1605.3000      7.8823      2.3717      0.0063     16.8670     97.9677     20.7779
  1605.4000      7.8823      2.3874      0.0165     15.9144    103.0700     19.6939
  1605.5000      7.8718      2.3957      0.0271     15.4123    107.2554     19.7484
  1605.6000      7.8718      2.3866      0.0284     15.9629    108.1362     20.3544
  1605.7000      7.8718      2.3698      0.0035     16.9790    110.3831     21.4513
  1605.8000      7.8695      2.3629     -0.0058     17.3984    112.3979     22.3740
  1605.9000      7.8695      2.3707     -0.0126     16.9288    111.3050     22.4668
  1606.0000      7.8725      2.3856      0.0310     16.0261    111.7141     22.3740
  1606.1000      7.8725      2.4011      0.0202     15.0849    115.1938     22.5316
  1606.2000      7.8725      2.4167      0.0003     14.1400    119.4136     22.5752
  1606.3000      7.8780      2.4253      0.0666     13.6198    122.7412     22.4881
  1606.4000      7.8780      2.4207     -0.0070     13.8967    126.0647     22.7096
  1606.5000      7.8777      2.4139      0.0233     14.3080    134.0323     23.1042
  1606.6000      7.8777      2.4150      0.0013     14.2404    145.4639     22.9995
  1606.7000      7.8777      2.4234      0.0324     13.7362    149.6926     22.1465
  1606.8000      7.8718      2.4350      0.0135     13.0318    145.0437     21.4686
  1606.9000      7.8718      2.4471      0.0287     12.2974    141.5623     21.6175
  1607.0000      7.8667      2.4552      0.0116     11.8050    145.7500     21.8038
  1607.1000      7.8667      2.4530      0.0514     11.9421    155.2464     21.3473
  1607.2000      7.8667      2.4405     -0.0051     12.6996    160.6464     20.7225
  1607.3000      7.8672      2.4309      0.0152     13.2797    158.8912     20.7118
  1607.4000      7.8672      2.4353      0.0098     13.0110    158.0087     21.1048
  1607.5000      7.8621      2.4472      0.0255     12.2891    162.8005     20.8536
  1607.6000      7.8621      2.4497      0.0594     12.1411    164.4186     20.0534
  1607.7000      7.8621      2.4373      0.0268     12.8913    156.4346     19.9212
  1607.8000      7.8619      2.4212      0.0248     13.8682    144.7195     20.1635
  1607.9000      7.8619      2.4157      0.0128     14.1999    134.2247     19.3586
  1608.0000      7.8643      2.4306      0.0230     13.2961    127.2375     17.9996
  1608.1000      7.8643      2.4615      0.0795     11.4267    124.1325     17.5691
  1608.2000      7.8643      2.4888      0.0877      9.7707    122.4379     18.2415
  1608.3000      7.8358      2.4965      0.0989      9.3044    120.1313     19.1781
  1608.4000      7.8358      2.4857      0.0485      9.9571    112.7090     19.4961
  1608.5000      7.8242      2.4670      0.0660     11.0934     99.7866     19.2119
  1608.6000      7.8242      2.4538      0.0267     11.8898     87.6206     18.7642
  1608.7000      7.8242      2.4602      0.0484     11.5052     80.9094     18.4491
  1608.8000      7.8227      2.4850      0.0158      9.9988     79.3200     18.5852
  1608.9000      7.8227      2.5101      0.0965      8.4795     80.4864     18.8771
  1609.0000      7.8221      2.5133      0.0686      8.2878     83.5057     18.8767
  1609.1000      7.8221      2.4936      0.0391      9.4809     85.7945     18.5850
  1609.2000      7.8221      2.4727      0.0351     10.7469     84.1723     17.9361
  1609.3000      7.8221      2.4673      0.0150     11.0727     77.8929     17.1612
  1609.4000      7.8221      2.4709      0.0712     10.8546     70.2734     16.8086
  1609.5000      7.8237      2.4617      0.0467     11.4132     66.9881     16.9554
  1609.6000      7.8237      2.4311      0.0062     13.2688     68.1151     17.1697
  1609.7000      7.8237      2.3940     -0.0209     15.5144     71.6521     17.3323
  1609.8000      7.8329      2.3715     -0.0439     16.8796     75.7660     17.8379
  1609.9000      7.8329      2.3688     -0.0519     17.0443     76.7463     18.4940
  1610.0000      7.8473      2.3723     -0.0077     16.8299     77.3268     18.7460
  1610.1000      7.8473      2.3732     -0.0023     16.7761     80.3132     18.8329
  1610.2000      7.8473      2.3805      0.0021     16.3362     82.3517     18.6670
  1610.3000      7.8540      2.3935      0.0454     15.5448     85.2179     18.0003
  1610.4000      7.8540      2.3975      0.0286     15.3027     90.2991     17.6351
  1610.5000      7.8429      2.3903      0.0568     15.7411     92.0275     17.8676
  1610.6000      7.8429      2.3841      0.0272     16.1124     90.4013     17.9748
  1610.7000      7.8429      2.3871      0.0172     15.9359     87.6155     17.8720
  1610.8000      7.8509      2.3922      0.0409     15.6213     83.7206     18.0906
  1610.9000      7.8509      2.3955      0.0255     15.4235     82.2367     18.7100
  1611.0000      7.8512      2.4027      0.0286     14.9888     85.9388     19.3931
  1611.1000      7.8512      2.4134      0.0486     14.3411     90.5685     19.9936
  1611.2000      7.8512      2.4229      0.0307     13.7657     89.5665     20.4440
  1611.3000      7.8526      2.4255      0.0660     13.6043     84.4389     20.3829
  1611.4000      7.8526      2.4165      0.0019     14.1512     81.1069     19.7386
  1611.5000      7.8545      2.4054      0.0049     14.8221     80.7152     18.8931
  1611.6000      7.8545      2.4057      0.0023     14.8085     82.7735     18.4435
  1611.7000      7.8545      2.4135      0.0363     14.3319     86.5041     18.7495
  1611.8000      7.8621      2.4119      0.0582     14.4274     87.8334     19.5584
  1611.9000      7.8621      2.3937      0.0275     15.5355     84.0143     20.1392
  1612.0000      7.8633      2.3730     -0.0080     16.7875     77.8077     19.7318
  1612.1000      7.8633      2.3696     -0.0201     16.9970     76.3581     18.5248
  1612.2000      7.8633      2.3823      0.0302     16.2260     81.4550     17.4412
  1612.3000      7.8585      2.3923      0.0520     15.6157     86.3548     16.9062
  1612.4000      7.8585      2.3932      0.0277     15.5639     85.4255     16.7460
  1612.5000      7.8482      2.3968      0.0344     15.3446     79.6730     16.8270
