~Version Information
VERS.                      2.0: CWLS Log ASCII Standard - VERSION 2.0
WRAP.                       NO: One line per depth step
~Well Information Block
STRT.FT                31.2500: 
STOP.FT               700.7500: 
STEP.FT                 0.2500: 
NULL.                -999.2500: 
COMP.          XTO Energy Inc.: COMPANY
WELL.          Golden Eagle 20-14: WELL
FLD.           Purgatrorie River: FIELD
LOC.           587' FSL & 2478' FWL--: LOCATION
STAT.                       CO: State
CNTY.               Las Animas: COUNTY
CTRY. USA : Country
SECT. 20 : Section
TOWN. 33S : Township
RANG. 67W : Range
SRVC.          Patterson Wireline: SERVICE COMPANY
DATE.          Sat Dec 10 15:54:00 2005: LOG DATE
API.           05 071 08614 00: UNIQUE WELL ID
~Curve Information Block
DEPT.FT            0 000 00 00: Depth
CCL.                          : Casing Collar Locator
TT3.usec                      : CBL 3' Travel Time
AMP3.mV                       : CBL 3' Amplitude
GR.GAPI                       : Gamma Ray
~Parameter Information Block
~A  Depth       CCL         TT3         AMP3         GR     
# ...
   332.7500      0.0000    894.0000      2.5175    121.0612
   333.0000      0.0000    894.0000      2.4649    119.0403
   333.2500      0.0000    894.0000      2.3915    115.9970
   333.5000      0.0000    894.0000      2.2978    112.1100
   333.7500      0.0000    894.0000      2.1878    108.5244
   334.0000      0.0000    894.0000      2.0703    106.1739
   334.2500      0.0000    894.0000      1.9575    105.0131
   334.5000      0.0000    894.0000      1.8641    104.7167
   334.7500      0.0000    894.0000      1.8032    105.6476
   335.0000      0.0000    894.0000      1.7790    108.5449
   335.2500      0.0000    894.0000      1.7829    113.2369
   335.5000     -0.9082    894.0000      1.7972    118.1995
   335.7500      0.0000    894.0000      1.8051    121.9056
   336.0000     -0.6937    894.0000      1.7970    124.4960
   336.2500      0.0000    894.0000      1.7728    127.5861
   336.5000      0.0000    894.0000      1.7413    132.3500
   336.7500      0.0000    894.0000      1.7153    138.0695
   337.0000      0.0000    894.0000      1.7037    142.3854
   337.2500      0.0000    894.0000      1.7058    142.7541
   337.5000      0.0000    894.0000      1.7118    138.2239
   337.7500      0.0000    894.0000      1.7102    130.4795
   338.0000      0.0000    894.0000      1.6978    122.9223
   338.2500      0.0000    894.0000      1.6828    117.9626
   338.5000     -0.7755    894.0000      1.6787    115.1626
   338.7500      0.0000    894.0000      1.6946    112.3492
   339.0000      0.0000    894.0000      1.7290    108.0511
   339.2500      0.0000    894.0000      1.7716    102.3679
   339.5000      0.0000    894.0000      1.8158     96.2538
   339.7500      0.0000    894.0000      1.8706     90.8326
   340.0000      0.0000    894.0000      1.9539     87.1371
   340.2500      0.0000    894.0000      2.0682     85.9422
   340.5000      0.0000    894.0000      2.1880     87.6782
   340.7500      0.0000    894.0000      2.2772     92.0743
   341.0000      0.0000    894.0000      2.3178     97.7294
   341.2500      0.0000    894.0000      2.3187    102.7667
   341.5000      0.0000    894.0000      2.3031    106.3776
   341.7500      0.0000    894.0000      2.2892    109.1739
   342.0000      0.0000    894.0000      2.2828    111.7717
   342.2500      0.0000    894.0000      2.2830    113.7240
   342.5000      0.0000    894.0000      2.2890    114.3183
   342.7500      0.0000    894.0000      2.3021    114.0471
   343.0000      0.0000    894.0000      2.3252    114.6876
   343.2500      0.0000    894.0000      2.3626    117.6854
   343.5000     -0.5234    894.0000      2.4211    122.5353
   343.7500      0.0000    894.0000      2.5076    126.8937
   344.0000      0.0000    894.0000      2.6257    128.3306
   344.2500      0.0000    894.0000      2.7721    126.2604
   344.5000      0.0000    894.0000      2.9367    122.5159
   344.7500      0.0000    894.0000      3.1068    120.0300
   345.0000      0.0000    894.0000      3.2765    120.7535
   345.2500      0.0000    894.0000      3.4545    124.6148
   345.5000      0.0000    894.0000      3.6560    130.1389
   345.7500      0.0000    894.0000      3.8843    135.6033
   346.0000      0.0000    894.0000      4.1212    139.5998
   346.2500      0.0000    894.0000      4.3366    141.1651
   346.5000      0.0000    894.0000      4.5019    140.0845
   346.7500      0.0000    894.0000      4.6005    136.9814
   347.0000      0.0000    894.0000      4.6337    132.5507
   347.2500      0.0000    894.0000      4.6206    126.7279
   347.5000      0.0000    894.0000      4.5847    119.2884
   347.7500      0.0000    894.0000      4.5394    111.3209
   348.0000      0.0000    894.0000      4.4901    105.0125
   348.2500      0.0000    894.0000      4.4492    101.3796
   348.5000      0.0000    894.0000      4.4362     99.1144
   348.7500      0.0000    894.0000      4.4589     96.4381
   349.0000      0.0000    894.0000      4.5011     93.2412
   349.2500      0.0000    894.0000      4.5358     90.6769
   349.5000      0.0000    894.0000      4.5502     89.4774
   349.7500      0.0000    894.0000      4.5541     89.5164
   350.0000      0.0000    894.0000      4.5686     90.4957
   350.2500      0.0000    894.0000      4.6022     92.3010
   350.5000      0.0000    894.0000      4.6371     94.7194
   350.7500      0.0000    894.0000      4.6386     97.1470
   351.0000      0.0000    894.0000      4.5877     98.7014
   351.2500      0.0000    894.0000      4.5030     98.6054
   351.5000      0.0000    894.0000      4.4256     96.5773
   351.7500      0.0000    894.0000      4.3832     93.1736
   352.0000      0.0000    894.0000      4.3717     89.9524
   352.2500      0.0000    894.0000      4.3702     88.8052
   352.5000      0.0000    894.0000      4.3675     90.3148
   352.7500      0.0000    894.0000      4.3700     92.7352
   353.0000      0.0000    894.0000      4.3863     93.3279
   353.2500      0.0000    894.0000      4.4105     91.1599
   353.5000      0.0000    894.0000      4.4220     88.1089
   353.7500      0.0000    894.0000      4.4013     86.6439
   354.0000      0.0000    894.0000      4.3431     87.1134
   354.2500      0.0000    894.0000      4.2586     87.9698
   354.5000      0.0000    894.0000      4.1687     88.2471
   354.7500      0.0000    894.0000      4.0960     88.9287
   355.0000      0.0000    894.0000      4.0559     91.7671
   355.2500      0.0000    894.0000      4.0467     97.2482
   355.5000      0.0000    894.0000      4.0480    103.8573
   355.7500      0.0000    894.0000      4.0359    109.1586
   356.0000      0.0000    894.0000      4.0006    111.4458
   356.2500      0.0000    894.0000      3.9487    110.4179
   356.5000      0.0000    894.0000      3.8896    106.7938
   356.7500      0.0000    894.0000      3.8298    102.0283
   357.0000      0.0000    894.0000      3.7762     98.2697
   357.2500      0.0000    894.0000      3.7367     97.4271
   357.5000      0.0000    894.0000      3.7174     99.5438
   357.7500      0.0000    894.0000      3.7212    102.5853
   358.0000      0.0000    894.0000      3.7434    104.4352
   358.2500      0.0000    894.0000      3.7636    104.9041
   358.5000      0.0000    894.0000      3.7477    105.4763
   358.7500      0.0000    894.0000      3.6740    107.4050
   359.0000      0.0000    894.0000      3.5585    110.3171
   359.2500      0.0000    894.0000      3.4482    112.5201
   359.5000      0.0000    894.0000      3.3856    112.5491
   359.7500      0.0000    894.0000      3.3820    110.5440
   360.0000      0.0000    894.0000      3.4197    108.1310
   360.2500      0.0000    894.0000      3.4737    107.0434
   360.5000      0.0000    894.0000      3.5287    107.9949
   360.7500      0.0000    894.0000      3.5811    110.5385
   361.0000      0.0000    894.0000      3.6273    113.3548
   361.2500      0.0000    894.0000      3.6497    114.8145
   361.5000      0.0000    894.0000      3.6221    113.9801
   361.7500      0.0000    894.0000      3.5371    111.2737
   362.0000      0.0000    894.0000      3.4224    107.9200
   362.2500      0.0000    894.0000      3.3147    104.6394
   362.5000      0.0000    894.0000      3.2246    100.9126
   362.7500      0.0000    894.0000      3.1389     95.6940
   363.0000     -0.8960    894.0000      3.0491     89.1653
   363.2500      2.0000    894.0000      2.9642     83.7240
   363.5000     -2.0000    894.0000      2.8949     82.6551
   363.7500      1.6299    893.9981      2.8399     87.4598
   364.0000      0.0000    893.9877      2.7967     96.4641
   364.2500      0.0000    893.9377      2.7851    105.9019
   364.5000      0.0000    893.7537      2.8453    112.2146
   364.7500      0.0000    893.2414      2.9978    113.7064
   365.0000      0.0000    892.1802      3.2090    110.8397
   365.2500      0.0000    890.6003      3.4047    105.4964
   365.5000      0.0000    889.0511      3.5210     99.8579
   365.7500      0.0000    888.3771      3.5400     95.6938
   366.0000      0.0000    888.9601      3.4881     94.3725
