~Version Information
VERS.                      2.0: CWLS Log ASCII Standard - VERSION 2.0
WRAP.                       NO: One line per depth step
~Well Information Block
STRT.FT               260.0000: 
STOP.FT               713.2000: 
STEP.FT                 0.1000: 
NULL.                -999.2500: 
COMP.          Pioneer Natural Resources: COMPANY
WELL.           Quintessa 23-7: WELL
FLD.           Purgatoire River: FIELD
LOC.           1964' FSL & 2589' FWL--: LOCATION
PROV.                 Colorado: PROVINCE
CNTY.               Las Animas: COUNTRY
SRVC.                Patterson: SERVICE COMPANY
DATE.          Sat Nov 19 09:15:07 2005: LOG DATE
UWI.           05 071 08558 00: UNIQUE WELL ID
~Curve Information Block
DEPT.FT            0 000 00 00: Depth
DCAL.in                       : CDL Caliper
RHOB.g/cc                     : CDL Bulk Density
RHOC.g/cc                     : CDL Density Correction
DPOR.pu                       : CDL Density Porosity
NPOR.pu                       : Neutron Porosity
GR.GAPI                       : Gamma Ray
~Parameter Information Block
~A  Depth       DCAL        RHOB        RHOC        DPOR        NPOR         GR     
# ...
   682.4000      7.9162      2.4262      0.0366     13.5662     22.6971   -999.2500
   682.5000      7.9075      2.4343      0.0490     13.0751     22.7264   -999.2500
   682.6000      7.9075      2.4404      0.0877     12.7032     22.4126   -999.2500
   682.7000      7.9075      2.4390      0.0531     12.7890     22.5046   -999.2500
   682.8000      7.8969      2.4344      0.0670     13.0652     23.4381   -999.2500
   682.9000      7.8969      2.4355      0.0363     13.0006     24.2041   -999.2500
   683.0000      7.8979      2.4431      0.0749     12.5364     24.1402   -999.2500
   683.1000      7.8979      2.4485      0.0578     12.2150     23.9489   -999.2500
   683.2000      7.8979      2.4498      0.0378     12.1327     23.9257   -999.2500
   683.3000      7.9050      2.4541      0.0386     11.8719     23.7503   -999.2500
   683.4000      7.9050      2.4632      0.0713     11.3242     23.4104   -999.2500
   683.5000      7.9012      2.4724      0.0571     10.7648     22.7443   -999.2500
   683.6000      7.9012      2.4786      0.0569     10.3882     21.9033   -999.2500
   683.7000      7.9012      2.4878      0.0465      9.8278     21.5453   -999.2500
   683.8000      7.8881      2.5089      0.0676      8.5521     21.6706   -999.2500
   683.9000      7.8881      2.5362      0.0876      6.8981     21.5015   -999.2500
   684.0000      7.8742      2.5599      0.0978      5.4605     20.8409   -999.2500
   684.1000      7.8742      2.5782      0.1040      4.3501     20.5515   -999.2500
   684.2000      7.8742      2.5832      0.1256      4.0499     21.1236   -999.2500
   684.3000      7.8592      2.5682      0.0858      4.9587     22.0775   -999.2500
   684.4000      7.8592      2.5495      0.0487      6.0892     22.8660   -999.2500
   684.5000      7.8525      2.5503      0.0431      6.0417     23.4881   -999.2500
   684.6000      7.8525      2.5680      0.0521      4.9698     24.0733   -999.2500
   684.7000      7.8525      2.5783      0.0750      4.3461     24.5790   -999.2500
   684.8000      7.8568      2.5690      0.0499      4.9105     25.0591   -999.2500
   684.9000      7.8568      2.5535      0.0158      5.8479     25.5216   -999.2500
   685.0000      7.8694      2.5453      0.0207      6.3479     25.9166   -999.2500
   685.1000      7.8694      2.5424      0.0129      6.5207     26.1437   -999.2500
   685.2000      7.8694      2.5482     -0.0228      6.1683     26.2194   -999.2500
   685.3000      7.8864      2.5688      0.0081      4.9197     26.3243   -999.2500
   685.4000      7.8864      2.5879      0.0689      3.7631     26.3160   -999.2500
   685.5000      7.9041      2.5839      0.0482      4.0057     26.0082   -999.2500
   685.6000      7.9041      2.5638      0.0225      5.2235     25.7773   -999.2500
   685.7000      7.9041      2.5534      0.0104      5.8561     25.9512   -999.2500
   685.8000      7.9117      2.5575      0.0735      5.6042     26.2002   -999.2500
   685.9000      7.9117      2.5574      0.0501      5.6094     26.1717   -999.2500
   686.0000      7.9078      2.5501      0.0544      6.0534     25.8474   -999.2500
   686.1000      7.9078      2.5524      0.0108      5.9160     25.3691   -999.2500
   686.2000      7.9078      2.5663      0.0446      5.0745     24.9275   -999.2500
   686.3000      7.9043      2.5687      0.0757      4.9280     24.9517   -999.2500
   686.4000      7.9043      2.5500      0.0345      6.0598     26.9810   -999.2500
   686.5000      7.9038      2.5301      0.0364      7.2670     33.3779   -999.2500
   686.6000      7.9038      2.5202      0.0442      7.8693     42.5801   -999.2500
   686.7000      7.9038      2.5113      0.0338      8.4079     48.9656   -999.2500
   686.8000      7.8987      2.4954      0.0318      9.3725     51.2590   -999.2500
   686.9000      7.8987      2.4732      0.0361     10.7131     51.7085   -999.2500
   687.0000      7.8927      2.4485      0.0260     12.2115     51.7561   -999.2500
   687.1000      7.8927      2.4235      0.0472     13.7277     51.7587   -999.2500
   687.2000      7.8927      2.4001      0.0157     15.1448   -999.2500   -999.2500
   687.3000      7.8928      2.3824      0.0271     16.2203   -999.2500   -999.2500
   687.4000      7.8928      2.3756      0.0148     16.6279   -999.2500   -999.2500
   687.5000      7.8948      2.3808      0.0621     16.3122   -999.2500   -999.2500
   687.6000      7.8948      2.3916      0.0525     15.6625   -999.2500   -999.2500
   687.7000      7.8948      2.4063      0.0543     14.7678   -999.2500   -999.2500
   687.8000      7.8929      2.4267      0.0471     13.5335   -999.2500   -999.2500
   687.9000      7.8929      2.4452      0.0850     12.4118   -999.2500   -999.2500
   688.0000      7.8897      2.4537      0.0692     11.8956   -999.2500   -999.2500
   688.1000      7.8897      2.4565      0.0518     11.7286   -999.2500   -999.2500
   688.2000      7.8897      2.4577      0.0839     11.6550   -999.2500   -999.2500
   688.3000      7.8877      2.4551      0.0610     11.8144   -999.2500   -999.2500
   688.4000      7.8877      2.4521      0.0404     11.9921   -999.2500   -999.2500
   688.5000      7.8886      2.4494      0.0418     12.1598   -999.2500   -999.2500
   688.6000      7.8886      2.4407      0.0270     12.6850   -999.2500   -999.2500
   688.7000      7.8886      2.4270      0.0117     13.5174   -999.2500   -999.2500
   688.8000      7.8913      2.4085      0.0358     14.6365   -999.2500   -999.2500
   688.9000      7.8913      2.3859     -0.0076     16.0042   -999.2500   -999.2500
   689.0000      7.8884      2.3681      0.0126     17.0820   -999.2500   -999.2500
   689.1000      7.8884      2.3603      0.0196     17.5590   -999.2500   -999.2500
   689.2000      7.8884      2.3615      0.0077     17.4853   -999.2500   -999.2500
   689.3000      7.8813      2.3691      0.0270     17.0231   -999.2500   -999.2500
   689.4000      7.8813      2.3794      0.0318     16.4026   -999.2500   -999.2500
   689.5000      7.8823      2.3950      0.0372     15.4546   -999.2500   -999.2500
   689.6000      7.8823      2.4180      0.0687     14.0595   -999.2500   -999.2500
   689.7000      7.8823      2.4385      0.0620     12.8199   -999.2500   -999.2500
   689.8000      7.8924      2.4497      0.0461     12.1409   -999.2500   -999.2500
   689.9000      7.8924      2.4545      0.0654     11.8468   -999.2500   -999.2500
   690.0000      7.9051      2.4503      0.0633     12.1021   -999.2500   -999.2500
   690.1000      7.9051      2.4325      0.0596     13.1790   -999.2500   -999.2500
   690.2000      7.9051      2.4136     -0.0012     14.3249   -999.2500   -999.2500
   690.3000      7.9141      2.4062      0.0567     14.7734   -999.2500   -999.2500
   690.4000      7.9141      2.4052      0.0198     14.8363   -999.2500   -999.2500
   690.5000      7.9168      2.4102      0.0096     14.5316   -999.2500   -999.2500
   690.6000      7.9168      2.4224      0.0564     13.7965   -999.2500   -999.2500
   690.7000      7.9168      2.4338      0.0398     13.1004   -999.2500   -999.2500
   690.8000      7.9206      2.4445      0.0370     12.4546   -999.2500   -999.2500
   690.9000      7.9206      2.4554      0.0678     11.7926   -999.2500   -999.2500
   691.0000      7.9220      2.4633      0.0630     11.3126   -999.2500   -999.2500
   691.1000      7.9220      2.4748      0.0669     10.6162   -999.2500   -999.2500
   691.2000      7.9220      2.5025      0.0435      8.9418   -999.2500   -999.2500
   691.3000      7.9169      2.5436      0.0998      6.4498   -999.2500   -999.2500
   691.4000      7.9169      2.5769      0.1103      4.4313   -999.2500   -999.2500
   691.5000      7.9152      2.5867      0.0921      3.8382   -999.2500   -999.2500
   691.6000      7.9152      2.5771      0.0640      4.4175   -999.2500   -999.2500
   691.7000      7.9152      2.5620      0.0717      5.3317   -999.2500   -999.2500
   691.8000      7.9163      2.5516      0.0590      5.9624   -999.2500   -999.2500
   691.9000      7.9163      2.5477      0.0572      6.2000   -999.2500   -999.2500
