~Version Information
 VERS.                                  2.0 : CWLS LAS VERSION
 WRAP.                                   NO : WRAPING MODE
 SWARE .                 MController 2.5.0N : SOFTWARE VERSION
~Well Information
 WELL.                       Screamin 12-29 : WELL
 COMP.       Pioneer Natural Resources, USA : COMPANY
 FLD.                       Purgatory River : FIELD
 LOC.                 SW/NW Sec29 T32S R65W : LOCATION
 DATE.                    3/28/06 - 3/29/06 : DATE(S) LOGGED
 SRVC.      Blanco Geological Services, LLC : SERVICE COMPANY
 STAT.                             Colorado : STATE
 CNTY.                           Las Animas : COUNTY
 CTRY.                                  USA : COUNTRY
 API.                          05-071-08660 : API NUMBER
 STRT.FT                             599.00 : START DEPTH
 STOP.FT                            1583.00 : STOP DEPTH
 STEP.FT                               1.00 : DEPTH INCREMENT
 NULL.                                -9999 : NULL VALUE
~Curve information
 DEPTH.FT                                   :
 ROP.MIN/FT                                 :
 GAS.UNITS                                  :
~ASCII Log data
# ...
      1199.0         0.33        396.6 
      1200.0         0.37        320.3 
      1201.0         0.30        282.8 
      1202.0         0.27        249.5 
      1203.0         0.27        239.3 
      1204.0         0.32        236.0 
      1205.0         0.27        225.7 
      1206.0         0.30        220.0 
      1207.0         0.20        214.5 
      1208.0         0.17        203.0 
      1209.0         0.23        181.3 
      1210.0         0.20        188.7 
      1211.0         0.23        227.3 
      1212.0         0.20        241.2 
      1213.0         0.27        250.1 
      1214.0         0.30        251.8 
      1215.0         0.37        274.5 
      1216.0         0.30        282.1 
      1217.0         0.32        281.3 
      1218.0         0.30        267.1 
      1219.0         0.27        244.1 
      1220.0         0.27        253.1 
      1221.0         0.27        262.1 
      1222.0         3.68       1055.4 
      1223.0         0.33        609.6 
      1224.0         0.37        453.3 
      1225.0         0.33        328.5 
      1226.0         0.30        379.7 
      1227.0         0.35        376.8 
      1228.0         0.33        343.1 
      1229.0         0.33        336.2 
      1230.0         0.33        312.7 
      1231.0         0.30        290.1 
      1232.0         0.33        276.0 
      1233.0         0.30        264.7 
      1234.0         0.30        251.6 
      1235.0         0.33        238.2 
      1236.0         0.30        228.2 
      1237.0         0.30        219.5 
      1238.0         0.32        214.1 
      1239.0         0.33        210.2 
      1240.0         0.30        205.8 
      1241.0         0.33        201.4 
      1242.0         0.33        192.3 
      1243.0         0.30        189.5 
      1244.0         0.30        189.9 
      1245.0         0.30        197.2 
      1246.0         0.33        201.0 
      1247.0         0.30        206.5 
      1248.0         0.33        210.3 
      1249.0         0.35        214.8 
      1250.0         0.30        215.2 
      1251.0         0.20        211.1 
      1252.0         4.35       1111.0 
      1253.0         0.37        440.0 
      1254.0         0.37        318.7 
      1255.0         0.40        357.3 
      1256.0         0.45        359.6 
      1257.0         0.43        360.0 
      1258.0         0.40        321.7 
      1259.0         0.37        264.6 
      1260.0         0.33        245.8 
      1261.0         0.33        229.2 
      1262.0         0.20        220.0 
      1263.0         0.23        220.0 
      1264.0         0.23        227.6 
      1265.0         0.30        234.2 
      1266.0         0.27        248.9 
      1267.0         0.32        264.9 
      1268.0         0.20        262.3 
      1269.0         0.23        248.1 
      1270.0         0.20        226.7 
      1271.0         0.23        212.2 
      1272.0         0.30        190.1 
      1273.0         0.27        192.7 
      1274.0         0.23        207.6 
      1275.0         0.23        211.2 
      1276.0         0.23        209.1 
      1277.0         0.20        199.1 
      1278.0         0.23        191.6 
      1279.0         0.23        205.5 
      1280.0         0.23        282.1 
      1281.0         0.28        339.0 
      1282.0         4.22       1492.7 
      1283.0         0.30        634.2 
      1284.0         0.27        531.1 
      1285.0         0.23        586.4 
      1286.0         0.23        693.9 
      1287.0         0.30        761.9 
      1288.0         0.40        812.1 
      1289.0         0.40        815.2 
      1290.0         0.32        800.3 
      1291.0         0.30        749.1 
      1292.0         0.27        635.9 
      1293.0         0.27        563.8 
      1294.0         0.23        481.9 
      1295.0         0.20        443.9 
      1296.0         0.27        440.0 
      1297.0         0.23        316.1 
      1298.0         0.27        416.8 
      1299.0         0.30        462.6 
      1300.0         0.37        818.5 
      1301.0         0.33        870.1 
      1302.0         0.28        871.8 
      1303.0         0.33        835.0 
      1304.0         0.27        736.3 
      1305.0         0.30        670.6 
      1306.0         0.27        630.5 
      1307.0         0.30        611.3 
      1308.0         0.27        594.5 
      1309.0         0.30        596.8 
      1310.0         0.27        603.6 
      1311.0         0.37        604.6 
      1312.0         3.68       1542.6 
      1313.0         0.32        834.4 
      1314.0         0.47        689.8 
      1315.0         0.33        794.9 
      1316.0         0.43        853.9 
      1317.0         0.37        837.4 
      1318.0         0.37        834.4 
      1319.0         0.43        766.3 
      1320.0         0.43        679.4 
      1321.0         0.37        610.6 
      1322.0         0.28        557.8 
      1323.0         0.30        553.7 
      1324.0         0.33        564.5 
      1325.0         0.30        572.9 
      1326.0         0.27        570.2 
      1327.0         0.30        569.9 
      1328.0         0.27        552.0 
      1329.0         0.33        513.3 
      1330.0         0.30        507.2 
      1331.0         0.30        516.0 
      1332.0         0.30        501.2 
      1333.0         0.35        474.5 
      1334.0         0.30        488.4 
      1335.0         0.30        510.2 
      1336.0         0.33        507.9 
      1337.0         0.27        481.3 
      1338.0         0.30        502.8 
      1339.0         0.27        505.5 
      1340.0         0.30        500.1 
      1341.0         0.27        481.9 
      1342.0         4.30       1453.6 
      1343.0         0.30        667.6 
      1344.0         0.50        592.1 
      1345.0         0.47        742.7 
      1346.0         0.43        815.2 
      1347.0         0.33        814.1 
      1348.0         0.40        748.1 
      1349.0         0.53        651.8 
      1350.0         0.35        613.7 
      1351.0         0.33        606.3 
      1352.0         0.37        574.9 
      1353.0         0.40        546.3 
      1354.0         0.43        513.6 
      1355.0         0.43        493.7 
      1356.0         0.40        486.7 
      1357.0         0.30        489.4 
      1358.0         0.40        490.0 
      1359.0         0.45        475.9 
      1360.0         0.43        489.4 
      1361.0         0.43        492.4 
      1362.0         0.40        490.4 
      1363.0         0.40        479.9 
      1364.0         0.33        470.2 
      1365.0         0.33        469.1 
      1366.0         0.33        466.1 
      1367.0         0.37        464.8 
      1368.0         0.42        470.8 
      1369.0         0.43        478.2 
      1370.0         0.43        479.3 
      1371.0         0.27        450.6 
      1372.0         6.73       2982.9 
      1373.0         0.40        787.5 
      1374.0         0.37        813.1 
      1375.0         0.33        794.9 
      1376.0         0.33        767.0 
      1377.0         0.37        755.9 
      1378.0         0.32        726.5 
      1379.0         0.27        659.8 
      1380.0         0.23        617.1 
      1381.0         0.33        552.4 
      1382.0         0.30        502.5 
      1383.0         0.33        508.9 
      1384.0         0.30        507.9 
      1385.0         0.30        495.8 
      1386.0         0.23        484.3 
      1387.0         0.23        483.6 
      1388.0         0.27        462.1 
      1389.0         0.27        440.0 
      1390.0         0.25        308.0 
      1391.0         0.30        347.7 
      1392.0         0.27        358.6 
      1393.0         0.30        361.9 
      1394.0         0.30        374.0 
      1395.0         0.30        374.3 
      1396.0         0.30        375.1 
      1397.0         0.30        371.5 
      1398.0         0.30        364.0 
