~Version Information
VERS.                      2.0: CWLS Log ASCII Standard - VERSION 2.0
WRAP.                       NO: One line per depth step
~Well Information Block
STRT.FT                 0.0000: 
STOP.FT               816.5000: 
STEP.FT                 0.1000: 
NULL.                -999.2500: 
COMP.          Pioneer Natural Resources: COMPANY
WELL.           Weissach 32-32: WELL
FLD.           Purgatorie River: FIELD
LOC.           2193' FNL & 2256' FEL: LOCATION
STAT.                 Colorado: State
CNTY.               Las Animas: COUNTY
CTRY. USA : Country
SECT. 32 : Section
TOWN. 33S : Township
RANG. 66W : Range
SRVC.                Patterson: SERVICE COMPANY
DATE.          Mon Sep 26 09:15:29 2005: LOG DATE
API. 05-071-08523                         : UNIQUE WELL ID
~Curve Information Block
DEPT.FT            0 000 00 00: Depth
DCAL.in                       : CDL Caliper
RHOB.g/cc                     : CDL Bulk Density
RHOC.g/cc                     : CDL Density Correction
DPOR.pu                       : CDL Density Porosity
GR.GAPI                       : Gamma Ray
NPOR.pu                       : Neutron Porosity
~Parameter Information Block
~A  Depth       DCAL        RHOB        RHOC        DPOR         GR         NPOR    
# ...
   268.8000     17.5182      2.1727      2.0000     -0.0096    149.3997     25.0988
   268.9000     17.5182      2.1411      2.0000     -0.0102    149.3044     25.5800
   269.0000     17.5131      2.1052      2.0000     -0.0109    151.5118     25.8054
   269.1000     17.5131      2.0878      2.0000     -0.0113    151.2035     25.8301
   269.2000     17.5131      2.0866      2.0000     -0.0113    148.9962     25.5622
   269.3000     17.5142      2.0927      2.0000     -0.0112    149.8806     25.2076
   269.4000     17.5142      2.1128      2.0000     -0.0107    151.8466     25.5002
   269.5000     17.5138      2.1556      2.0000     -0.0099    149.1026     26.5132
   269.6000     17.5138      2.2059      2.0000     -0.0089    143.8036     27.5242
   269.7000     17.5138      2.2459      2.0000     -0.0081    140.0431     28.0073
   269.8000     17.5161      2.2701      2.0000     -0.0076    139.0751     28.0018
   269.9000     17.5161      2.2645      2.0000     -0.0077    141.0653     27.9826
   270.0000     17.5124      2.2240      2.0000     -0.0085    144.1099     28.2136
   270.1000     17.5124      2.1677      2.0000     -0.0097    145.8987     28.3954
   270.2000     17.5124      2.1180      2.0000     -0.0106    144.9756     28.2346
   270.3000     17.5189      2.0927      2.0000     -0.0112    141.9704     28.0796
   270.4000     17.5189      2.0965      2.0000     -0.0111    141.8328     28.3924
   270.5000     17.5129      2.1228      2.0000     -0.0105    147.3757     28.6582
   270.6000     17.5129      2.1640      2.0000     -0.0097    153.6413     28.3888
   270.7000     17.5129      2.2036      2.0000     -0.0089    154.6577     28.2634
   270.8000     17.5191      2.2238      2.0000     -0.0085    147.6302     28.7444
   270.9000     17.5191      2.2231      2.0000     -0.0085    137.1396     29.1121
   271.0000     17.5142      2.2133      2.0000     -0.0087    134.1772     28.8057
   271.1000     17.5142      2.2060      2.0000     -0.0089    139.5249     28.1277
   271.2000     17.5142      2.2030      2.0000     -0.0089    144.3345     27.6136
   271.3000     17.5213      2.2076      2.0000     -0.0089    146.5368     27.5940
   271.4000     17.5213      2.2225      2.0000     -0.0086    147.8153     27.7890
   271.5000     17.5133      2.2385      2.0000     -0.0082    146.2163     27.6453
   271.6000     17.5133      2.2469      2.0000     -0.0081    143.5973     27.2255
   271.7000     17.5133      2.2423      2.0000     -0.0082    143.3338     27.0638
   271.8000     17.5140      2.2238      2.0000     -0.0085    143.5170     27.2703
   271.9000     17.5140      2.2019      2.0000     -0.0090    142.5193     27.5520
   272.0000     17.5197      2.1903      2.0000     -0.0092    140.2218     27.7101
   272.1000     17.5197      2.1930      2.0000     -0.0091    139.7434     27.7405
   272.2000     17.5197      2.1974      2.0000     -0.0091    145.5094     27.5948
   272.3000     17.5160      2.1950      2.0000     -0.0091    154.6712     27.4142
   272.4000     17.5160      2.1894      2.0000     -0.0092    161.4655     27.5678
   272.5000     17.5124      2.1806      2.0000     -0.0094    163.6904     27.9708
   272.6000     17.5124      2.1642      2.0000     -0.0097    161.6024     28.2956
   272.7000     17.5124      2.1536      2.0000     -0.0099    159.1318     28.5921
   272.8000     17.5124      2.1655      2.0000     -0.0097    158.4641     29.0763
   272.9000     17.5124      2.1943      2.0000     -0.0091    158.6003     29.4225
   273.0000     17.5155      2.2241      2.0000     -0.0085    160.0149     29.1512
   273.1000     17.5155      2.2394      2.0000     -0.0082    160.3403     28.5657
   273.2000     17.5155      2.2383      2.0000     -0.0082    155.8900     28.2547
   273.3000     17.5155      2.2344      2.0000     -0.0083    149.7191     28.2119
   273.4000     17.5155      2.2378      2.0000     -0.0082    147.3590     27.9980
   273.5000     17.5124      2.2444      2.0000     -0.0081    149.1082     27.5907
   273.6000     17.5124      2.2435      2.0000     -0.0081    151.5517     27.5793
   273.7000     17.5124      2.2303      2.0000     -0.0084    152.9217     28.0618
   273.8000     17.5124      2.2090      2.0000     -0.0088    154.1543     28.2032
   273.9000     17.5124      2.1815      2.0000     -0.0094    155.7005     27.8226
   274.0000     17.5153      2.1549      2.0000     -0.0099    156.6170     27.5940
   274.1000     17.5153      2.1455      2.0000     -0.0101    156.0894     27.8986
   274.2000     17.5153      2.1556      2.0000     -0.0099    154.0135     28.4710
   274.3000     17.5143      2.1742      2.0000     -0.0095    152.4465     28.6970
   274.4000     17.5143      2.1938      2.0000     -0.0091    152.7319     28.3404
   274.5000     17.5119      2.2082      2.0000     -0.0088    152.5171     27.9942
   274.6000     17.5119      2.2121      2.0000     -0.0088    150.5829     28.0417
   274.7000     17.5119      2.2105      2.0000     -0.0088    150.3470     28.0522
   274.8000     17.5174      2.2132      2.0000     -0.0087    155.0458     27.9345
   274.9000     17.5174      2.2224      2.0000     -0.0086    163.1124     28.2760
   275.0000     17.5164      2.2313      2.0000     -0.0084    169.5013     28.9962
   275.1000     17.5164      2.2398      2.0000     -0.0082    168.9378     29.2044
   275.2000     17.5164      2.2491      2.0000     -0.0080    162.0310     28.6218
   275.3000     17.5181      2.2521      2.0000     -0.0080    152.9422     27.8907
   275.4000     17.5181      2.2449      2.0000     -0.0081    145.7062     27.6844
   275.5000     17.5171      2.2260      2.0000     -0.0085    144.1323     28.1722
   275.6000     17.5171      2.1934      2.0000     -0.0091    146.1184     28.8347
   275.7000     17.5171      2.1566      2.0000     -0.0099    145.6497     29.0479
   275.8000     17.5149      2.1357      2.0000     -0.0103    140.3290     28.7450
   275.9000     17.5149      2.1441      2.0000     -0.0101    135.3741     28.2534
   276.0000     17.5140      2.1755      2.0000     -0.0095    135.7150     27.8334
   276.1000     17.5140      2.2078      2.0000     -0.0088    138.4150     27.6322
   276.2000     17.5140      2.2234      2.0000     -0.0085    140.9062     27.5365
   276.3000     17.5106      2.2220      2.0000     -0.0086    145.9672     27.4196
   276.4000     17.5106      2.2121      2.0000     -0.0088    153.5583     27.3496
   276.5000     17.5149      2.2033      2.0000     -0.0089    157.2003     27.4635
   276.6000     17.5149      2.1983      2.0000     -0.0090    154.9022     27.7438
   276.7000     17.5149      2.1930      2.0000     -0.0091    152.2613     28.0405
   276.8000     17.5142      2.1873      2.0000     -0.0093    151.5534     28.3229
   276.9000     17.5142      2.1897      2.0000     -0.0092    151.5263     28.6598
   277.0000     17.5187      2.2006      2.0000     -0.0090    152.8203     29.3064
   277.1000     17.5187      2.2057      2.0000     -0.0089    154.8365     29.9115
   277.2000     17.5187      2.2023      2.0000     -0.0090    160.3191     29.7194
   277.3000     17.5166      2.2002      2.0000     -0.0090    171.5072     28.7586
   277.4000     17.5166      2.2049      2.0000     -0.0089    178.0259     27.6347
   277.5000     17.5173      2.2133      2.0000     -0.0087    175.3418     27.1033
   277.6000     17.5173      2.2161      2.0000     -0.0087    170.6392     27.3602
   277.7000     17.5173      2.2076      2.0000     -0.0089    165.2612     27.6417
   277.8000     17.5111      2.1948      2.0000     -0.0091    158.4606     27.4896
   277.9000     17.5111      2.1992      2.0000     -0.0090    153.5797     27.3062
   278.0000     17.5157      2.2285      2.0000     -0.0084    152.5861     27.2793
   278.1000     17.5157      2.2499      2.0000     -0.0080    153.8589     27.1685
   278.2000     17.5157      2.2314      2.0000     -0.0084    154.4314     26.9326
   278.3000     17.5122      2.1970      2.0000     -0.0091    153.6944     26.7562
