~Version Information
 VERS.                                  2.0 : CWLS LAS VERSION
 WRAP.                                   NO : WRAPING MODE
 SWARE .                 MController 2.5.0N : SOFTWARE VERSION
~Well Information
 WELL.                      Whitecoat 14-36 : WELL
 COMP.   Pioneer Natural Resources USA Inc. : COMPANY
 FLD.                      Purgatoire River : FIELD
 LOC.               SW/SW Sec 36 T34S  R65W : LOCATION
 DATE.                            12/4-5/05 : DATE(S) LOGGED
 SRVC.       BLANCO Geological Services LLC : SERVICE COMPANY
 STAT.                                   CO : STATE
 CNTY.                           Las Animas : COUNTY
 CTRY.                                  USA : COUNTRY
 API.                       05-071-08593-00 : API NUMBER
 STRT.FT                             161.00 : START DEPTH
 STOP.FT                            1182.00 : STOP DEPTH
 STEP.FT                               1.00 : DEPTH INCREMENT
 NULL.                                -9999 : NULL VALUE
~Curve information
 DEPTH.FT                                   :
 ROP.MIN/FT                                 :
 GAS.UNITS                                  :
~ASCII Log data
# ...
       561.0         0.40          4.2 
       562.0         3.93          5.0 
       563.0         0.53          5.1 
       564.0         0.40          5.1 
       565.0         0.33          5.2 
       566.0         0.30          4.8 
       567.0         0.30          5.1 
       568.0         0.27          5.1 
       569.0         0.30          5.3 
       570.0         0.30          5.2 
       571.0         0.23          5.2 
       572.0         0.27          5.1 
       573.0         0.28          4.9 
       574.0         0.27          4.9 
       575.0         0.27          4.9 
       576.0         0.30          5.0 
       577.0         0.27          4.8 
       578.0         0.23          4.9 
       579.0         0.27          5.1 
       580.0         0.30          4.8 
       581.0         0.27          4.9 
       582.0         0.27          4.8 
       583.0         0.27          5.3 
       584.0         0.27          5.1 
       585.0         0.25          5.3 
       586.0         0.30          5.3 
       587.0         0.27          5.1 
       588.0         0.23          5.1 
       589.0         0.23          4.7 
       590.0         0.30          4.9 
       591.0         0.27          5.2 
       592.0         4.18          6.2 
       593.0         0.50          5.8 
       594.0         0.45          6.0 
       595.0         0.40          5.8 
       596.0         0.33          5.8 
       597.0         0.30          5.9 
       598.0         0.27          6.1 
       599.0         0.33          6.1 
       600.0         0.27          5.8 
       601.0         0.30          5.8 
       602.0         0.20          6.0 
       603.0         0.27          5.7 
       604.0         0.27          5.8 
       605.0         0.23          5.7 
       606.0         0.18          5.4 
       607.0         0.20          5.4 
       608.0         0.23          5.7 
       609.0         0.33          5.8 
       610.0         0.30          5.7 
       611.0         0.27          5.8 
       612.0         0.30          5.8 
       613.0         0.30          5.5 
       614.0         0.23          5.6 
       615.0         0.27          5.9 
       616.0         0.23          5.5 
       617.0         0.43          5.5 
       618.0         0.38          5.8 
       619.0         0.23          5.8 
       620.0         0.23          5.9 
       621.0         0.30          6.0 
       622.0         4.25          6.4 
       623.0         0.20          6.0 
       624.0         0.23          6.2 
       625.0         0.30          6.1 
       626.0         0.33          6.0 
       627.0         0.42          6.0 
       628.0         0.33          6.1 
       629.0         0.33          5.8 
       630.0         0.33          5.9 
       631.0         0.30          6.3 
       632.0         0.37          5.8 
       633.0         0.30          6.1 
       634.0         0.33          6.0 
       635.0         0.33          5.9 
       636.0         0.33          6.4 
       637.0         0.32          6.1 
       638.0         0.33          6.0 
       639.0         0.30          6.2 
       640.0         0.30          6.2 
       641.0         0.33          6.2 
       642.0         0.27          6.3 
       643.0         0.30          6.1 
       644.0         0.27          6.4 
       645.0         0.33          6.3 
       646.0         0.30          6.2 
       647.0         0.33          6.2 
       648.0         0.32          5.8 
       649.0         0.30          5.9 
       650.0         0.30          6.2 
       651.0         0.30          6.5 
       652.0         8.33          7.3 
       653.0         0.43          6.6 
       654.0         0.35          6.2 
       655.0         0.33          6.4 
       656.0         0.37          6.3 
       657.0         0.33          6.5 
       658.0         0.37          6.6 
       659.0         0.37          6.4 
       660.0         0.37          6.4 
       661.0         0.27          6.6 
       662.0         0.33          6.3 
       663.0         0.23          6.2 
       664.0         0.23          5.9 
       665.0         0.32          6.1 
       666.0         0.30          6.3 
       667.0         0.27          6.1 
       668.0         0.30          6.0 
       669.0         0.30          6.4 
       670.0         0.27          6.2 
       671.0         0.27          6.0 
       672.0         0.27          5.7 
       673.0         0.23          5.8 
       674.0         0.30          6.0 
       675.0         0.30          5.8 
       676.0         0.30          5.8 
       677.0         0.28          6.9 
       678.0         0.30          7.2 
       679.0         0.30          7.4 
       680.0         0.40          5.9 
       681.0         0.30          6.4 
       682.0         3.15          7.0 
       683.0         0.40          6.7 
       684.0         0.40          6.7 
       685.0         0.40          6.7 
       686.0         0.37          6.8 
       687.0         0.30          6.4 
       688.0         0.35          6.7 
       689.0         0.37          6.6 
       690.0         0.30          6.4 
       691.0         0.30          6.6 
       692.0         0.33          6.7 
       693.0         0.27          6.6 
       694.0         0.30          6.6 
       695.0         0.27          6.4 
       696.0         0.27          6.6 
       697.0         0.30          6.4 
       698.0         0.27          6.2 
       699.0         0.32          6.3 
       700.0         0.27          6.5 
       701.0         0.30          6.6 
       702.0         0.30          6.2 
       703.0         0.27          6.0 
       704.0         0.27          5.6 
       705.0         0.23          5.6 
       706.0         0.30          5.2 
       707.0         0.27          5.7 
       708.0         0.30          6.1 
       709.0         0.27          5.7 
       710.0         0.33          5.7 
       711.0         0.25          5.7 
       712.0         3.82          5.8 
       713.0         0.47          5.7 
       714.0         0.47          5.5 
       715.0         0.33          5.3 
       716.0         0.37          5.1 
       717.0         0.33          5.4 
       718.0         0.33          5.4 
       719.0         0.37          5.4 
       720.0         0.35          5.8 
       721.0         0.30          5.8 
       722.0         1.73          5.6 
       723.0         0.90          5.7 
       724.0         0.48          5.8 
       725.0         0.47          5.7 
       726.0         0.40          5.7 
       727.0         0.27          6.2 
       728.0         0.23          6.2 
       729.0         0.17          5.9 
       730.0         0.17          5.7 
       731.0         0.17          5.5 
       732.0         0.30          5.5 
       733.0         0.40          5.7 
       734.0         0.40          5.7 
       735.0         0.35          5.7 
       736.0         0.30          5.7 
       737.0         0.40          5.5 
       738.0         0.37          5.5 
       739.0         0.47          5.7 
       740.0         0.33          5.4 
       741.0         0.40          5.6 
       742.0         3.42          6.0 
       743.0         0.30          5.4 
       744.0         0.30          5.8 
       745.0         0.42          5.6 
       746.0         0.40          5.4 
       747.0         0.40          5.6 
       748.0         0.37          5.5 
       749.0         0.33          5.7 
       750.0         0.37          5.8 
       751.0         0.33          5.8 
       752.0         0.33          5.9 
       753.0         0.33          5.7 
       754.0         0.28          5.8 
       755.0         0.30          5.9 
       756.0         0.27          5.6 
       757.0         0.33          6.1 
       758.0         0.30          5.8 
       759.0         0.33          5.7 
       760.0         0.33          5.5 
