~Version Information
VERS.                      2.0: CWLS Log ASCII Standard - VERSION 2.0
WRAP.                       NO: One line per depth step
~Well Information Block
STRT.FT                -4.0000: 
STOP.FT               675.2500: 
STEP.FT                 0.2500: 
NULL.                -999.2500: 
COMP.          Pioneer Natural Resources: COMPANY
WELL.          Razor Clam 23-27: WELL
FLD.           Purgatoire River: FIELD
LOC.           2499' FSL & 2636' FWL: LOCATION
CNTY.               Las Animas: COUNTY
SRVC.                         : SERVICE COMPANY
DATE.          Thu Mar 09 13:15:19 2006: LOG DATE
UWI.           05 071 08667 00: UNIQUE WELL ID
STAT.                       CO: STATE
~Curve Information Block
DEPT.FT            0 000 00 00: Depth
GR.GAPI                       : Gamma Ray
CCL.                          : Casing Collar Locator
TT3.usec                      : CBL 3' Travel Time
AMP3.mV                       : CBL 3' Amplitude
~Parameter Information Block
~A  Depth        GR         CCL         TT3         AMP3    
# ...
   264.0000     70.7413      0.0000    312.6330     19.1840
   264.2500     72.4746      0.0000    321.7191     19.4129
   264.5000     73.1566      0.0000    344.4081     19.5014
   264.7500     72.2538      0.0000    386.2325     19.3658
   265.0000     70.6790      0.0000    446.8036     19.0310
   265.2500     70.3934      0.0000    517.5238     18.5926
   265.5000     73.0479      0.0000    586.0856     18.1431
   265.7500     78.8074      0.0000    642.7195     17.7435
   266.0000     86.2529      0.0000    682.3375     17.4421
   266.2500     93.5659      0.0000    703.4357     17.2829
   266.5000    100.0248      0.0000    707.3948     17.2760
   266.7500    106.4370      0.0000    699.1054     17.3706
   267.0000    114.2293      0.0000    687.2984     17.4786
   267.2500    124.0975      0.0000    681.3757     17.5378
   267.5000    135.1096      0.0000    684.7761     17.5488
   267.7500    144.7718      0.0000    691.3853     17.5463
   268.0000    150.1886      0.0000    690.7326     17.5382
   268.2500    149.8504      0.0000    678.1616     17.4897
   268.5000    144.7384      0.0000    660.0839     17.3722
   268.7500    137.5612      0.0000    648.3101     17.2079
   269.0000    130.7071      0.0000    648.3997     17.0496
   269.2500    124.9583      0.0000    655.6149     16.9344
   269.5000    120.1009      0.0000    663.4872     16.8681
   269.7500    116.2433      0.0000    672.1083     16.8360
   270.0000    114.0579      0.0000    684.8574     16.8128
   270.2500    113.7743      0.0000    700.9504     16.7765
   270.5000    114.3017      0.0000    715.4664     16.7271
   270.7500    113.6354      0.0000    724.6901     16.6875
   271.0000    110.3239      0.0000    728.4764     16.6787
   271.2500    104.6209      0.0000    728.5120     16.7031
   271.5000     98.3281      0.0000    726.5705     16.7555
   271.7500     93.6532      0.0000    724.2947     16.8336
   272.0000     91.8802      0.0000    723.2110     16.9271
   272.2500     92.5853      0.0000    724.0104     17.0058
   272.5000     94.0699      0.0000    726.1069     17.0391
   272.7500     94.8425      0.0000    728.2870     17.0263
   273.0000     94.7246      0.0000    729.7654     16.9981
   273.2500     94.4899      0.0000    730.4686     16.9886
   273.5000     94.7453      0.0000    730.6193     17.0081
   273.7500     95.4048      0.0000    730.1970     17.0409
   274.0000     96.0092      0.0000    728.5298     17.0650
   274.2500     96.1270      0.0000    724.0190     17.0702
   274.5000     95.4846      0.0000    714.7877     17.0496
   274.7500     94.1001      0.0000    701.0862     16.9852
   275.0000     92.4821      0.0000    687.6772     16.8570
   275.2500     91.4035      0.0000    681.9719     16.6694
   275.5000     91.0877      0.0000    687.7053     16.4562
   275.7500     90.6537      0.0000    701.1745     16.2593
   276.0000     88.8840      0.0000    714.9849     16.1132
   276.2500     85.7612      0.0000    724.3613     16.0373
   276.5000     82.7883      0.0000    729.0126     16.0265
   276.7500     81.4252      0.0000    730.7691     16.0508
   277.0000     81.5662      0.0000    731.2366     16.0838
   277.2500     81.9103      0.0000    731.2369     16.1265
   277.5000     81.4849      0.0000    731.1429     16.1845
   277.7500     80.4150      0.0000    731.1401     16.2263
   278.0000     79.4635      0.0000    731.2797     16.1968
   278.2500     79.1938      0.0000    731.4215     16.0825
   278.5000     79.4688      0.0000    731.0738     15.9390
   278.7500     79.5090      0.0000    729.0573     15.8412
   279.0000     78.5637      0.0000    723.2802     15.8211
   279.2500     76.7200      0.0000    711.7595     15.8564
   279.5000     74.8932      0.0000    695.4954     15.8923
   279.7500     73.9279      0.0000    680.6447     15.8679
   280.0000     73.9949      0.0000    675.5584     15.7497
   280.2500     74.8556      0.0000    683.6039     15.5608
   280.5000     76.1154      0.0000    699.8050     15.3696
   280.7500     77.0096      0.0000    715.6492     15.2390
   281.0000     76.5697      0.0000    725.9493     15.1885
   281.2500     74.5098      0.0000    730.5307     15.2003
   281.5000     71.7967      0.0000    731.4447     15.2482
   281.7500     70.0811      0.0000    730.2576     15.3259
   282.0000     70.5530      0.0000    727.3353     15.4598
   282.2500     73.2844      0.0000    722.4634     15.6892
   282.5000     77.3459      0.0000    715.8196     16.0160
   282.7500     81.2762      0.0000    708.5165     16.3694
   283.0000     83.6280      0.0000    702.1691     16.6353
   283.2500     83.6074      0.0000    697.9950     16.7408
   283.5000     81.6081      0.0000    696.4440     16.7136
   283.7500     79.1108      0.0000    697.5933     16.6477
   284.0000     77.7395      0.0000    701.4285     16.6102
   284.2500     78.1540      0.0000    707.4100     16.5996
   284.5000     79.7760      0.0000    713.9708     16.5903
   284.7500     81.4574      0.0000    719.0270     16.5901
   285.0000     82.2910      0.0000    721.4009     16.6293
   285.2500     82.1180      0.0000    721.7102     16.7089
   285.5000     81.7783      0.0000    721.6007     16.7889
   285.7500     82.6139      0.0000    721.9424     16.8372
   286.0000     85.0771      0.0000    721.8742     16.8669
   286.2500     87.8404      0.0000    719.7255     16.9089
   286.5000     88.6513      0.0000    714.8273     16.9608
   286.7500     86.1194      0.0000    708.4088     16.9818
   287.0000     80.8984      0.0000    702.9222     16.9351
   287.2500     75.6125      0.0000    700.6171     16.8270
   287.5000     73.4607      0.0000    702.4803     16.7050
   287.7500     76.0313      0.0000    707.8966     16.6192
   288.0000     82.0010      0.0000    714.9755     16.5905
   288.2500     88.1169      0.0000    721.5250     16.6124
   288.5000     91.5472      0.0000    726.1819     16.6753
   288.7500     91.3666      0.0000    728.8258     16.7792
   289.0000     88.3093      0.0000    730.0812     16.9168
   289.2500     83.8287      0.0000    730.6147     17.0468
   289.5000     79.5836      0.0000    730.8269     17.1032
   289.7500     77.1838      0.0000    730.8979     17.0472
   290.0000     77.6626      0.0000    730.9092     16.9041
   290.2500     80.9853      0.0000    730.8701     16.7367
   290.5000     86.2185      0.0000    730.6399     16.5921
   290.7500     92.1948      0.0000    729.8173     16.4840
   291.0000     98.1334      0.0000    727.7809     16.4130
   291.2500    103.8793      0.0000    724.1287     16.3810
   291.5000    109.4592      0.0000    719.3682     16.3834
   291.7500    114.2959      0.0000    715.0764     16.3926
   292.0000    117.2862      0.0000    712.9708     16.3640
   292.2500    118.1079      0.0000    713.6680     16.2644
   292.5000    118.2118      0.0000    716.3390     16.0946
   292.7500    119.8824      0.0000    719.3510     15.8786
   293.0000    124.0971      0.0000    721.2866     15.6448
   293.2500    129.6491      0.0000    721.8142     15.4324
   293.5000    134.4490      0.0000    721.8234     15.2849
   293.7500    137.1772      0.0000    722.6155     15.1755
   294.0000    137.6144      0.0000    724.9188     14.9319
   294.2500    136.1575      0.0000    728.5479     14.3359
   294.5000    133.4918      0.0000    732.8202     13.3883
   294.7500    130.1353      0.0000    737.6694     12.4270
   295.0000    125.7242      0.0000    744.4609     11.8719
   295.2500    119.2821      0.0000    754.8318     11.8443
   295.5000    110.9575      0.0000    768.0967     12.1019
   295.7500    103.2954      0.0000    780.5499     12.3135
   296.0000     99.9665     -1.8329    788.4049     12.3037
   296.2500    102.9235      0.0000    791.3466     12.0712
   296.5000    110.7941      0.0000    792.3325     11.7201
   296.7500    119.8244      0.0000    793.5552     11.4175
   297.0000    126.2876      0.0000    793.2842     11.3325
   297.2500    128.5766      0.0000    787.6475     11.5480
