~Version Information
VERS.                      2.0: CWLS Log ASCII Standard - VERSION 2.0
WRAP.                       NO: One line per depth step
~Well Information Block
STRT.FT                10.0000: 
STOP.FT              1665.0000: 
STEP.FT                 0.1000: 
NULL.                -999.2500: 
COMP.          Pioneer Natural Resources: COMPANY
WELL.          Stock Canyon 34-33: WELL
FLD.           Purgatorie River: FIELD
LOC.           980' FSL & 2191' FEL: LOCATION
PROV.                 Colorado: PROVINCE
CNTY.               Las Animas: COUNTRY
SRVC.                Patterson: SERVICE COMPANY
DATE.          Mon Dec 05 10:33:50 2005: LOG DATE
UWI.                          : UNIQUE WELL ID
~Curve Information Block
DEPT.FT            0 000 00 00: Depth
DCAL.in                       : CDL Caliper
RHOB.g/cc                     : CDL Bulk Density
RHOC.g/cc                     : CDL Density Correction
DPOR.pu                       : CDL Density Porosity
GR.GAPI                       : Gamma Ray
NPOR.pu                       : Neutron Porosity
~Parameter Information Block
~A  Depth       DCAL        RHOB        RHOC        DPOR         GR         NPOR    
# ...
   557.2000      8.1712      2.2700      1.5508     -0.0076     81.4005     24.8867
   557.3000      8.1745      2.2597      1.5721     -0.0078     85.7185     25.1290
   557.4000      8.1745      2.2452      1.5483     -0.0081     85.7868     25.3265
   557.5000      8.1695      2.2331      1.5434     -0.0083     82.1748     25.3224
   557.6000      8.1695      2.2172      1.5484     -0.0087     78.7682     25.1599
   557.7000      8.1695      2.1959      1.4704     -0.0091     77.0144     24.9863
   557.8000      8.1743      2.1798      1.4993     -0.0094     76.1121     24.7241
   557.9000      8.1743      2.1786      1.5305     -0.0094     75.8954     24.3884
   558.0000      8.1767      2.1927      1.5303     -0.0092     75.9517     24.2527
   558.1000      8.1767      2.2128      1.5819     -0.0087     74.0173     24.2755
   558.2000      8.1767      2.2290      1.5900     -0.0084     70.2975     24.0138
   558.3000      8.1665      2.2421      1.5475     -0.0082     67.6445     23.4414
   558.4000      8.1665      2.2549      1.5515     -0.0079     66.7330     23.0108
   558.5000      8.1641      2.2572      1.6369     -0.0079     65.7601     23.0719
   558.6000      8.1641      2.2446      1.5416     -0.0081     64.4319     23.5527
   558.7000      8.1641      2.2188      1.6412     -0.0086     64.5219     23.9155
   558.8000      8.1714      2.1762      1.5072     -0.0095     66.3713     23.8419
   558.9000      8.1714      2.1374      1.5225     -0.0103     69.0865     23.5653
   559.0000      8.1681      2.1269      1.5121     -0.0105     70.8841     23.2840
   559.1000      8.1681      2.1302      1.5398     -0.0104     70.3817     23.0567
   559.2000      8.1681      2.1174      1.4817     -0.0107     70.4364     22.8762
   559.3000      8.1723      2.0890      1.4866     -0.0112     73.5203     22.6187
   559.4000      8.1723      2.0719      1.4415     -0.0116     76.6872     22.4252
   559.5000      8.1717      2.0867      1.4720     -0.0113     77.3261     22.5499
   559.6000      8.1717      2.1242      1.5376     -0.0105     76.0964     22.9800
   559.7000      8.1717      2.1583      1.5205     -0.0098     73.3802     23.4444
   559.8000      8.1765      2.1806      1.5451     -0.0094     69.6205     23.8172
   559.9000      8.1765      2.1946      1.5556     -0.0091     66.0289     24.1841
   560.0000      8.1690      2.2025      1.5877     -0.0090     65.0343     24.4623
   560.1000      8.1690      2.2167      1.5120     -0.0087     68.2169     24.7116
   560.2000      8.1690      2.2455      1.5609     -0.0081     72.9896     24.9711
   560.3000      8.1668      2.2664      1.5902     -0.0077     75.8659     24.9735
   560.4000      8.1668      2.2542      1.5337     -0.0079     76.8851     24.8230
   560.5000      8.1669      2.2142      1.4975     -0.0087     78.7238     24.7718
   560.6000      8.1669      2.1601      1.5289     -0.0098     81.0636     24.8439
   560.7000      8.1669      2.0888      1.5237     -0.0112     80.6130     24.9846
   560.8000      8.1692      2.0013      1.4265     -0.0130     77.0758     25.1440
   560.9000      8.1692      1.9167      1.3789     -0.0147     73.6285     25.2143
   561.0000      8.1702      1.8569      1.3312     -0.0159     71.8494     25.0725
   561.1000      8.1702      1.8348      1.3184     -0.0163     71.1385     25.1591
   561.2000      8.1702      1.8508      1.3179     -0.0160     71.1242     25.9905
   561.3000      8.1690      1.8933      1.3866     -0.0151     70.7003     27.1725
   561.4000      8.1690      1.9567      1.3109     -0.0139     69.4320     27.8443
   561.5000      8.1730      2.0353      1.4329     -0.0123     69.4288     27.6841
   561.6000      8.1730      2.1008      1.4460     -0.0110     70.9646     27.1564
   561.7000      8.1730      2.1337      1.4561     -0.0103     71.3798     26.6969
   561.8000      8.1678      2.1443      1.4562     -0.0101     70.4124     26.2624
   561.9000      8.1678      2.1521      1.4040     -0.0100     70.9270     25.8060
   562.0000      8.1697      2.1684      1.4911     -0.0096     72.9567     25.3427
   562.1000      8.1697      2.1874      1.4973     -0.0093     73.9924     24.7810
   562.2000      8.1697      2.1984      1.5182     -0.0090     73.7896     24.2937
   562.3000      8.1749      2.1956      1.5153     -0.0091     72.8945     24.1410
   562.4000      8.1749      2.1829      1.4845     -0.0093     72.6168     24.2454
   562.5000      8.1732      2.1737      1.4979     -0.0095     73.8030     24.3580
   562.6000      8.1732      2.1752      1.4978     -0.0095     74.7025     24.1798
   562.7000      8.1732      2.1865      1.4831     -0.0093     74.7604     23.5670
   562.8000      8.1715      2.2055      1.5094     -0.0089     75.0022     22.8537
   562.9000      8.1715      2.2317      1.5138     -0.0084     76.8730     22.5582
   563.0000      8.1756      2.2637      1.5745     -0.0077     80.8433     22.6912
   563.1000      8.1756      2.2954      1.5544     -0.0071     84.1296     23.0050
   563.2000      8.1756      2.3176      1.6512     -0.0067     84.4609     23.4889
   563.3000      8.1782      2.3286      1.5500     -0.0064     81.8408     24.0959
   563.4000      8.1782      2.3399      1.6141     -0.0062     77.4768     24.6429
   563.5000      8.1789      2.3564      1.5870     -0.0059     75.5770     25.0878
   563.6000      8.1789      2.3735      1.5982     -0.0055     78.5056     25.3804
   563.7000      8.1789      2.3808      1.5883     -0.0054     82.1878     25.4679
   563.8000      8.1812      2.3696      1.5645     -0.0056     82.3144     25.6275
   563.9000      8.1812      2.3529      1.5228     -0.0059     80.2560     25.9470
   564.0000      8.1747      2.3456      1.6006     -0.0061     78.4643     26.0869
   564.1000      8.1747      2.3336      1.5723     -0.0063     76.1886     26.0549
   564.2000      8.1747      2.3068      1.5545     -0.0069     73.6645     26.0856
   564.3000      8.1697      2.2785      1.5255     -0.0074     72.7990     26.1015
   564.4000      8.1697      2.2555      1.5234     -0.0079     74.3764     25.9311
   564.5000      8.1755      2.2381      1.4535     -0.0082     78.0641     25.6145
   564.6000      8.1755      2.2294      1.5115     -0.0084     81.5121     25.4521
   564.7000      8.1755      2.2163      1.5258     -0.0087     82.4480     25.5377
   564.8000      8.1716      2.1904      1.4970     -0.0092     81.6686     25.8108
   564.9000      8.1716      2.1747      1.4806     -0.0095     81.2715     26.3385
   565.0000      8.1730      2.1891      1.5122     -0.0092     81.8943     26.8212
   565.1000      8.1730      2.2206      1.5492     -0.0086     83.6770     26.8999
   565.2000      8.1730      2.2395      1.5795     -0.0082     86.3412     26.8447
   565.3000      8.1728      2.2348      1.5273     -0.0083     87.6280     27.1993
   565.4000      8.1728      2.2212      1.5259     -0.0086     86.5974     27.8963
   565.5000      8.1687      2.2119      1.5533     -0.0088     85.2514     28.1299
   565.6000      8.1687      2.2090      1.5080     -0.0088     86.1744     27.5001
   565.7000      8.1687      2.2065      1.5322     -0.0089     89.9159     26.6564
   565.8000      8.1621      2.1947      1.5067     -0.0091     93.6653     26.2892
   565.9000      8.1621      2.1827      1.4814     -0.0094     94.7994     26.4756
   566.0000      8.1683      2.1944      1.4453     -0.0091     93.9517     26.8317
   566.1000      8.1683      2.2251      1.5210     -0.0085     92.1170     26.8765
   566.2000      8.1683      2.2388      1.5512     -0.0082     90.4220     26.6975
   566.3000      8.1694      2.2266      1.5150     -0.0085     91.0477     26.8253
   566.4000      8.1694      2.2121      1.5346     -0.0088     91.8939     27.3162
   566.5000      8.1700      2.2093      1.5102     -0.0088     90.2753     27.7707
   566.6000      8.1700      2.2129      1.5049     -0.0087     87.6879     27.8820
   566.7000      8.1700      2.2135      1.5338     -0.0087     87.0950     27.7492
