~Version Information
VERS.                      2.0: CWLS Log ASCII Standard - VERSION 2.0
WRAP.                       NO: One line per depth step
~Well Information Block
STRT.FT               575.0000: 
STOP.FT              1557.5000: 
STEP.FT                 0.1000: 
NULL.                -999.2500: 
COMP.          Pioneer Natural Resources: COMPANY
WELL.          McClaren 13-34 Tr: WELL
FLD.           Purgatoire River: FIELD
LOC.           1934' FSL & 826' FWL: LOCATION
PROV.                 Colorado: PROVINCE
CNTY.               Las Animas: COUNTRY
SRVC.                Patterson: SERVICE COMPANY
DATE.          Tue Jul 12 07:15:27 2005: LOG DATE
UWI.           05 071 08437 00: UNIQUE WELL ID
~Curve Information Block
DEPT.FT            0 000 00 00: Depth
DCAL.in                       : CDL Caliper
RHOB.g/cc                     : CDL Bulk Density
RHOC.g/cc                     : CDL Density Correction
DPOR.pu                       : CDL Density Porosity
GR.GAPI                       : Gamma Ray
NPOR.pu                       : Neutron Porosity
~Parameter Information Block
~A  Depth       DCAL        RHOB        RHOC        DPOR         GR         NPOR    
# ...
  1285.4000      7.9224      2.6228      0.0598      1.6470    127.9547     25.7087
  1285.5000      7.9252      2.6333      0.1083      1.0140    132.9837     27.1150
  1285.6000      7.9252      2.6209      0.0713      1.7620    135.1062     27.3056
  1285.7000      7.9252      2.5974      0.0617      3.1876    133.2648     26.4773
  1285.8000      7.9237      2.5798      0.0709      4.2542    131.7761     25.9566
  1285.9000      7.9237      2.5731      0.0409      4.6583    131.2604     25.6326
  1286.0000      7.9201      2.5722      0.0521      4.7122    128.7947     24.9227
  1286.1000      7.9201      2.5676      0.0638      4.9968    126.0397     24.6227
  1286.2000      7.9201      2.5631      0.0272      5.2647    126.8268     25.4677
  1286.3000      7.9168      2.5705      0.0606      4.8165    131.5255     26.4147
  1286.4000      7.9168      2.5861      0.0826      3.8733    139.6486     26.5978
  1286.5000      7.9146      2.6059      0.1098      2.6722    146.8875     26.8166
  1286.6000      7.9146      2.6315      0.1239      1.1183    146.8817     27.3440
  1286.7000      7.9146      2.6482      0.1911      0.1105    143.1332     27.1055
  1286.8000      7.9143      2.6343      0.1545      0.9512    140.4592     26.4471
  1286.9000      7.9143      2.5960      0.0776      3.2755    137.0065     26.6286
  1287.0000      7.9153      2.5533      0.0893      5.8608    132.0939     27.1599
  1287.1000      7.9153      2.5076      0.0747      8.6324    127.9711     27.3568
  1287.2000      7.9153      2.4561      0.0370     11.7489    128.5715     27.7215
  1287.3000      7.9214      2.3984      0.0613     15.2465    133.1180     28.5659
  1287.4000      7.9214      2.3145      0.0765     20.3325    136.3578     29.1597
  1287.5000      7.9336      2.1886      0.0192     27.9653    136.3391     29.4586
  1287.6000      7.9336      2.0336     -0.0077     37.3557    133.0125     30.3508
  1287.7000      7.9336      1.8737     -0.0465     47.0486    127.3112     31.5613
  1287.8000      7.9437      1.7276     -0.0985     55.9001    120.6702     31.7567
  1287.9000      7.9437      1.6083     -0.1281     63.1353    112.5315     30.9959
  1288.0000      7.9502      1.5262     -0.1094     68.1110    103.0874     30.7024
  1288.1000      7.9502      1.4927     -0.0742     70.1416     94.4368     31.0897
  1288.2000      7.9502      1.5129     -0.0231     68.9145     88.2234     31.5552
  1288.3000      7.9625      1.5764      0.0283     65.0647     86.4835     31.9302
  1288.4000      7.9625      1.6635      0.1154     59.7891     89.8699     32.4868
  1288.5000      7.9928      1.7639      0.1579     53.7037     95.4108     33.3410
  1288.6000      7.9928      1.8809      0.1771     46.6120    101.4344     33.5362
  1288.7000      7.9928      2.0061      0.2136     39.0270    107.5694     32.3534
  1288.8000      8.0122      2.1068      0.2503     32.9191    114.9516     30.4286
  1288.9000      8.0122      2.1684      0.1960     29.1881    124.1735     29.4748
  1289.0000      7.9887      2.2212      0.1153     25.9852    131.4863     30.0511
  1289.1000      7.9887      2.2910      0.1062     21.7584    137.3735     30.8801
  1289.2000      7.9887      2.3663      0.1118     17.1967    143.7807     31.1545
  1289.3000      7.9577      2.4342      0.1393     13.0766    147.6010     31.1500
  1289.4000      7.9577      2.4997      0.1511      9.1068    147.9627     31.0278
  1289.5000      7.9459      2.5591      0.1932      5.5112    148.6658     30.2622
  1289.6000      7.9459      2.5960      0.1738      3.2717    150.3109     28.7435
  1289.7000      7.9459      2.6137      0.1561      2.1981    151.0285     27.4150
  1289.8000      7.9478      2.6302      0.1868      1.2023    153.4845     27.2111
  1289.9000      7.9478      2.6451      0.1959      0.2957    157.9698     27.6212
  1290.0000      7.9438      2.6425      0.1714      0.4528    157.2537     27.2735
  1290.1000      7.9438      2.6194      0.1127      1.8564    150.7149     26.5029
  1290.2000      7.9438      2.5912      0.0376      3.5630    145.9576     26.2713
  1290.3000      7.9333      2.5764      0.0218      4.4606    141.9487     26.2871
  1290.4000      7.9333      2.5832     -0.0085      4.0476    135.2992     26.7413
  1290.5000      7.9262      2.5967      0.0732      3.2327    132.8000     27.6304
  1290.6000      7.9262      2.5892      0.0705      3.6872    139.6076     27.8472
  1290.7000      7.9262      2.5639      0.0452      5.2188    150.4202     27.3123
  1290.8000      7.9173      2.5465      0.0112      6.2734    157.9641     27.1572
  1290.9000      7.9173      2.5444      0.0196      6.4024    160.1170     27.7799
  1291.0000      7.9129      2.5423      0.0525      6.5273    159.4274     28.1203
  1291.1000      7.9129      2.5228      0.0588      7.7084    160.3686     27.9005
  1291.2000      7.9129      2.4884      0.0040      9.7918    161.9351     28.2232
  1291.3000      7.9117      2.4585      0.0160     11.6049    157.5522     29.1634
  1291.4000      7.9117      2.4440      0.0180     12.4871    147.0883     29.6423
  1291.5000      7.9081      2.4445      0.0343     12.4522    136.8561     29.6151
  1291.6000      7.9081      2.4549      0.0518     11.8243    130.6295     30.0401
  1291.7000      7.9081      2.4658      0.0936     11.1639    129.2453     30.8517
  1291.8000      7.9041      2.4768      0.0806     10.4958    133.8532     31.2730
  1291.9000      7.9041      2.4970      0.0959      9.2755    142.7749     30.8313
  1292.0000      7.8963      2.5277      0.1492      7.4136    149.6690     29.5638
  1292.1000      7.8963      2.5625      0.1839      5.3040    149.7080     28.1952
  1292.2000      7.8963      2.5967      0.1892      3.2301    145.5156     27.2351
  1292.3000      7.8903      2.6225      0.2179      1.6645    142.9762     26.5339
  1292.4000      7.8903      2.6226      0.2192      1.6592    142.6814     26.1059
  1292.5000      7.8935      2.5911      0.1710      3.5682    143.6987     26.1655
  1292.6000      7.8935      2.5567      0.0929      5.6544    144.3781     26.3450
  1292.7000      7.8935      2.5492      0.1276      6.1080    140.2372     25.6493
  1292.8000      7.9095      2.5621      0.1360      5.3272    131.2708     24.4405
  1292.9000      7.9095      2.5847      0.0655      3.9584    124.1161     24.0703
  1293.0000      7.9355      2.6232      0.1084      1.6220    122.3976     24.4636
  1293.1000      7.9355      2.6725      0.1253     -1.3624    123.2107     24.7816
  1293.2000      7.9355      2.7280      0.1038     -4.7296    123.3206     24.1881
  1293.3000      7.9334      2.7989      0.1610     -9.0219    119.9762     22.4758
  1293.4000      7.9334      2.8761      0.2118    -13.7013    110.6495     20.7440
  1293.5000      7.8991      2.9374      0.2195    -17.4211     95.8030     20.1082
  1293.6000      7.8991      2.9669      0.2020    -19.2066     78.4899     20.3541
  1293.7000      7.8991      2.9555      0.1446    -18.5167     64.9863     20.8450
  1293.8000      7.8805      2.9103      0.0764    -15.7739     59.9013     21.2578
  1293.9000      7.8805      2.8592     -0.0115    -12.6760     61.5085     21.1263
  1294.0000      7.8861      2.8262      0.0119    -10.6787     67.0229     20.7623
  1294.1000      7.8861      2.8033     -0.0332     -9.2923     72.3046     21.1883
  1294.2000      7.8861      2.7678     -0.0082     -7.1403     72.1318     22.2979
  1294.3000      7.8973      2.7191     -0.0466     -4.1893     69.9874     22.6570
  1294.4000      7.8973      2.6788     -0.0505     -1.7457     71.1228     21.6910
  1294.5000      7.9052      2.6507     -0.0122     -0.0419     73.1668     20.7004
  1294.6000      7.9052      2.6202      0.0006      1.8073     76.7453     20.2806
  1294.7000      7.9052      2.5887      0.0103      3.7170     83.9543     20.2156
  1294.8000      7.9042      2.5700      0.0083      4.8468     91.3427     20.6172
  1294.9000      7.9042      2.5652      0.0732      5.1409     94.0918     20.7947
