~Version Information
VERS.                      2.0: CWLS Log ASCII Standard - VERSION 2.0
WRAP.                       NO: One line per depth step
~Well Information Block
STRT.FT               655.0000: 
STOP.FT              2623.7000: 
STEP.FT                 0.1000: 
NULL.                -999.2500: 
COMP.          Pioneer Natural Resources: COMPANY
WELL.             Aviator 12-4: WELL
FLD.           Purgatoire River: FIELD
LOC.           1969' FNL & 732' FWL--: LOCATION
CNTY.               Las Animas: COUNTY
SRVC.                Patterson: SERVICE COMPANY
DATE.          Mon Apr 10 07:35:20 2006: LOG DATE
UWI.           05 071 08714 00: UNIQUE WELL ID
STAT.                 Colorado: STATE
~Curve Information Block
DEPT.FT            0 000 00 00: Depth
DCAL.in                       : CDL Caliper
RHOB.g/cc                     : CDL Bulk Density
RHOC.g/cc                     : CDL Density Correction
DPOR.pu                       : CDL Density Porosity
NPOR.pu                       : Neutron Porosity
GR.GAPI                       : Gamma Ray
~Parameter Information Block
~A  Depth       DCAL        RHOB        RHOC        DPOR        NPOR         GR     
# ...
  1039.0000      8.1068      2.5424      0.0188      6.5237     28.4553    120.5877
  1039.1000      8.1068      2.5312      0.0255      7.2023     28.7552    118.1793
  1039.2000      8.1068      2.5335      0.0544      7.0617     28.5181    115.9550
  1039.3000      8.1099      2.5364      0.0479      6.8828     28.1246    117.2450
  1039.4000      8.1099      2.5342      0.0168      7.0174     28.1196    127.7992
  1039.5000      8.1119      2.5306      0.0552      7.2381     28.6154    142.5017
  1039.6000      8.1119      2.5327      0.0299      7.1073     29.2850    149.7217
  1039.7000      8.1119      2.5510      0.0035      6.0007     29.6079    146.4844
  1039.8000      8.1113      2.5729      0.1207      4.6727     29.5758    138.1325
  1039.9000      8.1113      2.5709      0.0477      4.7928     29.4117    128.4195
  1040.0000      8.1089      2.5469      0.0774      6.2463     28.9456    119.4720
  1040.1000      8.1089      2.5237      0.0362      7.6566     28.2333    113.9927
  1040.2000      8.1089      2.5194      0.0355      7.9172     27.7965    114.2986
  1040.3000      8.1086      2.5364      0.0719      6.8846     28.1448    118.8738
  1040.4000      8.1086      2.5546      0.1150      5.7805     28.9908    122.4568
  1040.5000      8.1095      2.5536      0.0465      5.8444     29.7301    124.4057
  1040.6000      8.1095      2.5374      0.0479      6.8249     30.1844    126.3781
  1040.7000      8.1095      2.5252      0.0216      7.5611     30.2692    128.7174
  1040.8000      8.1098      2.5280      0.0479      7.3965     29.8208    134.3054
  1040.9000      8.1098      2.5382      0.0543      6.7734     29.2175    141.0135
  1041.0000      8.1092      2.5467      0.0645      6.2596     29.1556    142.5549
  1041.1000      8.1092      2.5480      0.0797      6.1789     29.4452    138.9498
  1041.2000      8.1092      2.5350      0.0644      6.9696     29.3852    135.1305
  1041.3000      8.1082      2.5020      0.0532      8.9669     28.8499    132.3800
  1041.4000      8.1082      2.4504      0.0449     12.0952     28.2246    127.3385
  1041.5000      8.1078      2.3968     -0.0177     15.3478     28.1802    122.4197
  1041.6000      8.1078      2.3590     -0.0109     17.6377     28.9139    123.6744
  1041.7000      8.1078      2.3356      0.0108     19.0572     30.0108    129.0352
  1041.8000      8.1072      2.3184      0.0057     20.0981     31.4192    133.8392
  1041.9000      8.1072      2.3071     -0.0356     20.7813     32.7899    133.6927
  1042.0000      8.1063      2.3023      0.0001     21.0718     33.1542    124.4523
  1042.1000      8.1063      2.3016     -0.0268     21.1141     32.1360    111.2112
  1042.2000      8.1063      2.3065      0.0271     20.8203     30.8307    103.5889
  1042.3000      8.1066      2.3202      0.0506     19.9851     30.4490    106.0868
  1042.4000      8.1066      2.3498      0.0569     18.1941     30.5720    115.5672
  1042.5000      8.1078      2.3983      0.1048     15.2532     30.3503    121.5399
  1042.6000      8.1078      2.4544      0.1653     11.8544     29.7609    120.7945
  1042.7000      8.1078      2.4986      0.1472      9.1738     28.9538    121.5907
  1042.8000      8.1096      2.5126      0.1475      8.3266     28.3013    126.7540
  1042.9000      8.1096      2.4987      0.0345      9.1681     28.2913    130.9430
  1043.0000      8.1090      2.4942      0.0074      9.4407     28.5088    130.0515
  1043.1000      8.1090      2.5318      0.0252      7.1613     28.4254    124.0557
  1043.2000      8.1090      2.6001      0.1199      3.0221     28.1278    116.1468
  1043.3000      8.1060      2.6618      0.0897     -0.7128     28.1693    110.0412
  1043.4000      8.1060      2.6989      0.1039     -2.9649     28.8814    107.2149
  1043.5000      8.1050      2.7139      0.1528     -3.8728     29.4039    108.2502
  1043.6000      8.1050      2.7100      0.1462     -3.6375     29.0193    111.2799
  1043.7000      8.1050      2.6990      0.1017     -2.9714     28.2570    112.4985
  1043.8000      8.1069      2.6975      0.1236     -2.8772     27.8999    110.0751
  1043.9000      8.1069      2.7116      0.0950     -3.7320     27.8444    105.5702
  1044.0000      8.1120      2.7408      0.0643     -5.5037     27.5080    102.8445
  1044.1000      8.1120      2.7759      0.0779     -7.6273     26.9578    102.3169
  1044.2000      8.1120      2.7922      0.0660     -8.6158     26.7899    101.6897
  1044.3000      8.1187      2.7786      0.0334     -7.7967     26.9777    102.1121
  1044.4000      8.1187      2.7558      0.0479     -6.4112     26.8904    104.2426
  1044.5000      8.1207      2.7433      0.0624     -5.6534     26.5558    107.3821
  1044.6000      8.1207      2.7419      0.0512     -5.5720     26.4925    111.8274
  1044.7000      8.1207      2.7404      0.1107     -5.4805     26.6303    114.0473
  1044.8000      8.1152      2.7262      0.0566     -4.6172     26.6797    110.2903
  1044.9000      8.1152      2.6932      0.0716     -2.6161     26.6430    103.0768
  1045.0000      8.1091      2.6382      0.0298      0.7177     26.8493     99.2867
  1045.1000      8.1091      2.5689      0.0134      4.9133     27.5940    104.9238
  1045.2000      8.1091      2.5081     -0.0393      8.6015     28.5279    116.9291
  1045.3000      8.1066      2.4745     -0.0013     10.6391     29.0112    122.4094
  1045.4000      8.1066      2.4691     -0.0054     10.9645     29.0700    114.7189
  1045.5000      8.1062      2.4855      0.0476      9.9698     28.8571    106.1576
  1045.6000      8.1062      2.5165      0.0804      8.0921     28.2722    110.1216
  1045.7000      8.1062      2.5581      0.0859      5.5706     27.7517    119.4581
  1045.8000      8.1058      2.6062      0.1185      2.6536     28.0058    120.1767
  1045.9000      8.1058      2.6498      0.1154      0.0091     28.5844    117.7134
  1046.0000      8.1037      2.6878      0.1183     -2.2934     28.4231    121.5130
  1046.1000      8.1037      2.7362      0.0912     -5.2258     27.6440    123.5357
  1046.2000      8.1037      2.7970      0.1326     -8.9097     26.8471    114.8297
  1046.3000      8.0974      2.8470      0.1726    -11.9382     26.1211    100.0999
  1046.4000      8.0974      2.8781      0.0801    -13.8220     25.7339     89.3378
  1046.5000      8.0882      2.8954      0.1527    -14.8711     25.8104     84.0867
  1046.6000      8.0882      2.8835      0.1393    -14.1507     25.7982     80.0925
  1046.7000      8.0882      2.8525      0.0342    -12.2704     25.5027     77.0682
  1046.8000      8.0829      2.8445      0.0807    -11.7884     25.5496     74.9214
  1046.9000      8.0829      2.8682      0.1076    -13.2220     26.1027     73.0330
  1047.0000      8.0815      2.9035      0.0963    -15.3655     26.8949     73.2752
  1047.1000      8.0815      2.9329      0.0996    -17.1448     27.8239     75.0305
  1047.2000      8.0815      2.9311      0.1592    -17.0334     28.4514     77.4334
  1047.3000      8.0870      2.8771      0.1565    -13.7646     28.4491     83.3344
  1047.4000      8.0870      2.7920      0.0643     -8.6044     28.3188     88.7889
  1047.5000      8.1035      2.7275     -0.0190     -4.6941     28.4279     88.6124
  1047.6000      8.1035      2.7035      0.0270     -3.2412     28.4843     89.2575
  1047.7000      8.1035      2.6919      0.0346     -2.5415     28.1743     97.0596
  1047.8000      8.1216      2.6738     -0.0845     -1.4425     27.6732    108.2476
  1047.9000      8.1216      2.6503     -0.0470     -0.0211     27.7837    116.7205
  1048.0000      8.1311      2.6168     -0.0475      2.0133     28.8395    120.0497
  1048.1000      8.1311      2.5878     -0.0562      3.7698     30.1030    119.8930
  1048.2000      8.1311      2.5965     -0.0019      3.2416     30.7196    121.1769
  1048.3000      8.1340      2.6442      0.0612      0.3509     30.4879    127.1880
  1048.4000      8.1340      2.6915      0.1315     -2.5171     29.5266    131.2178
  1048.5000      8.1360      2.7075      0.1202     -3.4840     28.7445    123.8936
