~Version Information
VERS.                      2.0: CWLS Log ASCII Standard - VERSION 2.0
WRAP.                       NO: One line per depth step
~Well Information Block
STRT.FT               795.0000: 
STOP.FT              2279.7500: 
STEP.FT                 0.2500: 
NULL.                -999.2500: 
COMP.          Pioneer Natural Resources: COMPANY
WELL.            Wildcard 31-5: WELL
FLD.           Purgatoire River: FIELD
LOC.           624' FNL & 1852' FEL--: LOCATION
CNTY.               Las Animas: COUNTY
SRVC.                Patterson: SERVICE COMPANY
DATE.          Tue Mar 07 07:02:36 2006: LOG DATE
UWI.           05 071 08707 00: UNIQUE WELL ID
STAT.                 Colorado: STATE
~Curve Information Block
DEPT.FT            0 000 00 00: Depth
DIR.Ohm-m                     : IEL Induction Resistivity
SN.Ohm-m                      : IEL Short Normal
SP.mV                         : IEL Spontaneous Potential
GR.GAPI                       : Gamma Ray
~Parameter Information Block
~A  Depth       DIR          SN          SP          GR     
# ...
  1766.5000      8.6967      8.7215   -112.2790     91.1913
  1766.7500      8.8733      8.9358   -112.2811     94.2655
  1767.0000      9.0990      9.1932   -112.3363     97.4987
  1767.2500      9.3798      9.5028   -112.4468     97.2420
  1767.5000      9.7174      9.8684   -112.6098     92.8429
  1767.7500     10.1076     10.2841   -112.8182     88.5072
  1768.0000     10.5407     10.7342   -113.0622     82.4872
  1768.2500     11.0030     11.2006   -113.3303     79.3380
  1768.5000     11.4807     11.6751   -113.6112     75.3819
  1768.7500     11.9661     12.1672   -113.8943     72.9991
  1769.0000     12.4595     12.6981   -114.1700     69.9448
  1769.2500     12.9667     13.2826   -114.4304     68.1467
  1769.5000     13.4897     13.9100   -114.6691     64.9463
  1769.7500     14.0197     14.5365   -114.8818     62.2558
  1770.0000     14.5344     15.0961   -115.0665     58.5088
  1770.2500     15.0014     15.5244   -115.2230     57.2771
  1770.5000     15.3863     15.7836   -115.3527     57.9918
  1770.7500     15.6610     15.8749   -115.4576     59.4184
  1771.0000     15.8129     15.8336   -115.5401     60.8146
  1771.2500     15.8496     15.7109   -115.6018     60.5456
  1771.5000     15.7974     15.5535   -115.6444     58.8355
  1771.7500     15.6910     15.3919   -115.6689     57.3849
  1772.0000     15.5624     15.2387   -115.6768     54.6129
  1772.2500     15.4332     15.0958   -115.6697     51.8901
  1772.5000     15.3156     14.9639   -115.6495     46.7231
  1772.7500     15.2175     14.8488   -115.6182     43.5289
  1773.0000     15.1455     14.7605   -115.5772     40.6309
  1773.2500     15.1043     14.7056   -115.5276     39.9844
  1773.5000     15.0938     14.6806   -115.4704     39.8451
  1773.7500     15.1077     14.6740   -115.4066     39.7217
  1774.0000     15.1357     14.6771   -115.3380     39.5211
  1774.2500     15.1684     14.6917   -115.2677     40.0077
  1774.5000     15.2010     14.7271   -115.1998     42.8019
  1774.7500     15.2335     14.7893   -115.1391     45.9519
  1775.0000     15.2687     14.8729   -115.0908     50.7664
  1775.2500     15.3097     14.9634   -115.0599     52.6964
  1775.5000     15.3576     15.0461   -115.0506     52.6540
  1775.7500     15.4107     15.1147   -115.0661     51.1187
  1776.0000     15.4644     15.1721   -115.1082     48.3866
  1776.2500     15.5129     15.2252   -115.1770     47.2463
  1776.5000     15.5528     15.2797   -115.2713     47.0750
  1776.7500     15.5851     15.3390   -115.3881     47.6902
  1777.0000     15.6155     15.4051   -115.5230     49.1992
  1777.2500     15.6511     15.4789   -115.6703     50.5668
  1777.5000     15.6953     15.5594   -115.8239     52.9486
  1777.7500     15.7442     15.6422   -115.9774     54.2410
  1778.0000     15.7888     15.7208   -116.1250     54.7966
  1778.2500     15.8221     15.7924   -116.2628     54.1758
  1778.5000     15.8476     15.8614   -116.3890     52.3964
  1778.7500     15.8793     15.9399   -116.5047     50.9676
  1779.0000     15.9336     16.0420   -116.6140     48.5041
  1779.2500     16.0184     16.1783   -116.7232     46.7132
  1779.5000     16.1288     16.3492   -116.8398     44.5004
  1779.7500     16.2499     16.5431   -116.9706     43.7729
  1780.0000     16.3642     16.7400   -117.1194     43.5786
  1780.2500     16.4609     16.9227   -117.2857     43.4252
  1780.5000     16.5411     17.0864   -117.4633     42.5240
  1780.7500     16.6189     17.2398   -117.6406     41.8247
  1781.0000     16.7155     17.3972   -117.8018     41.7708
  1781.2500     16.8487     17.5635   -117.9289     42.6778
  1781.5000     17.0222     17.7231   -118.0040     44.9278
  1781.7500     17.2160     17.8363   -118.0117     46.5012
  1782.0000     17.3859     17.8465   -117.9418     48.3558
  1782.2500     17.4724     17.6978   -117.7899     49.1377
  1782.5000     17.4201     17.3632   -117.5592     49.8042
  1782.7500     17.1987     16.8655   -117.2598     50.2479
  1783.0000     16.8124     16.2744   -116.9080     51.8384
  1783.2500     16.2929     15.6787   -116.5244     54.0853
  1783.5000     15.6842     15.1493   -116.1313     60.0928
  1783.7500     15.0285     14.7131   -115.7505     66.3473
  1784.0000     14.3610     14.3472   -115.4004     79.5292
  1784.2500     13.7084     13.9967   -115.0954     90.3338
  1784.5000     13.0884     13.6097   -114.8451    107.2702
  1784.7500     12.5111     13.1661   -114.6552    117.5608
  1785.0000     11.9822     12.6809   -114.5286    129.7547
  1785.2500     11.5071     12.1867   -114.4666    135.2135
  1785.5000     11.0926     11.7163   -114.4692    139.2213
  1785.7500     10.7454     11.2963   -114.5349    139.4611
  1786.0000     10.4694     10.9469   -114.6606    137.3736
  1786.2500     10.2649     10.6797   -114.8408    135.0483
  1786.5000     10.1277     10.4962   -115.0676    130.9943
  1786.7500     10.0507     10.3894   -115.3315    128.4566
  1787.0000     10.0243     10.3503   -115.6223    126.3106
  1787.2500     10.0377     10.3725   -115.9298    126.6038
  1787.5000     10.0796     10.4516   -116.2450    129.0310
  1787.7500     10.1404     10.5801   -116.5598    130.8594
  1788.0000     10.2149     10.7452   -116.8674    132.5539
  1788.2500     10.3040     10.9326   -117.1614    133.0370
  1788.5000     10.4138     11.1345   -117.4351    133.5714
  1788.7500     10.5532     11.3513   -117.6810    133.9539
  1789.0000     10.7293     11.5851   -117.8905    133.5957
  1789.2500     10.9441     11.8305   -118.0542    131.7946
  1789.5000     11.1922     12.0693   -118.1629    126.3113
  1789.7500     11.4592     12.2710   -118.2093    121.8217
  1790.0000     11.7219     12.4015   -118.1893    116.3048
  1790.2500     11.9512     12.4383   -118.1033    113.7302
  1790.5000     12.1185     12.3870   -117.9569    109.5455
  1790.7500     12.2044     12.2831   -117.7609    105.6545
  1791.0000     12.2060     12.1746   -117.5298    100.0010
  1791.2500     12.1378     12.0945   -117.2806     98.5257
  1791.5000     12.0246     12.0437   -117.0301    101.3854
  1791.7500     11.8908     11.9965   -116.7934    105.8237
  1792.0000     11.7533     11.9238   -116.5820    113.8084
  1792.2500     11.6197     11.8140   -116.4027    118.7686
  1792.5000     11.4929     11.6791   -116.2574    123.8537
  1792.7500     11.3765     11.5445   -116.1437    125.0649
  1793.0000     11.2766     11.4322   -116.0566    124.1034
  1793.2500     11.2008     11.3500   -115.9903    122.3993
  1793.5000     11.1532     11.2931   -115.9395    118.7528
  1793.7500     11.1322     11.2563   -115.9014    115.2882
  1794.0000     11.1312     11.2457   -115.8751    108.8398
  1794.2500     11.1418     11.2785   -115.8618    104.9819
  1794.5000     11.1564     11.3698   -115.8630    102.4744
  1794.7500     11.1701     11.5180   -115.8797    103.5929
  1795.0000     11.1808     11.7014   -115.9114    108.3590
  1795.2500     11.1886     11.8878   -115.9556    112.1016
  1795.5000     11.1931     12.0471   -116.0090    115.7645
  1795.7500     11.1907     12.1563   -116.0676    115.9304
  1796.0000     11.1750     12.1993   -116.1276    112.9520
  1796.2500     11.1410     12.1704   -116.1863    109.6054
  1796.5000     11.0918     12.0829   -116.2417    103.7606
  1796.7500     11.0409     11.9718   -116.2933     99.6414
  1797.0000     11.0096     11.8842   -116.3416     93.5432
  1797.2500     11.0192     11.8596   -116.3880     90.1893
  1797.5000     11.0844     11.9139   -116.4349     88.1787
  1797.7500     11.2094     12.0347   -116.4853     89.8106
  1798.0000     11.3892     12.1934   -116.5420     96.5081
  1798.2500     11.6125     12.3612   -116.6077    102.3603
  1798.5000     11.8671     12.5219   -116.6840    109.5419
  1798.7500     12.1422     12.6734   -116.7716    111.4834
  1799.0000     12.4303     12.8241   -116.8697    109.2879
  1799.2500     12.7271     12.9869   -116.9763    105.2850
  1799.5000     13.0321     13.1748   -117.0878     97.9210
  1799.7500     13.3473     13.3979   -117.2002     93.3121
