~Version Information
VERS.                      2.0: CWLS Log ASCII Standard - VERSION 2.0
WRAP.                       NO: One line per depth step
~Well Information Block
STRT.FT               460.0000: 
STOP.FT              2824.0000: 
STEP.FT                 0.2500: 
NULL.                -999.2500: 
COMP.          Pioneer Natural Resources: COMPANY
WELL.           Dolzanie 34-12: WELL
FLD.           Purgatoire River: FIELD
LOC.           1001' FSL & 1750' FEL--: LOCATION
PROV.                 Colorado: PROVINCE
CNTY.               Las Animas: COUNTRY
SRVC.                Patterson: SERVICE COMPANY
DATE.          Wed Jul 20 07:51:58 2005: LOG DATE
UWI.           05 071 08439 00: UNIQUE WELL ID
~Curve Information Block
DEPT.FT            0 000 00 00: Depth
DIR.Ohm-m                     : IEL Induction Resistivity
SN.Ohm-m                      : IEL Short Normal
SP.mV                         : IEL Spontaneous Potential
GR.GAPI                       : Gamma Ray
~Parameter Information Block
~A  Depth       DIR          SN          SP          GR     
# ...
  2503.5000     20.5377     23.3658     -0.6096    113.2454
  2503.7500     19.4551     22.3143      0.3168    113.5575
  2504.0000     18.4029     21.3234      1.2540    112.8740
  2504.2500     17.3840     20.3926      2.2029    112.9700
  2504.5000     16.3947     19.4913      3.1580    114.7188
  2504.7500     15.4265     18.5697      4.1072    116.3898
  2505.0000     14.4686     17.5832      5.0336    118.6389
  2505.2500     13.5143     16.5174      5.9177    120.0428
  2505.5000     12.5705     15.4025      6.7397    122.6569
  2505.7500     11.6640     14.3087      7.4824    124.8451
  2506.0000     10.8371     13.3249      8.1342    129.0081
  2506.2500     10.1341     12.5346      8.6914    133.1985
  2506.5000      9.5879     11.9965      9.1594    144.0957
  2506.7500      9.2131     11.7308      9.5538    155.4867
  2507.0000      9.0066     11.7063      9.8993    178.1851
  2507.2500      8.9508     11.8335     10.2279    195.3323
  2507.5000      9.0178     11.9821     10.5759    219.6623
  2507.7500      9.1740     12.0285     10.9797    231.6780
  2508.0000      9.3873     11.9131     11.4713    236.8944
  2508.2500      9.6338     11.6745     12.0739    229.0879
  2508.5000      9.9046     11.4378     12.7983    201.9437
  2508.7500     10.2058     11.3621     13.6404    178.5163
  2509.0000     10.5516     11.5716     14.5819    145.9743
  2509.2500     10.9514     12.0978     15.5920    130.0844
  2509.5000     11.3967     12.8638     16.6323    116.3148
  2509.7500     11.8517     13.7185     17.6620    112.5531
  2510.0000     12.2562     14.5037     18.6437    112.0763
  2510.2500     12.5435     15.1137     19.5473    113.7433
  2510.5000     12.6675     15.5179     20.3527    117.1096
  2510.7500     12.6248     15.7461     21.0500    118.8041
  2511.0000     12.4573     15.8525     21.6379    119.1683
  2511.2500     12.2359     15.8852     22.1212    117.9077
  2511.5000     12.0358     15.8740     22.5086    115.0894
  2511.7500     11.9158     15.8371     22.8100    113.7302
  2512.0000     11.9074     15.7952     23.0347    113.6637
  2512.2500     12.0122     15.7808     23.1908    114.6979
  2512.5000     12.2072     15.8333     23.2833    116.2625
  2512.7500     12.4550     15.9804     23.3136    116.4866
  2513.0000     12.7176     16.2214     23.2782    115.6077
  2513.2500     12.9687     16.5229     23.1680    114.9485
  2513.5000     13.2004     16.8376     22.9684    115.0354
  2513.7500     13.4206     17.1310     22.6600    115.7993
  2514.0000     13.6453     17.3978     22.2202    116.6805
  2514.2500     13.8928     17.6588     21.6259    116.1505
  2514.5000     14.1819     17.9475     20.8562    113.0699
  2514.7500     14.5327     18.2981     19.8938    109.9195
  2515.0000     14.9655     18.7419     18.7274    105.1313
  2515.2500     15.4951     19.3070     17.3517    102.9166
  2515.5000     16.1246     20.0190     15.7675    102.1022
  2515.7500     16.8441     20.9011     13.9814    102.9698
  2516.0000     17.6360     21.9726     12.0056    104.6691
  2516.2500     18.4882     23.2479      9.8579    105.0221
  2516.5000     19.4054     24.7370      7.5618    103.3832
  2516.7500     20.4145     26.4506      5.1466    100.6041
  2517.0000     21.5611     28.4005      2.6467     93.8275
  2517.2500     22.8998     30.5892      0.1010     87.8858
  2517.5000     24.4807     32.9923     -2.4490     78.0726
  2517.7500     26.3305     35.5502     -4.9619     71.7014
  2518.0000     28.4294     38.1799     -7.3990     63.1297
  2518.2500     30.6975     40.7931     -9.7267     58.2077
  2518.5000     33.0055     43.3030    -11.9184     52.3951
  2518.7500     35.2111     45.6213    -13.9563     49.9445
  2519.0000     37.1947     47.6548    -15.8305     48.6031
  2519.2500     38.8638     49.3135    -17.5384     48.8992
  2519.5000     40.1318     50.5269    -19.0824     50.2637
  2519.7500     40.9116     51.2605    -20.4670     51.5777
  2520.0000     41.1512     51.5269    -21.6957     54.4520
  2520.2500     40.8899     51.3854    -22.7686     57.2907
  2520.5000     40.2740     50.9288    -23.6804     62.9481
  2520.7500     39.5094     50.2610    -24.4192     66.9483
  2521.0000     38.7862     49.4723    -24.9672     71.2782
  2521.2500     38.2296     48.6190    -25.3016     72.2929
  2521.5000     37.8882     47.7123    -25.3962     71.5308
  2521.7500     37.7332     46.7154    -25.2245     70.5246
  2522.0000     37.6539     45.5518    -24.7619     69.8164
  2522.2500     37.4597     44.1343    -23.9887     70.1857
  2522.5000     36.9245     42.4157    -22.8932     71.5277
  2522.7500     35.8883     40.4430    -21.4741     72.4509
  2523.0000     34.3637     38.3732    -19.7427     73.4426
  2523.2500     32.5470     36.4288    -17.7246     74.0262
  2523.5000     30.7100     34.8125    -15.4596     75.7099
  2523.7500     29.0664     33.6340    -13.0001     78.0453
  2524.0000     27.7074     32.8838    -10.4084     84.0671
  2524.2500     26.6150     32.4566     -7.7511     89.4822
  2524.5000     25.7132     32.2015     -5.0934     98.0867
  2524.7500     24.9226     31.9749     -2.4934    103.1876
  2525.0000     24.1971     31.6786      0.0024    109.3888
  2525.2500     23.5322     31.2729      2.3611    112.7638
  2525.5000     22.9480     30.7672      4.5633    116.6456
  2525.7500     22.4638     30.2067      6.5998    117.9723
  2526.0000     22.0812     29.6621      8.4682    117.3572
  2526.2500     21.7832     29.2209     10.1688    115.2334
  2526.5000     21.5460     28.9707     11.7021    109.9617
  2526.7500     21.3548     28.9756     13.0682    105.3388
  2527.0000     21.2136     29.2536     14.2689     97.4810
  2527.2500     21.1474     29.7673     15.3106     92.4772
  2527.5000     21.1939     30.4333     16.2090     87.1558
  2527.7500     21.3918     31.1388     16.9935     85.6871
  2528.0000     21.7643     31.7574     17.7099     86.0432
  2528.2500     22.3060     32.1683     18.4206     86.8577
  2528.5000     22.9730     32.2843     19.2012     86.5710
  2528.7500     23.6836     32.0728     20.1333     84.2823
  2529.0000     24.3323     31.5597     21.2940     77.1824
  2529.2500     24.8158     30.8155     22.7439     70.6509
  2529.5000     25.0575     29.9251     24.5160     60.3890
  2529.7500     25.0167     28.9507     26.6078     54.7688
  2530.0000     24.6820     27.9084     28.9782     50.5653
  2530.2500     24.0609     26.7857     31.5510     51.4937
  2530.5000     23.1803     25.5824     34.2243     58.5469
  2530.7500     22.0944     24.3337     36.8831     66.1891
  2531.0000     20.8831     23.1015     39.4136     80.0210
  2531.2500     19.6376     21.9579     41.7164     89.6647
  2531.5000     18.4412     20.9737     43.7155    102.7665
  2531.7500     17.3589     20.2021     45.3632    109.4597
  2532.0000     16.4362     19.6591     46.6398    115.4830
  2532.2500     15.7028     19.3174     47.5505    117.2024
  2532.5000     15.1764     19.1252     48.1190    117.8938
  2532.7500     14.8652     19.0381     48.3813    117.8640
  2533.0000     14.7686     19.0410     48.3795    117.5703
  2533.2500     14.8781     19.1486     48.1571    117.0160
  2533.5000     15.1775     19.3921     47.7554    114.8562
  2533.7500     15.6448     19.8043     47.2120    112.3239
  2534.0000     16.2558     20.4099     46.5600    107.8645
  2534.2500     16.9854     21.2195     45.8284    105.4565
  2534.5000     17.8081     22.2234     45.0426    103.2493
  2534.7500     18.6980     23.3880     44.2254    101.9111
  2535.0000     19.6301     24.6574     43.3985     98.1960
  2535.2500     20.5852     25.9623     42.5830     94.1756
  2535.5000     21.5508     27.2312     41.8011     86.7618
  2535.7500     22.5157     28.3960     41.0755     81.9266
  2536.0000     23.4578     29.3908     40.4299     76.2845
  2536.2500     24.3312     30.1517     39.8864     73.8166
  2536.5000     25.0651     30.6193     39.4636     71.4143
  2536.7500     25.5774     30.7425     39.1725     70.1742
