~Version Information
VERS.                      2.0: CWLS Log ASCII Standard - VERSION 2.0
WRAP.                       NO: One line per depth step
~Well Information Block
STRT.FT               245.0000: 
STOP.FT              1273.7500: 
STEP.FT                 0.2500: 
NULL.                -999.2500: 
COMP.          Pioneer Natural Resources: COMPANY
WELL.                 Ray 34-6: WELL
FLD.           Purgatoire River: FIELD
LOC.           684' FSL & 2254' FEL--: LOCATION
CNTY.               Las Animas: COUNTY
SRVC.                Patterson: SERVICE COMPANY
DATE.          Fri May 26 03:08:09 2006: LOG DATE
UWI.           05 071 08695 00: UNIQUE WELL ID
STAT.                 Colorado: STATE
~Curve Information Block
DEPT.FT            0 000 00 00: Depth
SN.Ohm-m                      : IEL Short Normal
SP.mV                         : IEL Spontaneous Potential
DIR.Ohm-m                     : IEL Induction Resistivity
GR.GAPI                       : Gamma Ray
~Parameter Information Block
~A  Depth        SN          SP         DIR          GR     
# ...
   714.0000    685.7410   -564.7106      8.7628    132.1315
   714.2500    685.7410   -564.7114      9.2268    125.6133
   714.5000    685.7410   -564.7122      9.7166    116.4778
   714.7500    685.7410   -564.7131     10.2333    111.2442
   715.0000    685.7410   -564.7142     10.7890    105.4615
   715.2500    685.7410   -564.7158     11.4049    103.1510
   715.5000    685.7410   -564.7178     12.1043    101.0753
   715.7500    685.7410   -564.7202     12.9036     99.5409
   716.0000    685.7410   -564.7232     13.8065     95.5494
   716.2500    685.7410   -564.7265     14.8021     91.7105
   716.5000    685.7410   -564.7301     15.8705     85.4632
   716.7500    685.7410   -564.7336     16.9917     82.0582
   717.0000    685.7410   -564.7368     18.1557     79.4894
   717.2500    685.7410   -564.7394     19.3646     79.5805
   717.5000    685.7410   -564.7413     20.6236     81.2838
   717.7500    685.7410   -564.7422     21.9237     82.5031
   718.0000    685.7410   -564.7424     23.2284     83.6422
   718.2500    685.7410   -564.7418     24.4740     84.2482
   718.5000    685.7410   -564.7407     25.5847     86.0468
   718.7500    685.7410   -564.7393     26.4947     88.2128
   719.0000    685.7410   -564.7379     27.1659     92.4960
   719.2500    685.7410   -564.7367     27.5938     95.2539
   719.5000    685.7410   -564.7358     27.8013     97.6525
   719.7500    685.7410   -564.7352     27.8289     97.5595
   720.0000    685.7410   -564.7351     27.7260     95.1916
   720.2500    685.7410   -564.7352     27.5443     92.8377
   720.5000    685.7410   -564.7355     27.3309     89.5008
   720.7500    685.7410   -564.7358     27.1207     87.9940
   721.0000    685.7410   -564.7360     26.9294     87.2222
   721.2500    685.7410   -564.7359     26.7522     87.4991
   721.5000    685.7410   -564.7355     26.5712     88.0917
   721.7500    685.7410   -564.7347     26.3631     87.9129
   722.0000    685.7410   -564.7335     26.1000     86.1123
   722.2500    685.7410   -564.7321     25.7364     84.0386
   722.5000    685.7410   -564.7303     25.1998     80.8476
   722.7500    685.7410   -564.7284     24.4012     79.7222
   723.0000    685.7410   -564.7266     23.2777     81.1544
   723.2500    685.7410   -564.7250     21.8401     84.6797
   723.5000    685.7410   -564.7238     20.1860     93.9383
   723.7500    685.7410   -564.7230     18.4592    102.5614
   724.0000    685.7410   -564.7227     16.7904    118.1111
   724.2500    685.7410   -564.7228     15.2603    128.8894
   724.5000    685.7410   -564.7231     13.8995    142.6126
   724.7500    685.7410   -564.7235     12.7067    148.6853
   725.0000    685.7410   -564.7238     11.6682    152.5328
   725.2500    685.7410   -564.7236     10.7708    152.3435
   725.5000    685.7410   -564.7230     10.0058    150.2336
   725.7500    685.7410   -564.7219      9.3678    148.8366
   726.0000    685.7410   -564.7203      8.8510    147.8333
   726.2500    685.7410   -564.7184      8.4461    147.9788
   726.5000    685.7410   -564.7162      8.1381    149.1289
   726.7500    685.7410   -564.7141      7.9077    150.2338
   727.0000    685.7410   -564.7120      7.7324    151.8066
   727.2500    685.7410   -564.7102      7.5901    152.5672
   727.5000    685.7410   -564.7087      7.4634    153.4255
   727.7500    685.7410   -564.7072      7.3423    154.1915
   728.0000    685.7410   -564.7057      7.2256    156.2782
   728.2500    685.7410   -564.7040      7.1184    158.3661
   728.5000    685.7410   -564.7019      7.0287    161.8525
   728.7500    685.7410   -564.6992      6.9630    163.6153
   729.0000    685.7410   -564.6956      6.9257    163.9876
   729.2500    685.7410   -564.6912      6.9183    162.3499
   729.5000    685.7410   -564.6860      6.9399    157.7471
   729.7500    685.7410   -564.6802      6.9886    154.1800
   730.0000    685.7410   -564.6741      7.0622    149.6552
   730.2500    685.7410   -564.6682      7.1602    147.7206
   730.5000    685.7410   -564.6625      7.2835    146.3899
   730.7500    685.7410   -564.6576      7.4330    146.0434
   731.0000    685.7410   -564.6537      7.6075    145.4316
   731.2500    685.7410   -564.6509      7.8022    144.8801
   731.5000    685.7410   -564.6494      8.0101    144.3472
   731.7500    685.7410   -564.6487      8.2236    144.3792
   732.0000    685.7410   -564.6489      8.4361    144.7068
   732.2500    685.7410   -564.6495      8.6408    144.8008
   732.5000    685.7410   -564.6503      8.8306    144.5234
   732.7500    685.7410   -564.6508      8.9991    144.1306
   733.0000    685.7410   -564.6509      9.1438    143.5648
   733.2500    685.7410   -564.6505      9.2703    143.4908
   733.5000    685.7410   -564.6495      9.3943    144.1849
   733.7500    685.7410   -564.6479      9.5402    145.0599
   734.0000    685.7410   -564.6460      9.7357    146.1796
   734.2500    685.7410   -564.6437     10.0056    146.1622
   734.5000    685.7410   -564.6412     10.3675    143.8071
   734.7500    685.7410   -564.6385     10.8292    140.0033
   735.0000    685.7410   -564.6357     11.3903    130.3372
   735.2500    685.7410   -564.6327     12.0462    121.5289
   735.5000    685.7410   -564.6295     12.7970    106.3161
   735.7500    685.7410   -564.6262     13.6554     96.0787
   736.0000    685.7410   -564.6228     14.6512     82.6413
   736.2500    685.7410   -564.6193     15.8245     75.8375
   736.5000    685.7410   -564.6160     17.2106     69.4530
   736.7500    685.7410   -564.6129     18.8175     67.5160
   737.0000    685.7410   -564.6101     20.6032     66.9350
   737.2500    685.7410   -564.6078     22.4619     67.2685
   737.5000    685.7410   -564.6062     24.2360     67.8800
   737.7500    685.7410   -564.6052     25.7578     68.2284
   738.0000    685.7410   -564.6049     26.9036     68.7094
   738.2500    685.7410   -564.6052     27.6336     68.8611
   738.5000    685.7410   -564.6060     28.0013     68.4301
   738.7500    685.7410   -564.6074     28.1358     67.7235
   739.0000    685.7410   -564.6092     28.2018     66.6468
   739.2500    685.7410   -564.6112     28.3499     66.2919
   739.5000    685.7410   -564.6132     28.6739     66.4100
   739.7500    685.7410   -564.6152     29.1887     66.6878
   740.0000    685.7410   -564.6170     29.8347     66.9073
   740.2500    685.7410   -564.6184     30.5115     66.7556
   740.5000    685.7410   -564.6193     31.1273     66.0238
   740.7500    685.7410   -564.6197     31.6389     65.2137
   741.0000    685.7410   -564.6194     32.0567     63.6171
   741.2500    685.7410   -564.6187     32.4144     62.5477
   741.5000    685.7410   -564.6174     32.7359     61.8216
   741.7500    685.7410   -564.6157     33.0231     62.4126
   742.0000    685.7410   -564.6140     33.2686     64.7999
   742.2500    685.7410   -564.6124     33.4758     66.6324
   742.5000    685.7410   -564.6111     33.6637     68.1341
   742.7500    685.7410   -564.6105     33.8506     67.8549
   743.0000    685.7410   -564.6106     34.0334     66.0331
   743.2500    685.7410   -564.6116     34.1821     64.6351
   743.5000    685.7410   -564.6133     34.2559     63.4126
   743.7500    685.7410   -564.6157     34.2280     63.4251
   744.0000    685.7410   -564.6187     34.0987     64.3384
   744.2500    685.7410   -564.6218     33.8887     65.1435
   744.5000    685.7410   -564.6249     33.6235     66.1684
   744.7500    685.7410   -564.6279     33.3263     66.7279
   745.0000    685.7410   -564.6304     33.0201     67.7475
   745.2500    685.7410   -564.6326     32.7263     68.7376
   745.5000    685.7410   -564.6342     32.4521     70.5357
   745.7500    685.7410   -564.6353     32.1801     71.5570
   746.0000    685.7410   -564.6360     31.8767     72.0557
   746.2500    685.7410   -564.6363     31.5194     71.4856
   746.5000    685.7410   -564.6364     31.1180     69.6426
   746.7500    685.7410   -564.6363     30.7069     68.3046
   747.0000    685.7410   -564.6362     30.3187     67.0166
   747.2500    685.7410   -564.6362     29.9628     66.7617
