~Version Information
VERS.                      2.0: CWLS Log ASCII Standard - VERSION 2.0
WRAP.                       NO: One line per depth step
~Well Information Block
STRT.FT                -8.2500: 
STOP.FT              1653.2500: 
STEP.FT                 0.2500: 
NULL.                -999.2500: 
COMP.          Pioneer Natural Resources: COMPANY
WELL.            Relay 12-7 Tr: WELL
FLD.           Purgatorie River: FIELD
LOC.           2025' FNL & 790' FWL--: LOCATION
PROV.                       CO: PROVINCE
CNTY.               Las Animas: COUNTRY
SRVC.          Patterson Wireline: SERVICE COMPANY
DATE.          Tue Jan 24 10:25:08 2006: LOG DATE
UWI.           05 071 08603 00: UNIQUE WELL ID
~Curve Information Block
DEPT.FT            0 000 00 00: Depth
CCL.                          : Casing Collar Locator
TT3.usec                      : CBL 3' Travel Time
AMP3.mV                       : CBL 3' Amplitude
GR.GAPI                       : Gamma Ray
~Parameter Information Block
~A  Depth       CCL         TT3         AMP3         GR     
# ...
   226.2500      0.0000    690.4159      6.3491     61.8323
   226.5000      0.0000    688.7617      6.3347     58.7228
   226.7500      0.0000    688.6966      6.3288     58.1416
   227.0000      0.0000    689.8761      6.3287     60.6108
   227.2500      0.0000    692.5837      6.3300     65.0285
   227.5000      0.0000    696.6639      6.3306     69.5346
   227.7500      0.0000    700.6074      6.3291     73.0159
   228.0000      0.0000    702.1029      6.3232     75.5494
   228.2500      0.0000    700.0216      6.3119     77.6667
   228.5000      0.0000    695.5791      6.2965     79.5016
   228.7500      0.0000    691.1445      6.2802     80.6230
   229.0000      0.0000    688.2424      6.2658     80.5744
   229.2500      0.0000    686.9497      6.2550     79.6153
   229.5000      0.0000    686.6313      6.2500     78.9076
   229.7500      0.0000    686.7014      6.2548     79.6137
   230.0000      0.0000    686.8497      6.2727     81.7130
   230.2500      0.0000    686.9965      6.3029     84.1116
   230.5000      0.0000    687.2662      6.3402     85.8895
   230.7500      0.0000    688.0203      6.3781     86.9199
   231.0000      0.0000    689.8443      6.4115     87.3368
   231.2500      0.0000    693.2648      6.4376     87.0584
   231.5000      0.0000    698.2003      6.4561     86.0074
   231.7500      0.0000    703.6010      6.4671     84.4750
   232.0000      0.0000    707.7308      6.4625     83.0030
   232.2500      0.0000    708.8944      6.4186     81.8233
   232.5000      0.0000    705.9947      6.2983     80.5692
   232.7500      0.0000    698.8910      6.0783     78.8919
   233.0000      0.0000    688.8586      5.7882     77.3164
   233.2500      0.0000    678.8150      5.5111     77.0997
   233.5000      0.0000    672.5656      5.3140     79.1021
   233.7500      0.0000    673.1085      5.1850     82.8535
   234.0000      0.0000    681.0230      5.0658     86.6771
   234.2500      0.0000    694.4493      4.9338     88.7794
   234.5000      0.0000    710.9677      4.8159     88.4905
   234.7500      0.0000    728.9744      4.7399     86.6136
   235.0000     -2.0000    746.0344      4.7093     84.5790
   235.2500      0.0000    756.9367      4.7201     83.3921
   235.5000      0.0000    756.4407      4.7885     83.3767
   235.7500      0.0000    744.5615      4.9629     84.3978
   236.0000      0.0000    727.2263      5.2909     85.7729
   236.2500      0.0000    711.3459      5.7434     86.3172
   236.5000      0.0000    700.2676      6.1806     85.2553
   236.7500      0.0000    693.6035      6.4428     83.1609
   237.0000      0.0000    689.7012      6.4827     81.6815
   237.2500      0.0000    687.4186      6.3838     82.3233
   237.5000      0.0000    686.2584      6.2635     85.3886
   237.7500      0.0000    685.9172      6.1918     89.6628
   238.0000      0.0000    686.0619      6.1800     93.1421
   238.2500      0.0000    686.3813      6.2067     94.4796
   238.5000      0.0000    686.6606      6.2423     94.0032
   238.7500      0.0000    686.8240      6.2675     93.4015
   239.0000      0.0000    686.9092      6.2793     94.2765
   239.2500      0.0000    686.9809      6.2846     96.7480
   239.5000      0.0000    687.0602      6.2888     99.4759
   239.7500      0.0000    687.1192      6.2913    101.0664
   240.0000      0.0000    687.1324      6.2909    101.1408
   240.2500      0.0000    687.1092      6.2935    100.1167
   240.5000      0.0000    687.0654      6.3095     98.5659
   240.7500      0.0000    686.9913      6.3430     96.8752
   241.0000      0.0000    686.8764      6.3873     94.9482
   241.2500      0.0000    686.7493      6.4305     92.1585
   241.5000      0.0000    686.6653      6.4635     88.1772
   241.7500      0.0000    686.6651      6.4838     83.9074
   242.0000      0.0000    686.7676      6.4940     80.9605
   242.2500      0.0000    686.9857      6.4988     80.0197
   242.5000      0.0000    687.3109      6.5012     80.1359
   242.7500      0.0000    687.6810      6.5024     79.6099
   243.0000      0.0000    687.9956      6.5056     77.2501
   243.2500      0.0000    688.1855      6.5150     73.0179
   243.5000      0.0000    688.2605      6.5303     68.0168
   243.7500      0.0000    688.2853      6.5443     63.9053
   244.0000      0.0000    688.3168      6.5478     61.9167
   244.2500      0.0000    688.3701      6.5372     62.1708
   244.5000      0.0000    688.4280      6.5159     63.8134
   244.7500      0.0000    688.4650      6.4937     65.6655
   245.0000      0.0000    688.4605      6.4820     66.7604
   245.2500      0.0000    688.4012      6.4874     66.5802
   245.5000      0.0000    688.2848      6.5074     65.2392
   245.7500      0.0000    688.1305      6.5315     63.6390
   246.0000      0.0000    687.9818      6.5482     63.1822
   246.2500      0.0000    687.9072      6.5510     64.8952
   246.5000      0.0000    688.0259      6.5404     68.5950
   246.7500      0.0000    688.5535      6.5226     72.9017
   247.0000      0.0000    689.7320      6.5044     76.0947
   247.2500      0.0000    691.5291      6.4896     77.0761
   247.5000      0.0000    693.3539      6.4783     75.8363
   247.7500      0.0000    694.2941      6.4684     73.3335
   248.0000      0.0000    693.8591      6.4580     70.8739
   248.2500      0.0000    692.4164      6.4496     69.1303
   248.5000      0.0000    690.7843      6.4510     67.5786
   248.7500      0.0000    689.5320      6.4709     65.2134
   249.0000      0.0000    688.7448      6.5103     62.0198
   249.2500      0.0000    688.2521      6.5582     59.3268
   249.5000      0.0000    687.8912      6.5944     58.4003
   249.7500      0.0000    687.6080      6.6001     58.9721
   250.0000      0.0000    687.4433      6.5700     59.5549
   250.2500      0.0000    687.5472      6.5146     59.0048
   250.5000      0.0000    688.2753      6.4509     57.3402
   250.7500      0.0000    690.2989      6.3907     55.1775
   251.0000      0.0000    694.3376      6.3373     53.0396
   251.2500      0.0000    700.2176      6.2895     51.3153
   251.5000      0.0000    705.9864      6.2457     50.3337
   251.7500      0.0000    708.7104      6.2082     50.2197
   252.0000      0.0000    706.9993      6.1849     50.7831
   252.2500      0.0000    702.5590      6.1860     51.5073
   252.5000      0.0000    698.7943      6.2153     51.7198
   252.7500      0.0000    698.1163      6.2640     51.0699
   253.0000      0.0000    700.6032      6.3145     49.9053
   253.2500      0.0000    704.4642      6.3516     48.9117
   253.5000      0.0000    707.3714      6.3707     48.4329
   253.7500      0.0000    707.9009      6.3754     48.3459
   254.0000      0.0000    706.4096      6.3687     48.5113
   254.2500      0.0000    704.6714      6.3492     49.1342
   254.5000      0.0000    704.3049      6.3164     50.6530
   254.7500      0.0000    705.3927      6.2768     53.2897
   255.0000      0.0000    706.7855      6.2422     56.7681
   255.2500      0.0000    707.6804      6.2190     60.4488
   255.5000      0.0000    708.4250      6.2017     63.4805
   255.7500      0.0000    709.7125      6.1787     64.8984
   256.0000      0.0000    711.5516      6.1446     64.1674
   256.2500      0.0000    713.3483      6.1041     61.8427
   256.5000      0.0000    714.6377      6.0648     59.2374
   256.7500      0.0000    715.4602      6.0274     57.2751
   257.0000      0.0000    716.2625      5.9845     55.9979
   257.2500      0.0000    717.7363      5.9278     55.2242
   257.5000      0.0000    720.5998      5.8570     55.2224
   257.7500      0.0000    725.0388      5.7842     56.4724
   258.0000      0.0000    730.1763      5.7263     59.1142
   258.2500      0.0000    734.4662      5.6938     63.0300
   258.5000      0.0000    736.8630      5.6840     68.2725
   258.7500      0.0000    737.3201      5.6866     74.8315
   259.0000      0.0000    736.3470      5.6912     81.9457
   259.2500      0.0000    734.8009      5.6912     88.3476
   259.5000      0.0000    733.7382      5.6822     93.4707
