~Version Information
VERS.                      2.0: CWLS Log ASCII Standard - VERSION 2.0
WRAP.                       NO: One line per depth step
~Well Information Block
STRT.FT               570.0000: 
STOP.FT              1958.5000: 
STEP.FT                 0.2500: 
NULL.                -999.2500: 
COMP.          Petrogulf Corporation: COMPANY
WELL.            Montoya 7-14R: WELL
FLD.           Purgatorie River: FIELD
LOC.           628' FSL & 454' FWL: LOCATION
PROV.                 Colorado: PROVINCE
CNTY.               Las Animas: COUNTRY
SRVC.                Patterson: SERVICE COMPANY
DATE.          Sat Oct 08 17:13:52 2005: LOG DATE
UWI.                          : UNIQUE WELL ID
~Curve Information Block
DEPT.FT            0 000 00 00: Depth
SP.mV                         : DIL Spontaneous Potential
RILD.Ohm-m                    : DIL Deep Resistivity
RILM.Ohm-m                    : DIL Medium Resistivity
RLL3.Ohm-m                    : DIL Shallow Resistivity
GR.GAPI                       : Gamma Ray
~Parameter Information Block
~A  Depth        SP         RILD        RILM        RLL3         GR     
# ...
  1382.0000    213.4443      7.3371      7.0513      8.4496    158.1389
  1382.2500    213.3134      7.3413      7.1098      8.8395    155.2982
  1382.5000    213.0826      7.3537      7.1730      9.1906    151.3194
  1382.7500    212.7225      7.3706      7.2340      9.3800    148.7381
  1383.0000    212.1948      7.3881      7.2881      9.3397    145.7262
  1383.2500    211.4685      7.4023      7.3325      9.1046    144.8563
  1383.5000    210.5404      7.4094      7.3653      8.7973    145.4633
  1383.7500    209.4476      7.4055      7.3856      8.5642    146.7310
  1384.0000    208.2576      7.3870      7.3916      8.5014    148.6877
  1384.2500    207.0451      7.3511      7.3812      8.6047    149.2931
  1384.5000    205.8668      7.2974      7.3518      8.7766    148.3500
  1384.7500    204.7474      7.2288      7.3021      8.8915    146.4950
  1385.0000    203.6780      7.1512      7.2322      8.8745    142.9661
  1385.2500    202.6247      7.0721      7.1452      8.7352    141.3144
  1385.5000    201.5440      6.9988      7.0466      8.5381    141.7244
  1385.7500    200.4010      6.9370      6.9435      8.3470    143.9288
  1386.0000    199.1826      6.8902      6.8438      8.1897    147.8955
  1386.2500    197.9022      6.8597      6.7551      8.0587    149.3534
  1386.5000    196.5970      6.8454      6.6841      7.9374    148.9606
  1386.7500    195.3205      6.8463      6.6359      7.8271    148.0111
  1387.0000    194.1336      6.8621      6.6141      7.7588    147.6473
  1387.2500    193.0962      6.8936      6.6208      7.7828    147.9711
  1387.5000    192.2604      6.9435      6.6571      7.9439    146.7370
  1387.7500    191.6570      7.0160      6.7235      8.2548    143.5002
  1388.0000    191.2806      7.1170      6.8209      8.6732    135.5068
  1388.2500    191.0825      7.2528      6.9514      9.1020    129.5216
  1388.5000    190.9842      7.4300      7.1192      9.4319    121.7975
  1388.7500    190.9060      7.6550      7.3314      9.6128    118.0002
  1389.0000    190.7961      7.9337      7.5978      9.7023    114.2540
  1389.2500    190.6404      8.2702      7.9307      9.8656    112.9993
  1389.5000    190.4510      8.6657      8.3439     10.3498    113.1924
  1389.7500    190.2455      9.1161      8.8513     11.4471    114.6236
  1390.0000    190.0318      9.6118      9.4648     13.4305    117.6303
  1390.2500    189.8089     10.1396     10.1911     16.4298    119.3704
  1390.5000    189.5756     10.6865     11.0290     20.2664    120.7754
  1390.7500    189.3400     11.2444     11.9658     24.3642    120.6582
  1391.0000    189.1180     11.8130     12.9757     27.8934    117.9836
  1391.2500    188.9253     12.3992     14.0208     30.1361    113.9494
  1391.5000    188.7662     13.0129     15.0566     30.7998    104.9897
  1391.7500    188.6303     13.6615     16.0401     30.0401     98.6261
  1392.0000    188.4967     14.3439     16.9387     28.2702     92.2150
  1392.2500    188.3416     15.0468     17.7344     25.9928     91.5556
  1392.5000    188.1469     15.7441     18.4240     23.7158     95.6301
  1392.7500    187.9062     16.3992     19.0142     21.8610     99.8462
  1393.0000    187.6263     16.9720     19.5161     20.6502    104.6668
  1393.2500    187.3240     17.4285     19.9405     20.0674    105.8434
  1393.5000    187.0181     17.7491     20.2964     19.9500    105.6025
  1393.7500    186.7216     17.9348     20.5910     20.1392    105.5313
  1394.0000    186.4427     18.0087     20.8305     20.5786    106.9980
  1394.2500    186.1889     18.0112     21.0219     21.2948    108.7039
  1394.5000    185.9707     17.9901     21.1730     22.2811    110.7175
  1394.7500    185.7984     17.9877     21.2936     23.3784    110.9028
  1395.0000    185.6787     18.0319     21.3949     24.2687    109.0160
  1395.2500    185.6169     18.1322     21.4896     24.6342    106.5956
  1395.5000    185.6189     18.2838     21.5908     24.3892    102.4435
  1395.7500    185.6915     18.4751     21.7113     23.7829    100.2357
  1396.0000    185.8383     18.6964     21.8627     23.2470     98.8579
  1396.2500    186.0562     18.9435     22.0548     23.0898     99.2893
  1396.5000    186.3351     19.2154     22.2955     23.3081    101.2190
  1396.7500    186.6594     19.5102     22.5909     23.6740    102.7766
  1397.0000    187.0132     19.8216     22.9461     23.9935    104.7352
  1397.2500    187.3881     20.1415     23.3652     24.2971    105.5303
  1397.5000    187.7935     20.4655     23.8513     24.8168    105.8830
  1397.7500    188.2591     20.7929     24.4054     25.7848    105.6357
  1398.0000    188.8278     21.1196     25.0241     27.1779    104.4879
  1398.2500    189.5410     21.4236     25.6959     28.5984    103.0344
  1398.5000    190.4246     21.6566     26.3942     29.5307     99.8653
  1398.7500    191.4843     21.7526     27.0675     29.9645     97.5027
  1399.0000    192.7094     21.6532     27.6294     30.8532     94.5740
  1399.2500    194.0835     21.3332     27.9562     33.7517     93.4778
  1399.5000    195.5941     20.8117     27.9042     39.6316     93.2350
  1399.7500    197.2342     20.1402     27.3539     47.6899     93.5519
  1400.0000    198.9915     19.3821     26.2677     55.1650     93.5356
  1400.2500    200.8291     18.5956     24.7245     58.6061     92.9736
  1400.5000    202.6748     17.8272     22.8991     55.9409     92.3994
  1400.7500    204.4312     17.1106     20.9979     47.8051     93.0386
  1401.0000    206.0025     16.4643     19.1944     37.0291     95.7243
  1401.2500    207.3225     15.8879     17.5981     26.7986     98.1400
  1401.5000    208.3669     15.3613     16.2553     19.0692    102.2236
  1401.7500    209.1525     14.8510     15.1664     14.2300    105.5440
  1402.0000    209.7277     14.3228     14.3041     11.7332    111.7841
  1402.2500    210.1609     13.7562     13.6266     10.8494    116.2196
  1402.5000    210.5275     13.1515     13.0864     11.0317    121.1916
  1402.7500    210.8920     12.5283     12.6364     11.8957    122.4213
  1403.0000    211.2919     11.9163     12.2352     13.0673    121.3360
  1403.2500    211.7285     11.3455     11.8517     14.1174    119.7005
  1403.5000    212.1694     10.8392     11.4681     14.6541    117.7358
  1403.7500    212.5583     10.4113     11.0799     14.4867    117.2143
  1404.0000    212.8328     10.0657     10.6934     13.7074    117.2108
  1404.2500    212.9461      9.7972     10.3200     12.6105    117.2938
  1404.5000    212.8836      9.5937      9.9717     11.5154    117.6343
  1404.7500    212.6637      9.4384      9.6573     10.6277    118.5242
  1405.0000    212.3182      9.3139      9.3819     10.0074    121.2569
  1405.2500    211.8704      9.2043      9.1461      9.6194    123.6487
  1405.5000    211.3241      9.0986      8.9477      9.4015    127.5668
  1405.7500    210.6687      8.9908      8.7824      9.3088    130.6246
  1406.0000    209.8920      8.8805      8.6454      9.3192    136.2571
  1406.2500    208.9913      8.7713      8.5318      9.4153    140.1820
  1406.5000    207.9826      8.6703      8.4379      9.5664    144.2393
  1406.7500    206.9065      8.5857      8.3611      9.7312    144.5577
  1407.0000    205.8258      8.5257      8.3008      9.8696    141.0046
  1407.2500    204.8113      8.4966      8.2578      9.9493    136.9837
  1407.5000    203.9195      8.5023      8.2346      9.9500    131.6883
  1407.7500    203.1734      8.5439      8.2343      9.8814    130.1257
  1408.0000    202.5564      8.6211      8.2604      9.8021    130.6729
  1408.2500    202.0177      8.7330      8.3165      9.8047    131.6494
  1408.5000    201.4887      8.8801      8.4059      9.9555    131.9104
  1408.7500    200.9046      9.0647      8.5327     10.2379    131.1660
  1409.0000    200.2218      9.2904      8.7014     10.5571    130.1153
  1409.2500    199.4241      9.5618      8.9184     10.8082    130.2581
  1409.5000    198.5148      9.8835      9.1920     10.9520    131.8797
  1409.7500    197.5081     10.2600      9.5336     11.0405    133.5753
