~Version Information
VERS.                      2.0: CWLS Log ASCII Standard - VERSION 2.0
WRAP.                       NO: One line per depth step
~Well Information Block
STRT.FT                -7.2500: 
STOP.FT              1221.7500: 
STEP.FT                 0.2500: 
NULL.                -999.2500: 
COMP.          Pioneer Natural Resources: COMPANY
WELL.           Tennis 7-12 Tr: WELL
FLD.           Purgatorie River: FIELD
LOC.           1794' FNL & 1563' FEL--: LOCATION
PROV.                       CO: PROVINCE
CNTY.               Las Animas: COUNTRY
SRVC.          Patterson Wireline: SERVICE COMPANY
DATE.          Tue Dec 27 14:16:59 2005: LOG DATE
UWI.           05 071 008635 00: UNIQUE WELL ID
~Curve Information Block
DEPT.FT            0 000 00 00: Depth
CCL.                          : Casing Collar Locator
TT3.usec                      : CBL 3' Travel Time
AMP3.mV                       : CBL 3' Amplitude
GR.GAPI                       : Gamma Ray
~Parameter Information Block
~A  Depth       CCL         TT3         AMP3         GR     
# ...
   629.2500      0.0000    757.0333      5.3208    100.4957
   629.5000      0.0000    740.4705      5.2974     94.8444
   629.7500      0.0000    730.6850      5.2761     95.2517
   630.0000      0.0000    730.7311      5.2693    101.7513
   630.2500      0.0000    736.4977      5.2946    111.7241
   630.5000      0.0000    740.3669      5.3715    121.6713
   630.7500      0.0000    737.1606      5.5143    129.3086
   631.0000      0.0000    727.0716      5.7191    134.0622
   631.2500      0.0000    714.4655      5.9558    136.3002
   631.5000      0.0000    704.5304      6.1726    136.6205
   631.7500      0.0000    699.9308      6.3169    135.3821
   632.0000      0.0000    699.3792      6.3642    132.4610
   632.2500      0.0000    699.2603      6.3333    127.6428
   632.5000      0.0000    696.9642      6.2743    121.2654
   632.7500      0.0000    692.7309      6.2362    114.2588
   633.0000      0.0000    688.4755      6.2416    107.7170
   633.2500      0.0000    685.6052      6.2864    102.4087
   633.5000      0.0000    684.3110      6.3568     98.4185
   633.7500      0.0000    684.3815      6.4429     95.3018
   634.0000      0.0000    686.1645      6.5375     92.7028
   634.2500      0.0000    690.7900      6.6271     90.6712
   634.5000      0.0000    699.4243      6.6902     89.3527
   634.7500      0.0000    711.8267      6.7100     88.6486
   635.0000      0.0000    725.4135      6.6895     88.1150
   635.2500      0.0000    736.0781      6.6511     86.9589
   635.5000      0.0000    740.2516      6.6215     84.3007
   635.7500      0.0000    736.6163      6.6122     79.8381
   636.0000      0.0000    726.8090      6.6122     74.3557
   636.2500      0.0000    715.1933      6.5967     69.4997
   636.5000      0.0000    707.3085      6.5466     67.0260
   636.7500      0.0000    707.1413      6.4600     67.9273
   637.0000      0.0000    714.8915      6.3472     71.7823
   637.2500      0.0000    727.0530      6.2209     76.9426
   637.5000      0.0000    738.8845      6.0943     81.6948
   637.7500      0.0000    747.2796      5.9827     85.2425
   638.0000      0.0000    751.7978      5.9014     87.5836
   638.2500      0.0000    753.6338      5.8647     88.9073
   638.5000      0.0000    754.1320      5.8863     89.2415
   638.7500      0.0000    754.0892      5.9743     88.4170
   639.0000      0.0000    753.5978      6.1234     86.5807
   639.2500      0.0000    751.8373      6.3129     84.9085
   639.5000      0.0000    746.8010      6.5131     84.9668
   639.7500      0.0000    735.8950      6.6931     86.9404
   640.0000      0.0000    718.1458      6.8300     89.3384
   640.2500      0.0000    696.1454      6.9185     90.6483
   640.5000      0.0000    674.2515      6.9712     90.4749
   640.7500      0.0000    654.8879      7.0051     89.2126
   641.0000      0.0000    639.8251      7.0246     87.6962
   641.2500      0.0000    635.1573      7.0208     87.1039
   641.5000      0.0000    649.1498      6.9847     88.0713
   641.7500      0.0000    682.2009      6.9233     89.6452
   642.0000      0.0000    722.6436      6.8603     89.8232
   642.2500      0.0000    754.7187      6.8209     87.4023
   642.5000      0.0000    768.8337      6.8166     83.0326
   642.7500      0.0000    764.1412      6.8429     78.4951
   643.0000      0.0000    744.0683      6.8880     75.2994
   643.2500      0.0000    711.5099      6.9409     74.0005
   643.5000      0.0000    668.8553      6.9919     74.4265
   643.7500      0.0000    622.5361      7.0283     76.2107
   644.0000      0.0000    585.7357      7.0296     79.0424
   644.2500      0.0000    573.0955      6.9707     82.5438
   644.5000      0.0000    589.9474      6.8313     86.2828
   644.7500      0.0000    626.9195      6.6042     90.3204
   645.0000      0.0000    666.6555      6.2956     95.6373
   645.2500      0.0000    696.5297      5.9254    103.2253
   645.5000      0.0000    715.9978      5.5272    112.3045
   645.7500      0.0000    734.2891      5.1398    119.9517
   646.0000      0.0000    762.1091      4.7945    122.9691
   646.2500      0.0000    802.9255      4.5110    119.9390
   646.5000      0.0000    849.3386      4.3053    111.5490
   646.7500      0.0000    887.8278      4.1912     99.8028
   647.0000      0.0000    907.9907      4.1682     87.3761
   647.2500      0.0000    907.4382      4.2125     77.0277
   647.5000      0.0000    889.3375      4.2879     70.7370
   647.7500      0.0000    858.2145      4.3697     69.2487
   648.0000      0.0000    818.9679      4.4595     72.5592
   648.2500      0.0000    777.8118      4.5808     80.6744
   648.5000      0.0000    741.4698      4.7611     93.5410
   648.7500      0.0000    714.3599      5.0154    110.0332
   649.0000      0.0000    696.9789      5.3421    127.1309
   649.2500      0.0000    687.0634      5.7268    140.8622
   649.5000      0.0000    681.6111      6.1398    148.8552
   649.7500      0.0000    677.8287      6.5290    151.6930
   650.0000      0.0000    673.2853      6.8288    151.3852
   650.2500      0.0000    666.3625      6.9902    149.1845
   650.5000      0.0000    657.2642      7.0069    145.3692
   650.7500      0.0000    648.6434      6.9117    140.4392
   651.0000      0.0000    644.7139      6.7542    135.6836
   651.2500      0.0000    648.7778      6.5824    132.4854
   651.5000      0.0000    660.8295      6.4354    131.3380
   651.7500      0.0000    677.3018      6.3360    131.8680
   652.0000      0.0000    693.5417      6.2849    133.7239
   652.2500      0.0000    706.9795      6.2679    136.7098
   652.5000      0.0000    718.0646      6.2720    139.8602
   652.7500      0.0000    728.4598      6.2928    141.4259
   653.0000      0.0000    739.0142      6.3274    140.3485
   653.2500      0.0000    749.5013      6.3681    137.0574
   653.5000      0.0000    759.5501      6.4074    132.3776
   653.7500      0.0000    769.3893      6.4432    126.3723
   654.0000      0.0000    780.0739      6.4763    119.0632
   654.2500      0.0000    792.8240      6.5065    111.7990
   654.5000      0.0000    807.1555      6.5341    106.7340
   654.7500      0.0000    819.8303      6.5595    104.8647
   655.0000      0.0000    826.9194      6.5794    105.4389
   655.2500      0.0000    827.2156      6.5858    107.2418
   655.5000      0.0000    823.1913      6.5725    109.3617
   655.7500      0.0000    818.7280      6.5440    110.6355
   656.0000      0.0000    815.8190      6.5182    109.6874
   656.2500      0.0000    812.6942      6.5192    106.1377
   656.5000      0.0000    805.0026      6.5603    100.9683
   656.7500      0.0000    789.9719      6.6269     95.2128
   657.0000      0.0000    770.6526      6.6803     89.0160
   657.2500      0.0000    755.9495      6.6852     82.6399
   657.5000      0.0000    755.2004      6.6356     77.7873
   657.7500      0.0000    770.7471      6.5533     76.9553
   658.0000      0.0000    794.8297      6.4630     81.4866
   658.2500      0.0000    814.7326      6.3730     90.7310
   658.5000      0.0000    822.1392      6.2744    102.8693
   658.7500      0.0000    817.5986      6.1575    115.8305
   659.0000      0.0000    807.1814      6.0298    127.4933
   659.2500      0.0000    797.1659      5.9217    136.1488
   659.5000      0.0000    791.3115      5.8716    141.5887
   659.7500      0.0000    789.9730      5.9065    145.3008
   660.0000      0.0000    790.2625      6.0316    148.6109
   660.2500      0.0000    788.3773      6.2262    150.2895
   660.5000      0.0000    783.4493      6.4315    146.8302
   660.7500      0.0000    780.3453      6.5482    136.0562
   661.0000      0.0000    788.1446      6.4858    120.2905
   661.2500      0.0000    813.4191      6.2415    105.2760
   661.5000      0.0000    853.1160      5.9141     95.8909
   661.7500      0.0000    893.9197      5.6195     92.8537
   662.0000      0.0000    919.1457      5.4053     93.0987
   662.2500      0.0000    917.4327      5.2529     93.1069
   662.5000     -2.0000    888.0559      5.1321     91.8479
