~Version Information
VERS.                      2.0: CWLS Log ASCII Standard - VERSION 2.0
WRAP.                       NO: One line per depth step
~Well Information Block
STRT.FT               -16.0000: 
STOP.FT              2827.7500: 
STEP.FT                 0.2500: 
NULL.                -999.2500: 
COMP.          Pioneer Natural Resources: COMPANY
WELL.          Touchstone 11-32: WELL
FLD.           Purgatorie River: FIELD
LOC.           853' FNL & 407' FWL--: LOCATION
CNTY.               Las Animas: COUNTY
SRVC.          Patterson Wireline: SERVICE COMPANY
DATE.          Wed Mar 15 10:09:19 2006: LOG DATE
UWI.           05 071 08564 00: UNIQUE WELL ID
STAT.                       CO: STATE
~Curve Information Block
DEPT.FT            0 000 00 00: Depth
CCL.                          : Casing Collar Locator
TT3.usec                      : CBL 3' Travel Time
AMP3.mV                       : CBL 3' Amplitude
GR.GAPI                       : Gamma Ray
~Parameter Information Block
~A  Depth       CCL         TT3         AMP3         GR     
# ...
  2061.0000      0.0000    439.0427      7.0031    125.7716
  2061.2500      0.0000    475.3815      7.1164    125.3493
  2061.5000      0.0000    526.9066      7.2163    121.6072
  2061.7500      0.0000    583.1948      7.3036    114.9362
  2062.0000      0.0000    630.4304      7.3784    107.2032
  2062.2500      0.0000    658.1295      7.4430    101.1890
  2062.5000      0.0000    661.3548      7.5013     99.0803
  2062.7500      0.0000    639.5839      7.5521    101.1150
  2063.0000      0.0000    597.9169      7.5843    105.5145
  2063.2500      0.0000    549.2745      7.5820    109.7996
  2063.5000      0.0000    511.4261      7.5356    112.5243
  2063.7500      0.0000    498.9787      7.4462    114.1292
  2064.0000      0.0000    516.7220      7.3225    116.1273
  2064.2500      0.0000    558.1095      7.1794    119.3840
  2064.5000      0.0000    608.6503      7.0361    123.3229
  2064.7500      0.0000    653.1602      6.9075    126.7709
  2065.0000      0.0000    683.1025      6.7967    129.4721
  2065.2500      0.0000    698.4843      6.6996    132.7334
  2065.5000      0.0000    703.6044      6.6142    138.2469
  2065.7500      0.0000    701.5291      6.5426    146.1048
  2066.0000      0.0000    691.7416      6.4858    154.4660
  2066.2500      0.0000    671.8589      6.4422    161.3984
  2066.5000      0.0000    641.8732      6.4078    166.3341
  2066.7500      0.0000    607.1808      6.3752    169.5156
  2067.0000      0.0000    576.6330      6.3347    170.9616
  2067.2500      0.0000    556.6443      6.2824    170.4302
  2067.5000      0.0000    547.2770      6.2261    167.7443
  2067.7500      0.0000    543.8140      6.1786    162.9128
  2068.0000      0.0000    540.9509      6.1475    156.5385
  2068.2500      0.0000    535.0927      6.1328    150.0924
  2068.5000      0.0000    524.2406      6.1324    145.0154
  2068.7500      0.0000    507.9005      6.1467    141.4518
  2069.0000      0.0000    487.9289      6.1772    138.5611
  2069.2500      0.0000    468.6305      6.2225    136.0808
  2069.5000      0.0000    455.0190      6.2749    134.8228
  2069.7500      0.0000    450.4785      6.3232    135.5218
  2070.0000      0.0000    455.2880      6.3606    137.7702
  2070.2500      0.0000    466.0267      6.3893    140.2618
  2070.5000      0.0000    476.2872      6.4166    141.8326
  2070.7500      0.0000    479.8005      6.4474    142.3568
  2071.0000      0.0000    474.5133      6.4824    142.6277
  2071.2500      0.0000    463.6440      6.5189    143.2451
  2071.5000      0.0000    452.4996      6.5509    143.8725
  2071.7500      0.0000    444.5504      6.5681    143.8095
  2072.0000      0.0000    440.2555      6.5586    142.9601
  2072.2500      0.0000    438.3954      6.5160    141.9424
  2072.5000      0.0000    437.6599      6.4435    141.6139
  2072.7500      0.0000    437.2775      6.3531    142.6194
  2073.0000      0.0000    436.9532      6.2593    144.8596
  2073.2500      0.0000    436.6790      6.1727    147.1280
  2073.5000      0.0000    436.7104      6.0976    147.6902
  2073.7500      0.0000    437.7020      6.0346    145.5804
  2074.0000      0.0000    441.0526      5.9837    141.2716
  2074.2500      0.0000    449.2396      5.9446    136.2569
  2074.5000      0.0000    465.5142      5.9142    132.2058
  2074.7500      0.0000    492.3043      5.8882    130.1667
  2075.0000      0.0000    528.7963      5.8661    129.9877
  2075.2500      0.0000    569.7371      5.8525    130.4091
  2075.5000      0.0000    607.0277      5.8500    130.0392
  2075.7500      0.0000    633.3589      5.8484    128.5635
  2076.0000      0.0000    645.1897      5.8267    127.0767
  2076.2500      0.0000    643.8936      5.7707    127.2761
  2076.5000      0.0000    635.7510      5.6931    130.2357
  2076.7500      0.0000    630.1469      5.6353    135.4839
  2077.0000      0.0000    634.5020      5.6460    140.9739
  2077.2500      0.0000    648.3491      5.7516    144.1153
  2077.5000      0.0000    662.8212      5.9383    143.1742
  2077.7500      2.0000    667.4930      6.1650    138.4010
  2078.0000      0.0000    658.2294      6.3952    132.4321
  2078.2500      0.0000    639.2933      6.6188    129.0900
  2078.5000      0.0000    620.3603      6.8564    130.6291
  2078.7500      0.0000    612.0292      7.1531    135.8351
  2079.0000      0.0000    619.9268      7.5432    141.1927
  2079.2500      0.0000    638.3360      7.9886    143.9739
  2079.5000      0.0000    650.6749      8.3747    144.2811
  2079.7500      0.0000    641.2460      8.6068    144.4555
  2080.0000      0.0000    609.4773      8.6974    146.5407
  2080.2500      0.0000    572.5458      8.7294    149.9827
  2080.5000      0.0000    551.5954      8.7624    151.9022
  2080.7500      0.0000    552.6865      8.8012    149.9067
  2081.0000      0.0000    561.4415      8.8249    144.3159
  2081.2500      0.0000    558.2302      8.8129    137.3229
  2081.5000      0.0000    538.2683      8.7522    130.6093
  2081.7500      0.0000    514.6418      8.6462    124.4239
  2082.0000      0.0000    502.6686      8.5268    118.4376
  2082.2500      0.0000    504.4731      8.4509    112.5694
  2082.5000      0.0000    509.2028      8.4693    107.0094
  2082.7500      0.0000    506.2192      8.5903    102.1461
  2083.0000      0.0000    496.9919      8.7718     98.7956
  2083.2500      0.0000    494.5723      8.9489     98.1401
  2083.5000      0.0000    511.6325      9.0729    100.9761
  2083.7500      0.0000    548.5824      9.1325    106.9404
  2084.0000      0.0000    593.1888      9.1445    114.5819
  2084.2500      0.0000    630.4408      9.1303    122.0807
  2084.5000      0.0000    650.5005      9.1007    128.0006
  2084.7500      0.0000    648.4371      9.0585    131.8768
  2085.0000      0.0000    622.0397      9.0068    134.4677
  2085.2500      0.0000    574.5455      8.9520    136.9943
  2085.5000      0.0000    518.2966      8.9018    139.6476
  2085.7500      0.0000    470.4207      8.8629    141.1698
  2086.0000      0.0000    441.9994      8.8399    140.3223
  2086.2500      0.0000    432.0850      8.8393    137.4694
  2086.5000      0.0000    432.2062      8.8731    134.3956
  2086.7500      0.0000    434.5229      8.9549    132.9063
  2087.0000      0.0000    435.3086      9.0886    133.8513
  2087.2500      0.0000    433.6945      9.2629    137.2881
  2087.5000      0.0000    429.9605      9.4596    143.0599
  2087.7500      0.0000    425.0101      9.6648    150.7168
  2088.0000      0.0000    419.8376      9.8717    158.8432
  2088.2500      0.0000    414.5952     10.0773    165.0311
  2088.5000      0.0000    408.3381     10.2823    167.1872
  2088.7500      0.0000    400.0023     10.4858    165.1249
  2089.0000      0.0000    389.5249     10.6790    160.8035
  2089.2500      0.0000    378.0157     10.8454    156.8615
  2089.5000      0.0000    367.2825     10.9661    154.7375
  2089.7500      0.0000    359.4923     11.0224    154.0442
  2090.0000      0.0000    356.7420     10.9956    153.7625
  2090.2500      0.0000    360.2499     10.8754    153.8978
  2090.5000      0.0000    369.9102     10.6690    155.3953
  2090.7500      0.0000    384.6230     10.4014    158.2475
  2091.0000      0.0000    402.4668     10.1101    160.4857
  2091.2500      0.0000    420.1164      9.8383    159.8447
  2091.5000      0.0000    432.7595      9.6211    155.9502
  2091.7500      0.0000    435.9466      9.4720    150.2495
  2092.0000      0.0000    428.5753      9.3846    144.3031
  2092.2500      0.0000    414.2057      9.3463    138.8477
  2092.5000      0.0000    398.8927      9.3471    134.0546
  2092.7500      0.0000    387.3016      9.3780    129.8551
  2093.0000      0.0000    380.7132      9.4291    126.0738
  2093.2500      0.0000    378.0018      9.4914    122.7062
  2093.5000      0.0000    377.7387      9.5599    119.9555
  2093.7500      0.0000    379.6944      9.6318    117.8543
  2094.0000      0.0000    385.6371      9.7030    116.1614
  2094.2500      0.0000    399.1525      9.7685    114.8314
