~Version Information
VERS.                      2.0: CWLS Log ASCII Standard - VERSION 2.0
WRAP.                       NO: One line per depth step
~Well Information Block
STRT.FT                -4.2500: 
STOP.FT               745.0000: 
STEP.FT                 0.2500: 
NULL.                -999.2500: 
COMP.          Pioneer Natural Resources: COMPANY
WELL.                Zed 11-23: WELL
FLD.           Purgatoire River: FIELD
LOC.           641' FNL & 952' FWL: LOCATION
CNTY.               Las Animas: COUNTY
SRVC.                         : SERVICE COMPANY
DATE.          Fri Mar 03 16:43:06 2006: LOG DATE
UWI.           05 071 08702 00: UNIQUE WELL ID
STAT.                       CO: STATE
~Curve Information Block
DEPT.FT            0 000 00 00: Depth
GR.GAPI                       : Gamma Ray
CCL.                          : Casing Collar Locator
TT3.usec                      : CBL 3' Travel Time
AMP3.mV                       : CBL 3' Amplitude
~Parameter Information Block
~A  Depth        GR         CCL         TT3         AMP3    
# ...
   364.2500     50.6625      0.0000    733.4163     10.5966
   364.5000     50.4136      0.0000    733.8818     10.3741
   364.7500     49.9176      0.0000    732.5968     10.1625
   365.0000     49.0087      0.0000    730.2462      9.9718
   365.2500     47.8236      0.0000    728.1429      9.7940
   365.5000     46.7668      0.0000    727.3030      9.6362
   365.7500     46.1574      0.0000    728.0851      9.5263
   366.0000     45.9269      0.0000    730.2209      9.4777
   366.2500     45.6621      0.0000    732.8627      9.4637
   366.5000     44.9556      0.0000    735.0880      9.4398
   366.7500     43.7628      0.0000    736.9353      9.3834
   367.0000     42.4733      0.0000    739.6858      9.3024
   367.2500     41.6024      0.0000    744.4949      9.2152
   367.5000     41.3605      0.0000    750.7819      9.1359
   367.7500     41.5573      0.0000    756.2785      9.0759
   368.0000     41.9141      0.0000    758.5469      9.0468
   368.2500     42.3992      0.0000    756.3901      9.0532
   368.5000     43.2815      0.0000    750.4202      9.0858
   368.7500     44.9088      0.0000    742.8713      9.1266
   369.0000     47.3332      0.0000    736.6450      9.1634
   369.2500     50.0702      0.0000    733.8990      9.1954
   369.5000     52.3263      0.0000    734.9968      9.2287
   369.7500     53.5904      0.0000    738.3062      9.2740
   370.0000     53.9756      0.0000    740.9967      9.3403
   370.2500     53.9464      0.0000    740.7746      9.4197
   370.5000     53.8140      0.0000    737.4821      9.4895
   370.7500     53.5840      0.0000    732.9502      9.5433
   371.0000     53.2203      0.0000    729.2377      9.6092
   371.2500     52.8241      0.0000    727.2254      9.7199
   371.5000     52.4016      0.0000    726.7155      9.8698
   371.7500     51.6515      0.0000    727.3135     10.0159
   372.0000     50.3640      0.0000    728.8995     10.1028
   372.2500     49.1121      0.0000    731.3043     10.0834
   372.5000     49.1069      0.0000    733.9588      9.9465
   372.7500     50.7969      0.0000    736.7332      9.7439
   373.0000     52.7115      0.0000    742.0431      9.5595
   373.2500     52.4269      0.0000    755.3800      9.4322
   373.5000     48.9417      0.0000    781.6151      9.3439
   373.7500     43.6277      0.0000    819.5520      9.2828
   374.0000     38.7620      0.0000    860.2455      9.2671
   374.2500     35.7239      2.0000    890.2077      9.3062
   374.5000     34.7087     -2.0000    896.2184      9.3861
   374.7500     35.3478      0.0000    870.3324      9.4936
   375.0000     36.9749      0.0000    814.0494      9.6467
   375.2500     38.6848      0.0000    738.4438      9.9101
   375.5000     39.9012      0.0000    660.7289     10.3793
   375.7500     41.1528      0.0000    600.5817     11.1019
   376.0000     44.0648      0.0000    574.4734     11.9878
   376.2500     50.1569      0.0000    586.5786     12.8341
   376.5000     59.1774      0.0000    624.4342     13.4569
   376.7500     68.6013      0.0000    667.1136     13.7909
   377.0000     75.2322      0.0000    699.1151     13.8773
   377.2500     77.6339      0.0000    716.2831     13.7971
   377.5000     77.0556      0.0000    720.9686     13.6286
   377.7500     76.0201      0.0000    714.2430     13.4419
   378.0000     76.0843      0.0000    692.5255     13.2973
   378.2500     76.9450      0.0000    650.8351     13.2314
   378.5000     77.4489      0.0000    590.1571     13.2473
   378.7500     76.9362      0.0000    521.9897     13.3135
   379.0000     75.4610      0.0000    464.0538     13.3729
   379.2500     73.4243      0.0000    430.7724     13.3691
   379.5000     71.5143      0.0000    427.6186     13.2891
   379.7500     70.4688      0.0000    450.5398     13.1871
   380.0000     70.2807      0.0000    485.6606     13.1512
   380.2500     69.8474      0.0000    511.7250     13.2279
   380.5000     67.8382      0.0000    511.3679     13.3805
   380.7500     64.0210      0.0000    484.0651     13.5322
   381.0000     59.6692      0.0000    445.2856     13.6383
   381.2500     56.5817      0.0000    411.8467     13.7019
   381.5000     55.7638      0.0000    390.2160     13.7342
   381.7500     57.1437      0.0000    377.5284     13.7323
   382.0000     60.3486      0.0000    369.1571     13.6986
   382.2500     65.2230      0.0000    363.4902     13.6595
   382.5000     71.3763      0.0000    361.6567     13.6489
   382.7500     77.6076      0.0000    365.1116     13.6778
   383.0000     82.3612      0.0000    374.4095     13.7317
   383.2500     84.9583      0.0000    389.7564     13.7935
   383.5000     86.1631      0.0000    411.2213     13.8495
   383.7500     87.4466      0.0000    437.2659     13.8656
   384.0000     89.7452      0.0000    463.5024     13.7971
   384.2500     92.7067      0.0000    483.6381     13.6449
   384.5000     94.9216      0.0000    492.2870     13.4726
   384.7500     95.0454      0.0000    488.2916     13.3540
   385.0000     92.8093      0.0000    476.2018     13.3293
   385.2500     88.8848      0.0000    463.4247     13.4100
   385.5000     84.1485      0.0000    456.4602     13.5851
   385.7500     79.4552      0.0000    461.6183     13.8148
   386.0000     75.7872      0.0000    485.7852     14.0479
   386.2500     74.0311      0.0000    529.7484     14.2543
   386.5000     74.5960      0.0000    580.0106     14.4289
   386.7500     77.3862      0.0000    612.2084     14.5752
   387.0000     81.8264      0.0000    606.5884     14.7087
   387.2500     86.6717      0.0000    562.0397     14.8618
   387.5000     90.2534      0.0000    497.0343     15.0620
   387.7500     91.4134      0.0000    437.2454     15.3088
   388.0000     90.1268      0.0000    400.8102     15.5795
   388.2500     87.1833      0.0000    392.7740     15.8405
   388.5000     83.6650      0.0000    408.9000     16.0496
   388.7500     80.7752      0.0000    440.4537     16.1685
   389.0000     79.4022      0.0000    476.3159     16.1909
   389.2500     79.2655      0.0000    505.4012     16.1554
   389.5000     78.9694      0.0000    520.7440     16.1210
   389.7500     77.4285      0.0000    523.1675     16.1250
   390.0000     74.9432      0.0000    521.3715     16.1552
   390.2500     72.6687      0.0000    525.9124     16.1593
   390.5000     71.4817      0.0000    540.7814     16.0828
   390.7500     71.5123      0.0000    561.4514     15.9002
   391.0000     72.2010      0.0000    581.2557     15.6339
   391.2500     72.4989      0.0000    596.1683     15.3617
   391.5000     71.4397      0.0000    600.9954     15.1898
   391.7500     68.8198      0.0000    585.9924     15.1741
   392.0000     65.1392      0.0000    544.7991     15.2599
   392.2500     60.9396      0.0000    485.0620     15.3263
   392.5000     56.6760      0.0000    425.5983     15.2931
   392.7500     53.1913      0.0000    382.2118     15.1688
   393.0000     51.5723      0.0000    358.7768     15.0164
   393.2500     52.2335      0.0000    350.7589     14.9028
   393.5000     54.5314      0.0000    353.4047     14.8616
   393.7500     57.3757      0.0000    366.0923     14.8719
   394.0000     59.9449      0.0000    391.4237     14.8784
   394.2500     61.9048      0.0000    431.5579     14.8384
   394.5000     63.2492      0.0000    484.6617     14.7509
   394.7500     64.0081      0.0000    543.5898     14.6573
   395.0000     64.1926      0.0000    598.0563     14.6086
   395.2500     64.0630      0.0000    639.4197     14.6030
   395.5000     64.1023      0.0000    664.6257     14.5717
   395.7500     64.5495      0.0000    676.0235     14.4602
   396.0000     65.2086      0.0000    677.6577     14.3086
   396.2500     65.6466      0.0000    672.0193     14.2122
   396.5000     65.2736      0.0000    659.7872     14.2139
   396.7500     63.5097      0.0000    641.2974     14.2656
   397.0000     60.3234      0.0000    617.2411     14.2836
   397.2500     56.6364      0.0000    588.8214     14.2159
   397.5000     54.1017      0.0000    559.1777     14.0725
