~Version Information
VERS.                      2.0: CWLS Log ASCII Standard - VERSION 2.0
WRAP.                       NO: One line per depth step
~Well Information Block
STRT.FT                -7.5000: 
STOP.FT              1336.0000: 
STEP.FT                 0.2500: 
NULL.                -999.2500: 
COMP.          Pioneer Natural Resources: COMPANY
WELL.               LPGC 32-32: WELL
FLD.           Purgatorie River: FIELD
LOC.           1937' FNL & 1661' FEL--: LOCATION
CNTY.               Las Animas: COUNTY
SRVC.          Patterson Wireline: SERVICE COMPANY
DATE.          Fri Feb 03 09:39:42 2006: LOG DATE
UWI.           05 071 08641 00: UNIQUE WELL ID
STAT.                       CO: STATE
~Curve Information Block
DEPT.FT            0 000 00 00: Depth
CCL.                          : Casing Collar Locator
TT3.usec                      : CBL 3' Travel Time
AMP3.mV                       : CBL 3' Amplitude
GR.GAPI                       : Gamma Ray
~Parameter Information Block
~A  Depth       CCL         TT3         AMP3         GR     
# ...
   863.5000      0.0000    368.4999     15.5973    106.7735
   863.7500      0.0000    379.0238     15.3696    109.7341
   864.0000      0.0000    385.7703     15.1407    109.9779
   864.2500      0.0000    386.2769     14.9446    107.4099
   864.5000      0.0000    381.9482     14.8098    103.4733
   864.7500      0.0000    377.0562     14.7416     99.8633
   865.0000      0.0000    375.4613     14.7188     97.2159
   865.2500      0.0000    378.2763     14.7087     95.0582
   865.5000      0.0000    384.6512     14.6823     92.7062
   865.7500      0.0000    394.4236     14.6263     90.0098
   866.0000      0.0000    409.4328     14.5483     87.5654
   866.2500      0.0000    431.2368     14.4749     86.6349
   866.5000      0.0000    456.4459     14.4439     88.7590
   866.7500      0.0000    474.7848     14.4984     95.0744
   867.0000      0.0000    474.7345     14.6765    105.6654
   867.2500      0.0000    453.4186     14.9850    119.2247
   867.5000      0.0000    419.9721     15.3775    133.2383
   867.7500      0.0000    388.1654     15.7626    144.9837
   868.0000      0.0000    367.0500     16.0453    152.8594
   868.2500      0.0000    358.8566     16.1693    156.8105
   868.5000      0.0000    362.7735     16.1353    157.4800
   868.7500      0.0000    377.9497     15.9922    155.3714
   869.0000      0.0000    403.1003     15.8122    151.2331
   869.2500      0.0000    435.4584     15.6646    146.9016
   869.5000      0.0000    471.6088     15.5949    144.7389
   869.7500      0.0000    507.7937     15.6163    145.6792
   870.0000      0.0000    537.4990     15.7095    148.2628
   870.2500      0.0000    551.7690     15.8326    150.0479
   870.5000      0.0000    547.9278     15.9370    149.5783
   870.7500      0.0000    537.4147     15.9884    146.7533
   871.0000      0.0000    537.4909     15.9810    142.0282
   871.2500      0.0000    552.3752     15.9312    135.9924
   871.5000      0.0000    567.6379     15.8541    129.5474
   871.7500      0.0000    565.8164     15.7495    123.9767
   872.0000      0.0000    544.0599     15.6116    120.5686
   872.2500      0.0000    515.2092     15.4481    120.1886
   872.5000      0.0000    496.1059     15.2824    123.1190
   872.7500      0.0000    497.3335     15.1364    128.9146
   873.0000      0.0000    519.5863     15.0150    136.0878
   873.2500      0.0000    553.3387     14.9110    142.2799
   873.5000      0.0000    581.2167     14.8172    145.3945
   873.7500      0.0000    586.1755     14.7327    144.7331
   874.0000      0.0000    563.2401     14.6607    140.7132
   874.2500      0.0000    525.2938     14.6030    133.5853
   874.5000      0.0000    496.2813     14.5578    123.1443
   874.7500      0.0000    496.1246     14.5229    109.8975
   875.0000      0.0000    528.3789     14.5031     95.7864
   875.2500      0.0000    579.0663     14.5112     83.2112
   875.5000      0.0000    626.9398     14.5624     73.6087
   875.7500      0.0000    656.5768     14.6670     67.2378
   876.0000      0.0000    664.4642     14.8231     63.8743
   876.2500      0.0000    656.9086     15.0132     63.1690
   876.5000      0.0000    645.3959     15.2080     64.4768
   876.7500      0.0000    641.4036     15.3771     66.8840
   877.0000      0.0000    650.2678     15.4970     69.6494
   877.2500      0.0000    668.3954     15.5531     72.4910
   877.5000      0.0000    687.7461     15.5412     75.3274
   877.7500      0.0000    702.7438     15.4700     77.9227
   878.0000      0.0000    712.4102     15.3577     79.8904
   878.2500      0.0000    717.9420     15.2199     80.9156
   878.5000      0.0000    720.2979     15.0616     80.8900
   878.7500      0.0000    719.7029     14.8785     79.8037
   879.0000      0.0000    716.1776     14.6636     77.4116
   879.2500      0.0000    710.2236     14.4115     73.2066
   879.5000      0.0000    703.2099     14.1256     67.1922
   879.7500      0.0000    696.8889     13.8247     60.6262
   880.0000      0.0000    692.4123     13.5379     55.4270
   880.2500      0.0000    689.8439     13.2861     52.6962
   880.5000      0.0000    688.5576     13.0702     52.0661
   880.7500      0.0000    687.8472     12.8783     52.4297
   881.0000      0.0000    686.9717     12.6967     52.9830
   881.2500      0.0000    684.5000     12.5094     53.4884
   881.5000      0.0000    677.4534     12.3008     53.8863
   881.7500      0.0000    661.7442     12.0718     54.2136
   882.0000      0.0000    635.8315     11.8382     55.1055
   882.2500      0.0000    606.0930     11.5794     58.0056
   882.5000      0.0000    586.8087     11.1994     64.3778
   882.7500      0.0000    590.2441     10.6091     74.5005
   883.0000      0.0000    615.4863      9.8682     86.9850
   883.2500      0.0000    649.3650      9.1848     99.4579
   883.5000      0.0000    677.9518      8.7398    109.7978
   883.7500     -1.5146    694.6687      8.5539    117.1655
   884.0000      2.0000    698.9957      8.5325    122.2800
   884.2500      0.0000    692.8463      8.5813    126.5993
   884.5000      0.0000    680.7064      8.6638    130.8663
   884.7500      0.0000    670.4138      8.7960    134.5821
   885.0000      0.0000    668.8450      9.0213    137.3950
   885.2500      0.0000    674.4766      9.3740    140.6189
   885.5000      0.0000    677.0366      9.8527    146.2688
   885.7500      0.0000    668.3816     10.4217    154.4912
   886.0000      0.0000    653.0320     11.0189    162.8162
   886.2500      0.0000    644.7286     11.5557    168.2266
   886.5000      0.0000    652.3431     11.9423    169.5117
   886.7500      0.0000    671.6182     12.1387    167.5656
   887.0000      0.0000    690.8946     12.1707    163.9091
   887.2500      0.0000    701.8873     12.1005    159.3231
   887.5000      0.0000    704.1266     11.9955    153.9645
   887.7500      0.0000    702.2192     11.9146    148.4796
   888.0000      0.0000    701.1733     11.8942    144.1106
   888.2500      0.0000    703.1226     11.9369    141.2620
   888.5000      0.0000    706.2742     12.0191    138.7652
   888.7500      0.0000    705.9893     12.1110    135.2868
   889.0000      0.0000    697.7635     12.1915    130.9279
   889.2500      0.0000    681.4354     12.2509    126.8613
   889.5000      0.0000    664.0071     12.2844    123.9280
   889.7500      0.0000    656.2896     12.2819    122.0545
   890.0000      0.0000    663.8640     12.2299    120.7168
   890.2500      0.0000    681.9152     12.1271    119.7992
   890.5000      0.0000    700.4240     11.9937    120.1240
   890.7500      0.0000    712.8781     11.8608    122.9467
   891.0000      0.0000    718.9094     11.7515    128.6688
   891.2500      0.0000    721.1031     11.6741    136.0409
   891.5000      0.0000    721.7411     11.6276    142.6251
   891.7500      0.0000    721.9406     11.6087    146.1798
   892.0000      0.0000    722.0737     11.6150    145.8797
   892.2500      0.0000    722.2063     11.6454    142.4959
   892.5000      0.0000    722.3400     11.6994    137.5642
   892.7500      0.0000    722.4431     11.7742    132.2342
   893.0000      0.0000    722.4063     11.8666    126.5853
   893.2500      0.0000    721.9063     11.9763    120.0501
   893.5000      0.0000    720.3981     12.1060    112.5471
   893.7500      0.0000    717.4383     12.2555    104.8428
   894.0000      0.0000    712.9855     12.4178     97.7527
   894.2500      0.0000    707.0651     12.5827     91.6167
   894.5000      0.0000    698.8386     12.7418     86.7781
   894.7500      0.0000    686.7850     12.8872     83.8143
   895.0000      0.0000    671.4329     13.0113     82.7745
   895.2500      0.0000    658.2256     13.1078     82.6934
   895.5000      0.0000    655.2452     13.1752     82.5248
   895.7500      0.0000    665.8444     13.2179     82.5237
   896.0000      0.0000    684.6616     13.2446     84.2845
   896.2500      0.0000    702.2315     13.2628     89.1980
   896.5000      0.0000    711.8170     13.2731     97.0525
   896.7500      0.0000    710.6191     13.2693    106.2049
