~Version Information
VERS.                      2.0: CWLS Log ASCII Standard - VERSION 2.0
WRAP.                       NO: One line per depth step
~Well Information Block
STRT.FT                -7.0000: 
STOP.FT              2517.5000: 
STEP.FT                 0.2500: 
NULL.                -999.2500: 
COMP.          Pioneer Natural Resources: COMPANY
WELL.          Horsefeathers 24-34: WELL
FLD.           Purgatoire River: FIELD
LOC.           183' FSL & 1570' FWL: LOCATION
CNTY.               Las Animas: COUNTY
SRVC.                         : SERVICE COMPANY
DATE.          Fri Mar 17 10:06:37 2006: LOG DATE
UWI.           05 071 08675 00: UNIQUE WELL ID
STAT.                       CO: STATE
~Curve Information Block
DEPT.FT            0 000 00 00: Depth
GR.GAPI                       : Gamma Ray
CCL.                          : Casing Collar Locator
TT3.usec                      : CBL 3' Travel Time
AMP3.mV                       : CBL 3' Amplitude
~Parameter Information Block
~A  Depth        GR         CCL         TT3         AMP3    
# ...
   160.5000     88.3045      0.0000    727.9981      8.3249
   160.7500     89.4898      0.0000    730.0397      8.2725
   161.0000     89.6910      0.0000    729.3138      8.2369
   161.2500     88.0080      0.0000    726.3509      8.2269
   161.5000     85.4592      0.0000    722.1736      8.2507
   161.7500     84.2055      0.0000    718.4542      8.3030
   162.0000     85.4886      0.0000    716.9639      8.3672
   162.2500     88.5477      0.0000    718.6844      8.4345
   162.5000     91.5436      0.0000    723.3924      8.5134
   162.7500     93.1551      0.0000    729.9257      8.6141
   163.0000     93.2829      0.0000    736.5640      8.7296
   163.2500     92.7858      0.0000    741.0385      8.8434
   163.5000     92.8108      0.0000    740.9627      8.9512
   163.7500     93.9975      0.0000    735.5534      9.0596
   164.0000     95.9902      0.0000    727.0877      9.1618
   164.2500     97.6601      0.0000    719.5919      9.2288
   164.5000     97.8994      0.0000    715.6000      9.2323
   164.7500     96.3952      0.0000    714.4728      9.1735
   165.0000     93.8330      0.0000    713.7086      9.0838
   165.2500     91.3896      0.0000    711.5613      9.0027
   165.5000     90.0809      0.0000    708.6804      8.9524
   165.7500     90.4443      0.0000    707.3448      8.9271
   166.0000     92.3582      0.0000    708.9576      8.9013
   166.2500     94.8932      0.0000    712.5394      8.8498
   166.5000     96.6762      0.0000    715.7803      8.7647
   166.7500     96.7498      0.0000    716.8897      8.6557
   167.0000     95.1208      0.0000    715.0953      8.5357
   167.2500     92.5637      0.0000    710.3983      8.4064
   167.5000     90.0206      0.0000    703.8637      8.2591
   167.7500     88.0367      0.0000    697.6661      8.0932
   168.0000     86.5128      0.0000    694.0929      7.9313
   168.2500     84.8755      0.0000    694.5186      7.8096
   168.5000     82.5403      0.0000    699.1791      7.7532
   168.7500     79.4030      0.0000    707.1890      7.7604
   169.0000     76.0212      0.0000    716.5573      7.8074
   169.2500     73.1014      0.0000    724.8812      7.8656
   169.5000     70.6983      0.0000    730.6374      7.9175
   169.7500     68.2473      0.0000    733.8632      7.9629
   170.0000     65.5960      0.0000    735.7001      8.0120
   170.2500     63.5619      0.0000    737.4272      8.0707
   170.5000     63.0570      0.0000    739.6287      8.1327
   170.7500     64.0383      0.0000    741.7964      8.1874
   171.0000     65.8038      0.0000    742.7482      8.2329
   171.2500     67.9944      0.0000    741.8090      8.2789
   171.5000     70.7553      0.0000    739.6319      8.3373
   171.7500     74.0533      0.0000    737.7083      8.4133
   172.0000     77.1690      0.0000    737.1234      8.4995
   172.2500     78.8468      0.0000    737.6728      8.5761
   172.5000     78.0193      0.0000    737.9177      8.6179
   172.7500     74.6965      0.0000    736.3487      8.6108
   173.0000     70.1291      0.0000    733.0082      8.5622
   173.2500     65.7938      0.0000    729.7686      8.4916
   173.5000     62.2467      0.0000    728.5810      8.4110
   173.7500     59.1649      0.0000    729.7677      8.3230
   174.0000     56.3303      0.0000    732.3372      8.2371
   174.2500     54.2346      0.0000    735.2693      8.1788
   174.5000     53.6821      0.0000    737.7159      8.1764
   174.7500     54.9783      0.0000    738.3306      8.2428
   175.0000     57.6285      0.0000    735.5351      8.3701
   175.2500     60.6647      0.0000    729.0204      8.5363
   175.5000     63.0110      0.0000    720.5760      8.7162
   175.7500     63.7239      0.0000    712.9872      8.8908
   176.0000     62.5947      0.0000    708.2301      9.0502
   176.2500     60.7880      0.0000    706.5728      9.1876
   176.5000     60.2347      0.0000    706.8327      9.2961
   176.7500     61.9904      0.0000    707.4789      9.3746
   177.0000     65.5598      0.0000    707.9686      9.4349
   177.2500     69.7949      0.0000    709.0828      9.4959
   177.5000     73.7372      0.0000    711.6169      9.5695
   177.7500     76.4859      0.0000    714.7849      9.6515
   178.0000     77.0545      0.0000    716.5642      9.7253
   178.2500     74.9479      0.0000    715.9038      9.7725
   178.5000     70.7777      0.0000    713.8785      9.7817
   178.7500     65.9517      0.0000    712.0536      9.7505
   179.0000     61.6460      0.0000    710.3273      9.6807
   179.2500     58.1203      0.0000    707.3918      9.5760
   179.5000     55.0669      0.0000    703.1058      9.4471
   179.7500     52.4589      0.0000    699.2493      9.3193
   180.0000     50.8258      0.0000    697.6393      9.2280
   180.2500     50.7007      0.0000    698.2386      9.1989
   180.5000     52.0373      0.0000    699.6774      9.2330
   180.7500     54.2528      0.0000    701.3430      9.3133
   181.0000     56.6096      0.0000    704.2309      9.4218
   181.2500     58.4524      0.0000    709.4685      9.5364
   181.5000     59.3859      0.0000    716.5483      9.6126
   181.7500     59.4878      0.0000    723.5617      9.5938
   182.0000     59.1608      0.0000    728.8894      9.4624
   182.2500     58.5919      0.0000    732.1840      9.2677
   182.5000     57.6209      0.0000    733.9327      9.0906
   182.7500     56.3660      0.0000    734.6700      8.9870
   183.0000     55.6952      0.0000    734.7231      8.9670
   183.2500     56.6353      0.0000    734.3452      9.0109
   183.5000     59.2250      0.0000    733.8188      9.0888
   183.7500     62.0861      0.0000    733.4510      9.1748
   184.0000     63.4421      0.0000    733.5510      9.2504
   184.2500     62.7668      0.0000    734.4211      9.2986
   184.5000     61.2434      0.0000    736.2659      9.3020
   184.7500     60.4190      0.0000    738.8820      9.2531
   185.0000     60.6708      0.0000    741.3492      9.1639
   185.2500     61.1944      0.0000    742.3801      9.0617
   185.5000     61.1280      0.0000    741.3917      8.9787
   185.7500     60.2162      0.0000    739.1271      8.9410
   186.0000     58.4574      0.0000    736.9500      8.9565
   186.2500     55.6417      0.0000    735.6766      9.0082
   186.5000     51.6518      0.0000    735.2426      9.0615
   186.7500     47.1202      0.0000    735.1593      9.0818
   187.0000     43.4010      0.0000    734.8442      9.0503
   187.2500     41.7381      0.0000    733.4120      8.9695
   187.5000     42.4808      0.0000    729.4102      8.8539
   187.7500     44.9223      0.0000    721.2779      8.7169
   188.0000     47.7735      0.0000    708.7545      8.5603
   188.2500     50.0294      0.0000    694.2130      8.3724
   188.5000     51.5006      0.0000    682.1699      8.1392
   188.7500     52.2751      0.0000    676.7853      7.8680
   189.0000     51.9227      0.0000    679.4881      7.6083
   189.2500     49.9696      0.0000    689.1938      7.4296
   189.5000     47.2605      0.0000    704.3454      7.3610
   189.7500     45.9837     -1.7429    723.2316      7.3605
   190.0000     47.6511     -2.0000    741.6728      7.3587
   190.2500     51.3358      0.0000    753.1075      7.3244
   190.5000     54.4320      0.0000    754.4481      7.2824
   190.7500     55.0430      0.0000    750.7269      7.2768
   191.0000     53.3376      0.0000    750.2504      7.3253
   191.2500     50.8301      0.0000    755.3896      7.4012
   191.5000     48.8525      0.0000    760.9091      7.4623
   191.7500     47.7863      0.0000    760.9290      7.4985
   192.0000     47.2565      0.0000    754.9248      7.5353
   192.2500     46.6368      0.0000    746.7664      7.5894
   192.5000     45.5368      0.0000    740.1978      7.6457
   192.7500     44.2104      0.0000    736.3773      7.6811
   193.0000     43.5419      0.0000    734.5396      7.6875
   193.2500     44.3687      0.0000    733.6096      7.6656
   193.5000     46.6692      0.0000    732.9988      7.6185
   193.7500     49.3924      0.0000    732.5356      7.5559
