~Version Information
VERS.                      2.0: CWLS Log ASCII Standard - VERSION 2.0
WRAP.                       NO: One line per depth step
~Well Information Block
STRT.FT               694.2000: 
STOP.FT              1498.5000: 
STEP.FT                 0.1000: 
NULL.                -999.2500: 
COMP.          Pioneer Natural Resources: COMPANY
WELL.          Pallet Ranch 34-25 Tr: WELL
FLD.           Purgatoire River: FIELD
LOC.           465' FSL & 2138' FEL: LOCATION
PROV.                 Colorado: PROVINCE
CNTY.               Las Animas: COUNTRY
SRVC.                Patterson: SERVICE COMPANY
DATE.          Thu Jan 19 06:39:54 2006: LOG DATE
UWI.           05 071 08657 00: UNIQUE WELL ID
~Curve Information Block
DEPT.FT            0 000 00 00: Depth
DCAL.in                       : CDL Caliper
RHOB.g/cc                     : CDL Bulk Density
RHOC.g/cc                     : CDL Density Correction
DPOR.pu                       : CDL Density Porosity
GR.GAPI                       : Gamma Ray
~Parameter Information Block
~A  Depth       DCAL        RHOB        RHOC        DPOR         GR     
# ...
  1276.6000      7.9389      2.5345      0.0550      6.9977    147.1924
  1276.7000      7.9389      2.4850      0.0304      9.9985    145.8692
  1276.8000      7.9216      2.4039     -0.0577     14.9172    142.6463
  1276.9000      7.9216      2.3334     -0.0765     19.1886    141.7314
  1277.0000      7.9394      2.3034     -0.0451     21.0067    144.0380
  1277.1000      7.9394      2.3021     -0.0228     21.0821    149.1121
  1277.2000      7.9394      2.3125     -0.0063     20.4536    155.1239
  1277.3000      7.9209      2.3329      0.0020     19.2159    157.2001
  1277.4000      7.9209      2.3624      0.0659     17.4313    155.3433
  1277.5000      7.9168      2.4011      0.0962     15.0840    157.4159
  1277.6000      7.9168      2.4481      0.1754     12.2373    167.3725
  1277.7000      7.9168      2.4856      0.1970      9.9656    179.5611
  1277.8000      7.9112      2.4987      0.1432      9.1691    183.8887
  1277.9000      7.9112      2.4959      0.0306      9.3410    180.8176
  1278.0000      7.9314      2.4894      0.0661      9.7351    178.6209
  1278.1000      7.9314      2.4855      0.0131      9.9710    173.1975
  1278.2000      7.9314      2.4935      0.0348      9.4827    158.3805
  1278.3000      7.9385      2.5123      0.0664      8.3455    146.8426
  1278.4000      7.9385      2.5304      0.0385      7.2465    151.6855
  1278.5000      7.9430      2.5504      0.0473      6.0339    167.9071
  1278.6000      7.9430      2.5817      0.0634      4.1421    179.4630
  1278.7000      7.9430      2.6134      0.1022      2.2210    176.7762
  1278.8000      7.9528      2.6266      0.1058      1.4176    167.5194
  1278.9000      7.9528      2.6216      0.0772      1.7212    163.4704
  1279.0000      7.9314      2.6106      0.0693      2.3860    167.8750
  1279.1000      7.9314      2.6003      0.0633      3.0120    173.5282
  1279.2000      7.9314      2.5962      0.0585      3.2617    172.8999
  1279.3000      7.9158      2.6033      0.0669      2.8288    167.9113
  1279.4000      7.9158      2.6115      0.1232      2.3330    164.0368
  1279.5000      7.9246      2.6016      0.0820      2.9343    161.7464
  1279.6000      7.9246      2.5746      0.0801      4.5724    159.5080
  1279.7000      7.9246      2.5530      0.0541      5.8817    158.8310
  1279.8000      7.9496      2.5527      0.0103      5.8969    160.1832
  1279.9000      7.9496      2.5638      0.0462      5.2222    158.8700
  1280.0000      7.9612      2.5564      0.0653      5.6751    152.0051
  1280.1000      7.9612      2.5158      0.0173      8.1344    143.8395
  1280.2000      7.9612      2.4586     -0.0415     11.6015    141.0858
  1280.3000      7.9672      2.3994     -0.0145     15.1904    142.8055
  1280.4000      7.9672      2.3413     -0.0360     18.7102    143.6771
  1280.5000      7.9512      2.2854     -0.0348     22.1000    141.5387
  1280.6000      7.9512      2.2106     -0.0153     26.6300    135.0299
  1280.7000      7.9512      2.0939     -0.0346     33.7056    124.9743
  1280.8000      7.9413      1.9613     -0.1133     41.7387    116.7883
  1280.9000      7.9413      1.8547     -0.0823     48.1985    110.4957
  1281.0000      7.9573      1.7631     -0.0297     53.7540    102.7281
  1281.1000      7.9573      1.6602     -0.0378     59.9878     94.0980
  1281.2000      7.9573      1.5654     -0.0641     65.7315     85.6073
  1281.3000      7.9160      1.5109     -0.0008     69.0359     77.5097
  1281.4000      7.9160      1.5000      0.0323     69.7000     71.6667
  1281.5000      7.9761      1.5168      0.0850     68.6807     67.4657
  1281.6000      7.9761      1.5367      0.1205     67.4753     61.5411
  1281.7000      7.9761      1.5417      0.1001     67.1714     54.1596
  1281.8000      8.1697      1.5359      0.0663     67.5226     49.6930
  1281.9000      8.1697      1.5256      0.0582     68.1444     49.7824
  1282.0000      8.4685      1.5033      0.0566     69.4960     52.9358
  1282.1000      8.4685      1.4676      0.0184     71.6615     58.2109
  1282.2000      8.4685      1.4334      0.0098     73.7319     62.0494
  1282.3000      8.5437      1.4068      0.0417     75.3451     59.1048
  1282.4000      8.5437      1.3768      0.0128     77.1665     52.2820
  1282.5000      8.2476      1.3498     -0.0584     78.8001     49.3459
  1282.6000      8.2476      1.3544     -0.0018     78.5223     53.1715
  1282.7000      8.2476      1.4084      0.0384     75.2497     59.9276
  1282.8000      7.9961      1.5150      0.0511     68.7903     64.4491
  1282.9000      7.9961      1.6614      0.1297     59.9148     67.1968
  1283.0000      8.1408      1.8229      0.1950     50.1291     71.6916
  1283.1000      8.1408      1.9918      0.2053     39.8890     78.3087
  1283.2000      8.1408      2.1622      0.2870     29.5651     82.7309
  1283.3000      8.3897      2.3033      0.3313     21.0135     80.4671
  1283.4000      8.3897      2.4033      0.2866     14.9516     75.9366
  1283.5000      8.4336      2.4835      0.2589     10.0899     75.3265
  1283.6000      8.4336      2.5444      0.1965      6.3983     78.1494
  1283.7000      8.4336      2.5659      0.1277      5.0945     84.8254
  1283.8000      8.4242      2.5530      0.0506      5.8809     95.9217
  1283.9000      8.4242      2.5340      0.0453      7.0274    108.8824
  1284.0000      8.1410      2.5303     -0.0051      7.2547    120.9916
  1284.1000      8.1410      2.5404      0.0594      6.6417    126.4419
  1284.2000      8.1410      2.5593     -0.0073      5.4994    121.0325
  1284.3000      7.9218      2.5870      0.0644      3.8182    109.5090
  1284.4000      7.9218      2.6080      0.0779      2.5458     97.3815
  1284.5000      7.8844      2.6155      0.0161      2.0914     87.6642
  1284.6000      7.8844      2.6248      0.0358      1.5288     84.8123
  1284.7000      7.8844      2.6385      0.0678      0.6957     88.3235
  1284.8000      7.8862      2.6450      0.1079      0.3016     93.3207
  1284.9000      7.8862      2.6422      0.0982      0.4703     95.8460
  1285.0000      7.8789      2.6332      0.1058      1.0174     94.4638
  1285.1000      7.8789      2.6147      0.0797      2.1390     91.5443
  1285.2000      7.8789      2.5904      0.0593      3.6100     89.9815
  1285.3000      7.8396      2.5617      0.1058      5.3529     90.5263
  1285.4000      7.8396      2.5193      0.0494      7.9221     92.9441
  1285.5000      7.8492      2.4751     -0.0043     10.6018     96.6054
  1285.6000      7.8492      2.4582      0.0135     11.6229     99.3185
  1285.7000      7.8492      2.4751      0.0232     10.6030    104.7882
  1285.8000      7.8407      2.5035      0.0581      8.8811    115.8018
  1285.9000      7.8407      2.5244      0.0943      7.6108    122.9896
  1286.0000      7.7773      2.5443      0.0902      6.4078    119.6717
  1286.1000      7.7773      2.5735      0.1749      4.6361    112.4713
  1286.2000      7.7773      2.5990      0.1798      3.0915    110.3810
  1286.3000      7.7822      2.6036      0.1820      2.8112    111.0678
  1286.4000      7.7822      2.5961      0.1125      3.2674    111.1763
  1286.5000      7.7894      2.5979      0.1299      3.1585    111.6250
  1286.6000      7.7894      2.6142      0.1404      2.1703    108.1860
  1286.7000      7.7894      2.6428      0.1215      0.4366     98.5796
  1286.8000      7.8353      2.6812      0.1154     -1.8904     90.8070
  1286.9000      7.8353      2.7189      0.1060     -4.1780     91.1163
  1287.0000      7.8588      2.7481      0.1252     -5.9475     95.7662
  1287.1000      7.8588      2.7618      0.1418     -6.7752     96.4123
  1287.2000      7.8588      2.7560      0.0960     -6.4244     91.1037
  1287.3000      7.8481      2.7420      0.1127     -5.5735     86.6520
  1287.4000      7.8481      2.7355      0.0190     -5.1835     88.5268
  1287.5000      7.8290      2.7312      0.0810     -4.9199     94.8872
  1287.6000      7.8290      2.7089      0.0501     -3.5710     98.7627
  1287.7000      7.8290      2.6786     -0.0051     -1.7304     97.7747
