~Version Information
VERS.                      2.0: CWLS Log ASCII Standard - VERSION 2.0
WRAP.                       NO: One line per depth step
~Well Information Block
STRT.FT               830.0000: 
STOP.FT              2368.5000: 
STEP.FT                 0.1000: 
NULL.                -999.2500: 
COMP.          Pioneer Natural Resources: COMPANY
WELL.              Rolls 14-14: WELL
FLD.           Purgatoire River: FIELD
LOC.           572' FSL & 856' FWL: LOCATION
PROV.                 Colorado: PROVINCE
CNTY.               Las Animas: COUNTRY
SRVC.                Patterson: SERVICE COMPANY
DATE.          Mon Aug 01 05:48:31 2005: LOG DATE
UWI.           05 071 08455 00: UNIQUE WELL ID
~Curve Information Block
DEPT.FT            0 000 00 00: Depth
DCAL.in                       : CDL Caliper
RHOB.g/cc                     : CDL Bulk Density
RHOC.g/cc                     : CDL Density Correction
DPOR.pu                       : CDL Density Porosity
GR.GAPI                       : Gamma Ray
NPOR.pu                       : Neutron Porosity
~Parameter Information Block
~A  Depth       DCAL        RHOB        RHOC        DPOR         GR         NPOR    
# ...
  1137.2000      8.1114      2.5343     -0.0041      7.0117    135.7362     23.9636
  1137.3000      8.1170      2.5295      0.0113      7.3046    134.5897     24.1268
  1137.4000      8.1170      2.5337      0.0456      7.0464    127.8685     23.8900
  1137.5000      8.1125      2.5319      0.0008      7.1597    120.6767     23.7592
  1137.6000      8.1125      2.5235      0.0371      7.6685    118.9100     23.8894
  1137.7000      8.1125      2.5192     -0.0231      7.9265    122.7836     24.2525
  1137.8000      8.1156      2.5267      0.0128      7.4741    125.7034     24.6174
  1137.9000      8.1156      2.5396     -0.0092      6.6894    124.6322     24.9370
  1138.0000      8.1491      2.5484      0.0463      6.1576    121.2460     25.2601
  1138.1000      8.1491      2.5508      0.0394      6.0129    118.6783     25.1724
  1138.2000      8.1491      2.5509      0.0413      6.0061    123.2334     24.6149
  1138.3000      8.1448      2.5557     -0.0072      5.7147    134.1181     24.4219
  1138.4000      8.1448      2.5698      0.0074      4.8610    142.0844     24.9143
  1138.5000      8.1600      2.5811      0.0350      4.1751    144.0521     25.3680
  1138.6000      8.1600      2.5779      0.0088      4.3669    140.6843     25.3643
  1138.7000      8.1600      2.5660      0.0441      5.0888    133.9479     25.2488
  1138.8000      8.1673      2.5512     -0.0098      5.9870    130.9452     25.3485
  1138.9000      8.1673      2.5346      0.0098      6.9931    132.3735     25.5230
  1139.0000      8.1652      2.5176      0.0119      8.0265    133.2655     25.5560
  1139.1000      8.1652      2.5055     -0.0277      8.7585    134.2669     25.7346
  1139.2000      8.1652      2.5038      0.0046      8.8613    137.5353     26.0351
  1139.3000      8.1709      2.5076     -0.0346      8.6277    141.3384     25.9976
  1139.4000      8.1709      2.5068      0.0535      8.6806    141.1792     25.8885
  1139.5000      8.1733      2.4982      0.0003      9.1975    135.9224     26.2267
  1139.6000      8.1733      2.4906     -0.0048      9.6623    131.3089     26.9600
  1139.7000      8.1733      2.4828      0.0051     10.1344    132.4620     27.5989
  1139.8000      8.1978      2.4680     -0.0300     11.0300    138.6126     27.9079
  1139.9000      8.1978      2.4506     -0.0043     12.0819    141.4149     27.9760
  1140.0000      8.1764      2.4394     -0.0625     12.7629    137.5893     27.5871
  1140.1000      8.1764      2.4399     -0.0478     12.7339    132.1603     26.7324
  1140.2000      8.1764      2.4522     -0.0285     11.9852    127.1599     25.9801
  1140.3000      8.1887      2.4706      0.0454     10.8743    124.2329     25.5484
  1140.4000      8.1887      2.4843      0.0747     10.0407    125.5368     25.3261
  1140.5000      8.1495      2.4967      0.0667      9.2926    131.2118     25.3925
  1140.6000      8.1495      2.5242      0.1225      7.6245    140.6765     25.8213
  1140.7000      8.1495      2.5649      0.1581      5.1558    150.7291     26.4552
  1140.8000      8.1054      2.5942      0.2085      3.3821    154.2258     26.7967
  1140.9000      8.1054      2.5949      0.2121      3.3381    149.5067     26.5835
  1141.0000      8.0852      2.5769      0.1585      4.4303    144.1789     26.0301
  1141.1000      8.0852      2.5641      0.0959      5.2058    142.5426     25.5892
  1141.2000      8.0852      2.5700      0.1202      4.8468    145.2760     25.6066
  1141.3000      8.0837      2.5841      0.1310      3.9962    150.0274     25.8196
  1141.4000      8.0837      2.5898      0.1300      3.6494    151.5389     25.8453
  1141.5000      8.1251      2.5808      0.1580      4.1933    150.1077     25.8350
  1141.6000      8.1251      2.5561      0.0765      5.6930    148.9143     25.8828
  1141.7000      8.1251      2.5221      0.0866      7.7533    149.3017     25.7308
  1141.8000      8.1297      2.4944      0.0362      9.4320    149.2612     25.2845
  1141.9000      8.1297      2.4889      0.0593      9.7662    148.3462     24.7607
  1142.0000      8.1317      2.5038      0.0926      8.8618    148.1107     24.4165
  1142.1000      8.1317      2.5220      0.0901      7.7599    146.9389     24.1993
  1142.2000      8.1317      2.5297      0.0597      7.2924    145.9514     24.2272
  1142.3000      8.1272      2.5280      0.0320      7.3913    149.3453     24.7335
  1142.4000      8.1272      2.5240      0.0631      7.6339    152.8312     25.3289
  1142.5000      8.1247      2.5227      0.0524      7.7128    150.4127     25.4864
  1142.6000      8.1247      2.5313      0.0532      7.1943    143.5323     25.3785
  1142.7000      8.1247      2.5435      0.1027      6.4539    135.3284     25.3088
  1142.8000      8.1237      2.5437      0.0644      6.4449    132.2043     25.3143
  1142.9000      8.1237      2.5341      0.0450      7.0243    137.0313     25.4455
  1143.0000      8.1143      2.5231      0.0368      7.6906    144.4564     25.6788
  1143.1000      8.1143      2.5054      0.0074      8.7655    149.4573     25.8856
  1143.2000      8.1143      2.4775      0.0254     10.4574    149.3305     26.0958
  1143.3000      8.1124      2.4509     -0.0026     12.0645    146.8057     26.2826
  1143.4000      8.1124      2.4473      0.0075     12.2822    146.7876     26.3055
  1143.5000      8.1119      2.4725      0.0165     10.7566    146.3646     26.4318
  1143.6000      8.1119      2.5029      0.0618      8.9144    140.2461     26.9794
  1143.7000      8.1119      2.5267      0.0187      7.4724    130.0659     27.5341
  1143.8000      8.1186      2.5577      0.0326      5.5949    122.0752     27.6155
  1143.9000      8.1186      2.5912      0.1088      3.5664    119.1179     27.3934
  1144.0000      8.1405      2.6053      0.1584      2.7074    118.7185     27.1408
  1144.1000      8.1405      2.6006      0.0613      2.9941    121.1657     26.8903
  1144.2000      8.1405      2.5943      0.0464      3.3741    127.7376     26.7352
  1144.3000      8.1290      2.5851      0.0868      3.9359    131.7065     26.7268
  1144.4000      8.1290      2.5696      0.0186      4.8742    128.5819     26.7009
  1144.5000      8.0817      2.5650      0.0338      5.1526    125.3802     26.5283
  1144.6000      8.0817      2.5797      0.0630      4.2619    125.9021     26.1187
  1144.7000      8.0817      2.6024      0.0273      2.8874    128.8901     25.5828
  1144.8000      8.0982      2.6124      0.0345      2.2759    136.4158     25.3161
  1144.9000      8.0982      2.6015      0.0267      2.9390    147.1074     25.6714
  1145.0000      8.1074      2.5905     -0.0050      3.6087    152.2061     26.3464
  1145.1000      8.1074      2.5904      0.0283      3.6119    147.6633     26.3827
  1145.2000      8.1074      2.5774      0.0474      4.4013    139.0016     25.6821
  1145.3000      8.1193      2.5430     -0.0064      6.4830    130.9274     25.0774
  1145.4000      8.1193      2.5146     -0.0360      8.2042    125.7604     24.7766
  1145.5000      8.1466      2.5030      0.0197      8.9107    125.9940     24.6238
  1145.6000      8.1466      2.4953     -0.0109      9.3758    128.9050     24.7600
  1145.7000      8.1466      2.4990     -0.0721      9.1541    129.8584     25.3535
  1145.8000      8.1480      2.5269     -0.0100      7.4581    128.4980     25.9244
  1145.9000      8.1480      2.5623      0.0452      5.3165    126.8043     25.9271
  1146.0000      8.1530      2.5816      0.0167      4.1470    124.7481     25.8203
  1146.1000      8.1530      2.5835      0.0608      4.0333    121.2521     25.9200
  1146.2000      8.1530      2.5803      0.0522      4.2265    117.7418     25.6629
  1146.3000      8.1610      2.5811      0.1004      4.1783    116.0279     24.9656
  1146.4000      8.1610      2.5817      0.0768      4.1400    114.4943     24.1479
  1146.5000      8.1535      2.5750      0.0626      4.5484    112.0796     23.3094
  1146.6000      8.1535      2.5623     -0.0095      5.3166    111.3989     22.5801
  1146.7000      8.1535      2.5550     -0.0159      5.7557    113.3748     22.1183
