~Version Information
VERS.                      2.0: CWLS Log ASCII Standard - VERSION 2.0
WRAP.                       NO: One line per depth step
~Well Information Block
STRT.FT               570.0000: 
STOP.FT              1954.5000: 
STEP.FT                 0.1000: 
NULL.                -999.2500: 
COMP.          Petrogulf Corporation: COMPANY
WELL.            Montoya 7-14R: WELL
FLD.           Purgatorie River: FIELD
LOC.           628' FSL & 454' FWL: LOCATION
PROV.                 Colorado: PROVINCE
CNTY.               Las Animas: COUNTRY
SRVC.                Patterson: SERVICE COMPANY
DATE.          Mon Oct 10 07:31:15 2005: LOG DATE
UWI.                          : UNIQUE WELL ID
~Curve Information Block
DEPT.FT            0 000 00 00: Depth
DCAL.in                       : CDL Caliper
RHOB.g/cc                     : CDL Bulk Density
RHOC.g/cc                     : CDL Density Correction
DPOR.pu                       : CDL Density Porosity
GR.GAPI                       : Gamma Ray
NPOR.pu                       : Neutron Porosity
~Parameter Information Block
~A  Depth       DCAL        RHOB        RHOC        DPOR         GR         NPOR    
# ...
   934.8000      7.9823      2.4501      0.0440     12.1172     74.5449     21.9084
   934.9000      7.9823      2.4532      0.0707     11.9279     77.6478     22.3572
   935.0000      7.9635      2.4526      0.0253     11.9641     80.7177     22.6002
   935.1000      7.9635      2.4598      0.0627     11.5299     82.8739     22.8523
   935.2000      7.9635      2.4792      0.0757     10.3508     86.4052     23.2912
   935.3000      7.9555      2.4996      0.1076      9.1142     91.4810     23.7082
   935.4000      7.9555      2.5085      0.0834      8.5778     96.2988     23.8757
   935.5000      7.9542      2.5068      0.0634      8.6767     99.3081     23.7710
   935.6000      7.9542      2.5014      0.0634      9.0071     98.9628     23.6027
   935.7000      7.9542      2.5004      0.0553      9.0688     97.1835     23.6666
   935.8000      7.9570      2.5051      0.0916      8.7799     96.6184     23.9416
   935.9000      7.9570      2.5057      0.0796      8.7465     95.9225     24.1872
   936.0000      7.9576      2.5059      0.0411      8.7306     94.8468     24.3882
   936.1000      7.9576      2.5192      0.0745      7.9289     96.4995     24.4816
   936.2000      7.9576      2.5406      0.0624      6.6308     98.7315     24.4036
   936.3000      7.9654      2.5563      0.0864      5.6787     95.5409     24.4193
   936.4000      7.9654      2.5606      0.1071      5.4190     89.6336     24.5293
   936.5000      7.9555      2.5544      0.0678      5.7909     86.8049     24.5031
   936.6000      7.9555      2.5423      0.1081      6.5263     85.3060     24.3015
   936.7000      7.9555      2.5316      0.0477      7.1779     83.4155     24.0366
   936.8000      7.9473      2.5241      0.0416      7.6304     84.0707     23.7687
   936.9000      7.9473      2.5116      0.0526      8.3878     88.4586     23.4720
   937.0000      7.9423      2.4941      0.0558      9.4486     92.5032     23.1930
   937.1000      7.9423      2.4843      0.0164     10.0432     92.4117     22.9941
   937.2000      7.9423      2.4853      0.0482      9.9811     87.7451     22.9612
   937.3000      7.9429      2.4909      0.0425      9.6431     80.8917     23.0111
   937.4000      7.9429      2.5021      0.0468      8.9629     76.3934     23.0460
   937.5000      7.9510      2.5144      0.0677      8.2157     75.4496     23.1235
   937.6000      7.9510      2.5153      0.0647      8.1664     76.6439     23.2132
   937.7000      7.9510      2.5017      0.0399      8.9882     78.6194     23.1720
   937.8000      7.9507      2.4794      0.0461     10.3420     78.7063     22.8013
   937.9000      7.9507      2.4562      0.0118     11.7450     75.7651     22.2536
   938.0000      7.9480      2.4484      0.0047     12.2191     73.4482     21.8092
   938.1000      7.9480      2.4656      0.0413     11.1734     74.7061     21.3719
   938.2000      7.9480      2.4945      0.0593      9.4271     75.8131     20.9015
   938.3000      7.9508      2.5094      0.0890      8.5224     74.2648     20.5364
   938.4000      7.9508      2.4970      0.0832      9.2732     72.5472     20.3038
   938.5000      7.9442      2.4735      0.0414     10.6965     71.9824     20.1642
   938.6000      7.9442      2.4651      0.0299     11.2032     71.9286     20.1327
   938.7000      7.9442      2.4715      0.0908     10.8184     73.2107     20.3405
   938.8000      7.9437      2.4752      0.0870     10.5947     75.2678     20.7389
   938.9000      7.9437      2.4720      0.0705     10.7879     76.6051     21.0624
   939.0000      7.9390      2.4718      0.0790     10.8026     78.8675     21.2304
   939.1000      7.9390      2.4818      0.0960     10.1933     83.4675     21.3240
   939.2000      7.9390      2.5046      0.0630      8.8137     90.4408     21.4276
   939.3000      7.9347      2.5433      0.1120      6.4640     98.9487     21.6420
   939.4000      7.9347      2.5885      0.1557      3.7245    105.7805     21.8630
   939.5000      7.9433      2.6237      0.1351      1.5948    108.1214     21.9068
   939.6000      7.9433      2.6479      0.1260      0.1258    109.3563     21.8970
   939.7000      7.9433      2.6639      0.1557     -0.8431    114.6548     22.0689
   939.8000      7.9350      2.6629      0.1487     -0.7835    121.0116     22.2927
   939.9000      7.9350      2.6400      0.1175      0.6055    122.7340     22.4152
   940.0000      7.9157      2.6062      0.0956      2.6537    121.4056     22.8282
   940.1000      7.9157      2.5796      0.0315      4.2642    120.6794     23.7370
   940.2000      7.9157      2.5658      0.0495      5.1054    118.7125     24.6630
   940.3000      7.9177      2.5582      0.0369      5.5650    114.4141     25.2027
   940.4000      7.9177      2.5605      0.0148      5.4228    109.9470     25.3600
   940.5000      7.9369      2.5757      0.0490      4.5002    105.3482     25.1264
   940.6000      7.9369      2.5924      0.0570      3.4916    101.2226     24.4820
   940.7000      7.9369      2.5993      0.0382      3.0736     99.3132     23.6373
   940.8000      7.9411      2.5951      0.0525      3.3284     99.1852     22.9456
   940.9000      7.9411      2.5816      0.0686      4.1484    100.4476     22.6912
   941.0000      7.9443      2.5658      0.0201      5.1020    102.0656     22.5894
   941.1000      7.9443      2.5582      0.0333      5.5646     99.0059     22.3082
   941.2000      7.9443      2.5594      0.0179      5.4917     92.2423     22.2048
   941.3000      7.9858      2.5658      0.0406      5.1007     89.3247     22.3707
   941.4000      7.9858      2.5661      0.0382      5.0878     90.8793     22.3804
   941.5000      7.9756      2.5523     -0.0189      5.9200     91.8693     22.1328
   941.6000      7.9756      2.5369      0.0190      6.8556     91.3665     21.7940
   941.7000      7.9756      2.5314     -0.0041      7.1903     90.5210     21.3573
   941.8000      7.9903      2.5299     -0.0221      7.2758     91.0112     20.7470
   941.9000      7.9903      2.5249     -0.0154      7.5801     93.9453     20.1453
   942.0000      7.9900      2.5229     -0.0189      7.7033     95.2919     19.9090
   942.1000      7.9900      2.5280     -0.0214      7.3917     93.6738     20.1495
   942.2000      7.9900      2.5308      0.0239      7.2247     94.2232     20.7059
   942.3000      7.9912      2.5328     -0.0259      7.1019     97.1860     21.3796
   942.4000      7.9912      2.5462     -0.0088      6.2927     98.5691     21.8899
   942.5000      7.9751      2.5604      0.0464      5.4322     98.5839     21.9488
   942.6000      7.9751      2.5629     -0.0120      5.2764     99.9807     21.6291
   942.7000      7.9751      2.5574      0.0810      5.6132    102.7177     21.1565
   942.8000      7.9272      2.5411      0.0219      6.6018    103.1816     20.5325
   942.9000      7.9272      2.5231      0.0008      7.6920    100.1390     19.8008
   943.0000      7.9143      2.5242     -0.0121      7.6258     97.0405     19.4033
   943.1000      7.9143      2.5394      0.0208      6.7001     95.5900     19.7162
   943.2000      7.9143      2.5440      0.0668      6.4214     95.7487     20.3116
   943.3000      7.9168      2.5356      0.0232      6.9352     98.5619     20.5460
   943.4000      7.9168      2.5324      0.0657      7.1258    103.0645     20.5791
   943.5000      7.9198      2.5435      0.0238      6.4570    104.0185     20.8622
   943.6000      7.9198      2.5692      0.0507      4.8967     98.7546     21.2293
   943.7000      7.9198      2.5920      0.1101      3.5173     91.4471     21.3116
   943.8000      7.9181      2.5907      0.0965      3.5957     86.7769     21.0160
   943.9000      7.9181      2.5745      0.0573      4.5774     87.1135     20.4057
   944.0000      7.9351      2.5563      0.0897      5.6767     91.5459     19.5998
   944.1000      7.9351      2.5340      0.0106      7.0273     95.6699     18.6752
   944.2000      7.9351      2.5098      0.0027      8.4952     95.0707     17.9970
   944.3000      7.9539      2.4911     -0.0083      9.6291     90.0745     17.9528
