~Version Information
VERS.                      2.0: CWLS Log ASCII Standard - VERSION 2.0
WRAP.                       NO: One line per depth step
~Well Information Block
STRT.FT                -8.5000: 
STOP.FT              1263.2500: 
STEP.FT                 0.2500: 
NULL.                -999.2500: 
COMP.          Pioneer Natural Resources: COMPANY
WELL.          Rockfish 11-30 Tr: WELL
FLD.           Purgatoire River: FIELD
LOC.           1063' FNL & 1068' FWL--: LOCATION
STAT.                       CO: State
CNTY.               Las Animas: COUNTY
CTRY. USA : country
SECT. 30 : Section
TOWN. 32S : Township
RANG. 65W : Range
SRVC.          Patterson Wireline: SERVICE COMPANY
DATE.          Tue Nov 22 16:08:49 2005: LOG DATE
API.           05 071 08585 00: UNIQUE WELL ID
~Curve Information Block
DEPT.FT            0 000 00 00: Depth
HVOLTA.V                      : Head Voltage Apparent
CCL.                          : Casing Collar Locator
TT3.usec                      : CBL 3' Travel Time
AMP3.mV                       : CBL 3' Amplitude
GR.GAPI                       : Gamma Ray
~Parameter Information Block
PPT.usec                0.0000: Predicted Pipe Time
~A  Depth      HVOLTA       CCL         TT3         AMP3         GR     
# ...
    75.5000     96.0711      0.0000    955.9612     12.7834     90.5133
    75.7500     96.1580      0.0000    969.2242     12.7767     93.0291
    76.0000     96.1328      0.0000    990.2927     12.8163     95.7667
    76.2500     96.1538      0.0000   1014.2254     12.8685     97.1497
    76.5000     96.1047      0.0000   1034.5090     12.9101     95.6069
    76.7500     96.1580      0.0000   1047.7789     12.9339     91.2091
    77.0000     96.1650      0.0000   1054.3474     12.9464     85.8735
    77.2500     96.0977      0.0000   1058.3345     12.9545     81.7511
    77.5000     96.1047      0.0000   1066.3005     12.9551     79.4703
    77.7500     96.2197      0.0000   1080.9999     12.9413     78.1566
    78.0000     96.1566      0.0000   1096.8979     12.9212     77.1903
    78.2500     96.2394      0.0000   1105.8861     12.9247     77.3631
    78.5000     96.2450      0.0000   1107.2661     12.9852     79.7306
    78.7500     96.1300      0.0000   1108.5391     13.1066     83.7137
    79.0000     96.2464      0.0000   1116.3694     13.2529     87.1332
    79.2500     96.0822      0.0000   1129.7825     13.3719     88.2124
    79.5000     96.1903      0.0000   1142.9568     13.4295     87.2089
    79.7500     96.2239      0.0000   1151.7391     13.4212     86.0187
    80.0000     96.2156      0.0000   1155.9674     13.3587     86.2424
    80.2500     96.1594      0.0000   1157.4861     13.2501     87.6249
    80.5000     96.2197      0.0000   1157.8988     13.0981     88.5891
    80.7500     96.2128      0.0000   1157.9845     12.9164     88.2837
    81.0000     96.1580      0.0000   1158.0000     12.7439     87.5495
    81.2500     96.1510      0.0000   1158.0000     12.6268     87.6607
    81.5000     96.0444      0.0000   1158.0000     12.5778     88.7264
    81.7500     96.0079      0.0000   1157.9758     12.5557     89.7245
    82.0000     96.2114      0.0000   1157.8185     12.4912     89.7399
    82.2500     96.2100      0.0000   1157.0193     12.3354     88.9249
    82.5000     96.1805      0.0000   1153.8586     12.0902     88.3630
    82.7500     96.2450      0.0000   1144.1233     11.7988     88.9344
    83.0000     96.2058      0.0000   1120.7695     11.5110     90.2231
    83.2500     96.1230      0.0000   1077.1350     11.2566     90.8111
    83.5000     96.1594      0.0000   1013.6293     11.0452     89.8063
    83.7500     96.1286      0.0000    941.6174     10.8810     87.7113
    84.0000     96.2352      0.0000    877.9625     10.7696     85.5226
    84.2500     96.0107      0.0000    834.0458     10.7161     83.2821
    84.5000     96.1524      0.0000    810.3234     10.7174     80.0419
    84.7500     96.0163      0.0000    800.2057     10.7559     75.3280
    85.0000     96.1230      0.0000    796.7130     10.7988     70.2095
    85.2500     96.1272      0.0000    795.6570     10.8094     66.4366
    85.5000     96.3250      0.0000    795.2999     10.7658     64.6365
    85.7500     96.0697      0.0000    795.0953     10.6709     63.9594
    86.0000     96.0599      0.0000    794.9093     10.5432     63.4972
    86.2500     96.2689      0.0000    794.7224     10.4055     63.2610
    86.5000     96.0416      0.0000    794.5523     10.2863     63.5389
    86.7500     96.2338      0.0000    794.4053     10.2177     64.0751
    87.0000     96.1033      0.0000    794.2734     10.2187     64.3323
    87.2500     96.2297      0.0000    794.1484     10.2788     64.1136
    87.5000     96.0766      0.0000    794.0280     10.3653     63.5455
    87.7500     96.0121      0.0000    793.9138     10.4491     62.7072
    88.0000     96.1889      0.0000    793.8181     10.5226     61.5843
    88.2500     96.1945      0.0000    793.7724     10.5984     60.2783
    88.5000     96.0752      0.0000    793.8063     10.6920     59.0337
    88.7500     96.1033      0.0000    793.9057     10.8064     57.9816
    89.0000     96.1833      0.0000    794.0040     10.9276     57.0240
    89.2500     96.1314      0.0000    794.0329     11.0356     56.1041
    89.5000     96.2436      0.0000    793.9783     11.1201     55.5147
    89.7500     96.1636      0.0000    793.8831     11.1830     55.6938
    90.0000     96.2183      0.0000    793.8092     11.2245     56.6250
    90.2500     96.1384      0.0000    793.8128     11.2350     57.5528
    90.5000     96.1917      0.0000    793.9386     11.2085     57.4590
    90.7500     96.1384      0.0000    794.2081     11.1579     55.8622
    91.0000     96.1903      0.0000    794.5960     11.1103     53.1232
    91.2500     96.1131      0.0000    795.0224     11.0850     50.1304
    91.5000     96.2506      0.0000    795.3856     11.0777     47.8761
    91.7500     96.2211      0.0000    795.6473     11.0658     47.1109
    92.0000     96.2211      0.0000    795.9355     11.0278     47.9866
    92.2500     96.3081      0.0000    796.8399     10.9570     49.9772
    92.5000     96.1903      0.0000    800.1346     10.8582     52.3504
    92.7500     96.2450      0.0000    809.9486     10.7455     54.7574
    93.0000     96.1314      0.0000    832.7906     10.6459     57.2091
    93.2500     96.1005      0.0000    873.5475     10.5914     59.4430
    93.5000     96.2239      0.0000    927.5232     10.5930     60.5820
    93.7500     96.2506      0.0000    976.2268     10.6203     59.6331
    94.0000     96.1300      0.0000    996.0688     10.6188     56.3454
    94.2500     96.1636      0.0000    976.0715     10.5528     51.5503
    94.5000     96.2114      0.0000    927.2205     10.4350     46.7318
    94.7500     96.1033      0.0000    873.1108     10.3219     43.2811
    95.0000     96.1833      0.0000    832.2413     10.2786     41.9395
    95.2500     96.0738      0.0000    809.3184     10.3369     42.5948
    95.5000     96.0879      0.0000    799.4590     10.4750     44.3476
    95.7500     96.0752      0.0000    796.1586     10.6371     45.8701
    96.0000     96.1524      0.0000    795.3120     10.7746     46.1063
    96.2500     96.0963      0.0000    795.1750     10.8687     44.9983
    96.5000     96.0402      0.0000    795.1411     10.9221     43.5858
    96.7500     95.9883      0.0000    795.0079     10.9419     43.2220
    97.0000     96.2380      0.0000    794.7374     10.9403     44.3712
    97.2500     96.0724      0.0000    794.4117     10.9464     46.1402
    97.5000     96.0641      0.0000    794.1495     11.0045     47.2328
    97.7500     96.0963      0.0000    794.0319     11.1445     47.2456
    98.0000     96.0402      0.0000    794.0674     11.3532     46.7411
    98.2500     96.1791      0.0000    794.2145     11.5843     46.3389
    98.5000     96.0977      0.0000    794.4182     11.7998     46.1425
    98.7500     96.1819      0.0000    794.6141     11.9970     45.8732
    99.0000     96.1566      0.0000    794.7219     12.1930     45.3057
    99.2500     96.1258      0.0000    794.6824     12.3969     44.6633
    99.5000     96.1833      0.0000    794.5074     12.6039     44.5563
    99.7500     96.0402      0.0000    794.2712     12.8087     45.3584
   100.0000     96.1791      0.0000    794.0497     13.0122     46.7978
   100.2500     96.1314      0.0000    793.8843     13.2146     48.3424
   100.5000     96.0669      0.0000    793.7897     13.4092     49.6194
   100.7500     96.1300      0.0000    793.7688     13.5889     50.2545
   101.0000     96.1580      0.0000    793.8084     13.7531     49.8083
   101.2500     96.1917      0.0000    793.8705     13.8978     48.3850
   101.5000     96.2211      0.0000    793.9088     13.9975     47.0552
   101.7500     96.1594      0.0000    793.9031     14.0053     47.0768
   102.0000     96.1089      0.0000    793.8705     13.8822     48.6169
   102.2500     96.1931      0.0000    793.8394     13.6385     50.5753
   102.5000     96.1300      0.0000    793.8254     13.3482     51.7144
   102.7500     96.1622      0.0000    793.8341     13.1099     51.6903
   103.0000     96.2183      0.0000    793.8641     12.9787     50.9740
   103.2500     96.1608      0.0000    793.8927     12.9371     50.2721
