~Version Information
VERS.                      2.0: CWLS Log ASCII Standard - VERSION 2.0
WRAP.                       NO: One line per depth step
~Well Information Block
STRT.FT                 0.0000: 
STOP.FT              3428.7500: 
STEP.FT                 0.2500: 
NULL.                -999.2500: 
COMP.          Pioneer Natural Resources: COMPANY
WELL.          Cordillera 34-7: WELL
FLD.           Purgatorie River: FIELD
LOC.           598' FSL & 1770' FEL: LOCATION
PROV.                 Colorado: PROVINCE
CNTY.               Las Animas: COUNTRY
SRVC.                Patterson: SERVICE COMPANY
DATE.          Fri Nov 18 07:55:32 2005: LOG DATE
UWI.                          : UNIQUE WELL ID
~Curve Information Block
DEPT.FT            0 000 00 00: Depth
AMP3.mV                       : CBL 3' Amplitude
CCL.                          : Casing Collar Locator
GR.GAPI                       : Gamma Ray
TT3.usec                      : CBL 3' Travel Time
~Parameter Information Block
~A  Depth       AMP3        CCL          GR         TT3     
# ...
  2244.5000     15.6442      0.0000    125.3038    393.7012
  2244.7500     15.7141      0.0000    129.6037    383.8720
  2245.0000     15.5572      0.0000    132.3908    393.0410
  2245.2500     15.0741      0.0000    134.0298    428.2059
  2245.5000     14.2735      0.0000    135.2463    496.0970
  2245.7500     13.2284      0.0000    136.8090    575.1375
  2246.0000     12.0184      0.0000    138.9145    620.6946
  2246.2500     10.7612      0.0000    140.8729    609.0228
  2246.5000      9.6434      0.0000    141.6702    560.1287
  2246.7500      8.8102      0.0000    141.0294    511.2111
  2247.0000      8.2148      0.0000    139.7286    481.5343
  2247.2500      7.6881      0.0000    138.7213    470.7914
  2247.5000      7.1687      0.0000    138.0842    476.6596
  2247.7500      6.7398      0.0000    136.8107    500.7044
  2248.0000      6.3739      0.0000    133.5190    543.9451
  2248.2500      5.8421      0.0000    127.5228    602.1752
  2248.5000      5.0852      0.0000    119.4640    659.2952
  2248.7500      4.3699      0.0000    111.0384    693.4088
  2249.0000      3.9115      0.0000    104.2664    701.2968
  2249.2500      3.6970     -2.0000    100.9204    698.4434
  2249.5000      3.6322      2.0000    101.9810    694.3599
  2249.7500      3.6049      0.0000    106.9768    688.7999
  2250.0000      3.5170      0.0000    113.9296    684.4248
  2250.2500      3.3711      0.0000    120.4840    686.9312
  2250.5000      3.2719      0.0000    125.3122    695.8222
  2250.7500      3.2989      0.0000    128.3949    704.8536
  2251.0000      3.4092      0.0000    130.2082    709.3674
  2251.2500      3.4995      0.0000    131.0613    707.1464
  2251.5000      3.5224      0.0000    131.1974    698.6613
  2251.7500      3.4973      0.0000    131.0128    689.3503
  2252.0000      3.4513      0.0000    130.7861    684.9730
  2252.2500      3.3926      0.0000    130.3995    686.8196
  2252.5000      3.3148      0.0000    129.6525    692.7881
  2252.7500      3.1996      0.0000    128.7284    700.0999
  2253.0000      3.0453      0.0000    128.1718    708.6483
  2253.2500      2.9015      0.0000    128.4895    716.2802
  2253.5000      2.8336      0.0000    129.6349    713.2656
  2253.7500      2.8539      0.0000    130.5720    694.1228
  2254.0000      2.9111      0.0000    129.5067    667.0566
  2254.2500      2.9492      0.0000    125.0528    642.7421
  2254.5000      2.9605      0.0000    117.3139    623.5630
  2254.7500      2.9647      0.0000    107.6916    608.5011
  2255.0000      2.9654      0.0000     97.6673    599.5098
  2255.2500      2.9661      0.0000     87.9840    598.9555
  2255.5000      2.9821      0.0000     79.0679    605.1531
  2255.7500      3.0076      0.0000     71.8255    611.5015
  2256.0000      3.0154      0.0000     67.3755    611.1456
  2256.2500      2.9927      0.0000     65.8538    604.6342
  2256.5000      2.9416      0.0000     65.8897    599.4971
  2256.7500      2.8618      0.0000     65.5950    600.8133
  2257.0000      2.7600      0.0000     64.0510    606.1731
  2257.2500      2.6562      0.0000     61.8396    611.9153
  2257.5000      2.5618      0.0000     60.3097    620.0873
  2257.7500      2.4697      0.0000     60.4790    631.9324
  2258.0000      2.3907      0.0000     62.6359    639.3148
  2258.2500      2.3564      0.0000     66.7880    635.0013
  2258.5000      2.3846      0.0000     73.0788    625.9673
  2258.7500      2.4976      0.0000     81.5543    623.8310
  2259.0000      2.7257      0.0000     91.6452    627.8179
  2259.2500      3.0619      0.0000    101.8649    628.5385
  2259.5000      3.4675      0.0000    109.8411    623.5824
  2259.7500      3.9095      0.0000    112.9227    619.3337
  2260.0000      4.3479      0.0000    109.4967    622.1631
  2260.2500      4.7150      0.0000    100.1765    631.0485
  2260.5000      4.9913      0.0000     87.5707    636.5259
  2260.7500      5.2995      0.0000     74.7398    633.6969
  2261.0000      5.8390      0.0000     63.8330    632.2999
  2261.2500      6.6865      0.0000     55.7439    643.4641
  2261.5000      7.6979      0.0000     50.3463    664.5561
  2261.7500      8.6306      0.0000     46.9064    684.6355
  2262.0000      9.3291      0.0000     44.6490    695.7783
  2262.2500      9.7750      0.0000     43.2283    699.0386
  2262.5000     10.0471      0.0000     42.7524    703.6023
  2262.7500     10.2592      0.0000     43.5542    713.1735
  2263.0000     10.4418      0.0000     46.0542    717.8166
  2263.2500     10.4814      0.0000     50.5817    701.7070
  2263.5000     10.2514      0.0000     57.0529    654.9877
  2263.7500      9.7503      0.0000     64.9160    593.1379
  2264.0000      9.0529      0.0000     73.6542    552.3190
  2264.2500      8.2065      0.0000     83.2453    545.8372
  2264.5000      7.2512      0.0000     93.7873    550.0886
  2264.7500      6.2871      0.0000    104.6724    542.9435
  2265.0000      5.4507      0.0000    114.5264    528.7354
  2265.2500      4.8257      0.0000    122.2393    520.8512
  2265.5000      4.3974      0.0000    127.8930    525.4581
  2265.7500      4.0934      0.0000    132.4762    546.6868
  2266.0000      3.8581      0.0000    136.6558    586.9714
  2266.2500      3.6810      0.0000    139.9147    634.9801
  2266.5000      3.5634      0.0000    141.0246    666.4762
  2266.7500      3.4870      0.0000    139.5267    661.9430
  2267.0000      3.4321      0.0000    136.7547    618.9252
  2267.2500      3.4069      0.0000    135.0944    555.4376
  2267.5000      3.4335      0.0000    135.8417    500.0841
  2267.7500      3.5120      0.0000    137.8797    469.7205
  2268.0000      3.6158      0.0000    138.7358    463.8109
  2268.2500      3.7152      0.0000    136.9169    477.8395
  2268.5000      3.7898      0.0000    133.0898    507.7700
  2268.7500      3.8350      0.0000    128.9761    543.4009
  2269.0000      3.8753      0.0000    125.3274    568.4135
  2269.2500      3.9462      0.0000    121.4289    570.5292
  2269.5000      4.0499      0.0000    116.6306    552.5775
  2269.7500      4.1600      0.0000    111.7189    530.4608
  2270.0000      4.2626      0.0000    108.2834    516.4164
  2270.2500      4.3615      0.0000    107.2363    510.7976
  2270.5000      4.4571      0.0000    108.5085    509.2872
  2270.7500      4.5411      0.0000    111.7279    509.2327
  2271.0000      4.6078      0.0000    116.4337    509.7511
  2271.2500      4.6629      0.0000    121.6980    510.2497
  2271.5000      4.7113      0.0000    126.0535    509.4098
  2271.7500      4.7440      0.0000    128.0137    505.1019
  2272.0000      4.7469      0.0000    126.9440    496.2687
  2272.2500      4.7174      0.0000    123.9536    485.4413
  2272.5000      4.6749      0.0000    121.8090    477.1700
  2272.7500      4.6539      0.0000    123.1225    473.0377
  2273.0000      4.6602      0.0000    128.1440    470.8611
  2273.2500      4.6435      0.0000    134.5142    470.5259
  2273.5000      4.5579      0.0000    139.2985    480.4253
  2273.7500      4.4315      0.0000    141.1483    515.0681
  2274.0000      4.3318      0.0000    140.5453    578.7405
  2274.2500      4.2890      0.0000    138.3547    649.6835
  2274.5000      4.2832      0.0000    134.7674    694.1484
  2274.7500      4.2765      0.0000    129.9190    699.3578
  2275.0000      4.2478      0.0000    124.8787    677.1999
  2275.2500      4.2095      0.0000    121.1376    640.7562
  2275.5000      4.1871      0.0000    119.3501    597.4709
  2275.7500      4.1983      0.0000    119.3120    565.6059
  2276.0000      4.2419      0.0000    120.8276    570.4244
  2276.2500      4.2802      0.0000    123.7563    611.3860
  2276.5000      4.2739      0.0000    127.4149    658.1140
  2276.7500      4.2360      0.0000    130.6290    684.3085
  2277.0000      4.2106      0.0000    132.3607    683.0182
  2277.2500      4.2342      0.0000    132.1900    654.7548
  2277.5000      4.3255      0.0000    130.4256    605.4459
  2277.7500      4.4692      0.0000    127.7759    554.7652
