~Version Information
 VERS.                                  2.0 : CWLS LAS VERSION
 WRAP.                                   NO : WRAPING MODE
 SWARE .                 MController 2.5.0J : SOFTWARE VERSION
~Well Information
 WELL.                          Rolls 14-14 : WELL
 COMP.    Pioneer Natural Resources USA Inc : COMPANY
 FLD.                      Purgatoire River : FIELD
 LOC.                SW/SW Sec 14 T32S R66W : LOCATION
 DATE.                       07/31-08/01/05 : DATE(S) LOGGED
 SRVC.       BLANCO Geological Services LLC : SERVICE COMPANY
 STAT.                                   CO : STATE
 CNTY.                           Las Animas : COUNTY
 CTRY.                                  USA : COUNTRY
 API.                       05-071-08455-00 : API NUMBER
 STRT.FT                             831.00 : START DEPTH
 STOP.FT                            2365.00 : STOP DEPTH
 STEP.FT                               1.00 : DEPTH INCREMENT
 NULL.                                -9999 : NULL VALUE
~Curve information
 DEPTH.FT                                   :
 ROP.MIN/FT                                 :
 GAS.UNITS                                  :
~ASCII Log data
# ...
      1031.0         0.13         24.0 
      1032.0         0.17         24.0 
      1033.0         0.17         24.2 
      1034.0         0.17         23.2 
      1035.0         0.20         23.8 
      1036.0         0.17         23.4 
      1037.0         0.17         24.2 
      1038.0         0.17         24.6 
      1039.0         0.27         26.0 
      1040.0         0.17         27.0 
      1041.0         0.20         28.5 
      1042.0         0.20         32.5 
      1043.0         0.20         33.0 
      1044.0         0.35         33.5 
      1045.0         0.17         32.1 
      1046.0         2.03         29.7 
      1047.0         0.33         23.0 
      1048.0         0.33         23.1 
      1049.0         0.27         23.1 
      1050.0         0.18         22.7 
      1051.0         0.20         22.9 
      1052.0         0.30         23.1 
      1053.0         0.27         22.8 
      1054.0         0.27         23.1 
      1055.0         0.23         22.4 
      1056.0         0.27         23.0 
      1057.0         0.27         23.2 
      1058.0         0.27         22.8 
      1059.0         0.27         23.1 
      1060.0         0.17         23.4 
      1061.0         0.20         22.4 
      1062.0         0.17         23.3 
      1063.0         0.20         22.7 
      1064.0         0.22         22.5 
      1065.0         0.20         23.3 
      1066.0         0.20         23.3 
      1067.0         0.20         22.5 
      1068.0         0.23         23.3 
      1069.0         0.17         22.0 
      1070.0         0.20         23.2 
      1071.0         0.20         22.5 
      1072.0         0.13         23.1 
      1073.0         0.13         23.1 
      1074.0         0.13         22.9 
      1075.0         0.13         23.2 
      1076.0         2.05         23.4 
      1077.0         0.17         23.2 
      1078.0         0.33         23.1 
      1079.0         0.33         22.3 
      1080.0         0.27         23.0 
      1081.0         0.20         22.9 
      1082.0         0.13         23.1 
      1083.0         0.20         22.2 
      1084.0         0.23         22.1 
      1085.0         0.27         23.0 
      1086.0         0.30         23.2 
      1087.0         0.32         23.0 
      1088.0         0.23         23.0 
      1089.0         0.27         23.1 
      1090.0         0.27         23.1 
      1091.0         0.17         23.1 
      1092.0         0.20         23.2 
      1093.0         0.20         22.5 
      1094.0         0.17         23.3 
      1095.0         0.17         22.5 
      1096.0         0.20         23.3 
      1097.0         0.17         23.4 
      1098.0         0.17         23.2 
      1099.0         0.17         22.9 
      1100.0         0.20         23.7 
      1101.0         0.20         23.4 
      1102.0         0.20         24.0 
      1103.0         0.22         23.9 
      1104.0         0.20         23.1 
      1105.0         0.20         23.7 
      1106.0         2.27         23.7 
      1107.0         0.50         23.0 
      1108.0         0.48         22.5 
      1109.0         0.33         22.8 
      1110.0         0.33         23.0 
      1111.0         0.20         22.8 
      1112.0         0.23         22.5 
      1113.0         0.17         21.9 
      1114.0         0.20         22.1 
      1115.0         0.20         23.2 
      1116.0         0.23         23.2 
      1117.0         0.20         23.2 
      1118.0         0.20         23.2 
      1119.0         0.23         23.0 
      1120.0         0.20         23.3 
      1121.0         0.20         23.1 
      1122.0         0.18         22.5 
      1123.0         0.17         23.2 
      1124.0         0.17         22.3 
      1125.0         0.20         23.3 
      1126.0         0.20         23.0 
      1127.0         0.23         23.3 
      1128.0         0.30         23.0 
      1129.0         0.20         23.2 
      1130.0         0.17         22.4 
      1131.0         0.20         22.9 
      1132.0         0.20         23.3 
      1133.0         0.20         22.4 
      1134.0         0.17         23.0 
      1135.0         0.33         23.1 
      1136.0         2.15         23.2 
      1137.0         0.30         22.9 
      1138.0         0.23         22.9 
      1139.0         0.20         22.7 
      1140.0         0.27         23.0 
      1141.0         0.20         22.8 
      1142.0         0.17         22.6 
      1143.0         0.22         23.0 
      1144.0         0.20         22.3 
      1145.0         0.20         23.2 
      1146.0         0.20         23.3 
      1147.0         0.20         23.3 
      1148.0         0.27         23.1 
      1149.0         0.23         23.2 
      1150.0         0.27         23.2 
      1151.0         0.23         23.1 
      1152.0         0.27         22.8 
      1153.0         0.23         22.3 
      1154.0         0.23         37.2 
      1155.0         0.27         86.9 
      1156.0         0.23         73.8 
      1157.0         0.22         55.0 
      1158.0         0.23         40.4 
      1159.0         0.17         27.4 
      1160.0         0.17         23.8 
      1161.0         0.17         23.0 
      1162.0         0.20         20.4 
      1163.0         0.20         20.6 
      1164.0         0.30         21.3 
      1165.0         0.23         25.1 
      1166.0         1.37         28.0 
      1167.0         0.17         28.4 
      1168.0         0.55         35.0 
      1169.0         0.23         46.6 
      1170.0         0.47         47.0 
      1171.0         0.30         40.7 
      1172.0         0.20         37.0 
      1173.0         0.13         36.0 
      1174.0         0.17         35.5 
      1175.0         0.13         33.7 
      1176.0         0.17         33.0 
      1177.0         0.17         32.0 
      1178.0         0.27         31.8 
      1179.0         0.17         32.9 
      1180.0         0.17         33.1 
      1181.0         0.17         32.1 
      1182.0         0.22         33.2 
      1183.0         0.33         31.7 
      1184.0         0.30         31.1 
      1185.0         0.17         30.4 
      1186.0         0.20         30.2 
      1187.0         0.20         28.9 
      1188.0         0.17         28.4 
      1189.0         0.13         29.3 
      1190.0         0.17         29.5 
      1191.0         0.17         28.2 
      1192.0         0.13         28.3 
      1193.0         0.17         28.3 
      1194.0         0.13         28.9 
      1195.0         0.17         29.0 
      1196.0         2.02         65.0 
      1197.0         0.13         73.7 
      1198.0         0.17         85.8 
      1199.0         0.30        102.9 
      1200.0         0.43        128.5 
      1201.0         0.40        120.8 
      1202.0         0.20         83.9 
      1203.0         0.37         67.2 
      1204.0         0.32         56.0 
      1205.0         0.23         46.2 
      1206.0         0.23         43.6 
      1207.0         0.23         40.0 
      1208.0         0.20         38.9 
      1209.0         0.23         37.5 
      1210.0         0.20         37.0 
      1211.0         0.20         35.7 
      1212.0         0.20         34.4 
      1213.0         0.20         34.4 
      1214.0         0.27         33.8 
      1215.0         0.23         33.5 
      1216.0         0.23         33.4 
      1217.0         0.30         33.4 
      1218.0         0.20         33.2 
      1219.0         0.22         33.4 
      1220.0         0.17         32.9 
      1221.0         0.20         32.7 
      1222.0         0.20         32.3 
      1223.0         0.17         32.1 
      1224.0         0.20         32.6 
      1225.0         0.20         32.5 
      1226.0         9.82         62.0 
      1227.0         0.40         31.4 
      1228.0         0.40         32.7 
      1229.0         0.30         32.9 
      1230.0         0.40         32.2 
