~Version Information
VERS.                      2.0: CWLS Log ASCII Standard - VERSION 2.0
WRAP.                       NO: One line per depth step
~Well Information Block
STRT.FT                10.0000: 
STOP.FT              1380.7500: 
STEP.FT                 0.2500: 
NULL.                -999.2500: 
COMP.          Pioneer Natural Resources: COMPANY
WELL.          Baa Baa 34-1 Tr: WELL
FLD.           Purgatoire River: FIELD
LOC.           785' FSL & 2304' FEL: LOCATION
CNTY.               Las Animas: COUNTY
SRVC.                Patterson: SERVICE COMPANY
DATE.          Tue Mar 07 13:08:19 2006: LOG DATE
UWI.           05 071 08710 00: UNIQUE WELL ID
STAT.                 Colorado: STATE
~Curve Information Block
DEPT.FT            0 000 00 00: Depth
GR.GAPI                       : Gamma Ray
CCL.                          : Casing Collar Locator
TT3.usec                      : CBL 3' Travel Time
AMP3.mV                       : CBL 3' Amplitude
~Parameter Information Block
~A  Depth        GR         CCL         TT3         AMP3    
# ...
   378.5000     57.3446      0.0000    806.4045     18.1924
   378.7500     67.8693      0.0000    806.9797     18.9810
   379.0000     78.4121      0.0000    805.5490     19.6857
   379.2500     87.5358      0.0000    802.0779     20.3004
   379.5000     93.6920      0.0000    797.5162     20.8000
   379.7500     95.8771      0.0000    793.6839     21.1497
   380.0000     94.5935      0.0000    792.0186     21.3359
   380.2500     92.0297      0.0000    792.0978     21.3813
   380.5000     90.7243      0.0000    791.3068     21.3350
   380.7500     91.6082      0.0000    784.9542     21.2589
   381.0000     93.3323      0.0000    766.2238     21.2229
   381.2500     93.7863      0.0000    728.4976     21.2986
   381.5000     92.3478      0.0000    671.5449     21.5288
   381.7500     90.4074      0.0000    605.7720     21.8899
   382.0000     89.6160      0.0000    547.5564     22.2980
   382.2500     90.0280      0.0000    509.0753     22.6725
   382.5000     90.4063      0.0000    493.3531     22.9980
   382.7500     90.1324      0.0000    497.0316     23.3189
   383.0000     90.0260      0.0000    513.3769     23.6802
   383.2500     90.9688      0.0000    532.2131     24.0824
   383.5000     92.3094      0.0000    542.6800     24.4868
   383.7500     92.2256      0.0000    541.3224     24.8517
   384.0000     89.4610      0.0000    535.7527     25.1656
   384.2500     84.3661      0.0000    535.8548     25.4576
   384.5000     78.3540      0.0000    541.6436     25.7798
   384.7500     72.6320      0.0000    543.2048     26.1755
   385.0000     67.5784      0.0000    532.7426     26.6610
   385.2500     63.1763      0.0000    513.1127     27.2295
   385.5000     59.5869      0.0000    493.4905     27.8589
   385.7500     57.0745      0.0000    480.1619     28.5082
   386.0000     55.8045      0.0000    473.4680     29.1228
   386.2500     56.1200      0.0000    470.8407     29.6561
   386.5000     58.6396      0.0000    470.0367     30.0816
   386.7500     63.4956      0.0000    469.8628     30.3860
   387.0000     69.6120      0.0000    469.5737     30.5585
   387.2500     75.2291      0.0000    468.3003     30.5958
   387.5000     79.2374      0.0000    465.0909     30.5119
   387.7500     81.9012      0.0000    459.7701     30.3425
   388.0000     84.3674      0.0000    453.6745     30.1358
   388.2500     87.4900      0.0000    448.7438     29.9303
   388.5000     91.0048      0.0000    445.2036     29.7377
   388.7500     93.8821      0.0000    441.3529     29.5463
   389.0000     95.4482      0.0000    437.3347     29.3356
   389.2500     95.8939      0.0000    439.1677     29.0877
   389.5000     95.6912      0.0000    457.6787     28.7899
   389.7500     94.9466      0.0000    501.7251     28.4353
   390.0000     93.5981      0.0000    570.1936     28.0247
   390.2500     91.9592      0.0000    649.3894     27.5703
   390.5000     90.6378      0.0000    719.9937     27.0975
   390.7500     89.7468      0.0000    768.9458     26.6370
   391.0000     88.4383      0.0000    795.3649     26.2101
   391.2500     85.6320      0.0000    806.4384     25.8162
   391.5000     81.2668      0.0000    810.0182     25.4306
   391.7500     76.4351      0.0000    810.8830     25.0139
   392.0000     72.2940      0.0000    811.0093     24.5298
   392.2500     69.3469      0.0000    810.9868     23.9641
   392.5000     67.8181      0.0000    810.9305     23.3359
   392.7500     68.0504      0.0000    810.8607     22.6900
   393.0000     70.1373      0.0000    810.7932     22.0727
   393.2500     73.4316      0.0000    810.7746     21.5116
   393.5000     76.7127      0.0000    810.8535     21.0173
   393.7500     78.8509      0.0000    811.0399     20.6007
   394.0000     79.3193      0.0000    811.2996     20.2796
   394.2500     78.2927      0.0000    811.5888     20.0617
   394.5000     76.6224      0.0000    811.8882     19.9203
   394.7500     75.7249      0.0000    812.1962     19.7929
   395.0000     76.9258      0.0000    812.4967     19.6112
   395.2500     80.3282      0.0000    812.7527     19.3423
   395.5000     84.4805      0.0000    812.9402     19.0073
   395.7500     87.6265      0.0000    813.0667     18.6606
   396.0000     89.2335      0.0000    813.1332     18.3471
   396.2500     90.0538      0.0000    813.0910     18.0737
   396.5000     90.9936      0.0000    812.8793     17.8204
   396.7500     92.1831      0.0000    812.4819     17.5661
   397.0000     92.9041      0.0000    811.9171     17.2779
   397.2500     92.2514      0.0000    811.1774     16.8648
   397.5000     89.9791      0.0000    810.3678     16.1519
   397.7500     86.7529      0.0000    810.1232     14.9678
   398.0000     83.6585      0.0000    811.8300     13.3351
   398.2500     81.7691      0.0000    816.9703     11.5591
   398.5000     82.0770      0.0000    825.8044     10.0195
   398.7500     85.0605      0.0000    836.5195      8.8569
   399.0000     89.8219      0.0000    845.6876      7.9537
   399.2500     94.1016      0.0000    849.9905      7.1819
   399.5000     95.8410      0.0000    848.2874      6.5418
   399.7500     94.8658      0.0000    842.2794      6.0844
   400.0000     92.9488      0.0000    835.1512      5.8255
   400.2500     92.4087      3.0000    829.7760      5.7446
   400.5000     94.5937      0.0000    827.8630      5.8233
   400.7500     99.1038      0.0000    829.5092      6.0946
   401.0000    104.0842      0.0000    832.7871      6.6701
   401.2500    107.6980      0.0000    834.1511      7.6627
   401.5000    109.6701      0.0000    830.1860      9.0264
   401.7500    111.1177      0.0000    819.8431     10.5052
   402.0000    112.7961      0.0000    805.3651     11.7775
   402.2500    114.0663      0.0000    790.8412     12.6430
   402.5000    113.7580      0.0000    779.5866     13.0840
   402.7500    111.4712      0.0000    772.6289     13.2030
   403.0000    107.7637      0.0000    769.1332     13.1304
   403.2500    103.4839      0.0000    767.7037     12.9661
   403.5000     99.1389      0.0000    767.2789     12.7683
   403.7500     94.7366      0.0000    767.2776     12.5649
   404.0000     90.2229      0.0000    767.4116     12.3660
   404.2500     86.0500      0.0000    767.5251     12.1715
   404.5000     83.0095      0.0000    767.5604     11.9817
   404.7500     81.4033      0.0000    767.5388     11.8049
   405.0000     80.5874      0.0000    767.5610     11.6559
   405.2500     79.4387      0.0000    767.8561     11.5438
   405.5000     77.2514      0.0000    768.8979     11.4621
   405.7500     74.1770      0.0000    771.4097     11.3913
   406.0000     70.7751      0.0000    775.9333     11.3125
   406.2500     67.2901      0.0000    781.9461     11.2206
   406.5000     63.5916      0.0000    787.3729     11.1239
   406.7500     59.6804      0.0000    789.5501     11.0323
   407.0000     56.0218      0.0000    787.2380     10.9488
   407.2500     53.4034      0.0000    781.6838     10.8720
   407.5000     52.4692      0.0000    775.5281     10.8032
   407.7500     53.3005      0.0000    770.7855     10.7453
   408.0000     55.4101      0.0000    767.9357     10.6982
   408.2500     58.0076      0.0000    766.5325     10.6552
   408.5000     60.0953      0.0000    766.1829     10.6062
   408.7500     60.6206      0.0000    766.9825     10.5463
   409.0000     59.0935      0.0000    769.3528     10.4866
   409.2500     56.0716      0.0000    773.4478     10.4501
   409.5000     52.6882      0.0000    778.4437     10.4523
   409.7500     49.7371      0.0000    782.5547     10.4857
   410.0000     47.4800      0.0000    784.2957     10.5259
   410.2500     46.1164      0.0000    783.8284     10.5527
   410.5000     45.9884      0.0000    782.7991     10.5612
   410.7500     47.2528      0.0000    783.1736     10.5569
   411.0000     49.6493      0.0000    786.5670     10.5472
   411.2500     52.6859      0.0000    793.8708     10.5408
   411.5000     55.8425      0.0000    804.5224     10.5505
   411.7500     58.5297      0.0000    816.4292     10.5950
