~Version Information
VERS.                      2.0: CWLS Log ASCII Standard - VERSION 2.0
WRAP.                       NO: One line per depth step
~Well Information Block
STRT.FT               330.0000: 
STOP.FT              2874.7000: 
STEP.FT                 0.1000: 
NULL.                -999.2500: 
COMP.          Pioneer Natural Resources: COMPANY
WELL.                AMX 13-13: WELL
FLD.           Purgatoire River: FIELD
LOC.           2316' FSL & 865' FWL--: LOCATION
PROV.                 Colorado: PROVINCE
CNTY.               Las Animas: COUNTRY
SRVC.                Patterson: SERVICE COMPANY
DATE.          Tue Dec 20 09:57:28 2005: LOG DATE
UWI.           05 071 08630 00: UNIQUE WELL ID
~Curve Information Block
DEPT.FT            0 000 00 00: Depth
DCAL.in                       : CDL Caliper
RHOB.g/cc                     : CDL Bulk Density
RHOC.g/cc                     : CDL Density Correction
DPOR.pu                       : CDL Density Porosity
NPOR.pu                       : Neutron Porosity
GR.GAPI                       : Gamma Ray
~Parameter Information Block
~A  Depth       DCAL        RHOB        RHOC        DPOR        NPOR         GR     
# ...
  1002.0000      8.1586      2.3610      0.0181     17.5149     22.5877    116.9396
  1002.1000      8.1586      2.3549      0.0614     17.8869     21.5952    120.8935
  1002.2000      8.1586      2.3521      0.0936     18.0558     20.5209    126.9607
  1002.3000      8.1589      2.3559      0.0584     17.8267     19.3780    130.4027
  1002.4000      8.1589      2.3769      0.0651     16.5533     18.3919    127.5870
  1002.5000      8.1594      2.4124      0.0709     14.4029     17.9771    123.2329
  1002.6000      8.1594      2.4442      0.0743     12.4723     18.1406    122.6715
  1002.7000      8.1594      2.4516      0.0793     12.0258     18.6631    123.8091
  1002.8000      8.1600      2.4217      0.0947     13.8388     19.2967    125.1185
  1002.9000      8.1600      2.3683     -0.0143     17.0700     19.7460    128.0613
  1003.0000      8.1604      2.3280     -0.0286     19.5125     19.8102    129.1293
  1003.1000      8.1604      2.3108      0.0284     20.5558     19.4724    126.4161
  1003.2000      8.1604      2.2954      0.0157     21.4915     18.9221    124.1747
  1003.3000      8.1593      2.2809     -0.0397     22.3680     18.2886    124.8725
  1003.4000      8.1593      2.2847      0.0065     22.1416     17.5909    126.6081
  1003.5000      8.1568      2.3044      0.0110     20.9447     16.9571    125.9295
  1003.6000      8.1568      2.3223      0.0707     19.8588     16.4237    122.2418
  1003.7000      8.1568      2.3212      0.0968     19.9284     16.0156    118.9273
  1003.8000      8.1552      2.2925      0.0872     21.6649     15.9361    117.3726
  1003.9000      8.1552      2.2403      0.0844     24.8324     16.1286    114.6598
  1004.0000      8.1553      2.1790      0.0135     28.5434     16.0888    112.7859
  1004.1000      8.1553      2.1302     -0.0081     31.5038     15.6899    114.6244
  1004.2000      8.1553      2.1070     -0.0283     32.9101     15.4623    117.4433
  1004.3000      8.1563      2.1072     -0.0160     32.8983     15.7502    119.0540
  1004.4000      8.1563      2.1229     -0.0220     31.9443     16.2110    120.4006
  1004.5000      8.1558      2.1513      0.0151     30.2244     16.1845    124.0359
  1004.6000      8.1558      2.1869      0.1074     28.0646     15.5229    129.2610
  1004.7000      8.1558      2.2242      0.1194     25.8064     14.8073    131.3052
  1004.8000      8.1548      2.2688      0.1402     23.1013     14.8357    129.4168
  1004.9000      8.1548      2.3204      0.1829     19.9764     15.6473    127.1142
  1005.0000      8.1562      2.3646      0.1820     17.2956     16.5195    126.4892
  1005.1000      8.1562      2.3954      0.1066     15.4284     17.1891    127.0884
  1005.2000      8.1562      2.4207      0.0659     13.8969     17.7412    129.5822
  1005.3000      8.1584      2.4441      0.0754     12.4817     18.0281    135.6263
  1005.4000      8.1584      2.4585      0.1001     11.6041     18.1110    141.9512
  1005.5000      8.1577      2.4684      0.0629     11.0062     18.3489    142.8795
  1005.6000      8.1577      2.4925      0.0912      9.5461     18.8251    136.3871
  1005.7000      8.1577      2.5316      0.1317      7.1768     19.2503    126.5068
  1005.8000      8.1564      2.5646      0.1255      5.1751     19.5977    121.1737
  1005.9000      8.1564      2.5772      0.1131      4.4140     20.1758    125.3526
  1006.0000      8.1602      2.5715      0.1132      4.7563     21.1659    135.1723
  1006.1000      8.1602      2.5572      0.0711      5.6232     22.2562    140.9652
  1006.2000      8.1602      2.5508      0.0470      6.0144     23.0655    137.5466
  1006.3000      8.1703      2.5596      0.0691      5.4799     23.6406    128.8275
  1006.4000      8.1703      2.5675      0.0596      4.9980     24.1993    123.9446
  1006.5000      8.1817      2.5679      0.0199      4.9739     24.7138    126.1354
  1006.6000      8.1817      2.5760      0.0315      4.4829     25.0495    128.0222
  1006.7000      8.1817      2.6001      0.0331      3.0233     25.3009    124.6493
  1006.8000      8.1884      2.6311      0.1075      1.1430     25.4535    122.2256
  1006.9000      8.1884      2.6529      0.0945     -0.1766     25.4061    125.4249
  1007.0000      8.1921      2.6566      0.1743     -0.3991     25.4102    127.5171
  1007.1000      8.1921      2.6546      0.0965     -0.2785     25.6258    124.8987
  1007.2000      8.1921      2.6730      0.1326     -1.3930     25.8359    126.1072
  1007.3000      8.1986      2.7052      0.1628     -3.3430     25.8287    132.8879
  1007.4000      8.1986      2.7197      0.1162     -4.2249     25.5624    136.8607
  1007.5000      8.2098      2.7114      0.0540     -3.7204     25.1943    136.6409
  1007.6000      8.2098      2.6885      0.0583     -2.3354     24.9203    135.3912
  1007.7000      8.2098      2.6575     -0.0082     -0.4568     24.9636    132.4240
  1007.8000      8.2201      2.6400     -0.0426      0.6089     25.5334    126.6554
  1007.9000      8.2201      2.6437      0.0068      0.3826     26.4107    121.1182
  1008.0000      8.2290      2.6488     -0.0426      0.0751     27.0434    119.4112
  1008.1000      8.2290      2.6496     -0.0544      0.0269     27.1455    123.6009
  1008.2000      8.2290      2.6545     -0.0771     -0.2737     26.9953    133.4046
  1008.3000      8.2434      2.6604     -0.0452     -0.6296     26.9784    141.7082
  1008.4000      8.2434      2.6644     -0.0104     -0.8705     27.3213    140.6615
  1008.5000      8.2604      2.6774     -0.0145     -1.6588     27.8825    136.2255
  1008.6000      8.2604      2.6916      0.0547     -2.5224     28.1215    138.3073
  1008.7000      8.2604      2.6706      0.0518     -1.2497     28.0169    144.3630
  1008.8000      8.2757      2.6140     -0.0670      2.1833     27.8152    148.3626
  1008.9000      8.2757      2.5686     -0.1113      4.9361     27.2645    150.2576
  1009.0000      8.2935      2.5549     -0.0968      5.7612     26.4167    151.9735
  1009.1000      8.2935      2.5538     -0.0535      5.8317     25.7107    152.5095
  1009.2000      8.2935      2.5511     -0.0652      5.9954     25.0657    150.7216
  1009.3000      8.3197      2.5497     -0.0715      6.0762     24.2567    145.8765
  1009.4000      8.3197      2.5511     -0.0166      5.9961     23.4175    139.1835
  1009.5000      8.3653      2.5399      0.0101      6.6732     22.6737    133.4785
  1009.6000      8.3653      2.4999      0.0418      9.0958     22.2718    128.9936
  1009.7000      8.3653      2.4381     -0.0305     12.8396     22.4556    124.8799
  1009.8000      8.4224      2.3757     -0.0424     16.6270     22.8011    121.9285
  1009.9000      8.4224      2.3222     -0.0782     19.8641     22.8998    121.5235
  1010.0000      8.4610      2.2831     -0.0916     22.2376     22.8642    122.4706
  1010.1000      8.4610      2.2606     -0.0580     23.6017     22.5508    122.7446
  1010.2000      8.4610      2.2486     -0.0331     24.3274     21.8300    125.3600
  1010.3000      8.4615      2.2463     -0.0454     24.4655     20.8509    133.0701
  1010.4000      8.4615      2.2540      0.0287     23.9983     19.9309    141.6916
  1010.5000      8.4345      2.2658      0.0349     23.2854     19.3490    147.5441
  1010.6000      8.4345      2.2780      0.0672     22.5468     18.8591    151.1796
  1010.7000      8.4345      2.2896      0.0595     21.8443     18.1702    150.4792
  1010.8000      8.4097      2.3027      0.0461     21.0501     17.3163    143.5264
  1010.9000      8.4097      2.3099      0.0644     20.6110     16.6652    132.5966
  1011.0000      8.4001      2.2931      0.0305     21.6283     16.6896    124.8484
  1011.1000      8.4001      2.2584     -0.0000     23.7352     17.2462    125.6398
  1011.2000      8.4001      2.2430     -0.0229     24.6659     17.6445    129.2128
  1011.3000      8.3999      2.2690      0.0325     23.0911     17.6905    131.6821
  1011.4000      8.3999      2.3109      0.0998     20.5519     17.8514    136.8284
  1011.5000      8.4102      2.3348      0.1498     19.1037     18.2217    141.3449
