~Version Information
VERS.                      2.0: CWLS Log ASCII Standard - VERSION 2.0
WRAP.                       NO: One line per depth step
~Well Information Block
STRT.FT                -7.5000: 
STOP.FT              1336.0000: 
STEP.FT                 0.2500: 
NULL.                -999.2500: 
COMP.          Pioneer Natural Resources: COMPANY
WELL.               LPGC 32-32: WELL
FLD.           Purgatorie River: FIELD
LOC.           1937' FNL & 1661' FEL--: LOCATION
CNTY.               Las Animas: COUNTY
SRVC.          Patterson Wireline: SERVICE COMPANY
DATE.          Fri Feb 03 09:39:42 2006: LOG DATE
UWI.           05 071 08641 00: UNIQUE WELL ID
STAT.                       CO: STATE
~Curve Information Block
DEPT.FT            0 000 00 00: Depth
CCL.                          : Casing Collar Locator
TT3.usec                      : CBL 3' Travel Time
AMP3.mV                       : CBL 3' Amplitude
GR.GAPI                       : Gamma Ray
~Parameter Information Block
~A  Depth       CCL         TT3         AMP3         GR     
# ...
  1198.5000      0.0000    748.5202      8.4792     53.4989
  1198.7500      0.0000    719.9916      9.2965     53.6431
  1199.0000      0.0000    667.9969     10.3210     53.8520
  1199.2500      0.0000    593.4236     11.5151     55.2953
  1199.5000      0.0000    508.9199     12.8341     58.7878
  1199.7500      0.0000    432.9577     14.2375     64.2068
  1200.0000      0.0000    377.8151     15.6996     70.4027
  1200.2500      0.0000    343.9846     17.2039     75.6839
  1200.5000      0.0000    324.9474     18.7150     78.7143
  1200.7500      0.0000    314.3052     20.1506     79.2319
  1201.0000      0.0000    308.4115     21.3821     78.0252
  1201.2500      0.0000    305.4521     22.2688     76.3612
  1201.5000      0.0000    304.3400     22.7074     75.4172
  1201.7500      0.0000    304.4716     22.6732     75.9059
  1202.0000      0.0000    305.7838     22.2336     77.9674
  1202.2500      0.0000    308.6883     21.5217     81.3081
  1202.5000      0.0000    313.6285     20.6855     85.2154
  1202.7500      0.0000    320.3984     19.8435     88.5197
  1203.0000      0.0000    327.7993     19.0660     90.0903
  1203.2500      0.0000    334.2013     18.3771     89.5936
  1203.5000      0.0000    338.5825     17.7684     87.5355
  1203.7500      0.0000    340.9935     17.2185     84.7441
  1204.0000      0.0000    342.1290     16.7134     82.2840
  1204.2500      0.0000    342.6683     16.2541     81.5173
  1204.5000      0.0000    342.9883     15.8531     83.2294
  1204.7500      0.0000    343.2306     15.5243     86.4370
  1205.0000      0.0000    343.4463     15.2738     88.8366
  1205.2500      0.0000    343.6599     15.0951     89.0193
  1205.5000      0.0000    343.8646     14.9746     87.9300
  1205.7500      0.0000    344.0152     14.9031     87.6997
  1206.0000      0.0000    344.0599     14.8832     89.2386
  1206.2500      0.0000    343.9814     14.9254     91.4936
  1206.5000      0.0000    343.8073     15.0348     92.9760
  1206.7500      0.0000    343.5869     15.1967     93.2638
  1207.0000      0.0000    343.3615     15.3760     92.7379
  1207.2500      0.0000    343.1527     15.5327     91.5857
  1207.5000      0.0000    342.9718     15.6414     89.6517
  1207.7500      0.0000    342.8363     15.6996     87.0352
  1208.0000      0.0000    342.7764     15.7189     84.3331
  1208.2500      0.0000    342.8282     15.7107     82.2025
  1208.5000      0.0000    343.0209     15.6804     80.8372
  1208.7500      0.0000    343.3544     15.6316     79.9056
  1209.0000      0.0000    343.7705     15.5728     78.9800
  1209.2500      0.0000    344.1488     15.5152     78.0196
  1209.5000      0.0000    344.3650     15.4634     77.4385
  1209.7500      0.0000    344.3813     15.4092     77.7572
  1210.0000      0.0000    344.2697     15.3394     79.2901
  1210.2500      0.0000    344.1342     15.2494     82.1336
  1210.5000      0.0000    344.0238     15.1486     86.2087
  1210.7500      0.0000    343.9338     15.0522     91.1225
  1211.0000      0.0000    343.8656     14.9677     96.1178
  1211.2500      0.0000    343.8589     14.8886    100.3886
  1211.5000      0.0000    343.9607     14.8030    103.4813
  1211.7500      0.0000    344.1759     14.7070    105.3186
  1212.0000      0.0000    344.4532     14.6094    105.7694
  1212.2500      0.0000    344.7177     14.5225    104.4218
  1212.5000      0.0000    344.9190     14.4490    101.1653
  1212.7500      0.0000    345.0608     14.3813     96.8676
  1213.0000      0.0000    345.1919     14.3110     92.9561
  1213.2500      0.0000    345.3664     14.2366     90.2626
  1213.5000      0.0000    345.5996     14.1629     88.6691
  1213.7500      0.0000    345.8564     14.0947     87.8007
  1214.0000      0.0000    346.0757     14.0303     87.4868
  1214.2500      0.0000    346.2087     13.9587     87.4626
  1214.5000      0.0000    346.2474     13.8626     87.2796
  1214.7500      0.0000    346.2719     13.7243     86.8647
  1215.0000      0.0000    346.5439     13.5275     86.8429
  1215.2500      0.0000    347.7141     13.2546     88.0146
  1215.5000      0.0000    350.9921     12.8921     90.5437
  1215.7500      0.0000    358.1030     12.4454     93.6670
  1216.0000      0.0000    370.7080     11.9552     96.1012
  1216.2500      0.0000    389.4204     11.4999     96.6881
  1216.5000      0.0000    412.6923     11.1780     94.7113
  1216.7500      0.0000    435.7727     11.0802     89.8535
  1217.0000      0.0000    450.8834     11.2636     82.2695
  1217.2500      0.0000    450.7189     11.7300     72.8278
  1217.5000      0.0000    434.1907     12.4229     63.0273
  1217.7500      0.0000    408.1480     13.2534     54.4339
  1218.0000      0.0000    381.9326     14.1382     48.1635
  1218.2500      0.0000    360.9139     15.0154     44.7621
  1218.5000      0.0000    345.5654     15.8451     44.3368
  1218.7500      0.0000    334.4077     16.6116     46.7013
  1219.0000      0.0000    326.3159     17.3209     51.4966
  1219.2500      0.0000    321.3802     17.9642     58.3253
  1219.5000      0.0000    321.1555     18.4759     66.7208
  1219.7500      0.0000    327.7555     18.7310     75.8487
  1220.0000      0.0000    341.3536     18.5804     84.3672
  1220.2500      0.0000    358.4072     17.9084     90.8647
  1220.5000      0.0000    373.8702     16.7207     94.4638
  1220.7500      0.0000    386.7390     15.2106     94.9873
  1221.0000      0.0000    403.1503     13.6893     92.7889
  1221.2500      0.0000    432.5748     12.4078     88.6025
  1221.5000      2.0000    479.5165     11.4628     83.4734
  1221.7500      0.0000    537.1210     10.8590     78.6412
  1222.0000      0.0000    588.6802     10.6199     75.1961
  1222.2500      0.0000    617.1976     10.8390     73.4910
  1222.5000      0.0000    614.6555     11.6210     72.9657
  1222.7500      0.0000    583.0541     12.9059     72.8758
  1223.0000      0.0000    530.6405     14.3213     73.2214
  1223.2500      0.0000    470.0059     15.3213     74.6766
  1223.5000      0.0000    415.6602     15.5808     77.4774
  1223.7500      0.0000    377.6888     15.2185     80.6124
  1224.0000      0.0000    357.2576     14.6083     82.5006
  1224.2500      0.0000    349.3091     14.0519     82.5107
  1224.5000      0.0000    348.3237     13.6526     81.5232
  1224.7500      0.0000    351.2097     13.3824     81.0193
  1225.0000      0.0000    357.1638     13.1706     81.9140
  1225.2500      0.0000    367.3207     12.9550     84.1693
  1225.5000      0.0000    384.0844     12.7191     86.9980
  1225.7500      0.0000    407.6096     12.5152     89.1202
  1226.0000      0.0000    431.3592     12.4401     89.0842
  1226.2500      0.0000    443.8341     12.5693     85.9283
  1226.5000      0.0000    437.8513     12.9078     79.8945
  1226.7500      0.0000    416.9608     13.4041     72.5173
  1227.0000      0.0000    391.1349     13.9998     66.0023
  1227.2500      0.0000    368.1103     14.6581     62.3465
  1227.5000      0.0000    350.1381     15.3526     62.5541
  1227.7500      0.0000    336.5302     16.0448     66.2340
  1228.0000      0.0000    326.6599     16.6774     71.8804
  1228.2500      0.0000    320.5011     17.1952     77.6681
  1228.5000      0.0000    317.6212     17.5716     82.2023
  1228.7500      0.0000    316.8985     17.8112     84.9107
  1229.0000      0.0000    317.5597     17.9191     86.0423
  1229.2500      0.0000    319.9272     17.8762     86.1084
  1229.5000      0.0000    324.4910     17.6608     85.1501
  1229.7500      0.0000    330.5856     17.2915     82.8019
  1230.0000      0.0000    336.5157     16.8379     79.0942
  1230.2500      0.0000    340.8629     16.3884     74.7757
  1230.5000      0.0000    343.3143     16.0079     70.6909
  1230.7500      0.0000    344.3754     15.7196     67.2394
  1231.0000      0.0000    344.6968     15.5132     64.6806
  1231.2500      0.0000    344.7275     15.3640     63.6807
  1231.5000      0.0000    344.7019     15.2465     65.1776
  1231.7500      0.0000    344.7180     15.1408     69.4923
