~Version Information
 VERS.                                  2.0 : CWLS LAS VERSION
 WRAP.                                   NO : WRAPING MODE
 SWARE .                  MController 2.5.1 : SOFTWARE VERSION
~Well Information
 WELL.                    Sparrowhawk 22-12 : WELL
 COMP.  Pioneer Natural Resources USA, Inc. : COMPANY
 FLD.                      Purgatoire River : FIELD
 LOC.             SE/NE Sec. 12, T32S, R66W : LOCATION
 DATE.                03/22/2006-03/23/2006 : DATE(S) LOGGED
 SRVC.                  Entrada GeoSciences : SERVICE COMPANY
 STAT.                             Colorado : STATE
 CNTY.                           Las Animas : COUNTY
 CTRY.                        United States : COUNTRY
 API.                          05-071-08484 : API NUMBER
 STRT.FT                             533.00 : START DEPTH
 STOP.FT                            2380.00 : STOP DEPTH
 STEP.FT                               1.00 : DEPTH INCREMENT
 NULL.                                -9999 : NULL VALUE
~Curve information
 DEPTH.FT                                   :
 ROP.MIN/FT                                 :
 GAS.UNITS                                  :
~ASCII Log data
# ...
     1933.00         0.23        642.6 
     1934.00         0.23        623.6 
     1935.00         0.27        598.4 
     1936.00         0.27        579.6 
     1937.00         0.27        545.9 
     1938.00         0.28        534.8 
     1939.00         0.30        520.5 
     1940.00         0.27        503.8 
     1941.00         0.30        495.8 
     1942.00         0.27        482.1 
     1943.00         0.23        478.0 
     1944.00         0.23        478.3 
     1945.00         0.27        473.9 
     1946.00         0.10        472.4 
     1947.00         0.33        466.8 
     1948.00         0.37        457.2 
     1949.00         0.37        439.0 
     1950.00         0.35        424.9 
     1951.00         0.33        415.6 
     1952.00         0.30        424.1 
     1953.00         0.30        452.2 
     1954.00         0.30        501.4 
     1955.00         0.27        558.5 
     1956.00         0.27        635.9 
     1957.00         0.27        731.1 
     1958.00         0.27        833.9 
     1959.00         0.23        907.8 
     1960.00         0.20        935.9 
     1961.00         0.27        938.8 
     1962.00         0.25        901.9 
     1963.00         0.23        844.2 
     1964.00         0.23        787.6 
     1965.00         0.23        737.0 
     1966.00         0.27        683.3 
     1967.00         0.27        637.3 
     1968.00         0.27        601.3 
     1969.00         0.23        574.9 
     1970.00         0.27        546.8 
     1971.00         0.23        532.2 
     1972.00         0.23        520.2 
     1973.00         0.23        505.8 
     1974.00         0.27        495.8 
     1975.00         0.23        489.1 
     1976.00         0.45        478.3 
     1977.00         0.37        479.4 
     1978.00         0.55        479.4 
     1979.00         0.43        475.0 
     1980.00         0.37        467.1 
     1981.00         0.40        448.1 
     1982.00         0.47        424.7 
     1983.00         0.33        418.5 
     1984.00         0.33        431.4 
     1985.00         0.30        469.2 
     1986.00         0.30        523.1 
     1987.00         0.28        580.8 
     1988.00         0.20        637.1 
     1989.00         0.27        711.8 
     1990.00         0.20        747.2 
     1991.00         0.23        765.1 
     1992.00         0.23        761.0 
     1993.00         0.20        745.7 
     1994.00         0.27        712.6 
     1995.00         0.37        670.7 
     1996.00         0.33        630.0 
     1997.00         0.30        592.5 
     1998.00         0.27        567.0 
     1999.00         0.27        542.1 
     2000.00         0.35        519.0 
     2001.00         0.30        502.9 
     2002.00         0.27        490.3 
     2003.00         0.27        479.4 
     2004.00         0.27        473.3 
     2005.00         0.27        469.5 
     2006.00         0.10        455.1 
     2007.00         0.48        436.4 
     2008.00         0.43        415.3 
     2009.00         0.37        412.6 
     2010.00         0.37        430.5 
     2011.00         0.33        475.3 
     2012.00         0.30        532.2 
     2013.00         0.37        633.2 
     2014.00         0.30        724.9 
     2015.00         0.33        781.2 
     2016.00         0.37        783.0 
     2017.00         0.38        742.2 
     2018.00         0.37        693.9 
     2019.00         0.73        607.2 
     2020.00         0.37        571.7 
     2021.00         0.53        531.6 
     2022.00         0.37        507.0 
     2023.00         0.37        492.6 
     2024.00         0.45        480.0 
     2025.00         0.37        476.2 
     2026.00         0.37        475.3 
     2027.00         0.40        474.5 
     2028.00         0.33        471.8 
     2029.00         0.33        468.9 
     2030.00         0.37        466.8 
     2031.00         0.37        463.3 
     2032.00         0.30        462.2 
     2033.00         0.33        462.2 
     2034.00         0.28        457.5 
     2035.00         0.30        459.8 
     2036.00         0.60        457.2 
     2037.00         0.43        451.3 
     2038.00         0.37        439.0 
     2039.00         0.43        419.7 
     2040.00         0.43        417.6 
     2041.00         0.40        444.3 
     2042.00         0.43        514.3 
     2043.00         0.42        615.4 
     2044.00         0.67        746.0 
     2045.00         0.43        742.5 
     2046.00         0.43        707.7 
     2047.00         0.27        679.8 
     2048.00         0.20        659.6 
     2049.00         0.23        628.3 
     2050.00         0.27        599.0 
     2051.00         0.30        570.6 
     2052.00         0.45        538.0 
     2053.00         0.40        514.0 
     2054.00         0.37        499.7 
     2055.00         0.33        485.0 
     2056.00         0.37        476.5 
     2057.00         0.33        470.1 
     2058.00         0.37        469.8 
     2059.00         0.33        467.4 
     2060.00         0.30        469.5 
     2061.00         0.38        464.8 
     2062.00         0.37        463.6 
     2063.00         0.37        462.4 
     2064.00         0.27        467.4 
     2065.00         0.27        456.0 
     2066.00         0.50        453.7 
     2067.00         0.53        448.1 
     2068.00         0.50        430.2 
     2069.00         0.43        414.7 
     2070.00         0.42        418.5 
     2071.00         0.43        448.4 
     2072.00         0.37        508.1 
     2073.00         0.40        601.6 
     2074.00         0.37        686.0 
     2075.00         0.37        719.1 
     2076.00         0.37        701.8 
     2077.00         0.30        665.8 
     2078.00         0.30        641.7 
     2079.00         0.20        627.7 
     2080.00         0.15        613.6 
     2081.00         0.13        604.2 
     2082.00         0.13        600.7 
     2083.00         0.27        583.7 
     2084.00         0.10        575.8 
     2085.00         0.30        556.5 
     2086.00         0.37        534.8 
     2087.00         0.30        521.9 
     2088.00         0.27        506.1 
     2089.00         0.27        486.2 
     2090.00         0.43        466.8 
     2091.00         0.43        468.6 
     2092.00         0.45        466.3 
     2093.00         0.37        458.1 
     2094.00         0.37        460.1 
     2095.00         0.37        449.3 
     2096.00         0.28        550.0 
     2097.00         0.40        529.2 
     2098.00         0.53        521.6 
     2099.00         0.50        515.8 
     2100.00         0.45        541.8 
     2101.00         0.23        573.2 
     2102.00         0.17        603.9 
     2103.00         0.20        650.8 
     2104.00         0.13        684.8 
     2105.00         0.17        746.6 
     2106.00         0.27        864.7 
     2107.00         0.37       1083.2 
     2108.00         0.33       1265.5 
     2109.00         0.27       1353.9 
     2110.00         0.17       1382.7 
     2111.00         0.23       1391.7 
     2112.00         0.27       1353.9 
     2113.00         0.35       1237.6 
     2114.00         0.37       1067.1 
     2115.00         0.40        920.9 
     2116.00         0.40        796.7 
     2117.00         0.40        717.3 
     2118.00         0.60        691.8 
     2119.00         0.53        701.2 
     2120.00         0.55        712.9 
     2121.00         0.57        715.3 
     2122.00         0.53        703.9 
     2123.00         0.67        683.6 
     2124.00         0.47        662.5 
     2125.00         0.57        641.7 
     2126.00         0.30        575.2 
     2127.00         0.40        567.6 
     2128.00         0.60        546.5 
     2129.00         0.57        517.5 
     2130.00         0.40        522.2 
     2131.00         0.33        552.7 
     2132.00         0.42        641.4 
