~Version Information
VERS.                      2.0: CWLS Log ASCII Standard - VERSION 2.0
WRAP.                       NO: One line per depth step
~Well Information Block
STRT.FT                -3.0000: 
STOP.FT              1123.0000: 
STEP.FT                 0.2500: 
NULL.                -999.2500: 
COMP.          Pioneer Natural Resources: COMPANY
WELL.               Ryan 41-17: WELL
FLD.           Purgatoire River: FIELD
LOC.           822' FNL & 532' FEL--: LOCATION
CNTY.               Las Animas: COUNTY
SRVC.                Patterson: SERVICE COMPANY
DATE.          Mon Mar 27 14:50:31 2006: LOG DATE
UWI.           05 071 08719 00: UNIQUE WELL ID
STAT.                 Colorado: STATE
~Curve Information Block
DEPT.FT            0 000 00 00: Depth
CCL.                          : Casing Collar Locator
TT3.usec                      : CBL 3' Travel Time
AMP3.mV                       : CBL 3' Amplitude
GR.GAPI                       : Gamma Ray
~Parameter Information Block
~A  Depth       CCL         TT3         AMP3         GR     
# ...
   566.5000      0.0000    301.9927     34.5176    139.9366
   566.7500      0.0000    301.9768     34.5455    136.7681
   567.0000      0.0000    301.9863     34.6597    132.4502
   567.2500      0.0000    302.0135     34.7234    131.6801
   567.5000      0.0000    302.0701     34.7385    134.3900
   567.7500      0.0000    302.1074     34.7025    137.5747
   568.0000      0.0000    302.1519     34.6313    142.2500
   568.2500      0.0000    302.1718     34.6017    145.0919
   568.5000      0.0000    302.1847     34.6196    149.2264
   568.7500      0.0000    302.1824     34.6807    151.4154
   569.0000      0.0000    302.1715     34.8217    152.7817
   569.2500      0.0000    302.1677     34.9137    152.7986
   569.5000      0.0000    302.1759     34.9974    153.7743
   569.7500      0.0000    302.1887     35.0202    156.2520
   570.0000      0.0000    302.2053     35.0711    162.9484
   570.2500      0.0000    302.2051     35.1572    168.3155
   570.5000      0.0000    302.1759     35.3701    175.0063
   570.7500      0.0000    302.1346     35.5263    177.8097
   571.0000      0.0000    302.0449     35.6917    181.0521
   571.2500      0.0000    301.9749     35.7303    184.0826
   571.5000      0.0000    301.8759     35.6940    190.2953
   571.7500      0.0000    301.8277     35.6236    193.8168
   572.0000      0.0000    301.7986     35.4467    193.7166
   572.2500      0.0000    301.8107     35.2615    188.3977
   572.5000      0.0000    301.8728     34.8418    173.9021
   572.7500      0.0000    301.9418     34.4525    163.0690
   573.0000      0.0000    302.0893     33.7081    151.5447
   573.2500      0.0000    302.2521     33.1288    149.3549
   573.5000      0.0000    302.8191     32.2067    154.0368
   573.7500      0.0000    303.9598     31.5941    160.2617
   574.0000      0.0000    309.8283     30.6693    169.1910
   574.2500      0.0000    320.4442     29.9780    172.4035
   574.5000      0.0000    356.4989     28.6650    171.4742
   574.7500      0.0000    398.5830     27.5787    167.9136
   575.0000      0.0000    485.0499     25.8078    161.4238
   575.2500      0.0000    547.4700     24.7063    157.7438
   575.5000      0.0000    625.0023     23.3733    153.0950
   575.7500      0.0000    657.9717     22.7058    149.5644
   576.0000      0.0000    681.5647     21.9549    142.5163
   576.2500      0.0000    687.3055     21.5892    137.0067
   576.5000      0.0000    693.1400     21.2502    128.5653
   576.7500      0.0000    698.5015     21.1763    122.7192
   577.0000      0.0000    707.7509     21.2755    112.6129
   577.2500      0.0000    712.4992     21.4538    105.0599
   577.5000      0.0000    713.7588     21.8728     94.4385
   577.7500      0.0000    707.7529     22.2837     89.1411
   578.0000      0.0000    679.7595     23.1769     85.1175
   578.2500      0.0000    642.8383     23.9650     85.3460
   578.5000      0.0000    559.2073     25.3303     90.3467
   578.7500      0.0000    493.1541     26.2532     96.7105
   579.0000      0.0000    402.6923     27.4702    109.6744
   579.2500      0.0000    359.0327     28.0869    119.4001
   579.5000      0.0000    321.8486     28.6357    133.7223
   579.7500      0.0000    311.0009     28.7491    142.5426
   580.0000      0.0000    305.2003     28.6390    154.1528
   580.2500      0.0000    304.2434     28.4787    160.1388
   580.5000      0.0000    304.0023     28.2649    164.6714
   580.7500      0.0000    304.0370     28.1791    163.7825
   581.0000      0.0000    304.1298     28.1034    156.2337
   581.2500      0.0000    304.1909     28.0455    147.9374
   581.5000      0.0000    304.2998     27.9061    133.5077
   581.7500      0.0000    304.3917     27.7841    124.1701
   582.0000      0.0000    304.5461     27.5940    111.9303
   582.2500      0.0000    304.6317     27.4838    105.2108
   582.5000      0.0000    304.6714     27.3755     98.2298
   582.7500      0.0000    304.6194     27.3566     96.7174
   583.0000      0.0000    304.4504     27.4178    101.0452
   583.2500      0.0000    304.3184     27.5086    108.6617
   583.5000      0.0000    304.1812     27.6728    125.0840
   583.7500      0.0000    304.2184     27.7569    136.4308
   584.0000      0.0000    304.9708     27.7542    148.0821
   584.2500      0.0000    306.8817     27.6180    150.1638
   584.5000      0.0000    315.6693     27.1569    145.5091
   584.7500      0.0000    328.9034     26.6623    139.4432
   585.0000      0.0000    363.6945     25.6564    129.4168
   585.2500      0.0000    394.1893     24.8639    122.8009
   585.5000      0.0000    436.5611     23.6889    112.1259
   585.7500      0.0000    454.5595     23.0496    103.7802
   586.0000      0.0000    468.5962     22.3640     89.2153
   586.2500      0.0000    480.6266     21.9580     78.8372
   586.5000      0.0000    520.5121     21.1890     64.4548
   586.7500      0.0000    560.7491     20.6596     57.0792
   587.0000      0.0000    620.8810     20.3431     51.1930
   587.2500      0.0000    646.6508     20.6557     51.2498
   587.5000      0.0000    651.2911     21.7665     57.2817
   587.7500      2.0000    633.0364     22.6854     64.7105
   588.0000      0.0000    584.3953     24.0732     79.2872
   588.2500      0.0000    544.4525     25.1091     90.1901
   588.5000      0.0000    480.9467     27.3389    106.6073
   588.7500      0.0000    439.1556     29.4670    116.5091
   589.0000      0.0000    382.7641     33.2103    127.6248
   589.2500      0.0000    352.8736     35.5258    131.5485
   589.5000      0.0000    322.8513     38.1698    132.0944
   589.7500      0.0000    311.8527     39.5072    129.8103
   590.0000      0.0000    304.2325     41.2884    124.7830
   590.2500      0.0000    302.3458     42.3193    121.7610
   590.5000      0.0000    301.3892     43.3100    119.3159
   590.7500      0.0000    301.2257     43.5090    119.0731
   591.0000      0.0000    301.2014     43.3018    119.4052
   591.2500      0.0000    301.2379     43.0172    119.4312
   591.5000      0.0000    301.3077     42.5926    119.5645
   591.7500      0.0000    301.3495     42.3384    120.4070
   592.0000      0.0000    301.3945     41.9493    123.4195
   592.2500      0.0000    301.4143     41.6559    126.3321
   592.5000      0.0000    301.4386     41.1878    130.3960
   592.7500      0.0000    301.4541     40.9132    131.3007
   593.0000      0.0000    301.4705     40.6573    127.5626
   593.2500      0.0000    301.4710     40.6011    121.7028
   593.5000      0.0000    301.4518     40.5929    111.1222
   593.7500      0.0000    301.4293     40.5513    105.5689
   594.0000      0.0000    301.3985     40.3406    101.9779
   594.2500      0.0000    301.3939     40.1184    101.9189
   594.5000      0.0000    301.4264     39.7955    101.9426
   594.7500      0.0000    301.4707     39.6656    100.8905
   595.0000      0.0000    301.5471     39.6121     98.5585
   595.2500      0.0000    301.5912     39.5949     97.7538
   595.5000      0.0000    301.6385     39.4331     99.3972
   595.7500      0.0000    301.6585     39.1961    102.9865
   596.0000      0.0000    301.6761     38.7218    112.3801
   596.2500      0.0000    301.6835     38.4086    120.4425
   596.5000      0.0000    301.6968     38.0305    131.1507
   596.7500      0.0000    301.7119     37.8315    134.2282
   597.0000      0.0000    301.7477     37.5385    129.3199
   597.2500      0.0000    301.7815     37.3099    120.2588
   597.5000      0.0000    301.8507     36.9128    103.2652
   597.7500      0.0000    301.9099     36.6417     93.6815
   598.0000      0.0000    302.0092     36.2944     86.2059
   598.2500      0.0000    302.0693     36.1310     85.5400
   598.5000      0.0000    302.1250     35.9934     87.1458
   598.7500      0.0000    302.1329     35.9528     87.6104
   599.0000      0.0000    302.1135     35.9264     85.7016
   599.2500      0.0000    302.0938     35.9278     83.0238
   599.5000      0.0000    302.0693     35.9929     77.9976
   599.7500      0.0000    302.0544     36.0908     74.2341
