~Version Information
VERS.                      2.0: CWLS Log ASCII Standard - VERSION 2.0
WRAP.                       NO: One line per depth step
~Well Information Block
STRT.FT               230.0000: 
STOP.FT              1028.0000: 
STEP.FT                 0.2500: 
NULL.                -999.2500: 
COMP.          Pioneer Natural Resources: COMPANY
WELL.              Gough 14-29: WELL
FLD.           Purgatoire River: FIELD
LOC.           1199' FSL & 676' FWL: LOCATION
PROV.                 Colorado: PROVINCE
CNTY.               Las Animas: COUNTRY
SRVC.                Patterson: SERVICE COMPANY
DATE.          Thu Dec 22 16:27:18 2005: LOG DATE
UWI.           05 071 08612 00: UNIQUE WELL ID
~Curve Information Block
DEPT.FT            0 000 00 00: Depth
SN.Ohm-m                      : IEL Short Normal
SP.mV                         : IEL Spontaneous Potential
DIR.Ohm-m                     : IEL Induction Resistivity
GR.GAPI                       : Gamma Ray
~Parameter Information Block
SNDERRM.mmho-m         10.0000: Medium Sonde Error Correction
~A  Depth        SN          SP         DIR          GR     
# ...
   799.5000     16.9911     44.0897     14.5368     91.5906
   799.7500     17.0523     43.9682     14.5187     90.1727
   800.0000     17.0822     43.8991     14.4764     88.3234
   800.2500     17.0443     43.8681     14.4289     86.9616
   800.5000     16.9032     43.8441     14.3983     84.8087
   800.7500     16.7330     43.7936     14.3981     83.5963
   801.0000     16.6658     43.6983     14.4288     82.2465
   801.2500     16.7816     43.5612     14.4811     81.4976
   801.5000     17.0535     43.3969     14.5427     80.4540
   801.7500     17.3417     43.2191     14.6032     79.8785
   802.0000     17.5274     43.0372     14.6574     79.3064
   802.2500     17.6134     42.8591     14.7048     79.0822
   802.5000     17.5996     42.6880     14.7490     78.8229
   802.7500     17.5083     42.5172     14.7973     78.6749
   803.0000     17.5338     42.3295     14.8611     78.6787
   803.2500     17.8293     42.1050     14.9544     78.9464
   803.5000     18.2624     41.8267     15.0902     79.7053
   803.7500     18.5857     41.4797     15.2738     80.4036
   804.0000     18.6892     41.0456     15.4993     81.9084
   804.2500     18.6049     40.5033     15.7523     83.2563
   804.5000     18.4275     39.8392     16.0182     85.0449
   804.7500     18.2710     39.0575     16.2891     85.1995
   805.0000     18.2326     38.1869     16.5662     82.6483
   805.2500     18.4065     37.2786     16.8568     79.0992
   805.5000     18.8619     36.3947     17.1707     72.3175
   805.7500     19.5514     35.5901     17.5190     67.9109
   806.0000     20.3408     34.8948     17.9141     62.9304
   806.2500     21.1607     34.3070     18.3688     61.0047
   806.5000     22.0087     33.7967     18.8917     59.8925
   806.7500     22.8312     33.3217     19.4801     59.9947
   807.0000     23.5657     32.8479     20.1143     61.0885
   807.2500     24.2252     32.3631     20.7557     62.2850
   807.5000     24.8272     31.8719     21.3498     63.9695
   807.7500     25.3249     31.3820     21.8417     64.2264
   808.0000     25.6907     30.9013     22.2018     62.2052
   808.2500     25.9904     30.4477     22.4397     59.2649
   808.5000     26.2841     30.0502     22.5921     53.8584
   808.7500     26.5726     29.7330     22.6990     50.8405
   809.0000     26.8534     29.4994     22.8008     48.9505
   809.2500     27.1116     29.3331     22.9532     49.7565
   809.5000     27.3593     29.2107     23.2285     53.0542
   809.7500     27.6804     29.1112     23.6849     55.4621
   810.0000     28.1288     29.0182     24.3297     57.5884
   810.2500     28.6108     28.9211     25.1073     57.6645
   810.5000     28.9081     28.8177     25.9188     56.3558
   810.7500     28.9181     28.7130     26.6574     55.1841
   811.0000     28.8125     28.6119     27.2435     53.8610
   811.2500     28.8159     28.5124     27.6476     53.4108
   811.5000     28.9707     28.4061     27.8934     52.9594
   811.7500     29.1924     28.2852     28.0405     52.4295
   812.0000     29.4257     28.1472     28.1559     51.0454
   812.2500     29.7182     27.9934     28.2916     49.9444
   812.5000     30.1364     27.8248     28.4740     48.6402
   812.7500     30.6446     27.6442     28.6979     48.2119
   813.0000     31.1139     27.4614     28.9192     48.0888
   813.2500     31.4056     27.2929     29.0607     48.0471
   813.5000     31.4644     27.1520     29.0406     47.4865
   813.7500     31.3412     27.0400     28.8151     46.6956
   814.0000     31.1060     26.9483     28.4047     45.4831
   814.2500     30.8217     26.8706     27.8862     45.2754
   814.5000     30.5602     26.8131     27.3596     46.5523
   814.7500     30.2961     26.7952     26.9094     48.3874
   815.0000     29.8446     26.8405     26.5736     52.1098
   815.2500     29.0423     26.9682     26.3269     55.1093
   815.5000     27.9549     27.1871     26.0858     60.4823
   815.7500     26.8344     27.4938     25.7391     64.5611
   816.0000     25.9100     27.8746     25.1959     70.6811
   816.2500     25.2596     28.3132     24.4271     74.1632
   816.5000     24.8477     28.8041     23.4719     77.8155
   816.7500     24.6279     29.3676     22.4085     79.1319
   817.0000     24.5379     30.0535     21.3197     79.5785
   817.2500     24.4391     30.9238     20.2741     79.0273
   817.5000     24.2271     32.0223     19.3227     77.6280
   817.7500     23.9191     33.3507     18.4988     76.9418
   818.0000     23.4973     34.8647     17.8185     77.1011
   818.2500     22.8278     36.4908     17.2818     78.1033
   818.5000     21.8327     38.1530     16.8777     80.7263
   818.7500     20.6416     39.7968     16.5866     83.0284
   819.0000     19.5223     41.3918     16.3827     86.8443
   819.2500     18.6602     42.9139     16.2385     89.2165
   819.5000     18.0666     44.3264     16.1301     91.6827
   819.7500     17.6994     45.5825     16.0385     92.1763
   820.0000     17.5411     46.6446     15.9463     90.7868
   820.2500     17.5699     47.4995     15.8365     88.4229
   820.5000     17.7696     48.1601     15.7004     83.0821
   820.7500     18.1786     48.6545     15.5506     78.8415
   821.0000     18.8386     49.0157     15.4235     72.9379
   821.2500     19.6769     49.2762     15.3674     70.2692
   821.5000     20.5379     49.4688     15.4257     69.0526
   821.7500     21.2957     49.6245     15.6267     69.9231
   822.0000     21.8286     49.7677     15.9808     72.8867
   822.2500     22.0093     49.9089     16.4814     75.5846
   822.5000     21.8786     50.0439     17.1044     80.1869
   822.7500     21.6792     50.1586     17.8085     83.0778
   823.0000     21.5566     50.2381     18.5367     85.8172
   823.2500     21.4196     50.2755     19.2244     86.0051
   823.5000     21.2017     50.2766     19.8128     83.8716
   823.7500     21.0405     50.2594     20.2642     81.3755
   824.0000     21.1255     50.2498     20.5731     76.9439
   824.2500     21.4977     50.2726     20.7653     73.7909
   824.5000     22.0654     50.3382     20.8856     69.2058
   824.7500     22.7210     50.4358     20.9825     66.8275
   825.0000     23.3713     50.5396     21.0975     65.3818
   825.2500     23.9252     50.6258     21.2631     65.8591
   825.5000     24.3118     50.6849     21.5053     67.2523
   825.7500     24.5028     50.7251     21.8417     67.5012
   826.0000     24.5569     50.7644     22.2729     66.1635
   826.2500     24.5955     50.8192     22.7726     64.6568
   826.5000     24.6736     50.8969     23.2887     62.7036
   826.7500     24.7795     50.9940     23.7595     61.8494
   827.0000     24.9130     51.0988     24.1413     60.9244
   827.2500     25.0554     51.1960     24.4256     60.3611
   827.5000     25.1613     51.2712     24.6332     59.6560
   827.7500     25.1968     51.3129     24.7887     59.3727
   828.0000     25.1464     51.3120     24.8934     58.9652
   828.2500     25.0818     51.2621     24.9139     58.2200
   828.5000     25.1643     51.1633     24.7971     55.5239
   828.7500     25.4220     51.0242     24.5083     52.6530
   829.0000     25.6687     50.8567     24.0680     47.9555
   829.2500     25.7687     50.6700     23.5502     45.6608
   829.5000     25.7946     50.4679     23.0393     44.6736
   829.7500     25.8596     50.2501     22.5789     45.4674
   830.0000     25.9322     50.0132     22.1571     47.4670
   830.2500     25.8702     49.7530     21.7344     48.6692
   830.5000     25.5881     49.4686     21.2852     50.2403
   830.7500     25.1001     49.1640     20.8178     51.6339
   831.0000     24.4272     48.8434     20.3609     55.1736
   831.2500     23.5675     48.5023     19.9375     58.6774
   831.5000     22.5711     48.1235     19.5519     64.9475
   831.7500     21.5823     47.6816     19.1941     68.8979
   832.0000     20.7635     47.1519     18.8549     72.9426
   832.2500     20.1736     46.5192     18.5339     74.0223
   832.5000     19.7266     45.7832     18.2358     73.6884
   832.7500     19.3171     44.9585     17.9606     72.7476
