~Version Information
VERS.                      2.0: CWLS Log ASCII Standard - VERSION 2.0
WRAP.                       NO: One line per depth step
~Well Information Block
STRT.FT                 7.7500: 
STOP.FT              2101.0000: 
STEP.FT                 0.2500: 
NULL.                -999.2500: 
COMP.          Pioneer Natural Resources: COMPANY
WELL.          Gunslinger 13-24: WELL
FLD.           Purgatoire River: FIELD
LOC.           1968' FSL & 633' FWL: LOCATION
PROV.                 Colorado: PROVINCE
CNTY.               Las Animas: COUNTRY
SRVC.                Patterson: SERVICE COMPANY
DATE.          Mon Aug 15 11:00:02 2005: LOG DATE
UWI.           05 071 08442 00: UNIQUE WELL ID
~Curve Information Block
DEPT.FT            0 000 00 00: Depth
GR.GAPI                       : Gamma Ray
CCL.                          : Casing Collar Locator
TT3.usec                      : CBL 3' Travel Time
AMP3.mV                       : CBL 3' Amplitude
~Parameter Information Block
~A  Depth        GR         CCL         TT3         AMP3    
     7.7500   -999.2500   -999.2500   -999.2500   -999.2500
     8.0000   -999.2500   -999.2500   -999.2500   -999.2500
     8.2500   -999.2500   -999.2500   -999.2500   -999.2500
     8.5000   -999.2500   -999.2500   -999.2500   -999.2500
     8.7500   -999.2500   -999.2500   1467.0000      1.2626
     9.0000   -999.2500   -999.2500   1467.0000      1.2596
     9.2500   -999.2500   -999.2500   1467.0000      1.2573
     9.5000   -999.2500   -999.2500   1467.0000      1.2552
     9.7500   -999.2500   -999.2500   1467.0000      1.2542
    10.0000   -999.2500   -999.2500   1467.0000      1.2553
    10.2500   -999.2500   -999.2500   1467.0000      1.2583
    10.5000   -999.2500   -999.2500   1467.0000      1.2608
    10.7500   -999.2500   -999.2500   1467.0000      1.2595
    11.0000   -999.2500   -999.2500   1467.0000      1.2536
    11.2500   -999.2500   -999.2500   1467.0000      1.2454
    11.5000   -999.2500   -999.2500   1467.0000      1.2374
    11.7500   -999.2500   -999.2500   1467.0000      1.2307
    12.0000   -999.2500   -999.2500   1467.0000      1.2260
    12.2500   -999.2500   -999.2500   1467.0000      1.2239
    12.5000   -999.2500   -999.2500   1467.0000      1.2262
    12.7500   -999.2500   -999.2500   1467.0000      1.2334
    13.0000   -999.2500   -999.2500   1467.0000      1.2436
    13.2500   -999.2500   -999.2500   1467.0000      1.2521
    13.5000   -999.2500   -999.2500   1467.0000      1.2547
    13.7500   -999.2500   -999.2500   1467.0000      1.2510
    14.0000   -999.2500   -999.2500   1467.0000      1.2452
    14.2500   -999.2500   -999.2500   1467.0000      1.2424
    14.5000   -999.2500      0.0000   1467.0000      1.2441
    14.7500   -999.2500      0.0000   1467.0000      1.2467
    15.0000   -999.2500      0.0000   1467.0000      1.2458
    15.2500   -999.2500      0.0000   1467.0000      1.2408
    15.5000   -999.2500      0.0000   1467.0000      1.2361
    15.7500   -999.2500      0.0000   1467.0000      1.2360
    16.0000   -999.2500      0.0000   1467.0000      1.2420
    16.2500   -999.2500      0.0000   1466.9216      1.2572
    16.5000   -999.2500      0.0000   1466.4077      1.3020
    16.7500   -999.2500      0.0000   1463.7968      1.4572
    17.0000   -999.2500      0.0000   1453.4569      1.9560
    17.2500   -999.2500      0.0000   1421.5636      3.2923
    17.5000   -999.2500      0.0000   1344.9503      6.1838
    17.7500   -999.2500      0.0000   1201.6641     11.1700
    18.0000   -999.2500      0.0000    993.1374     17.9673
    18.2500   -999.2500      0.0000    757.2414     25.2491
    18.5000   -999.2500      0.0000    550.1855     31.3656
    18.7500   -999.2500      0.0000    409.5466     35.4464
    19.0000   -999.2500      0.0000    335.6362     37.7940
    19.2500     46.6264      0.0000    304.6806     39.3448
    19.5000     46.6148      0.0000    292.0666     40.9235
    19.7500     47.1271      0.0000    283.9562     42.8678
    20.0000     47.9517      0.0000    276.2682     45.0616
    20.2500     48.7440      0.0000    269.4894     47.1968
    20.5000     49.3650      0.0000    264.6910     49.0450
    20.7500     50.1134      0.0000    261.9228     50.5801
    21.0000     51.4482      0.0000    260.4541     51.9701
    21.2500     53.1942      0.0000    259.4536     53.5132
    21.5000     54.2797      0.0000    258.4089     55.5036
    21.7500     53.7100      0.0000    257.1771     58.0573
    22.0000     51.7046      0.0000    255.8651     61.0483
    22.2500     49.5790      0.0000    254.6681     64.2010
    22.5000     48.7242      0.0000    253.7341     67.1923
    22.7500     49.9301      0.0000    253.1064     69.7137
    23.0000     53.1926      0.0000    252.7394     71.5756
    23.2500     57.5724      0.0000    252.5473     72.7978
    23.5000     61.4360      0.0000    252.4489     73.5583
    23.7500     63.2927      0.0000    252.3929     74.0561
    24.0000     62.5387      0.0000    252.3579     74.4312
    24.2500     59.5679      0.0000    252.3389     74.7595
    24.5000     55.5025      0.0000    252.3311     75.0692
    24.7500     51.8511      0.0000    252.3257     75.3585
    25.0000     50.0300      0.0000    252.3123     75.6191
    25.2500     50.7581      0.0000    252.2844     75.8475
    25.5000     53.6617      0.0000    252.2411     76.0463
    25.7500     57.4474      0.0000    252.1879     76.2231
    26.0000     60.7442      0.0000    252.1360     76.3934
    26.2500     62.9303      0.0000    252.0980     76.5773
    26.5000     64.0357      0.0000    252.0813     76.7885
    26.7500     64.0021      0.0000    252.0837     77.0243
    27.0000     62.5619      0.0000    252.0954     77.2672
    27.2500     59.9156      0.0000    252.1043     77.4966
    27.5000     57.0164      0.0000    252.1022     77.7009
    27.7500     54.8579      0.0000    252.0893     77.8826
    28.0000     53.6888      0.0000    252.0727     78.0544
    28.2500     53.0670      0.0000    252.0614     78.2288
    28.5000     52.4781      0.0000    252.0587     78.4101
    28.7500     51.7545      0.0000    252.0621     78.5934
    29.0000     51.0169      0.0000    252.0672     78.7714
    29.2500     50.3818      0.0000    252.0727     78.9412
    29.5000     49.8334      0.0000    252.0800     79.1090
    29.7500     49.4912      0.0000    252.0921     79.2898
    30.0000     49.9516      0.0000    252.1110     79.5031
    30.2500     52.0874      0.0000    252.1369     79.7657
    30.5000     56.2773      0.0000    252.1670     80.0793
    30.7500     61.8491      0.0000    252.1966     80.4208
    31.0000     67.4270      0.0000    252.2213     80.7496
    31.2500     71.9567      0.0000    252.2394     81.0332
    31.5000     75.4632      0.0000    252.2518     81.2631
    31.7500     78.7340      0.0000    252.2597     81.4490
    32.0000     82.2700      0.0000    252.2648     81.5960
    32.2500     85.6364      0.0000    252.2697     81.6801
    32.5000     87.8001      0.0000    252.2806     81.6214
    32.7500     88.0938      0.0000    252.3171     81.2641
    33.0000     86.9839      0.0000    252.4347     80.4152
    33.2500     85.7962      0.0000    252.7375     78.9504
    33.5000     85.4860      0.0000    253.3441     76.8941
    33.7500     85.8251      0.0000    254.2973     74.3991
    34.0000     85.9104      0.0000    255.4927     71.7140
    34.2500     85.0858      0.0000    256.7087     69.1942
    34.5000     83.1582      0.0000    257.7253     67.2179
    34.7500     80.2983      0.0000    258.4284     65.9766
    35.0000     77.2343      0.0000    258.8273     65.3735
    35.2500     75.2451      0.0000    258.9997     65.1624
    35.5000     75.5767      1.9881    259.0196     65.1599
    35.7500     78.7690      0.0000    258.9087     65.3691
    36.0000     84.3671      0.0000    258.6196     65.9720
    36.2500     90.9925      0.0000    258.0537     67.1594
    36.5000     96.7066      0.0000    257.1296     68.9002
    36.7500     99.7654      0.0000    255.8874     70.9465
    37.0000     99.5672      0.0000    254.5374     73.1284
    37.2500     97.0213      0.0000    253.3632     75.4604
    37.5000     93.7779      0.0000    252.5463     77.8535
    37.7500     90.9180      0.0000    252.0874     79.9488
    38.0000     88.3804      0.0000    251.8750     81.3988
    38.2500     85.5956      0.0000    251.7924     82.1685
    38.5000     82.5891      0.0000    251.7664     82.4796
    38.7500     80.4384      0.0000    251.7615     82.5770
    39.0000     80.5335      0.0000    251.7624     82.6053
    39.2500     83.2535      0.0000    251.7642     82.6221
    39.5000     87.5294      0.0000    251.7660     82.6395
    39.7500     91.9656      0.0000    251.7674     82.6532
    40.0000     96.2461      0.0000    251.7675     82.6547
    40.2500    101.0229      0.0000    251.7672     82.6424
    40.5000    106.4912      0.0000    251.7705     82.6249
    40.7500    111.7347      0.0000    251.7811     82.6083
    41.0000    115.7424      0.0000    251.7986     82.5816
