~Version Information
VERS.                      2.0: CWLS Log ASCII Standard - VERSION 2.0
WRAP.                       NO: One line per depth step
~Well Information Block
STRT.FT               670.0000: 
STOP.FT              2108.5000: 
STEP.FT                 0.1000: 
NULL.                -999.2500: 
COMP.          Petrogulf Corporation: COMPANY
WELL.           Montoya 12-44R: WELL
FLD.           Purgatorie River: FIELD
LOC.           713' FSL & 798' FEL: LOCATION
PROV.                 Colorado: PROVINCE
CNTY.               Las Animas: COUNTRY
SRVC.                Patterson: SERVICE COMPANY
DATE.          Mon Oct 03 07:50:59 2005: LOG DATE
UWI.           05-071-08538               : UNIQUE WELL ID
~Curve Information Block
DEPT.FT            0 000 00 00: Depth
DCAL.in                       : CDL Caliper
RHOB.g/cc                     : CDL Bulk Density
RHOC.g/cc                     : CDL Density Correction
DPOR.pu                       : CDL Density Porosity
GR.GAPI                       : Gamma Ray
NPOR.pu                       : Neutron Porosity
~Parameter Information Block
~A  Depth       DCAL        RHOB        RHOC        DPOR         GR         NPOR    
# ...
   862.0000      8.7077      2.4417     -0.0341     12.6215    152.8208     23.8001
   862.1000      8.7077      2.4087      0.0271     14.6222    153.1516     23.0621
   862.2000      8.7077      2.3457      0.0300     18.4449    152.1983     21.9833
   862.3000      8.7105      2.2366     -0.0151     25.0561    148.9414     20.7176
   862.4000      8.7105      2.1033     -0.0780     33.1354    144.4816     19.3233
   862.5000      8.7177      1.9706     -0.0550     41.1772    139.3992     17.9414
   862.6000      8.7177      1.8394     -0.0761     49.1262    134.3406     16.8208
   862.7000      8.7177      1.7135     -0.1543     56.7590    127.8810     16.0023
   862.8000      8.7364      1.6084     -0.1461     63.1280    118.1239     15.3056
   862.9000      8.7364      1.5202     -0.1083     68.4725    106.6379     14.5545
   863.0000      8.8213      1.4428     -0.1479     73.1631     96.3682     13.8439
   863.1000      8.8213      1.3869     -0.0627     76.5486     87.7804     13.4231
   863.2000      8.8213      1.3513      0.0032     78.7066     80.3382     13.3443
   863.3000      8.8223      1.3247      0.0154     80.3186     75.1299     13.3210
   863.4000      8.8223      1.3080      0.0284     81.3309     73.5261     13.0788
   863.5000      8.8468      1.3077      0.0222     81.3535     73.9457     12.6503
   863.6000      8.8468      1.3236      0.0740     80.3872     73.3698     12.1881
   863.7000      8.8468      1.3463      0.0935     79.0118     70.2779     11.9065
   863.8000      8.8934      1.3653      0.1055     77.8594     66.0626     11.8648
   863.9000      8.8934      1.3778      0.0866     77.1056     63.0241     11.8229
   864.0000      8.9118      1.3811      0.1664     76.9047     60.7120     11.6486
   864.1000      8.9118      1.3675      0.1662     77.7277     57.4486     11.5492
   864.2000      8.9118      1.3387      0.1024     79.4704     53.3019     11.7422
   864.3000      8.8700      1.3098      0.1032     81.2228     49.5607     12.1033
   864.4000      8.8700      1.2913      0.0866     82.3437     47.4994     12.3924
   864.5000      8.8577      1.2853      0.0579     82.7096     47.0860     12.5586
   864.6000      8.8577      1.2920      0.0497     82.3031     48.4152     12.6833
   864.7000      8.8577      1.3081      0.0473     81.3286     51.1843     12.9157
   864.8000      8.8570      1.3247      0.0516     80.3184     52.7479     13.2317
   864.9000      8.8570      1.3325      0.0777     79.8466     51.7668     13.5285
   865.0000      8.8682      1.3311      0.0248     79.9360     49.3700     13.8704
   865.1000      8.8682      1.3282      0.0358     80.1089     46.8543     14.2309
   865.2000      8.8682      1.3225      0.0646     80.4556     45.4516     14.3376
   865.3000      8.8324      1.3095      0.0075     81.2425     45.0239     14.1153
   865.4000      8.8324      1.3008     -0.0210     81.7717     44.1556     13.7695
   865.5000      8.8224      1.3053     -0.0064     81.4986     43.8988     13.4910
   865.6000      8.8224      1.3128      0.0071     81.0408     45.5713     13.4625
   865.7000      8.8224      1.3120      0.0309     81.0934     47.6197     13.6280
   865.8000      8.8313      1.3032      0.0293     81.6237     48.9825     13.6823
   865.9000      8.8313      1.2905      0.0376     82.3961     50.2838     13.5586
   866.0000      8.8352      1.2728      0.0217     83.4692     52.4222     13.4674
   866.1000      8.8352      1.2530     -0.0094     84.6687     54.9110     13.5266
   866.2000      8.8352      1.2426     -0.0389     85.2955     55.6305     13.6322
   866.3000      8.8334      1.2483     -0.0345     84.9486     54.6793     13.6643
   866.4000      8.8334      1.2610     -0.0131     84.1832     54.2947     13.6183
   866.5000      8.8387      1.2656      0.0220     83.9034     55.6619     13.4893
   866.6000      8.8387      1.2593      0.0057     84.2863     57.5875     13.3249
   866.7000      8.8387      1.2491      0.0287     84.9032     57.8059     13.3397
   866.8000      8.8369      1.2375      0.0263     85.6068     55.9439     13.5607
   866.9000      8.8369      1.2232      0.0336     86.4705     54.0043     13.7407
   867.0000      8.8408      1.2073      0.0327     87.4350     55.1389     13.6954
   867.1000      8.8408      1.1965     -0.0341     88.0907     60.2117     13.5021
   867.2000      8.8408      1.2032     -0.0205     87.6831     66.2822     13.3385
   867.3000      8.8493      1.2414     -0.0383     85.3674     70.2726     13.2965
   867.4000      8.8493      1.3204      0.0122     80.5807     72.9014     13.5108
   867.5000      8.8415      1.4299      0.1160     73.9480     76.8365     14.0390
   867.6000      8.8415      1.5507      0.1493     66.6262     82.0568     14.7140
   867.7000      8.8415      1.6716      0.2391     59.2957     85.8547     15.3755
   867.8000      8.8425      1.7755      0.2851     52.9983     88.6127     15.9396
   867.9000      8.8425      1.8459      0.2910     48.7318     93.0034     16.3391
   868.0000      8.8456      1.8845      0.2405     46.3915     99.8402     16.5618
   868.1000      8.8456      1.8920      0.2329     45.9370    107.6865     16.6455
   868.2000      8.8456      1.8536      0.1908     48.2661    114.3876     16.5899
   868.3000      8.8560      1.7718     -0.0061     53.2227    119.2126     16.3181
   868.4000      8.8560      1.6805     -0.0497     58.7572    123.0695     16.0514
   868.5000      8.8332      1.6088     -0.1066     63.1048    125.2815     16.1759
   868.6000      8.8332      1.5619     -0.0906     65.9480    123.4639     16.5859
   868.7000      8.8332      1.5323     -0.0745     67.7372    119.5919     16.8318
   868.8000      8.8259      1.5222     -0.0731     68.3523    118.7495     16.8591
   868.9000      8.8259      1.5495     -0.0329     66.6977    122.1042     17.1211
   869.0000      8.8387      1.6316      0.0542     61.7196    126.8224     17.7748
   869.1000      8.8387      1.7680      0.1614     53.4553    131.3065     18.5545
   869.2000      8.8387      1.9338      0.2522     43.4079    136.1895     19.4713
   869.3000      8.8151      2.0911      0.3040     33.8713    140.9054     20.7247
   869.4000      8.8151      2.2128      0.3436     26.4957    145.4371     22.1613
   869.5000      8.7228      2.2955      0.2756     21.4848    151.3604     23.5216
   869.6000      8.7228      2.3536      0.1753     17.9641    157.7606     24.6475
   869.7000      8.7228      2.4062      0.1500     14.7749    162.9204     25.3666
   869.8000      8.7059      2.4641      0.1281     11.2652    166.8675     25.6575
   869.9000      8.7059      2.5172      0.1030      8.0498    170.3529     25.8034
   870.0000      8.7007      2.5444      0.0803      6.4023    173.5310     26.1627
   870.1000      8.7007      2.5444      0.0747      6.3978    174.1930     26.5714
   870.2000      8.7007      2.5443      0.0397      6.4066    171.4800     26.8028
   870.3000      8.6958      2.5644      0.0563      5.1895    166.9580     26.9124
   870.4000      8.6958      2.5882      0.0626      3.7452    161.3632     26.7232
   870.5000      8.6859      2.5941      0.0295      3.3900    155.4543     26.3339
   870.6000      8.6859      2.5921      0.0256      3.5084    151.2106     26.1965
   870.7000      8.6859      2.6001      0.0353      3.0259    151.0391     26.2780
   870.8000      8.6827      2.6079      0.0645      2.5509    155.0379     26.3720
   870.9000      8.6827      2.6019      0.0143      2.9161    160.4531     26.3000
   871.0000      8.6747      2.5980     -0.0007      3.1491    163.8262     25.8104
   871.1000      8.6747      2.6077      0.0285      2.5607    163.1951     25.0272
   871.2000      8.6747      2.6148      0.0476      2.1362    161.0377     24.3610
   871.3000      8.6699      2.6027      0.0374      2.8650    161.2729     23.9733
   871.4000      8.6699      2.5732      0.0005      4.6574    165.5997     23.8358
   871.5000      8.6705      2.5423      0.0065      6.5249    172.3785     23.8409
