~Version Information
VERS.                      2.0: CWLS Log ASCII Standard - VERSION 2.0
WRAP.                       NO: One line per depth step
~Well Information Block
STRT.FT               670.0000: 
STOP.FT              2110.0000: 
STEP.FT                 0.2500: 
NULL.                -999.2500: 
COMP.          Petrogulf Corporation: COMPANY
WELL.           Montoya 12-44R: WELL
FLD.           Purgatorie River: FIELD
LOC.           713' FSL & 798' FEL: LOCATION
PROV.                 Colorado: PROVINCE
CNTY.               Las Animas: COUNTRY
SRVC.                Patterson: SERVICE COMPANY
DATE.          Sun Oct 02 01:06:45 2005: LOG DATE
UWI.           05-071-08538               : UNIQUE WELL ID
~Curve Information Block
DEPT.FT            0 000 00 00: Depth
SP.mV                         : DIL Spontaneous Potential
RILD.Ohm-m                    : DIL Deep Resistivity
RILM.Ohm-m                    : DIL Medium Resistivity
RLL3.Ohm-m                    : DIL Shallow Resistivity
GR.GAPI                       : Gamma Ray
~Parameter Information Block
~A  Depth        SP         RILD        RILM        RLL3         GR     
# ...
  1874.0000    220.1564      9.7296     10.0494     15.3127    177.0579
  1874.2500    219.4670      9.8469     10.4097     16.5947    167.7985
  1874.5000    218.8269     10.0179     10.7525     17.2227    153.4784
  1874.7500    218.2206     10.2543     11.0705     17.0850    145.3617
  1875.0000    217.6248     10.5565     11.3666     16.3181    137.3005
  1875.2500    217.0144     10.9121     11.6501     15.2873    134.7862
  1875.5000    216.3654     11.2985     11.9322     14.4175    134.2490
  1875.7500    215.6564     11.6879     12.2213     13.9959    135.2439
  1876.0000    214.8717     12.0537     12.5208     14.0853    137.5263
  1876.2500    214.0097     12.3759     12.8287     14.5650    138.9727
  1876.5000    213.0862     12.6445     13.1399     15.2202    140.3212
  1876.7500    212.1283     12.8616     13.4489     15.8270    140.4750
  1877.0000    211.1630     13.0399     13.7530     16.2397    139.7120
  1877.2500    210.2101     13.2005     14.0546     16.4583    138.9782
  1877.5000    209.2857     13.3680     14.3611     16.6157    138.5597
  1877.7500    208.4106     13.5664     14.6836     16.8742    139.0007
  1878.0000    207.6199     13.8160     15.0354     17.3215    140.3456
  1878.2500    206.9645     14.1316     15.4299     17.9555    141.2824
  1878.5000    206.5024     14.5222     15.8812     18.7389    141.9662
  1878.7500    206.2802     14.9909     16.4041     19.6390    141.2897
  1879.0000    206.3175     15.5351     17.0162     20.6107    137.5844
  1879.2500    206.6057     16.1461     17.7384     21.5744    133.5398
  1879.5000    207.1191     16.8086     18.5944     22.4695    127.0774
  1879.7500    207.8286     17.4993     19.6080     23.4004    123.7926
  1880.0000    208.7103     18.1867     20.7968     24.7756    121.3690
  1880.2500    209.7513     18.8326     22.1617     27.3207    121.1303
  1880.5000    210.9563     19.3944     23.6713     31.9605    121.3836
  1880.7500    212.3513     19.8306     25.2430     39.6370    120.8777
  1881.0000    213.9785     20.1058     26.7270     50.9746    117.5209
  1881.2500    215.8783     20.1972     27.9118     65.5074    113.1242
  1881.5000    218.0666     20.1000     28.5675     80.6079    103.5168
  1881.7500    220.5130     19.8315     28.5276     91.3561     95.5747
  1882.0000    223.1284     19.4290     27.7674     92.7146     82.5654
  1882.2500    225.7699     18.9393     26.4198     83.0855     74.3527
  1882.5000    228.2700     18.4042     24.7137     65.9140     65.9658
  1882.7500    230.4852     17.8508     22.8842     47.3971     65.1670
  1883.0000    232.3404     17.2913     21.1103     32.4889     73.5323
  1883.2500    233.8430     16.7289     19.4975     22.8346     85.1133
  1883.5000    235.0577     16.1645     18.0905     17.5377    107.4779
  1883.7500    236.0647     15.6000     16.8938     14.9488    122.2870
  1884.0000    236.9283     15.0392     15.8909     13.7796    139.4586
  1884.2500    237.6851     14.4884     15.0560     13.3066    146.3810
  1884.5000    238.3489     13.9562     14.3626     13.1771    150.7495
  1884.7500    238.9218     13.4545     13.7861     13.2127    150.9608
  1885.0000    239.4056     12.9974     13.3061     13.3113    149.7447
  1885.2500    239.8070     12.5994     12.9060     13.4124    149.0538
  1885.5000    240.1363     12.2712     12.5730     13.4832    148.8173
  1885.7500    240.4026     12.0174     12.2970     13.5144    148.8204
  1886.0000    240.6121     11.8369     12.0705     13.5140    148.2022
  1886.2500    240.7696     11.7246     11.8879     13.4928    147.1884
  1886.5000    240.8787     11.6745     11.7461     13.4480    145.1314
  1886.7500    240.9365     11.6806     11.6442     13.3611    143.7868
  1887.0000    240.9247     11.7366     11.5835     13.2146    142.0448
  1887.2500    240.8064     11.8350     11.5673     13.0069    140.8006
  1887.5000    240.5362     11.9662     11.6000     12.7602    138.5651
  1887.7500    240.0773     12.1183     11.6856     12.5240    137.4014
  1888.0000    239.4177     12.2765     11.8264     12.3774    137.7554
  1888.2500    238.5762     12.4240     12.0210     12.4192    139.6363
  1888.5000    237.5958     12.5450     12.2618     12.7429    143.0366
  1888.7500    236.5242     12.6294     12.5339     13.4029    143.8091
  1889.0000    235.3976     12.6766     12.8143     14.3761    140.5431
  1889.2500    234.2369     12.6934     13.0740     15.5337    135.6835
  1889.5000    233.0573     12.6908     13.2824     16.6496    127.1996
  1889.7500    231.8738     12.6788     13.4137     17.4650    122.7020
  1890.0000    230.6974     12.6659     13.4536     17.7842    119.7099
  1890.2500    229.5283     12.6604     13.4032     17.5466    120.4341
  1890.5000    228.3569     12.6713     13.2781     16.8368    124.9128
  1890.7500    227.1714     12.7071     13.1037     15.8399    129.4112
  1891.0000    225.9643     12.7735     12.9098     14.7728    136.8448
  1891.2500    224.7341     12.8724     12.7247     13.8190    141.4372
  1891.5000    223.4853     13.0004     12.5723     13.0922    146.9405
  1891.7500    222.2277     13.1485     12.4713     12.6379    149.4738
  1892.0000    220.9735     13.3038     12.4357     12.4583    151.3666
  1892.2500    219.7328     13.4572     12.4760     12.5300    151.3939
  1892.5000    218.5069     13.6109     12.6003     12.8069    150.4300
  1892.7500    217.2862     13.7813     12.8159     13.2332    150.0025
  1893.0000    216.0549     13.9909     13.1296     13.7762    150.7145
  1893.2500    214.7981     14.2566     13.5475     14.4648    151.9283
  1893.5000    213.5052     14.5838     14.0743     15.4124    153.7058
  1893.7500    212.1731     14.9692     14.7114     16.8156    154.1566
  1894.0000    210.8101     15.4080     15.4548     18.8927    152.6080
  1894.2500    209.4398     15.9006     16.2925     21.7269    149.4298
  1894.5000    208.0957     16.4542     17.2041     25.0679    140.7819
  1894.7500    206.8082     17.0775     18.1618     28.2683    132.7234
  1895.0000    205.5916     17.7760     19.1365     30.5113    118.8061
  1895.2500    204.4396     18.5492     20.1051     31.2529    109.3673
  1895.5000    203.3300     19.3924     21.0583     30.5555     96.0127
  1895.7500    202.2388     20.2977     22.0024     29.0418     87.6409
  1896.0000    201.1589     21.2510     22.9553     27.5258     75.4159
  1896.2500    200.1137     22.2269     23.9372     26.6237     67.5378
  1896.5000    199.1541     23.1861     24.9620     26.5731     57.3299
  1896.7500    198.3432     24.0818     26.0321     27.2737     52.5009
  1897.0000    197.7379     24.8715     27.1387     28.4412     48.7146
  1897.2500    197.3786     25.5293     28.2660     29.7725     47.9789
  1897.5000    197.2843     26.0509     29.3957     31.0686     48.2374
  1897.7500    197.4510     26.4474     30.5080     32.2972     48.8560
  1898.0000    197.8540     26.7312     31.5773     33.5906     50.4275
  1898.2500    198.4609     26.9030     32.5635     35.1608     52.0768
  1898.5000    199.2490     26.9488     33.4045     37.1515     55.3636
  1898.7500    200.2172     26.8488     34.0143     39.5207     57.6675
  1899.0000    201.3844     26.5946     34.2941     42.0496     60.4579
  1899.2500    202.7801     26.1992     34.1554     44.4592     61.7386
  1899.5000    204.4316     25.6942     33.5512     46.4893     63.1000
  1899.7500    206.3509     25.1184     32.5000     47.8344     63.7594
  1900.0000    208.5203     24.5060     31.0888     48.0214     64.3699
  1900.2500    210.8831     23.8810     29.4526     46.4550     64.8244
  1900.5000    213.3428     23.2568     27.7375     42.7557     67.1283
  1900.7500    215.7724     22.6373     26.0689     37.2294     70.8265
  1901.0000    218.0367     22.0187     24.5328     31.0311     80.3419
  1901.2500    220.0277     21.3921     23.1731     25.6948     88.7626
  1901.5000    221.6986     20.7502     21.9987     22.2848    102.4391
  1901.7500    223.0746     20.0942     20.9949     20.8645    110.9276
