~Version Information
VERS.                      2.0: CWLS Log ASCII Standard - VERSION 2.0
WRAP.                       NO: One line per depth step
~Well Information Block
STRT.FT               460.0000: 
STOP.FT              1349.5000: 
STEP.FT                 0.2500: 
NULL.                -999.2500: 
COMP.          Pioneer Natural Resources: COMPANY
WELL.              Dicks 32-5R: WELL
FLD.           Purgatorie River: FIELD
LOC.           1485' FNL & 1684' FEL: LOCATION
PROV.                 Colorado: PROVINCE
CNTY.               Las Animas: COUNTRY
SRVC.                Patterson: SERVICE COMPANY
DATE.          Thu Dec 08 23:11:15 2005: LOG DATE
UWI.                          : UNIQUE WELL ID
~Curve Information Block
DEPT.FT            0 000 00 00: Depth
SN.Ohm-m                      : IEL Short Normal
SP.mV                         : IEL Spontaneous Potential
DIR.Ohm-m                     : IEL Induction Resistivity
GR.GAPI                       : Gamma Ray
~Parameter Information Block
~A  Depth        SN          SP         DIR          GR     
# ...
  1331.0000     24.3833    176.5898     22.8593    186.8042
  1331.2500     23.9999    176.1976     23.1446    173.7630
  1331.5000     23.8149    176.0224     23.2785    151.7634
  1331.7500     23.7905    176.0732     23.2432    138.0870
  1332.0000     23.8060    176.3320     23.1260    122.6565
  1332.2500     23.7717    176.7638     23.0658    116.7386
  1332.5000     23.7229    177.3205     23.1740    113.4400
  1332.7500     23.8127    177.9447     23.4828    113.0877
  1333.0000     24.1681    178.5788     23.9432    111.8733
  1333.2500     24.7553    179.1711     24.4607    109.7079
  1333.5000     25.4328    179.6786     24.9444    105.5703
  1333.7500     26.0802    180.0794     25.3344    103.7389
  1334.0000     26.6087    180.3879     25.6040    104.2545
  1334.2500     26.9712    180.6473     25.7502    106.5874
  1334.5000     27.2519    180.8933     25.7916    110.4831
  1334.7500     27.5957    181.1244     25.7728    111.3505
  1335.0000     28.0092    181.3075     25.7606    108.0935
  1335.2500     28.3642    181.4127     25.8253    103.2925
  1335.5000     28.5558    181.4413     26.0080     94.5577
  1335.7500     28.5738    181.4239     26.2928     88.8359
  1336.0000     28.4822    181.4023     26.5958     80.1030
  1336.2500     28.3452    181.4185     26.7834     72.8392
  1336.5000     28.1537    181.5056     27.0160     57.6653
  1336.7500     27.8764    181.6694     26.6341     44.9919
  1337.0000     27.5382    181.8762     25.9870     25.7781
  1337.2500     27.1944    182.0647     25.2302     15.4078
  1337.5000     26.8907    182.1707     24.5396      5.6013
  1337.7500     26.6510    182.1432     24.0280      2.4066
  1338.0000     26.4853    181.9570     23.7166      0.5181
  1338.2500     26.3765    181.6297     23.5643      0.1542
  1338.5000     26.2227    181.2250     23.5342      0.0177
  1338.7500     25.8752    180.8241     23.6526      0.0022
  1339.0000     25.3088    180.4870     24.0418   -999.2500
  1339.2500     24.6748    180.2348     24.9418   -999.2500
  1339.5000     24.1241    180.0607     26.7720   -999.2500
  1339.7500     23.6859    179.9469     30.2989   -999.2500
  1340.0000     23.3620    179.8811     36.4303   -999.2500
  1340.2500     23.2024    179.8644     49.6339   -999.2500
  1340.5000     23.2334    179.9065     79.8841   -999.2500
  1340.7500     23.4208    180.0078    176.4407   -999.2500
  1341.0000     23.7175    180.1442   2481.0205   -999.2500
  1341.2500     24.0608    180.2708 100000.0000   -999.2500
  1341.5000     24.3276    180.3391 100000.0000   -999.2500
  1341.7500     24.3778    180.3143 100000.0000   -999.2500
  1342.0000     24.1533    180.1844 100000.0000   -999.2500
  1342.2500     23.6990    179.9644 100000.0000   -999.2500
  1342.5000     23.1091    179.6952 100000.0000   -999.2500
  1342.7500     22.4709    179.4310 100000.0000   -999.2500
  1343.0000     21.8558    179.2161 100000.0000   -999.2500
  1343.2500     21.3503    179.0672 100000.0000   -999.2500
  1343.5000     21.0214    178.9741 100000.0000   -999.2500
  1343.7500     20.8329    178.9123 100000.0000   -999.2500
  1344.0000     20.6936    178.8554 100000.0000   -999.2500
  1344.2500     20.5974    178.7653 100000.0000   -999.2500
  1344.5000     20.6238    178.5514 100000.0000   -999.2500
  1344.7500     20.8432    177.8500 100000.0000   -999.2500
  1345.0000     21.2465    175.4503 100000.0000   -999.2500
  1345.2500     21.6891    168.3714 100000.0000   -999.2500
  1345.5000     21.9518    151.5953 100000.0000   -999.2500
  1345.7500     21.8337    120.3479 100000.0000   -999.2500
  1346.0000     20.9442     74.9038 100000.0000   -999.2500
  1346.2500     18.3974     23.3993 100000.0000   -999.2500
  1346.5000     13.5289    -22.0663 100000.0000   -999.2500
  1346.7500      7.4458    -53.3221 100000.0000   -999.2500
  1347.0000      2.5545    -70.0554 100000.0000   -999.2500
  1347.2500      0.0338    -77.0319 100000.0000   -999.2500
  1347.5000     -0.7982    -79.2971  64788.0977   -999.2500
  1347.7500     -0.9741    -79.8699   5134.9385   -999.2500
  1348.0000     -0.9979    -79.9827   3367.4824   -999.2500
  1348.2500   -999.2500   -999.2500   2884.8840   -999.2500
  1348.5000   -999.2500   -999.2500   2723.2107   -999.2500
  1348.7500   -999.2500   -999.2500   2670.3699   -999.2500
  1349.0000   -999.2500   -999.2500   2654.8579   -999.2500
  1349.2500   -999.2500   -999.2500   2650.9124   -999.2500
  1349.5000   -999.2500   -999.2500 100000.0000   -999.2500
