~Version Information
VERS.                      2.0: CWLS Log ASCII Standard - VERSION 2.0
WRAP.                       NO: One line per depth step
~Well Information Block
STRT.FT               240.0000: 
STOP.FT              1456.0000: 
STEP.FT                 0.1000: 
NULL.                -999.2500: 
COMP.          Pioneer Natural Resources: COMPANY
WELL.              Darren 11-7: WELL
FLD.           Purgatoire River: FIELD
LOC.           230' FNL & 596' FWL: LOCATION
CNTY.               Las Animas: COUNTY
SRVC.                Patterson: SERVICE COMPANY
DATE.          Mon Mar 20 07:16:06 2006: LOG DATE
UWI.           05 071 08720 00: UNIQUE WELL ID
STAT.                 Colorado: STATE
~Curve Information Block
DEPT.FT            0 000 00 00: Depth
DCAL.in                       : CDL Caliper
RHOB.g/cc                     : CDL Bulk Density
RHOC.g/cc                     : CDL Density Correction
DPOR.pu                       : CDL Density Porosity
GR.GAPI                       : Gamma Ray
NPOR.pu                       : Neutron Porosity
~Parameter Information Block
~A  Depth       DCAL        RHOB        RHOC        DPOR         GR         NPOR    
# ...
  1036.8000      8.0780      2.4985      0.0807      9.1798    126.7360     28.6519
  1036.9000      8.0780      2.5036      0.1044      8.8704    131.2280     28.9122
  1037.0000      8.0952      2.5085      0.0911      8.5750    133.8162     28.7168
  1037.1000      8.0952      2.5181      0.1084      7.9968    132.1371     28.2886
  1037.2000      8.0952      2.5302      0.1265      7.2585    125.1403     27.9560
  1037.3000      8.0404      2.5402      0.1562      6.6553    116.7553     27.7539
  1037.4000      8.0404      2.5402      0.1654      6.6575    113.7245     27.5209
  1037.5000      8.0038      2.5149      0.1554      8.1899    118.3761     27.1906
  1037.6000      8.0038      2.4707      0.0671     10.8647    126.9627     27.0899
  1037.7000      8.0038      2.4466      0.0312     12.3260    133.8132     27.2104
  1037.8000      7.9553      2.4601      0.0760     11.5096    136.6665     27.1551
  1037.9000      7.9553      2.4838      0.1188     10.0733    135.2877     26.8445
  1038.0000      7.9112      2.4899      0.1397      9.7003    129.4299     26.4616
  1038.1000      7.9112      2.4792      0.0886     10.3491    123.0665     26.2879
  1038.2000      7.9112      2.4692      0.0943     10.9583    121.3623     26.2348
  1038.3000      8.0037      2.4698      0.0734     10.9222    122.8662     25.7092
  1038.4000      8.0037      2.4776      0.1258     10.4463    123.5265     24.6140
  1038.5000      7.9542      2.4893      0.1626      9.7366    124.9380     23.4981
  1038.6000      7.9542      2.4979      0.2303      9.2156    128.9025     22.8082
  1038.7000      7.9542      2.4894      0.1557      9.7355    131.9223     22.6275
  1038.8000      7.9479      2.4655      0.1310     11.1794    133.5595     22.7565
  1038.9000      7.9479      2.4424      0.0956     12.5824    135.7040     22.9461
  1039.0000      7.9428      2.4298      0.1212     13.3443    133.9584     23.0198
  1039.1000      7.9428      2.4266      0.1275     13.5400    127.8560     22.8312
  1039.2000      7.9428      2.4207      0.1516     13.8994    125.1025     22.4667
  1039.3000      8.0055      2.3903      0.2000     15.7382    128.1436     22.2676
  1039.4000      8.0055      2.3287      0.1480     19.4709    132.8598     22.4143
  1039.5000      8.1164      2.2595      0.0638     23.6696    136.9094     22.7977
  1039.6000      8.1164      2.2076      0.0472     26.8103    138.3993     23.0881
  1039.7000      8.1164      2.1780      0.0461     28.6045    133.7646     23.0133
  1039.8000      8.1350      2.1630      0.0554     29.5147    123.8370     22.7422
  1039.9000      8.1350      2.1546      0.0609     30.0218    116.1994     22.6389
  1040.0000      8.0544      2.1538      0.0712     30.0728    116.6787     22.7475
  1040.1000      8.0544      2.1723      0.0558     28.9492    120.7372     22.8775
  1040.2000      8.0544      2.2173      0.1307     26.2239    120.7591     23.0501
  1040.3000      7.9459      2.2713      0.2253     22.9491    116.7034     23.4107
  1040.4000      7.9459      2.3096      0.2056     20.6321    112.6108     23.8344
  1040.5000      7.9210      2.3264      0.1735     19.6145    109.3540     24.0546
  1040.6000      7.9210      2.3263      0.1093     19.6155    107.3583     24.0522
  1040.7000      7.9210      2.3183      0.0584     20.1020    106.8609     23.9948
  1040.8000      7.9775      2.3176      0.0408     20.1464    106.3344     24.0668
  1040.9000      7.9775      2.3231      0.1051     19.8138    104.5190     24.4401
  1041.0000      8.0002      2.3195      0.1101     20.0329    101.9261     25.1575
  1041.1000      8.0002      2.3129      0.0777     20.4286     99.0900     25.9554
  1041.2000      8.0002      2.3164      0.0998     20.2210     96.7582     26.5137
  1041.3000      7.9800      2.3207      0.0659     19.9584     97.5718     26.6298
  1041.4000      7.9800      2.3213      0.0716     19.9238    101.7715     26.5119
  1041.5000      8.0059      2.3332      0.0501     19.2002    105.3722     26.7545
  1041.6000      8.0059      2.3566      0.1284     17.7792    108.2961     27.1981
  1041.7000      8.0059      2.3695      0.1073     17.0000    114.0766     27.1749
  1041.8000      8.0409      2.3663      0.0784     17.1928    120.9570     26.7861
  1041.9000      8.0409      2.3638      0.0752     17.3455    121.6942     26.5468
  1042.0000      8.0174      2.3766      0.1031     16.5709    116.7452     26.4139
  1042.1000      8.0174      2.4009      0.1291     15.0987    113.6654     26.2516
  1042.2000      8.0174      2.4246      0.1181     13.6626    115.6994     26.3840
  1042.3000      7.9580      2.4407      0.1774     12.6863    122.9963     26.9492
  1042.4000      7.9580      2.4445      0.1791     12.4523    131.5040     27.5647
  1042.5000      7.8826      2.4464      0.1380     12.3390    135.1878     27.9700
  1042.6000      7.8826      2.4669      0.1314     11.0948    134.2595     28.2143
  1042.7000      7.8826      2.5013      0.1490      9.0135    132.2353     28.1249
  1042.8000      7.8775      2.5249      0.1528      7.5802    129.3592     27.5254
  1042.9000      7.8775      2.5318      0.1845      7.1614    128.2082     26.6487
  1043.0000      7.9992      2.5326      0.1815      7.1121    130.0939     25.9144
  1043.1000      7.9992      2.5251      0.2037      7.5702    127.0168     25.4503
  1043.2000      7.9992      2.4919      0.1572      9.5831    117.3025     25.0682
  1043.3000      8.0063      2.4406      0.0286     12.6904    111.3670     24.7250
  1043.4000      8.0063      2.3996      0.0936     15.1779    111.3232     24.5400
  1043.5000      7.9759      2.3782      0.0613     16.4713    111.1469     24.5818
  1043.6000      7.9759      2.3760      0.1225     16.6040    113.0621     24.7055
  1043.7000      7.9759      2.3871      0.1897     15.9315    119.3275     24.8140
  1043.8000      7.9288      2.3922      0.2252     15.6243    125.9785     25.0746
  1043.9000      7.9288      2.3739      0.2356     16.7360    129.8766     25.5804
  1044.0000      7.9847      2.3428      0.1151     18.6157    130.9727     26.0146
  1044.1000      7.9847      2.3331      0.1202     19.2048    130.8638     26.0349
  1044.2000      7.9847      2.3590      0.1568     17.6344    128.7080     25.6726
  1044.3000      8.0350      2.3989      0.1740     15.2205    126.7265     25.2084
  1044.4000      8.0350      2.4206      0.1654     13.9029    130.1458     24.8819
  1044.5000      8.0315      2.4146      0.0920     14.2648    134.3707     24.6297
  1044.6000      8.0315      2.3918      0.1437     15.6499    133.8108     24.5040
  1044.7000      8.0315      2.3551      0.1034     17.8697    132.4654     24.6994
  1044.8000      7.9770      2.3051      0.1182     20.9001    136.6751     24.9388
  1044.9000      7.9770      2.2595      0.0506     23.6650    149.2719     25.0178
  1045.0000      7.9511      2.2457      0.0746     24.5060    162.9111     25.0782
  1045.1000      7.9511      2.2781      0.0542     22.5386    166.7575     25.0391
  1045.2000      7.9511      2.3566      0.0906     17.7819    163.8302     24.6288
  1045.3000      7.8673      2.4565      0.2225     11.7276    162.6016     23.7628
  1045.4000      7.8673      2.5347      0.2902      6.9861    159.1226     22.5555
  1045.5000      7.8550      2.5637      0.3188      5.2332    148.1514     21.3783
  1045.6000      7.8550      2.5448      0.2778      6.3746    136.7874     20.6575
  1045.7000      7.8550      2.5000      0.2542      9.0919    128.8711     20.4869
  1045.8000      7.8496      2.4550      0.2024     11.8159    121.1466     20.7047
  1045.9000      7.8496      2.4223      0.1626     13.8009    114.1267     20.9858
  1046.0000      7.8710      2.3940      0.1257     15.5137    108.2267     20.9712
  1046.1000      7.8710      2.3627      0.0715     17.4101    102.0375     20.8097
  1046.2000      7.8710      2.3364      0.0532     19.0089     97.9595     20.8186
  1046.3000      7.8793      2.3232      0.1300     19.8080     99.4742     21.0693
