~Version Information
VERS.                      2.0: CWLS Log ASCII Standard - VERSION 2.0
WRAP.                       NO: One line per depth step
~Well Information Block
STRT.FT                 5.0000: 
STOP.FT               880.0000: 
STEP.FT                 0.2500: 
NULL.                -999.2500: 
COMP.          Pioneer Natural Resources: COMPANY
WELL.          Bienville 31-28: WELL
FLD.           Purgatoire River: FIELD
LOC.           1212' FNL & 2271' FEL: LOCATION
PROV.                 Colorado: PROVINCE
CNTY.               Las Animas: COUNTRY
SRVC.                Patterson: SERVICE COMPANY
DATE.          Tue Jan 24 11:44:03 2006: LOG DATE
UWI.           05 071 08666 00: UNIQUE WELL ID
~Curve Information Block
DEPT.FT            0 000 00 00: Depth
GR.GAPI                       : Gamma Ray
CCL.                          : Casing Collar Locator
TT3.usec                      : CBL 3' Travel Time
AMP3.mV                       : CBL 3' Amplitude
~Parameter Information Block
~A  Depth        GR         CCL         TT3         AMP3    
# ...
   440.5000    121.1746      0.0000    767.7457      3.8378
   440.7500    119.9330      0.0000    767.6777      3.8868
   441.0000    120.9416      0.0000    767.6054      3.9988
   441.2500    123.9532      0.0000    767.5620      4.1737
   441.5000    127.7440      0.0000    767.5511      4.3719
   441.7500    130.8369      0.0000    767.5393      4.5357
   442.0000    132.4878      0.0000    767.4995      4.6329
   442.2500    133.0780      0.0000    767.4473      4.6782
   442.5000    133.6332      0.0000    767.4302      4.7091
   442.7500    134.9687      0.0000    767.4819      4.7421
   443.0000    137.1577      0.0000    767.5975      4.7574
   443.2500    139.5379      0.0000    767.7540      4.7260
   443.5000    141.0593      0.0000    767.9679      4.6449
   443.7500    140.6862      0.0000    768.3586      4.5422
   444.0000    137.6812      0.0000    769.2111      4.4536
   444.2500    131.8441      0.0000    770.8878      4.3973
   444.5000    123.6667      0.0000    773.3997      4.3693
   444.7500    114.1018      0.0000    775.9353      4.3554
   445.0000    104.0125      0.0000    777.1559      4.3472
   445.2500     93.9923      0.0000    776.3641      4.3474
   445.5000     84.9267      0.0000    774.2833      4.3617
   445.7500     78.5885      0.0000    772.5023      4.3876
   446.0000     77.2369      0.0000    772.2583      4.4145
   446.2500     82.2242      0.0000    773.6347      4.4334
   446.5000     92.8027      0.0000    775.5032      4.4436
   446.7500    106.2886      0.0000    776.2697      4.4472
   447.0000    119.4745      0.0000    775.1409      4.4386
   447.2500    130.0760      0.0000    772.7582      4.4024
   447.5000    137.1138      0.0000    770.4546      4.3257
   447.7500    140.4541      0.0000    769.0656      4.2156
   448.0000    140.5786      0.0000    768.5811      4.1021
   448.2500    138.7242      0.0000    768.5871      4.0201
   448.5000    136.4703      0.0000    768.7195      3.9859
   448.7500    134.6617      0.0000    768.7940      3.9951
   449.0000    133.0251      0.0000    768.7650      4.0366
   449.2500    131.0092      0.0000    768.6676      4.1022
   449.5000    128.5890      0.0000    768.5555      4.1817
   449.7500    126.1441      0.0000    768.4512      4.2558
   450.0000    124.0151      0.0000    768.3250      4.3053
   450.2500    122.3956      0.0000    768.1282      4.3293
   450.5000    121.4463      0.0000    767.8510      4.3472
   450.7500    121.2865      0.0000    767.5457      4.3811
   451.0000    121.7634      0.0000    767.3265      4.4431
   451.2500    122.2799      0.0000    767.3920      4.5406
   451.5000    121.9746      0.0000    768.0669      4.6786
   451.7500    120.1323      0.0000    769.6889      4.8463
   452.0000    116.5116      0.0000    772.1877      5.0041
   452.2500    111.4551      0.0000    774.6779      5.0964
   452.5000    105.6796      0.0000    775.8099      5.0881
   452.7500     99.8133      0.0000    774.9064      4.9913
   453.0000     94.2357      0.0000    772.6307      4.8567
   453.2500     89.4394      0.0000    770.3113      4.7403
   453.5000     86.2446      0.0000    768.8070      4.6759
   453.7500     85.2538      0.0000    768.1753      4.6690
   454.0000     86.0908      0.0000    768.1002      4.7039
   454.2500     87.4491      0.0000    768.3327      4.7502
   454.5000     88.0045      0.0000    768.8397      4.7698
   454.7500     87.1875      0.0000    769.8592      4.7283
   455.0000     85.0758      0.0000    771.9042      4.6135
   455.2500     81.9738      0.0000    775.5422      4.4493
   455.5000     78.5047      0.0000    781.0129      4.2861
   455.7500     75.8136      0.0000    788.1201      4.1694
   456.0000     74.9723      0.0000    796.4241      4.1139
   456.2500     76.0039      0.0000    805.1283      4.1034
   456.5000     77.8409      0.0000    812.7010      4.1101
   456.7500     79.2790      0.0000    817.2566      4.1171
   457.0000     79.6292      0.0000    817.7505      4.1262
   457.2500     78.5203      0.0000    814.6257      4.1470
   457.5000     75.6766      0.0000    809.2870      4.1823
   457.7500     71.2722      0.0000    803.3602      4.2275
   458.0000     66.3399      0.0000    798.3279      4.2786
   458.2500     62.4272      0.0000    795.0436      4.3328
   458.5000     60.5765      0.0000    793.0223      4.3862
   458.7500     60.5743      0.0000    790.4158      4.4323
   459.0000     61.2425      0.0000    785.1620      4.4633
   459.2500     61.4146      0.0000    776.6465      4.4728
   459.5000     60.5288      0.0000    766.6224      4.4646
   459.7500     58.4855      0.0000    758.7774      4.4566
   460.0000     55.3396      0.0000    756.9326      4.4678
   460.2500     51.3587      0.0000    762.4487      4.4936
   460.5000     47.2821      0.0000    772.7051      4.4972
   460.7500     44.2264      0.0000    782.4349      4.4276
   461.0000     43.0991      0.0000    787.3875      4.2475
   461.2500     44.0668      0.0000    787.2823      3.9437
   461.5000     46.5148      0.0000    785.5176      3.5283
   461.7500     49.3294      0.0000    786.1895      3.0503
   462.0000     51.3743      0.0000    791.4254      2.5898
   462.2500     52.2530      0.0000    800.7050      2.1986
   462.5000     52.8856      0.0000    811.3581      1.8516
   462.7500     55.0436      0.0000    820.0560      1.4993
   463.0000     60.0132      0.0000    825.0937      1.1523
   463.2500     67.6928      0.0000    826.9659      0.8664
   463.5000     76.9020      0.0000    826.1190      0.6694
   463.7500     86.2636      0.0000    821.3386      0.5499
   464.0000     94.6641      3.0000    811.4967      0.4994
   464.2500    101.2154      0.0000    798.1670      0.5428
   464.5000    105.2887      0.0000    785.4232      0.7330
   464.7500    106.9073      0.0000    777.3511      1.1123
   465.0000    107.0340      0.0000    775.6557      1.6521
   465.2500    107.1665      0.0000    778.2870      2.2422
   465.5000    108.3908      0.0000    780.6825      2.7724
   465.7500    110.6967      0.0000    779.5933      3.2073
   466.0000    113.0333      0.0000    775.4172      3.5575
   466.2500    113.8942      0.0000    770.4615      3.8207
   466.5000    112.1684      0.0000    766.1432      3.9846
   466.7500    108.0292      0.0000    762.5672      4.0657
   467.0000    103.1957      0.0000    759.8293      4.1176
   467.2500     99.9700      0.0000    758.5892      4.2059
   467.5000     99.6042      0.0000    759.2571      4.3677
   467.7500    101.5350      0.0000    761.2444      4.5823
   468.0000    104.1822      0.0000    763.3795      4.7802
   468.2500    106.2075      0.0000    764.8718      4.8922
   468.5000    106.9446      0.0000    765.6283      4.8967
   468.7500    106.2200      0.0000    765.9100      4.8225
   469.0000    104.3649      0.0000    765.9749      4.7136
   469.2500    102.3417      0.0000    765.9728      4.6006
   469.5000    101.3428      0.0000    765.9800      4.5034
   469.7500    101.9252      0.0000    766.0463      4.4423
   470.0000    103.6019      0.0000    766.2479      4.4277
   470.2500    105.4566      0.0000    766.7270      4.4451
   470.5000    107.0588      0.0000    767.7292      4.4651
   470.7500    108.5820      0.0000    769.5232      4.4727
   471.0000    110.2370      0.0000    772.0716      4.4790
   471.2500    111.9538      0.0000    774.6960      4.5039
   471.5000    113.5600      0.0000    776.4334      4.5559
   471.7500    115.0623      0.0000    777.0110      4.6290
   472.0000    116.7465      0.0000    777.0784      4.7138
   472.2500    118.9546      0.0000    777.1113      4.8070
   472.5000    121.6289      0.0000    776.6013      4.9098
   472.7500    124.1619      0.0000    774.8524      5.0105
   473.0000    125.8830      0.0000    772.1231      5.0739
   473.2500    126.4998      0.0000    769.4416      5.0630
   473.5000    125.8313      0.0000    767.5782      4.9742
   473.7500    123.4949      0.0000    766.5811      4.8443
