~Version Information
VERS.                      2.0: CWLS Log ASCII Standard - VERSION 2.0
WRAP.                       NO: One line per depth step
~Well Information Block
STRT.FT                -7.2500: 
STOP.FT              1273.5000: 
STEP.FT                 0.2500: 
NULL.                -999.2500: 
COMP.          Pioneer Natural Resources: COMPANY
WELL.            Keiko 14-6 Tr: WELL
FLD.           Purgatorie River: FIELD
LOC.           462' FSL & 1202' FWL--: LOCATION
PROV.                       CO: PROVINCE
CNTY.               Las Animas: COUNTRY
SRVC.          Patterson Wireline: SERVICE COMPANY
DATE.          Wed Jan 04 09:22:19 2006: LOG DATE
UWI.           05 071 08629 00: UNIQUE WELL ID
~Curve Information Block
DEPT.FT            0 000 00 00: Depth
CCL.                          : Casing Collar Locator
TT3.usec                      : CBL 3' Travel Time
AMP3.mV                       : CBL 3' Amplitude
GR.GAPI                       : Gamma Ray
~Parameter Information Block
~A  Depth       CCL         TT3         AMP3         GR     
    -7.2500   -999.2500   -999.2500   -999.2500     91.0918
    -7.0000   -999.2500   -999.2500   -999.2500     90.0380
    -6.7500   -999.2500   -999.2500   -999.2500     90.8511
    -6.5000   -999.2500   -999.2500   -999.2500     92.9192
    -6.2500   -999.2500   -999.2500   -999.2500     94.7378
    -6.0000   -999.2500   -999.2500   -999.2500     94.8143
    -5.7500   -999.2500   -999.2500   -999.2500     92.9917
    -5.5000   -999.2500   -999.2500   -999.2500     90.7150
    -5.2500   -999.2500   -999.2500   -999.2500     89.7436
    -5.0000   -999.2500   -999.2500   -999.2500     90.6357
    -4.7500   -999.2500   -999.2500   -999.2500     92.5040
    -4.5000   -999.2500   -999.2500   -999.2500     94.0274
    -4.2500   -999.2500   -999.2500   -999.2500     94.5965
    -4.0000   -999.2500   -999.2500   -999.2500     94.6382
    -3.7500   -999.2500   -999.2500   -999.2500     95.0577
    -3.5000   -999.2500   -999.2500   -999.2500     96.4509
    -3.2500   -999.2500   -999.2500   -999.2500     98.7315
    -3.0000   -999.2500   -999.2500   -999.2500    101.2664
    -2.7500   -999.2500   -999.2500   -999.2500    103.2188
    -2.5000   -999.2500   1119.0000      1.1163    103.9341
    -2.2500   -999.2500   1119.0000      1.1097    103.3190
    -2.0000   -999.2500   1119.0000      1.1016    101.8585
    -1.7500   -999.2500   1119.0000      1.0940    100.0896
    -1.5000   -999.2500   1119.0000      1.0860     98.1110
    -1.2500   -999.2500   1119.0000      1.0775     95.6886
    -1.0000   -999.2500   1119.0000      1.0711     92.5905
    -0.7500   -999.2500   1119.0000      1.0692     88.6004
    -0.5000   -999.2500   1119.0000      1.0718     83.4693
    -0.2500   -999.2500   1119.0000      1.0775     77.1931
     0.0000   -999.2500   1119.0000      1.0852     70.3311
     0.2500   -999.2500   1119.0000      1.1014     58.6587
     0.5000   -999.2500   1119.0000      1.1069     54.6376
     0.7500   -999.2500   1119.0000      1.1087     50.9257
     1.0000   -999.2500   1119.0000      1.1046     46.5235
     1.2500   -999.2500   1119.0000      1.0937     41.2496
     1.5000   -999.2500   1119.0000      1.0791     36.0256
     1.7500   -999.2500   1119.0000      1.0669     32.3671
     2.0000   -999.2500   1119.0000      1.0618     31.5663
     2.2500   -999.2500   1119.0000      1.0638     34.0711
     2.5000   -999.2500   1119.0000      1.0700     39.3162
     2.7500      0.0000   1119.0000      1.0785     45.9756
     3.0000      0.0000   1119.0000      1.0887     52.4986
     3.2500      0.0000   1119.0000      1.0989     57.6941
     3.5000      0.0000   1118.9912      1.1055     61.0007
     3.7500      0.0000   1118.9426      1.1063     62.3119
     4.0000      0.0000   1118.6798      1.1034     61.7511
     4.2500      0.0000   1117.6350      1.1010     59.7893
     4.5000      0.0000   1114.2872      1.1020     57.3772
     4.7500      0.0000   1105.5391      1.1135     55.5483
     5.0000      0.0000   1086.3252      1.1652     54.6655
     5.2500      0.0000   1049.8180      1.3867     54.1284
     5.5000      0.0000    988.6416      2.1938     52.9763
     5.7500      0.0000    897.8282      4.5722     50.8165
     6.0000      0.0000    779.2051     10.1353     48.2141
     6.2500      0.0000    644.4161     20.3645     46.3056
     6.5000      0.0000    513.0405     35.0739     46.0867
     6.7500      0.0000    404.9949     51.5613     47.8300
     7.0000      0.0000    331.3048     65.9280     50.7371
     7.2500      0.0000    290.2750     75.6163     53.0834
     7.5000      0.0000    271.8764     80.5691     53.2992
     7.7500      0.0000    265.3626     82.1945     51.2864
     8.0000      0.0000    263.7035     81.7590     48.3659
     8.2500      0.0000    263.6820     79.7358     45.8242
     8.5000      0.0000    264.2279     76.1098     43.9832
     8.7500      0.0000    265.2107     70.9215     42.6807
     9.0000      0.0000    266.9689     64.5478     41.8404
     9.2500      0.0000    270.1851     57.6235     41.2883
     9.5000      0.0000    275.5187     50.7639     40.6234
     9.7500      0.0000    282.9880     44.3507     39.5758
    10.0000      0.0000    291.8233     38.5058     38.2756
    10.2500      0.0000    301.4525     33.2116     37.1505
    10.5000      0.0000    313.0292     28.4489     36.6429
    10.7500      0.0000    329.6075     24.2572     36.8240
    11.0000      0.0000    353.7793     20.6968     37.2654
    11.2500      0.0000    384.3272     17.7854     37.6300
    11.5000      0.0000    415.5203     15.4888     38.3891
    11.7500      0.0000    440.6706     13.7591     40.5888
    12.0000      0.0000    456.8056     12.5483     44.8756
    12.2500      0.0000    465.7942     11.7825     50.8730
    12.5000      0.0000    471.4144     11.3468     57.2715
    12.7500      0.0000    476.1266     11.1026     62.3255
    13.0000      0.0000    480.9899     10.9155     64.6568
    13.2500      0.0000    488.4006     10.6796     64.2153
    13.5000      0.0000    504.2387     10.3527     62.6203
    13.7500      0.0000    535.7430      9.9924     62.1276
    14.0000      0.0000    585.1780      9.7256     63.8153
    14.2500      0.0000    645.3282      9.6308     66.7297
    14.5000      0.0000    702.6523      9.6537     68.9473
    14.7500      0.0000    744.7322      9.6771     69.3417
    15.0000      0.0000    764.8141      9.6513     68.0306
    15.2500      0.0000    763.0543      9.6144     65.4656
    15.5000      0.0000    746.3443      9.6151     61.9755
    15.7500      0.0000    723.6548      9.6674     58.2389
    16.0000      0.0000    697.5027      9.7684     55.3044
    16.2500      0.0000    661.1874      9.9461     53.8234
    16.5000      0.0000    607.5044     10.2829     53.8469
    16.7500      0.0000    540.5336     10.8536     55.4641
    17.0000      0.0000    477.3113     11.5897     58.9201
    17.2500      0.0000    436.6282     12.2426     63.7030
    17.5000      0.0000    425.5093     12.5708     67.9777
    17.7500      0.0000    435.9426     12.5503     69.5020
    18.0000      0.0000    453.5338     12.3502     67.3614
    18.2500      0.0000    468.4370     12.1423     62.8052
    18.5000      0.0000    478.7766     11.9941     58.2702
    18.7500      0.0000    486.3995     11.9002     55.6021
    19.0000      0.0000    492.2243     11.8423     55.3160
    19.2500      0.0000    496.0384     11.8111     57.2363
    19.5000      0.0000    498.2900     11.8040     61.1304
    19.7500      0.0000    499.7153     11.8181     66.3408
    20.0000      0.0000    499.9207     11.8457     71.1839
    20.2500      0.0000    498.1497     11.8793     73.5982
    20.5000      0.0000    495.0389     11.9200     72.9976
    20.7500      0.0000    492.6252     11.9801     71.1231
    21.0000      0.0000    493.3964     12.0776     70.3717
    21.2500      0.0000    500.7251     12.2296     71.3806
    21.5000      0.0000    519.5253     12.4474     72.8671
    21.7500      0.0000    553.7849     12.7373     73.6608
    22.0000      0.0000    600.4536     13.1040     73.9847
    22.2500      0.0000    646.1570     13.5478     74.5937
    22.5000      0.0000    674.0110     14.0485     75.6482
    22.7500      0.0000    675.7833     14.5528     76.8353
    23.0000      0.0000    654.6447     14.9925     77.9478
    23.2500      0.0000    615.9089     15.3251     79.0465
    23.5000      0.0000    562.1636     15.5582     80.4066
    23.7500      0.0000    501.0024     15.7274     82.2676
    24.0000      0.0000    450.8924     15.8577     84.3579
    24.2500      0.0000    433.1403     15.9502     85.8390
    24.5000      0.0000    457.8797     15.9941     86.0055
    24.7500      0.0000    515.8021     15.9736     84.9873
    25.0000      0.0000    580.1478     15.8688     83.7837
    25.2500      0.0000    620.3613     15.6636     83.6956
    25.5000      0.0000    621.0128     15.3599     85.5019
    25.7500      0.0000    590.3030     14.9804     88.8778
    26.0000      0.0000    549.9111     14.5627     92.7228
