~Version Information
VERS.                      2.0: CWLS Log ASCII Standard - VERSION 2.0
WRAP.                       NO: One line per depth step
~Well Information Block
STRT.FT               260.0000: 
STOP.FT               713.2500: 
STEP.FT                 0.2500: 
NULL.                -999.2500: 
COMP.          Pioneer Natural Resources: COMPANY
WELL.           Quintessa 23-7: WELL
FLD.           Purgatoire River: FIELD
LOC.           1964' FSL & 2589' FWL--: LOCATION
PROV.                 Colorado: PROVINCE
CNTY.               Las Animas: COUNTRY
SRVC.                Patterson: SERVICE COMPANY
DATE.          Fri Nov 18 16:07:34 2005: LOG DATE
UWI.           05 071 08558 00: UNIQUE WELL ID
~Curve Information Block
DEPT.FT            0 000 00 00: Depth
SN.Ohm-m                      : IEL Short Normal
SP.mV                         : IEL Spontaneous Potential
DIR.Ohm-m                     : IEL Induction Resistivity
GR.GAPI                       : Gamma Ray
~Parameter Information Block
~A  Depth        SN          SP         DIR          GR     
# ...
   528.0000     17.5923    114.4255     15.2902    115.7743
   528.2500     17.9450    113.7288     15.5312    114.8321
   528.5000     18.3733    113.0188     15.8520    112.0475
   528.7500     18.8646    112.3101     16.2639    108.7498
   529.0000     19.3906    111.6194     16.7665    101.5610
   529.2500     19.9271    110.9644     17.3478     95.7958
   529.5000     20.4752    110.3630     17.9864     87.4746
   529.7500     21.0581    109.8317     18.6545     83.3271
   530.0000     21.6921    109.3845     19.3210     80.2710
   530.2500     22.3523    109.0316     19.9517     80.1655
   530.5000     22.9663    108.7784     20.5094     82.0608
   530.7500     23.4447    108.6252     20.9578     84.3576
   531.0000     23.7267    108.5675     21.2709     88.7730
   531.2500     23.8071    108.5963     21.4457     91.6930
   531.5000     23.7294    108.6992     21.5059     94.7222
   531.7500     23.5567    108.8613     21.4914     95.4907
   532.0000     23.3440    109.0667     21.4370     95.1417
   532.2500     23.1280    109.2987     21.3569     94.4423
   532.5000     22.9269    109.5407     21.2451     93.6046
   532.7500     22.7438    109.7761     21.0902     93.4687
   533.0000     22.5705    109.9891     20.8924     93.7794
   533.2500     22.3948    110.1639     20.6693     94.2055
   533.5000     22.2113    110.2854     20.4455     95.6570
   533.7500     22.0280    110.3390     20.2383     97.7270
   534.0000     21.8644    110.3115     20.0513    102.5455
   534.2500     21.7432    110.1911     19.8800    106.0144
   534.5000     21.6815    109.9686     19.7230    109.6457
   534.7500     21.6832    109.6378     19.5879    110.4991
   535.0000     21.7373    109.1965     19.4889    109.7163
   535.2500     21.8282    108.6469     19.4410    108.1306
   535.5000     21.9528    107.9961     19.4558    104.2801
   535.7500     22.1333    107.2561     19.5420    100.6018
   536.0000     22.4118    106.4430     19.7059     93.3813
   536.2500     22.8306    105.5767     19.9510     87.9273
   536.5000     23.4124    104.6787     20.2760     80.5867
   536.7500     24.1451    103.7711     20.6786     77.1921
   537.0000     24.9750    102.8748     21.1622     74.4495
   537.2500     25.8187    102.0076     21.7368     73.4592
   537.5000     26.6002    101.1835     22.4087     71.9248
   537.7500     27.2901    100.4121     23.1633     70.5267
   538.0000     27.9067     99.6979     23.9573     67.9544
   538.2500     28.4767     99.0415     24.7293     66.2243
   538.5000     28.9980     98.4397     25.4232     64.2622
   538.7500     29.4454     97.8871     26.0042     63.5697
   539.0000     29.8010     97.3767     26.4615     63.2253
   539.2500     30.0733     96.9011     26.8016     63.2679
   539.5000     30.2908     96.4533     27.0450     63.8590
   539.7500     30.4856     96.0275     27.2235     64.8148
   540.0000     30.6819     95.6187     27.3709     67.1481
   540.2500     30.8925     95.2237     27.5131     69.0631
   540.5000     31.1183     94.8400     27.6628     71.5752
   540.7500     31.3518     94.4664     27.8267     72.2311
   541.0000     31.5858     94.1026     28.0148     70.6450
   541.2500     31.8210     93.7487     28.2450     68.0246
   541.5000     32.0630     93.4057     28.5350     63.3351
   541.7500     32.3122     93.0749     28.8871     60.6929
   542.0000     32.5600     92.7581     29.2774     58.0193
   542.2500     32.7970     92.4572     29.6619     56.7603
   542.5000     33.0211     92.1742     29.9991     54.9900
   542.7500     33.2357     91.9102     30.2689     53.9542
   543.0000     33.4447     91.6657     30.4688     53.3208
   543.2500     33.6479     91.4397     30.5934     53.7036
   543.5000     33.8386     91.2295     30.6233     54.9553
   543.7500     34.0024     91.0310     30.5388     55.7598
   544.0000     34.1226     90.8388     30.3451     56.6196
   544.2500     34.1910     90.6467     30.0816     57.1689
   544.5000     34.2172     90.4486     29.8074     58.5231
   544.7500     34.2263     90.2390     29.5763     59.9548
   545.0000     34.2482     90.0138     29.4187     62.5940
   545.2500     34.3066     89.7706     29.3385     64.1428
   545.5000     34.4140     89.5089     29.3246     65.1366
   545.7500     34.5703     89.2299     29.3683     64.7644
   546.0000     34.7641     88.9361     29.4728     63.5598
   546.2500     34.9787     88.6311     29.6503     63.1230
   546.5000     35.1998     88.3185     29.9046     63.6427
   546.7500     35.4162     88.0018     30.2169     64.4897
   547.0000     35.6190     87.6837     30.5441     65.5723
   547.2500     35.8014     87.3659     30.8352     65.8371
   547.5000     35.9636     87.0489     31.0542     65.6181
   547.7500     36.1147     86.7323     31.1953     65.3046
   548.0000     36.2676     86.4147     31.2805     64.8943
   548.2500     36.4301     86.0949     31.3383     64.6302
   548.5000     36.5988     85.7724     31.3805     63.9628
   548.7500     36.7641     85.4480     31.3925     63.3238
   549.0000     36.9203     85.1248     31.3464     62.7120
   549.2500     37.0688     84.8088     31.2255     63.0868
   549.5000     37.2160     84.5081     31.0436     65.2699
   549.7500     37.3720     84.2328     30.8438     67.5197
   550.0000     37.5527     83.9925     30.6880     70.8899
   550.2500     37.7796     83.7946     30.6441     72.4095
   550.5000     38.0699     83.6415     30.7738     72.9543
   550.7500     38.4171     83.5281     31.1144     72.1732
   551.0000     38.7758     83.4399     31.6583     69.6404
   551.2500     39.0623     83.3531     32.3405     67.3292
   551.5000     39.1728     83.2352     33.0396     63.5073
   551.7500     39.0143     83.0476     33.5937     61.0321
   552.0000     38.5507     82.7494     33.8324     57.7569
   552.2500     37.8560     82.3013     33.6301     56.0227
   552.5000     37.1381     81.6692     32.9751     54.6148
   552.7500     36.6853     80.8281     32.0083     54.9234
   553.0000     36.7324     79.7637     30.9827     57.8443
   553.2500     37.3254     78.4746     30.1549     61.3417
   553.5000     38.2929     76.9728     29.6844     67.6874
   553.7500     39.3508     75.2841     29.5912     71.4171
   554.0000     40.2643     73.4485     29.7710     73.9342
   554.2500     40.9616     71.5189     30.0602     72.6127
   554.5000     41.5630     69.5604     30.3289     66.1383
   554.7500     42.3457     67.6476     30.5599     59.9508
   555.0000     43.6508     65.8615     30.8602     50.9318
   555.2500     45.7202     64.2854     31.4024     46.7735
   555.5000     48.5215     63.0012     32.3479     44.9565
   555.7500     51.6951     62.0850     33.7887     46.7901
   556.0000     54.7038     61.6043     35.7157     52.9320
   556.2500     57.0840     61.6145     38.0003     57.9235
   556.5000     58.6071     62.1570     40.3841     63.9321
   556.7500     59.2640     63.2562     42.4898     65.6616
   557.0000     59.1417     64.9171     43.8814     64.0818
   557.2500     58.3150     67.1227     44.1989     60.6232
   557.5000     56.8134     69.8326     43.3093     53.4038
   557.7500     54.6574     72.9825     41.3560     48.4836
   558.0000     51.9202     76.4858     38.6628     43.1573
   558.2500     48.7610     80.2381     35.5902     41.9643
   558.5000     45.3954     84.1229     32.4462     44.4849
   558.7500     42.0221     88.0204     29.4554     48.9531
   559.0000     38.7618     91.8149     26.7549     58.8894
   559.2500     35.6535     95.4034     24.4045     66.7816
   559.5000     32.7017     98.7008     22.4072     78.9834
   559.7500     29.9332    101.6445     20.7332     86.7774
   560.0000     27.4208    104.1949     19.3396     97.6411
   560.2500     25.2611    106.3346     18.1831    104.3650
   560.5000     23.5276    108.0648     17.2274    113.5383
   560.7500     22.2352    109.4015     16.4461    118.7411
   561.0000     21.3363    110.3703     15.8208    124.7845
   561.2500     20.7477    111.0019     15.3351    127.7402
