~Version Information
VERS.                      2.0: CWLS Log ASCII Standard - VERSION 2.0
WRAP.                       NO: One line per depth step
~Well Information Block
STRT.FT               595.7000: 
STOP.FT              1567.2000: 
STEP.FT                 0.1000: 
NULL.                -999.2500: 
COMP.          Pioneer Natural Resources: COMPANY
WELL.           Butch 33-10 Tr: WELL
FLD.           Purgatoire River: FIELD
LOC.           2309' FSL & 1337' FEL--: LOCATION
PROV.                 Colorado: PROVINCE
CNTY.               Las Animas: COUNTRY
SRVC.                Patterson: SERVICE COMPANY
DATE.          Mon Jan 16 07:34:05 2006: LOG DATE
UWI.           05 071 08649 00: UNIQUE WELL ID
~Curve Information Block
DEPT.FT            0 000 00 00: Depth
DCAL.in                       : CDL Caliper
RHOB.g/cc                     : CDL Bulk Density
RHOC.g/cc                     : CDL Density Correction
DPOR.pu                       : CDL Density Porosity
GR.GAPI                       : Gamma Ray
~Parameter Information Block
~A  Depth       DCAL        RHOB        RHOC        DPOR         GR     
# ...
   976.5000      8.0324      2.6498      0.1110      0.0146     59.1688
   976.6000      8.0324      2.6297      0.0980      1.2315     63.7853
   976.7000      8.0324      2.6109      0.0632      2.3711     69.7141
   976.8000      8.0303      2.6050      0.0948      2.7298     73.0793
   976.9000      8.0303      2.6026      0.0860      2.8744     71.2343
   977.0000      8.0290      2.5825      0.1124      4.0921     66.0401
   977.1000      8.0290      2.5501      0.0209      6.0552     62.6646
   977.2000      8.0290      2.5288      0.0382      7.3426     62.0159
   977.3000      8.0264      2.5225      0.0636      7.7298     61.3580
   977.4000      8.0264      2.5267      0.0192      7.4730     60.3337
   977.5000      8.0226      2.5438      0.0919      6.4365     61.9357
   977.6000      8.0226      2.5616      0.0580      5.3551     67.7557
   977.7000      8.0226      2.5624      0.0908      5.3077     73.3137
   977.8000      8.0170      2.5491      0.0273      6.1149     75.1748
   977.9000      8.0170      2.5450      0.0360      6.3655     77.3896
   978.0000      8.0102      2.5577      0.0678      5.5911     82.1264
   978.1000      8.0102      2.5677      0.0603      4.9868     85.3772
   978.2000      8.0102      2.5601      0.0435      5.4467     84.6035
   978.3000      8.0039      2.5420      0.0493      6.5426     79.6553
   978.4000      8.0039      2.5331      0.0285      7.0826     72.2197
   978.5000      8.0067      2.5503      0.0420      6.0433     70.2537
   978.6000      8.0067      2.5851      0.0487      3.9312     78.1269
   978.7000      8.0067      2.6001      0.1332      3.0248     89.8502
   978.8000      8.0375      2.5753      0.0161      4.5243    100.8572
   978.9000      8.0375      2.5400      0.0149      6.6674    108.5422
   979.0000      8.0802      2.5234      0.0039      7.6718    109.4030
   979.1000      8.0802      2.5226      0.0573      7.7237    107.5357
   979.2000      8.0802      2.5271      0.0158      7.4458    111.7076
   979.3000      8.0934      2.5386      0.0599      6.7525    120.7860
   979.4000      8.0934      2.5576      0.0323      5.6029    127.0417
   979.5000      8.0817      2.5742      0.0828      4.5961    130.8712
   979.6000      8.0817      2.5749      0.0541      4.5499    136.3109
   979.7000      8.0817      2.5622      0.0498      5.3221    141.9910
   979.8000      8.0713      2.5473      0.0730      6.2271    146.9121
   979.9000      8.0713      2.5383      0.0790      6.7698    151.1867
   980.0000      8.0708      2.5446      0.0583      6.3864    153.0858
   980.1000      8.0708      2.5683      0.0772      4.9524    150.3598
   980.2000      8.0708      2.5940      0.1139      3.3940    144.5073
   980.3000      8.0751      2.6055      0.1204      2.6994    139.1716
   980.4000      8.0751      2.6104      0.0601      2.4008    134.5106
   980.5000      8.0789      2.6218      0.1193      1.7070    132.0544
   980.6000      8.0789      2.6314      0.1130      1.1262    134.5196
   980.7000      8.0789      2.6337      0.0581      0.9873    139.2350
   980.8000      8.0830      2.6347      0.0784      0.9271    141.3862
   980.9000      8.0830      2.6366      0.0606      0.8139    140.7612
   981.0000      8.0876      2.6360      0.0623      0.8508    139.9294
   981.1000      8.0876      2.6172      0.0604      1.9885    137.7435
   981.2000      8.0876      2.5634      0.0480      5.2465    134.0659
   981.3000      8.0899      2.4875     -0.0061      9.8509    134.4109
   981.4000      8.0899      2.4241     -0.0190     13.6934    139.1147
   981.5000      8.0885      2.3889     -0.0156     15.8238    141.6653
   981.6000      8.0885      2.3690      0.0125     17.0316    141.3625
   981.7000      8.0885      2.3526      0.0181     18.0235    143.2353
   981.8000      8.0928      2.3451      0.0501     18.4791    150.8968
   981.9000      8.0928      2.3556      0.0297     17.8444    160.3129
   982.0000      8.1051      2.3850      0.1193     16.0623    160.6497
   982.1000      8.1051      2.4248      0.1304     13.6497    150.2582
   982.2000      8.1051      2.4648      0.1437     11.2252    140.3723
   982.3000      8.1116      2.4938      0.1339      9.4663    135.4970
   982.4000      8.1116      2.5055      0.1183      8.7549    133.6288
   982.5000      8.1138      2.5048      0.1007      8.7992    136.0235
   982.6000      8.1138      2.5014      0.0754      9.0052    143.4778
   982.7000      8.1138      2.5063      0.0695      8.7120    149.2714
   982.8000      8.1129      2.5271      0.0457      7.4489    146.2335
   982.9000      8.1129      2.5622      0.0716      5.3194    137.6438
   983.0000      8.1066      2.5917      0.1385      3.5320    131.7567
   983.1000      8.1066      2.5975      0.0804      3.1802    131.4272
   983.2000      8.1066      2.5852      0.1025      3.9291    133.2809
   983.3000      8.0990      2.5675      0.0583      4.9977    132.7337
   983.4000      8.0990      2.5577      0.0467      5.5949    127.6662
   983.5000      8.0957      2.5584      0.0485      5.5531    121.9105
   983.6000      8.0957      2.5590      0.0721      5.5164    118.6113
   983.7000      8.0957      2.5517      0.0044      5.9551    116.1042
   983.8000      8.0933      2.5369      0.0441      6.8574    114.1481
   983.9000      8.0933      2.5229      0.0040      7.7042    114.3102
   984.0000      8.0862      2.5215      0.0188      7.7902    116.9156
   984.1000      8.0862      2.5243      0.0610      7.6167    120.3374
   984.2000      8.0862      2.5186     -0.0132      7.9616    124.7859
   984.3000      8.0831      2.5091      0.0298      8.5388    130.6920
   984.4000      8.0831      2.5024     -0.0030      8.9463    137.6743
   984.5000      8.0846      2.5040      0.0044      8.8495    143.6983
   984.6000      8.0846      2.5172      0.0018      8.0465    147.5672
   984.7000      8.0846      2.5336      0.0822      7.0556    149.6670
   984.8000      8.0845      2.5444      0.0252      6.4017    148.3789
   984.9000      8.0845      2.5546      0.0525      5.7841    143.9616
   985.0000      8.0831      2.5681      0.0556      4.9608    142.2579
   985.1000      8.0831      2.5880      0.0697      3.7582    147.9129
   985.2000      8.0831      2.6151      0.0673      2.1164    156.1375
   985.3000      8.0806      2.6364      0.1142      0.8242    159.3607
   985.4000      8.0806      2.6344      0.0943      0.9437    155.7734
   985.5000      8.0775      2.6106      0.0592      2.3891    147.8783
   985.6000      8.0775      2.5838      0.0887      4.0129    141.7134
   985.7000      8.0775      2.5717      0.0160      4.7448    139.1417
   985.8000      8.0745      2.5758      0.0842      4.4964    137.0745
   985.9000      8.0745      2.5843      0.0373      3.9845    136.5072
   986.0000      8.0746      2.5903      0.0841      3.6205    138.9337
   986.1000      8.0746      2.5895      0.1040      3.6661    141.6489
   986.2000      8.0746      2.5830      0.0575      4.0584    142.1278
   986.3000      8.0775      2.5764      0.0512      4.4583    140.7619
   986.4000      8.0775      2.5669      0.0765      5.0367    140.6510
   986.5000      8.0840      2.5554      0.0350      5.7319    144.1657
   986.6000      8.0840      2.5512      0.0466      5.9862    151.2105
   986.7000      8.0840      2.5538      0.0110      5.8276    158.6125
   986.8000      8.0950      2.5591      0.0581      5.5086    160.0764
   986.9000      8.0950      2.5601      0.0626      5.4475    153.7391
   987.0000      8.0989      2.5478      0.0782      6.1921    146.6731
   987.1000      8.0989      2.5283      0.0027      7.3780    144.4795
   987.2000      8.0989      2.5182      0.0135      7.9890    143.8921
   987.3000      8.0991      2.5135      0.0513      8.2723    141.0198
   987.4000      8.0991      2.5019     -0.0142      8.9769    138.9053
   987.5000      8.1054      2.4887      0.0077      9.7778    139.5084
   987.6000      8.1054      2.4800      0.0107     10.3040    137.1916
