~Version Information
VERS.                      2.0: CWLS Log ASCII Standard - VERSION 2.0
WRAP.                       NO: One line per depth step
~Well Information Block
STRT.FT               520.0000: 
STOP.FT              2555.2000: 
STEP.FT                 0.1000: 
NULL.                -999.2500: 
COMP.          Pioneer Natural Resources: COMPANY
WELL.          Horsefeathers 24-34: WELL
FLD.           Purgatoire River: FIELD
LOC.           183' FSL & 1570' FWL--: LOCATION
CNTY.               Las Animas: COUNTY
SRVC.                Patterson: SERVICE COMPANY
DATE.          Mon Feb 06 08:03:40 2006: LOG DATE
UWI.           05 071 08675 00: UNIQUE WELL ID
STAT.                 Colorado: STATE
~Curve Information Block
DEPT.FT            0 000 00 00: Depth
DCAL.in                       : CDL Caliper
RHOB.g/cc                     : CDL Bulk Density
RHOC.g/cc                     : CDL Density Correction
DPOR.pu                       : CDL Density Porosity
NPOR.pu                       : Neutron Porosity
GR.GAPI                       : Gamma Ray
~Parameter Information Block
~A  Depth       DCAL        RHOB        RHOC        DPOR        NPOR         GR     
# ...
   923.2000      8.1136      2.6570     -0.0029     -0.4218     24.5324    107.1445
   923.3000      8.1095      2.6812      0.0331     -1.8879     24.2018    107.4386
   923.4000      8.1095      2.6867      0.0838     -2.2269     23.5219    106.9972
   923.5000      8.1072      2.6676      0.0396     -1.0667     23.3012    103.3655
   923.6000      8.1072      2.6489      0.0417      0.0694     23.7648    102.1482
   923.7000      8.1072      2.6461      0.0111      0.2375     24.3252    107.3439
   923.8000      8.1071      2.6479      0.0488      0.1284     24.6413    110.8556
   923.9000      8.1071      2.6396      0.0401      0.6293     24.8580    107.9101
   924.0000      8.1077      2.6264      0.0287      1.4276     24.9785    105.6582
   924.1000      8.1077      2.6244      0.0061      1.5542     24.9055    107.7636
   924.2000      8.1077      2.6357      0.0177      0.8648     24.6225    107.8154
   924.3000      8.1083      2.6463      0.0244      0.2264     24.3788    102.6259
   924.4000      8.1083      2.6442      0.0106      0.3530     24.3423     98.3112
   924.5000      8.1097      2.6292     -0.0058      1.2582     24.4353     97.1485
   924.6000      8.1097      2.6122      0.0117      2.2924     24.6098     95.3494
   924.7000      8.1097      2.6102     -0.0065      2.4143     24.8681     93.3382
   924.8000      8.1106      2.6214      0.0667      1.7330     25.1399     92.1368
   924.9000      8.1106      2.6285      0.0159      1.3043     25.5407     88.9115
   925.0000      8.1103      2.6291      0.0542      1.2655     25.8498     85.4690
   925.1000      8.1103      2.6277      0.0509      1.3492     25.4950     87.9593
   925.2000      8.1103      2.6316      0.0417      1.1134     24.6115     95.0743
   925.3000      8.1093      2.6447      0.0569      0.3206     23.8010     97.9629
   925.4000      8.1093      2.6591      0.0450     -0.5521     23.2246     94.4582
   925.5000      8.1075      2.6672      0.0643     -1.0418     22.9090     90.8212
   925.6000      8.1075      2.6646      0.0491     -0.8872     22.9897     91.3173
   925.7000      8.1075      2.6532      0.0726     -0.1965     23.2347     93.1341
   925.8000      8.1058      2.6428      0.0558      0.4371     23.5369     92.5561
   925.9000      8.1058      2.6412      0.0176      0.5361     24.0717     92.3242
   926.0000      8.1079      2.6424      0.0638      0.4619     24.5601     95.5121
   926.1000      8.1079      2.6367      0.0646      0.8064     24.5710     97.9315
   926.2000      8.1079      2.6305      0.0194      1.1837     24.2765     95.2657
   926.3000      8.1155      2.6301      0.0136      1.2066     24.5322     90.4154
   926.4000      8.1155      2.6351      0.0187      0.9037     25.4903     90.5385
   926.5000      8.1218      2.6494      0.0471      0.0364     26.1201     96.2584
   926.6000      8.1218      2.6711      0.0374     -1.2812     26.0650    100.2275
   926.7000      8.1218      2.6890      0.0957     -2.3631     25.9492     98.1697
   926.8000      8.1226      2.6910      0.0472     -2.4865     26.0720     94.5085
   926.9000      8.1226      2.6760      0.0460     -1.5758     26.3071     94.8682
   927.0000      8.1210      2.6485      0.0670      0.0935     26.4265    101.3435
   927.1000      8.1210      2.6184     -0.0126      1.9122     26.4191    109.9004
   927.2000      8.1210      2.6058     -0.0360      2.6784     26.5138    113.8779
   927.3000      8.1205      2.6203      0.0182      1.7984     26.5557    114.0562
   927.4000      8.1205      2.6462      0.0452      0.2330     26.2481    113.4553
   927.5000      8.1204      2.6597      0.0589     -0.5884     25.8505    112.9160
   927.6000      8.1204      2.6588     -0.0017     -0.5311     25.8035    112.8180
   927.7000      8.1204      2.6498      0.0457      0.0131     26.1344    114.6925
   927.8000      8.1192      2.6316      0.0041      1.1167     26.8936    118.1968
   927.9000      8.1192      2.6134     -0.0287      2.2197     28.0661    121.5790
   928.0000      8.1199      2.5991      0.0442      3.0856     29.1240    123.9999
   928.1000      8.1199      2.5754      0.0157      4.5196     29.5029    123.5725
   928.2000      8.1199      2.5431     -0.0111      6.4779     29.3980    122.6454
   928.3000      8.1228      2.5241     -0.0447      7.6310     29.3260    126.7263
   928.4000      8.1228      2.5279     -0.0254      7.3976     29.3683    133.7959
   928.5000      8.1263      2.5351     -0.0109      6.9621     29.4441    136.1696
   928.6000      8.1263      2.5290     -0.0231      7.3331     29.2654    132.5325
   928.7000      8.1263      2.5065      0.0056      8.6944     28.6002    127.8242
   928.8000      8.1300      2.4556      0.0080     11.7842     27.6015    126.0480
   928.9000      8.1300      2.3695     -0.0299     17.0025     26.4191    127.1793
   929.0000      8.1330      2.2584     -0.0366     23.7313     25.2217    127.3195
   929.1000      8.1330      2.1309     -0.0677     31.4630     23.9687    126.2019
   929.2000      8.1330      1.9974     -0.1364     39.5513     22.4498    127.1584
   929.3000      8.1357      1.8771     -0.1948     46.8451     21.0223    128.5896
   929.4000      8.1357      1.7899     -0.2209     52.1252     19.8295    126.7651
   929.5000      8.1372      1.7496     -0.1985     54.5693     18.3844    120.8737
   929.6000      8.1372      1.7511     -0.1289     54.4801     16.4586    113.8542
   929.7000      8.1372      1.7774     -0.0685     52.8871     14.2362    109.1345
   929.8000      8.1376      1.8109      0.0712     50.8555     12.0666    106.7069
   929.9000      8.1376      1.8385      0.0965     49.1800     10.3970    106.6649
   930.0000      8.1396      1.8648      0.1059     47.5864      9.4112    108.4597
   930.1000      8.1396      1.9025      0.1465     45.3049      8.9529    106.3626
   930.2000      8.1396      1.9535      0.1534     42.2101      8.7080     99.5463
   930.3000      8.1413      2.0058      0.1920     39.0400      8.7080     93.2519
   930.4000      8.1413      2.0426      0.1343     36.8130      9.1465     92.9856
   930.5000      8.1415      2.0624      0.0625     35.6140      9.8836    102.7083
   930.6000      8.1415      2.0783      0.0607     34.6467     10.6039    116.2456
   930.7000      8.1415      2.1023      0.0438     33.1928     11.0445    121.8011
   930.8000      8.1422      2.1402      0.0801     30.8964     11.1866    118.2716
   930.9000      8.1422      2.1865      0.1433     28.0887     11.3198    113.6049
   931.0000      8.1446      2.2260      0.1724     25.6951     11.7809    112.3623
   931.1000      8.1446      2.2526      0.1281     24.0844     12.6947    114.8335
   931.2000      8.1446      2.2775      0.1372     22.5735     13.6277    120.0007
   931.3000      8.1506      2.3071      0.1407     20.7800     14.0484    124.3138
   931.4000      8.1506      2.3333      0.1159     19.1946     14.1130    126.6575
   931.5000      8.1596      2.3495      0.0824     18.2128     14.2164    128.6112
   931.6000      8.1596      2.3576      0.0609     17.7187     14.7099    129.4269
   931.7000      8.1596      2.3553      0.0910     17.8594     15.5595    128.8317
   931.8000      8.1656      2.3364      0.0624     19.0045     16.1217    129.5931
   931.9000      8.1656      2.3209      0.0181     19.9473     16.1117    131.9257
   932.0000      8.1674      2.3375      0.0429     18.9422     15.9648    131.2749
   932.1000      8.1674      2.3727      0.1156     16.8058     16.2401    125.0897
   932.2000      8.1674      2.3933      0.0867     15.5563     16.9739    119.5410
   932.3000      8.1714      2.3977      0.0578     15.2886     17.4162    120.8298
   932.4000      8.1714      2.3998      0.0905     15.1651     17.2338    124.2060
   932.5000      8.1761      2.3930      0.1274     15.5729     17.0541    123.6611
   932.6000      8.1761      2.3630      0.0957     17.3936     17.0764    119.0366
   932.7000      8.1761      2.3107      0.0709     20.5614     16.8492    114.0975
