~Version Information
VERS.                      2.0: CWLS Log ASCII Standard - VERSION 2.0
WRAP.                       NO: One line per depth step
~Well Information Block
STRT.FT                -8.5000: 
STOP.FT              2030.0000: 
STEP.FT                 0.2500: 
NULL.                -999.2500: 
COMP.          Pioneer Natural Resources: COMPANY
WELL.           Alabaster 11-8: WELL
FLD.           Purgatorie River: FIELD
LOC.           1249' FNL & 215' FWL--: LOCATION
PROV.                       CO: PROVINCE
CNTY.               Las Animas: COUNTRY
SRVC.          Patterson Wireline: SERVICE COMPANY
DATE.          Mon Jan 30 11:59:01 2006: LOG DATE
UWI.           05 071 08642 00: UNIQUE WELL ID
~Curve Information Block
DEPT.FT            0 000 00 00: Depth
CCL.                          : Casing Collar Locator
TT3.usec                      : CBL 3' Travel Time
AMP3.mV                       : CBL 3' Amplitude
GR.GAPI                       : Gamma Ray
~Parameter Information Block
~A  Depth       CCL         TT3         AMP3         GR     
# ...
   929.5000      0.0000    678.8261      5.8913    151.5813
   929.7500      0.0000    678.3875      5.8660    148.8328
   930.0000      0.0000    678.2338      5.8480    144.6447
   930.2500      0.0000    678.3049      5.8393    141.3238
   930.5000      0.0000    678.7286      5.8404    139.0970
   930.7500      0.0000    679.8022      5.8469    136.6343
   931.0000      0.0000    681.8355      5.8543    133.5584
   931.2500      0.0000    684.7270      5.8636    131.3162
   931.5000      0.0000    687.5529      5.8801    131.2636
   931.7500      0.0000    688.9088      5.9023    132.8335
   932.0000      0.0000    688.0626      5.9173    134.2909
   932.2500      0.0000    685.6685      5.9086    134.6214
   932.5000      0.0000    683.1154      5.8691    134.0068
   932.7500      0.0000    681.3616      5.8050    133.1390
   933.0000      0.0000    680.5385      5.7315    132.7985
   933.2500      0.0000    680.3350      5.6645    133.5560
   933.5000      0.0000    680.4194      5.6130    135.2640
   933.7500      0.0000    680.5682      5.5749    137.2331
   934.0000      0.0000    680.6432      5.5416    139.1540
   934.2500      0.0000    680.5733      5.5034    141.3365
   934.5000      0.0000    680.3568      5.4516    143.9637
   934.7500      0.0000    680.0542      5.3786    146.5342
   935.0000      0.0000    679.7415      5.2811    147.9940
   935.2500      0.0000    679.4662      5.1631    147.1922
   935.5000      0.0000    679.2439      5.0323    143.4565
   935.7500      0.0000    679.0649      4.8928    137.0720
   936.0000      0.0000    678.8898      4.7450    129.2606
   936.2500      0.0000    678.6605      4.5966    121.8158
   936.5000      0.0000    678.3536      4.4698    116.8652
   936.7500      0.0000    678.0233      4.3869    116.4798
   937.0000      0.0000    677.7595      4.3518    121.4679
   937.2500      0.0000    677.5971      4.3539    129.9765
   937.5000      0.0000    677.4913      4.3859    137.8172
   937.7500      0.0000    677.4016      4.4499    141.2223
   938.0000      0.0000    677.3568      4.5467    139.5616
   938.2500      0.0000    677.4008      4.6702    135.0502
   938.5000      0.0000    677.5189      4.8132    130.2289
   938.7500      0.0000    677.6718      4.9701    126.4233
   939.0000      0.0000    677.8755      5.1316    124.0061
   939.2500      0.0000    678.1907      5.2846    122.8135
   939.5000      0.0000    678.6379      5.4177    122.2184
   939.7500      0.0000    679.1566      5.5229    121.5276
   940.0000      0.0000    679.6301      5.5947    120.4385
   940.2500      0.0000    679.9242      5.6298    118.9217
   940.5000      0.0000    679.9412      5.6293    116.9019
   940.7500      0.0000    679.7020      5.6017    114.3719
   941.0000      0.0000    679.3745      5.5680    111.8229
   941.2500      0.0000    679.1792      5.5606    110.4150
   941.5000      0.0000    679.2418      5.6068    111.2536
   941.7500      0.0000    679.5165      5.7112    114.0190
   942.0000      0.0000    679.8256      5.8532    116.5646
   942.2500      0.0000    679.9717      5.9980    116.5260
   942.5000      0.0000    679.8608      6.1103    113.3319
   942.7500      0.0000    679.5601      6.1687    108.2322
   943.0000      0.0000    679.2272      6.1758    102.7287
   943.2500      0.0000    678.9559      6.1548     97.8213
   943.5000      0.0000    678.7131      6.1330     94.6109
   943.7500      0.0000    678.4295      6.1260     94.3937
   944.0000      0.0000    678.1134      6.1386     97.4363
   944.2500      0.0000    677.8532      6.1727    102.0506
   944.5000      0.0000    677.7386      6.2297    105.4742
   944.7500      0.0000    677.7906      6.3035    105.6898
   945.0000      0.0000    677.9490      6.3773    102.4053
   945.2500      0.0000    678.1189      6.4310     96.7602
   945.5000      0.0000    678.2336      6.4553     90.6036
   945.7500      0.0000    678.2686      6.4572     85.8599
   946.0000      0.0000    678.2211      6.4519     83.9976
   946.2500      0.0000    678.1116      6.4514     85.5759
   946.5000      0.0000    678.0049      6.4614     89.7623
   946.7500      0.0000    677.9906      6.4854     94.0723
   947.0000      0.0000    678.1170      6.5237     95.2433
   947.2500      0.0000    678.3409      6.5703     91.2856
   947.5000      0.0000    678.5494      6.6145     82.9832
   947.7500      0.0000    678.6420      6.6481     73.3016
   948.0000      0.0000    678.5939      6.6697     65.3556
   948.2500      0.0000    678.4448      6.6833     60.6603
   948.5000      0.0000    678.2471      6.6963     58.7001
   948.7500      0.0000    678.0393      6.7192     57.9097
   949.0000      0.0000    677.8475      6.7642     57.2160
   949.2500      0.0000    677.6859      6.8407     56.6672
   949.5000      0.0000    677.5575      6.9488     56.7281
   949.7500      0.0000    677.4666      7.0763     57.4389
   950.0000      0.0000    677.4254      7.2031     58.5603
   950.2500      0.0000    677.4405      7.3101     60.0783
   950.5000      0.0000    677.4910      7.3862     62.0415
   950.7500      0.0000    677.5251      7.4283     64.0403
   951.0000      0.0000    677.4983      7.4376     65.2068
   951.2500      0.0000    677.4197      7.4156     64.7993
   951.5000      0.0000    677.3403      7.3646     62.8052
   951.7500      0.0000    677.2861      7.2909     60.0483
   952.0000      0.0000    677.2368      7.2071     57.6196
   952.2500      0.0000    677.1744      7.1280     56.0500
   952.5000      0.0000    677.1101      7.0654     55.1745
   952.7500      0.0000    677.0433      7.0260     54.9137
   953.0000      0.0000    676.9365      7.0125     55.8069
   953.2500      0.0000    676.7614      7.0272     58.3681
   953.5000      0.0000    676.5446      7.0717     62.0465
   953.7500      0.0000    676.3408      7.1384     65.1904
   954.0000      0.0000    676.1791      7.2045     66.1627
   954.2500      0.0000    676.0599      7.2423     64.4508
   954.5000      0.0000    675.9943      7.2442     60.7888
   954.7500      0.0000    676.0154      7.2291     56.4279
   955.0000      0.0000    676.1479      7.2206     52.3828
   955.2500      0.0000    676.3766      7.2208     49.1837
   955.5000      0.0000    676.6418      7.2096     47.0596
   955.7500      0.0000    676.8560      7.1663     46.2179
   956.0000      0.0000    676.9376      7.0871     46.8793
   956.2500      0.0000    676.8636      6.9868     48.9402
   956.5000      0.0000    676.6997      6.8864     51.6001
   956.7500      0.0000    676.5535      6.7986     53.6094
   957.0000      0.0000    676.4826      6.7244     54.2455
   957.2500      0.0000    676.4528      6.6651     54.0455
   957.5000      0.0000    676.3840      6.6343     54.2665
   957.7500      0.0000    676.2184      6.6497     55.5286
   958.0000      0.0000    675.9544      6.7089     57.2197
   958.2500      0.0000    675.6522      6.7770     58.3002
   958.5000      0.0000    675.4539      6.8055     58.3612
   958.7500      0.0000    675.6472      6.7677     57.7458
   959.0000      0.0000    676.7718      6.6768     56.9626
   959.2500      0.0000    679.6182      6.5716     56.2658
   959.5000      0.0000    684.8083      6.4869     55.6372
   959.7500      0.0000    691.9672      6.4370     54.8674
   960.0000      0.0000    699.2166      6.4203     53.6672
   960.2500      0.0000    703.8286      6.4292     52.0036
   960.5000      0.0000    703.8228      6.4560     50.4940
   960.7500      0.0000    699.2643      6.4936     50.2668
   961.0000      0.0000    692.2183      6.5372     52.1230
   961.2500      0.0000    685.3906      6.5845     55.7728
   961.5000      0.0000    680.5442      6.6328     60.0860
   961.7500      0.0000    677.8988      6.6741     64.0840
   962.0000      0.0000    676.6739      6.6945     67.3774
   962.2500      0.0000    675.7124      6.6799     69.6139
   962.5000      0.0000    673.4425      6.6325     70.0599
   962.7500      0.0000    667.4160      6.5939     68.3158
