~Version Information
VERS.                      2.0: CWLS Log ASCII Standard - VERSION 2.0
WRAP.                       NO: One line per depth step
~Well Information Block
STRT.FT                 0.5000: 
STOP.FT              2166.0000: 
STEP.FT                 0.2500: 
NULL.                -999.2500: 
COMP.          Pioneer Natural Resources: COMPANY
WELL.          Bear Cub Federal 11-23: WELL
FLD.           Purgatoire River: FIELD
LOC.           1225' FNL & 1268 ' FWL--: LOCATION
CNTY.               Las Animas: COUNTY
SRVC.                Patterson: SERVICE COMPANY
DATE.          Mon Jul 17 10:21:31 2006: LOG DATE
UWI.           05 071 08509 00: UNIQUE WELL ID
STAT.                 Colorado: STATE
~Curve Information Block
DEPT.FT            0 000 00 00: Depth
CCL.                          : Casing Collar Locator
TT3.usec                      : CBL 3' Travel Time
AMP3.mV                       : CBL 3' Amplitude
GR.GAPI                       : Gamma Ray
~Parameter Information Block
~A  Depth       CCL         TT3         AMP3         GR     
# ...
  1005.5000      0.0000    697.3788      4.7173    104.3763
  1005.7500      0.0000    699.8466      4.7901     97.2384
  1006.0000      0.0000    705.8180      4.9178     92.7883
  1006.2500      0.0000    711.1027      5.0197     94.8203
  1006.5000      0.0000    719.6419      5.1829    103.9641
  1006.7500      0.0000    724.7031      5.2822    112.3167
  1007.0000      0.0000    730.2872      5.4080    124.8245
  1007.2500      0.0000    732.7205      5.4905    131.5282
  1007.5000      0.0000    735.0959      5.6422    137.6346
  1007.7500      0.0000    736.1466      5.7623    139.0717
  1008.0000      0.0000    737.0573      5.9388    138.5049
  1008.2500      0.0000    737.0261      6.0361    137.3665
  1008.5000      0.0000    735.2510      6.1471    135.8947
  1008.7500      0.0000    732.3109      6.2044    135.3489
  1009.0000      0.0000    724.8389      6.2624    135.3315
  1009.2500      0.0000    718.6767      6.2638    136.0590
  1009.5000      0.0000    711.5470      6.1708    138.3432
  1009.7500      0.0000    710.9665      6.0380    140.0970
  1010.0000      0.0000    719.1429      5.7535    141.3736
  1010.2500      0.0000    729.9836      5.5296    140.7917
  1010.5000      0.0000    749.1815      5.1981    138.8018
  1010.7500      0.0000    760.0057      5.0223    137.9474
  1011.0000      0.0000    769.4611      4.8718    138.6341
  1011.2500     -2.0000    771.9813      4.8358    140.3788
  1011.5000      2.0000    774.1049      4.8209    144.6431
  1011.7500      2.0000    776.1584      4.8136    148.6753
  1012.0000      0.0000    780.4176      4.8099    156.7074
  1012.2500      0.0000    783.0156      4.8319    163.0944
  1012.5000      0.0000    784.0557      4.9359    172.6353
  1012.7500      0.0000    781.5648      5.0495    177.6652
  1013.0000      0.0000    772.3804      5.2257    181.5789
  1013.2500      0.0000    763.5242      5.3063    181.6508
  1013.5000      0.0000    749.5084      5.3568    178.9656
  1013.7500      0.0000    742.1761      5.3629    176.2238
  1014.0000      0.0000    737.9512      5.3545    172.5190
  1014.2500      0.0000    740.4985      5.3324    171.5001
  1014.5000      0.0000    750.0735      5.2576    173.4668
  1014.7500      0.0000    757.2268      5.1758    176.7961
  1015.0000      0.0000    763.6229      5.0092    182.2393
  1015.2500      0.0000    762.9179      4.8782    184.2465
  1015.5000      0.0000    753.5655      4.6816    182.8349
  1015.7500      0.0000    742.9536      4.5716    179.2194
  1016.0000      0.0000    725.0255      4.4584    172.3120
  1016.2500      0.0000    715.1199      4.4130    168.4024
  1016.5000      0.0000    708.1913      4.3689    164.9163
  1016.7500      0.0000    710.4737      4.3472    163.6279
  1017.0000      0.0000    724.2346      4.3245    160.8668
  1017.2500      0.0000    737.5909      4.3180    157.2816
  1017.5000      0.0000    753.0195      4.3238    149.2143
  1017.7500      0.0000    751.8844      4.3395    143.2348
  1018.0000      0.0000    723.5663      4.3746    136.0632
  1018.2500      0.0000    688.3240      4.3949    133.4849
  1018.5000      0.0000    625.0844      4.4008    133.2648
  1018.7500      0.0000    586.4944      4.3856    135.3851
  1019.0000      0.0000    545.4680      4.3440    141.4663
  1019.2500      0.0000    530.3458      4.3108    146.8054
  1019.5000      0.0000    522.5096      4.2629    155.0343
  1019.7500      0.0000    525.8132      4.2377    159.7271
  1020.0000      0.0000    544.4989      4.2139    164.6225
  1020.2500      0.0000    566.4238      4.2034    166.2316
  1020.5000      0.0000    608.4189      4.1833    166.0914
  1020.7500      0.0000    636.2842      4.1619    164.4508
  1021.0000      0.0000    668.0642      4.1166    160.6065
  1021.2500      0.0000    680.5710      4.0814    158.1954
  1021.5000      0.0000    689.1050      4.0319    156.9231
  1021.7500      0.0000    690.8347      4.0069    158.2826
  1022.0000      0.0000    691.0296      3.9829    162.8956
  1022.2500      0.0000    690.5068      3.9714    166.5824
  1022.5000      0.0000    689.2587      3.9579    171.4696
  1022.7500      0.0000    688.1653      3.9569    173.9194
  1023.0000      0.0000    686.1780      3.9832    176.1820
  1023.2500      0.0000    684.8090      4.0239    176.5610
  1023.5000      0.0000    683.8388      4.1214    175.0066
  1023.7500      0.0000    685.0980      4.2138    172.6305
  1024.0000      0.0000    691.7162      4.3974    168.0072
  1024.2500      0.0000    699.2488      4.5425    164.7258
  1024.5000      0.0000    711.7737      4.7633    159.3966
  1024.7500      0.0000    717.3596      4.8948    155.4577
  1025.0000      0.0000    716.8234      5.0559    149.8284
  1025.2500      0.0000    711.0576      5.1428    146.9542
  1025.5000      0.0000    700.7800      5.2522    144.2108
  1025.7500      0.0000    696.7477      5.3111    143.1675
  1026.0000      0.0000    696.4117      5.3648    142.4311
  1026.2500      0.0000    697.9520      5.3678    142.3469
  1026.5000      0.0000    698.9205      5.3119    142.4483
  1026.7500      0.0000    697.9691      5.2319    142.4386
  1027.0000      0.0000    695.4214      5.0540    141.9214
  1027.2500      0.0000    693.8433      4.9115    140.9686
  1027.5000      0.0000    691.5054      4.6984    138.3180
  1027.7500      0.0000    688.7203      4.5730    135.8749
  1028.0000      0.0000    678.9073      4.4189    131.8835
  1028.2500      0.0000    666.1104      4.3374    129.2952
  1028.5000      0.0000    635.5478      4.2432    125.6189
  1028.7500      0.0000    609.3001      4.1970    123.4951
  1029.0000      0.0000    568.5250      4.1479    121.6677
  1029.2500      0.0000    545.1067      4.1236    121.6057
  1029.5000      0.0000    520.2062      4.0932    122.2735
  1029.7500      0.0000    510.5740      4.0819    122.2445
  1030.0000      0.0000    504.3578      4.1042    120.7399
  1030.2500      0.0000    504.3828      4.1589    119.2509
  1030.5000      0.0000    510.4053      4.2994    117.9958
  1030.7500      0.0000    519.8638      4.4137    118.5346
  1031.0000      0.0000    546.2115      4.5712    121.0289
  1031.2500      0.0000    573.0305      4.6477    122.8702
  1031.5000      0.0000    622.8937      4.7186    124.7480
  1031.7500      0.0000    656.4254      4.7502    125.5402
  1032.0000      0.0000    696.2648      4.7901    126.6825
  1032.2500      0.0000    712.9781      4.8072    127.1697
  1032.5000      0.0000    725.7098      4.7985    125.8231
  1032.7500      0.0000    729.4902      4.7624    122.6866
  1033.0000      0.0000    733.0341      4.6651    115.1106
  1033.2500      0.0000    735.0792      4.5801    109.7602
  1033.5000      0.0000    737.1926      4.4401    104.8928
  1033.7500      0.0000    737.4224      4.3467    105.1150
  1034.0000      0.0000    736.0485      4.2167    110.2125
  1034.2500      0.0000    734.5012      4.1434    115.2736
  1034.5000      0.0000    732.1479      4.0655    122.8426
  1034.7500      0.0000    730.9211      4.0369    127.1877
  1035.0000      0.0000    729.9258      4.0152    132.4481
  1035.2500      0.0000    729.8013      4.0013    135.1152
  1035.5000      0.0000    730.0359      3.9719    137.8742
  1035.7500      0.0000    730.2215      3.9541    138.7559
  1036.0000      0.0000    730.3483      3.9442    137.8142
  1036.2500      0.0000    730.3428      3.9441    135.2025
  1036.5000      0.0000    730.2250      3.9327    129.0754
  1036.7500      0.0000    729.9973      3.9146    125.1371
  1037.0000      0.0000    729.0026      3.8966    122.2758
  1037.2500      0.0000    727.4152      3.9105    122.6248
  1037.5000      0.0000    722.6986      3.9786    124.3112
  1037.7500      0.0000    717.9495      4.0420    124.9134
  1038.0000      0.0000    710.1717      4.1344    125.0746
  1038.2500      0.0000    706.2529      4.1854    125.4336
  1038.5000      0.0000    704.2478      4.2431    126.3373
  1038.7500      0.0000    705.4929      4.2661    126.2941
