~Version Information
VERS.                      2.0: CWLS Log ASCII Standard - VERSION 2.0
WRAP.                       NO: One line per depth step
~Well Information Block
STRT.FT               970.0000: 
STOP.FT              1881.0000: 
STEP.FT                 0.1000: 
NULL.                -999.2500: 
COMP.          Petrogulf Corporation: COMPANY
WELL.             Norton 9-14R: WELL
FLD.           Purgatorie River: FIELD
LOC.           725' FSL & 1103' FWL: LOCATION
PROV.                 Colorado: PROVINCE
CNTY.               Las Animas: COUNTRY
SRVC.                Patterson: SERVICE COMPANY
DATE.          Fri Oct 07 07:52:23 2005: LOG DATE
UWI.                          : UNIQUE WELL ID
~Curve Information Block
DEPT.FT            0 000 00 00: Depth
DCAL.in                       : CDL Caliper
RHOB.g/cc                     : CDL Bulk Density
RHOC.g/cc                     : CDL Density Correction
DPOR.pu                       : CDL Density Porosity
GR.GAPI                       : Gamma Ray
NPOR.pu                       : Neutron Porosity
~Parameter Information Block
~A  Depth       DCAL        RHOB        RHOC        DPOR         GR         NPOR    
# ...
  1152.4000      7.9363      2.5445     -0.0034      6.3921    173.8801     27.8758
  1152.5000      7.9327      2.5253      0.0165      7.5571    172.8013     27.8445
  1152.6000      7.9327      2.5196      0.0325      7.9045    170.4760     27.7048
  1152.7000      7.9327      2.5263      0.0070      7.4999    169.1797     27.6485
  1152.8000      7.9314      2.5410      0.0170      6.6035    172.3689     27.6036
  1152.9000      7.9314      2.5552      0.0569      5.7469    179.2652     27.5781
  1153.0000      7.9234      2.5634      0.0443      5.2497    182.9361     27.7591
  1153.1000      7.9234      2.5697      0.0822      4.8688    181.0869     28.0512
  1153.2000      7.9234      2.5715      0.0777      4.7579    179.2191     28.1566
  1153.3000      7.9227      2.5576      0.1266      5.5989    178.5862     28.1206
  1153.4000      7.9227      2.5348      0.0729      6.9808    175.6840     28.1404
  1153.5000      7.9137      2.5274      0.0477      7.4330    172.3387     28.2208
  1153.6000      7.9137      2.5349      0.0735      6.9749    170.7977     28.4010
  1153.7000      7.9137      2.5390     -0.0105      6.7277    170.4736     28.5426
  1153.8000      7.9342      2.5354      0.0275      6.9426    171.9506     28.2029
  1153.9000      7.9342      2.5280      0.0074      7.3932    176.2497     27.5144
  1154.0000      7.9327      2.5240      0.0166      7.6344    183.2380     27.1068
  1154.1000      7.9327      2.5273      0.0233      7.4386    188.8603     27.0946
  1154.2000      7.9327      2.5251      0.0705      7.5668    190.1043     27.2790
  1154.3000      7.9285      2.5133      0.0511      8.2821    190.3447     27.5396
  1154.4000      7.9285      2.5075      0.0387      8.6387    188.6039     27.7110
  1154.5000      7.9241      2.5073      0.0750      8.6478    180.0215     27.7609
  1154.6000      7.9241      2.4933      0.0907      9.4982    168.6611     27.6647
  1154.7000      7.9241      2.4673      0.0209     11.0699    160.7515     27.4811
  1154.8000      7.9234      2.4574      0.0172     11.6749    155.3436     27.5801
  1154.9000      7.9234      2.4708      0.0571     10.8620    150.4628     27.9614
  1155.0000      7.9182      2.4839      0.0960     10.0657    146.0908     28.1765
  1155.1000      7.9182      2.4790      0.1064     10.3624    143.3078     28.1452
  1155.2000      7.9182      2.4575      0.0916     11.6661    142.8842     28.2933
  1155.3000      7.9367      2.4097      0.1196     14.5643    143.4222     28.6798
  1155.4000      7.9367      2.3163      0.0684     20.2219    142.1562     28.8624
  1155.5000      7.9254      2.1970     -0.0155     27.4559    139.6535     28.8356
  1155.6000      7.9254      2.0924     -0.0576     33.7938    136.4695     28.9206
  1155.7000      7.9254      1.9971      0.0346     39.5675    129.2782     29.0488
  1155.8000      7.9467      1.8892     -0.0863     46.1072    118.6147     29.1300
  1155.9000      7.9467      1.7849     -0.0983     52.4274    109.6539     29.2917
  1156.0000      8.0658      1.6898     -0.0702     58.1952    101.4898     29.5249
  1156.1000      8.0658      1.5767     -0.0451     65.0474     89.9222     29.7132
  1156.2000      8.0658      1.4477     -0.0915     72.8645     77.5987     29.8704
  1156.3000      8.2267      1.3492     -0.0738     78.8361     69.6468     30.1643
  1156.4000      8.2267      1.3032      0.0175     81.6264     65.6223     30.6740
  1156.5000      8.5256      1.2865      0.0020     82.6358     61.7165     31.2936
  1156.6000      8.5256      1.2800     -0.0006     83.0305     56.0414     31.8837
  1156.7000      8.5256      1.2810      0.0005     82.9672     49.5896     32.3245
  1156.8000      8.3984      1.2875      0.0050     82.5752     43.9844     32.5747
  1156.9000      8.3984      1.2943      0.0066     82.1617     39.6802     32.7047
  1157.0000      8.3254      1.2965      0.0023     82.0285     37.1678     32.8625
  1157.1000      8.3254      1.2907      0.0347     82.3828     36.2178     33.0117
  1157.2000      8.3254      1.2792     -0.0091     83.0769     35.2129     32.9743
  1157.3000      8.4680      1.2733     -0.0180     83.4381     33.7252     32.7448
  1157.4000      8.4680      1.2767      0.0233     83.2330     33.4765     32.6393
  1157.5000      8.6449      1.2807      0.0177     82.9864     34.6622     32.9414
  1157.6000      8.6449      1.2809      0.0149     82.9787     36.3333     33.3370
  1157.7000      8.6449      1.2776      0.0262     83.1750     38.7269     33.4888
  1157.8000      8.7101      1.2704      0.0432     83.6110     41.2403     33.5404
  1157.9000      8.7101      1.2636      0.0283     84.0243     42.2176     33.5802
  1158.0000      9.1265      1.2675      0.0158     83.7883     42.4824     33.5456
  1158.1000      9.1265      1.2856      0.0515     82.6901     44.2837     33.4704
  1158.2000      9.1265      1.3076      0.0622     81.3562     47.6198     33.4128
  1158.3000      9.3855      1.3222      0.0590     80.4725     51.6783     33.5038
  1158.4000      9.3855      1.3313      0.0494     79.9227     56.0189     33.6217
  1158.5000      8.9696      1.3440      0.0548     79.1533     58.8016     33.5177
  1158.6000      8.9696      1.3600      0.0880     78.1826     59.6861     33.2211
  1158.7000      8.9696      1.3716      0.0826     77.4806     61.0955     32.8599
  1158.8000      8.7078      1.3780      0.0797     77.0887     64.3805     32.6941
  1158.9000      8.7078      1.3893      0.0235     76.4042     67.1775     33.0008
  1159.0000      8.6911      1.4143      0.0601     74.8923     68.1493     33.6000
  1159.1000      8.6911      1.4490      0.0694     72.7879     71.5861     34.0467
  1159.2000      8.6911      1.4900      0.0900     70.3016     79.0278     34.2281
  1159.3000      8.7464      1.5429      0.0905     67.0945     86.3074     34.1983
  1159.4000      8.7464      1.6103      0.1239     63.0104     91.4389     33.9523
  1159.5000      8.6378      1.6939      0.1252     57.9436     97.5291     33.5557
  1159.6000      8.6378      1.8022      0.1315     51.3846    106.9991     33.2153
  1159.7000      8.6378      1.9313      0.1670     43.5585    115.8620     33.0226
  1159.8000      8.3902      2.0602      0.1969     35.7477    119.3474     32.8727
  1159.9000      8.3902      2.1748      0.1845     28.8002    120.7697     32.7355
  1160.0000      8.1870      2.2710      0.1842     22.9678    126.6650     32.5222
  1160.1000      8.1870      2.3399      0.1745     18.7934    135.8862     32.0562
  1160.2000      8.1870      2.3808      0.1274     16.3155    140.8837     31.4625
  1160.3000      8.1575      2.4083      0.1282     14.6455    138.9991     30.9962
  1160.4000      8.1575      2.4294      0.0809     13.3682    134.0251     30.5755
  1160.5000      8.1533      2.4279      0.1258     13.4605    129.3228     30.2143
  1160.6000      8.1533      2.3843      0.0601     16.1007    125.1008     30.1509
  1160.7000      8.1533      2.3139      0.0491     20.3668    122.0380     30.2123
  1160.8000      8.1641      2.2534      0.0226     24.0388    122.5123     30.0741
  1160.9000      8.1641      2.2113      0.0642     26.5876    125.0562     29.9275
  1161.0000      8.1595      2.1656     -0.0010     29.3593    126.3849     30.1270
  1161.1000      8.1595      2.1034     -0.0013     33.1283    127.9489     30.5485
  1161.2000      8.1595      2.0411     -0.0022     36.9059    132.4093     30.7656
  1161.3000      8.1563      2.0078      0.0243     38.9186    139.3366     30.6997
  1161.4000      8.1563      2.0176      0.0204     38.3257    145.0773     30.7037
  1161.5000      8.1458      2.0567      0.1237     35.9594    146.1625     30.9746
  1161.6000      8.1458      2.0903      0.1765     33.9202    144.1318     31.2798
  1161.7000      8.1458      2.0983      0.1098     33.4349    141.8489     31.4085
  1161.8000      8.1372      2.0963      0.0759     33.5599    141.1596     31.4649
  1161.9000      8.1372      2.1059      0.0916     32.9752    143.8551     31.5798
