~Version Information
VERS.                      2.0: CWLS Log ASCII Standard - VERSION 2.0
WRAP.                       NO: One line per depth step
~Well Information Block
STRT.FT               260.0000: 
STOP.FT              1230.0000: 
STEP.FT                 0.2500: 
NULL.                -999.2500: 
COMP.          Pioneer Natural Resources: COMPANY
WELL.             Mahalo 12-20: WELL
FLD.           Purgatoire River: FIELD
LOC.           1689' FNL & 479' FWL: LOCATION
CNTY.               Las Animas: COUNTY
SRVC.                Patterson: SERVICE COMPANY
DATE.          Thu Feb 23 20:25:01 2006: LOG DATE
UWI.           05 071 08700 00: UNIQUE WELL ID
STAT.                 Colorado: STATE
~Curve Information Block
DEPT.FT            0 000 00 00: Depth
SN.Ohm-m                      : IEL Short Normal
SP.mV                         : IEL Spontaneous Potential
DIR.Ohm-m                     : IEL Induction Resistivity
GR.GAPI                       : Gamma Ray
~Parameter Information Block
~A  Depth        SN          SP         DIR          GR     
# ...
   461.0000   2000.0000   2000.0000     23.5426     76.8241
   461.2500   2000.0000   2000.0000     23.0801     82.3387
   461.5000   2000.0000   2000.0000     22.7093     90.9234
   461.7500   2000.0000   2000.0000     22.4274     96.0054
   462.0000   2000.0000   2000.0000     22.2166    101.9322
   462.2500   2000.0000   2000.0000     22.0597    104.7423
   462.5000   2000.0000   2000.0000     21.9494    107.2191
   462.7500   2000.0000   2000.0000     21.8823    107.4942
   463.0000   2000.0000   2000.0000     21.8521    105.5044
   463.2500   2000.0000   2000.0000     21.8539    102.6814
   463.5000   2000.0000   2000.0000     21.8968     97.1086
   463.7500   2000.0000   2000.0000     22.0079     93.4201
   464.0000   2000.0000   2000.0000     22.2196     89.6127
   464.2500   2000.0000   2000.0000     22.5471     88.7587
   464.5000   2000.0000   2000.0000     22.9708     89.6192
   464.7500   2000.0000   2000.0000     23.4336     90.8509
   465.0000   2000.0000   2000.0000     23.8620     92.2980
   465.2500   2000.0000   2000.0000     24.1969     92.4736
   465.5000   2000.0000   2000.0000     24.4110     91.2060
   465.7500   2000.0000   2000.0000     24.4938     89.2911
   466.0000   2000.0000   2000.0000     24.4183     84.8141
   466.2500   2000.0000   2000.0000     24.1319     80.9263
   466.5000   2000.0000   2000.0000     23.5886     74.6506
   466.7500   2000.0000   2000.0000     22.7952     71.1038
   467.0000   2000.0000   2000.0000     21.8244     68.7971
   467.2500   2000.0000   2000.0000     20.7831     70.4601
   467.5000   2000.0000   2000.0000     19.7677     78.8247
   467.7500   2000.0000   2000.0000     18.8388     87.8350
   468.0000   2000.0000   2000.0000     18.0164    103.9321
   468.2500   2000.0000   2000.0000     17.2880    114.7484
   468.5000   2000.0000   2000.0000     16.6221    129.6288
   468.7500   2000.0000   2000.0000     15.9842    138.5244
   469.0000   2000.0000   2000.0000     15.3493    150.1821
   469.2500   2000.0000   2000.0000     14.7076    156.4784
   469.5000   2000.0000   2000.0000     14.0637    163.0039
   469.7500   2000.0000   2000.0000     13.4332    165.0918
   470.0000   2000.0000   2000.0000     12.8385    164.5168
   470.2500   2000.0000   2000.0000     12.3042    161.8597
   470.5000   2000.0000   2000.0000     11.8518    156.0065
   470.7500   2000.0000   2000.0000     11.4962    152.2333
   471.0000   2000.0000   2000.0000     11.2446    148.6405
   471.2500   2000.0000   2000.0000     11.0970    148.0481
   471.5000   2000.0000   2000.0000     11.0462    149.8527
   471.7500   2000.0000   2000.0000     11.0772    152.5785
   472.0000   2000.0000   2000.0000     11.1675    157.7722
   472.2500   2000.0000   2000.0000     11.2914    160.9995
   472.5000   2000.0000   2000.0000     11.4256    164.2545
   472.7500   2000.0000   2000.0000     11.5542    164.9696
   473.0000   2000.0000   2000.0000     11.6688    163.0467
   473.2500   2000.0000   2000.0000     11.7647    159.3194
   473.5000   2000.0000   2000.0000     11.8375    150.5629
   473.7500   2000.0000   2000.0000     11.8826    143.8663
   474.0000   2000.0000   2000.0000     11.8983    135.0749
   474.2500   2000.0000   2000.0000     11.8881    131.0715
   474.5000   2000.0000   2000.0000     11.8601    128.6812
   474.7500   2000.0000   2000.0000     11.8236    129.5522
   475.0000   2000.0000   2000.0000     11.7863    133.8416
   475.2500   2000.0000   2000.0000     11.7535    137.9759
   475.5000   2000.0000   2000.0000     11.7298    145.1255
   475.7500   2000.0000   2000.0000     11.7170    150.1866
   476.0000   2000.0000   2000.0000     11.7094    157.3076
   476.2500   2000.0000   2000.0000     11.6903    160.8068
   476.5000   2000.0000   2000.0000     11.6362    162.7550
   476.7500   2000.0000   2000.0000     11.5286    161.8708
   477.0000   2000.0000   2000.0000     11.3657    158.9447
   477.2500   2000.0000   2000.0000     11.1622    157.0835
   477.5000   2000.0000   2000.0000     10.9395    155.2243
   477.7500   2000.0000   2000.0000     10.7156    154.2967
   478.0000   2000.0000   2000.0000     10.5022    152.3441
   478.2500   2000.0000   2000.0000     10.3081    150.3208
   478.5000   2000.0000   2000.0000     10.1440    146.8367
   478.7500   2000.0000   2000.0000     10.0239    145.2596
   479.0000   2000.0000   2000.0000      9.9597    145.6902
   479.2500   2000.0000   2000.0000      9.9555    147.9680
   479.5000   2000.0000   2000.0000     10.0036    152.8710
   479.7500   2000.0000   2000.0000     10.0857    155.8758
   480.0000   2000.0000   2000.0000     10.1792    158.5633
   480.2500   2000.0000   2000.0000     10.2633    158.9512
   480.5000   2000.0000   2000.0000     10.3217    157.6422
   480.7500   2000.0000   2000.0000     10.3426    155.6800
   481.0000   2000.0000   2000.0000     10.3189    151.6778
   481.2500   2000.0000   2000.0000     10.2504    148.9746
   481.5000   2000.0000   2000.0000     10.1461    146.3703
   481.7500   2000.0000   2000.0000     10.0224    146.3247
   482.0000   2000.0000   2000.0000      9.8976    149.0989
   482.2500   2000.0000   2000.0000      9.7867    152.2881
   482.5000   2000.0000   2000.0000      9.6989    157.2016
   482.7500   2000.0000   2000.0000      9.6403    159.5044
   483.0000   2000.0000   2000.0000      9.6166    160.8369
   483.2500   2000.0000   2000.0000      9.6329    160.7138
   483.5000   2000.0000   2000.0000      9.6896    160.1940
   483.7500   2000.0000   2000.0000      9.7792    159.9389
   484.0000   2000.0000   2000.0000      9.8870    159.2035
   484.2500   2000.0000   2000.0000      9.9971    158.0836
   484.5000   2000.0000   2000.0000     10.0988    155.6560
   484.7500   2000.0000   2000.0000     10.1889    154.0828
   485.0000   2000.0000   2000.0000     10.2689    152.4024
   485.2500   2000.0000   2000.0000     10.3400    151.5866
   485.5000   2000.0000   2000.0000     10.4002    150.1620
   485.7500   2000.0000   2000.0000     10.4457    148.9072
   486.0000   2000.0000   2000.0000     10.4752    146.8509
   486.2500   2000.0000   2000.0000     10.4904    145.5598
   486.5000   2000.0000   2000.0000     10.4939    143.5516
   486.7500   2000.0000   2000.0000     10.4873    141.8513
   487.0000   2000.0000   2000.0000     10.4732    138.6449
   487.2500   2000.0000   2000.0000     10.4580    136.5085
   487.5000   2000.0000   2000.0000     10.4525    134.5974
   487.7500   2000.0000   2000.0000     10.4674    134.8250
   488.0000   2000.0000   2000.0000     10.5072    137.7455
   488.2500   2000.0000   2000.0000     10.5645    141.0405
   488.5000   2000.0000   2000.0000     10.6177    146.5237
   488.7500   2000.0000   2000.0000     10.6376    149.4954
   489.0000   2000.0000   2000.0000     10.5998    151.6250
   489.2500   2000.0000   2000.0000     10.4989    151.2494
   489.5000   2000.0000   2000.0000     10.3523    148.3180
   489.7500   2000.0000   2000.0000     10.1914    145.2215
   490.0000   2000.0000   2000.0000     10.0468    139.7646
   490.2500   2000.0000   2000.0000      9.9393    136.1553
   490.5000   2000.0000   2000.0000      9.8801    132.0275
   490.7500   2000.0000   2000.0000      9.8741    131.0282
   491.0000   2000.0000   2000.0000      9.9233    133.1937
   491.2500   2000.0000   2000.0000     10.0260    136.8112
   491.5000   2000.0000   2000.0000     10.1740    143.7925
   491.7500   2000.0000   2000.0000     10.3513    148.6211
   492.0000   2000.0000   2000.0000     10.5350    155.7478
   492.2500   2000.0000   2000.0000     10.7032    160.3979
   492.5000   2000.0000   2000.0000     10.8438    166.5304
   492.7500   2000.0000   2000.0000     10.9612    169.3949
   493.0000   2000.0000   2000.0000     11.0729    171.2512
   493.2500   2000.0000   2000.0000     11.2028    171.0659
   493.5000   2000.0000   2000.0000     11.3745    169.3494
   493.7500   2000.0000   2000.0000     11.6114    167.3101
   494.0000   2000.0000   2000.0000     11.9351    162.2745
   494.2500   2000.0000   2000.0000     12.3610    157.3436
