~Version Information
VERS.                      2.0: CWLS Log ASCII Standard - VERSION 2.0
WRAP.                       NO: One line per depth step
~Well Information Block
STRT.FT               460.0000: 
STOP.FT              1509.0000: 
STEP.FT                 0.2500: 
NULL.                -999.2500: 
COMP.          Pioneer Natural Resources: COMPANY
WELL.           Amore 32-09 Tr: WELL
FLD.           Purgatoire River: FIELD
LOC.           1941' FNL & 2297' FEL: LOCATION
PROV.                 Colorado: PROVINCE
CNTY.               Las Animas: COUNTRY
SRVC.                Patterson: SERVICE COMPANY
DATE.          Mon Nov 14 11:07:52 2005: LOG DATE
UWI.           05 071 08584 00: UNIQUE WELL ID
~Curve Information Block
DEPT.FT            0 000 00 00: Depth
SN.Ohm-m                      : IEL Short Normal
SP.mV                         : IEL Spontaneous Potential
DIR.Ohm-m                     : IEL Induction Resistivity
GR.GAPI                       : Gamma Ray
~Parameter Information Block
~A  Depth        SN          SP         DIR          GR     
# ...
   996.0000     21.2536    105.1366     19.3962    125.8170
   996.2500     20.6628    105.2921     19.1773    127.1809
   996.5000     20.2685    105.4097     19.0051    129.7892
   996.7500     20.1081    105.5137     18.8101    131.3363
   997.0000     20.1071    105.6117     18.5583    130.9368
   997.2500     20.2300    105.6988     18.2614    127.8967
   997.5000     20.4648    105.7676     17.9589    120.1583
   997.7500     20.7770    105.8145     17.6916    114.5132
   998.0000     21.1312    105.8423     17.4879    107.7041
   998.2500     21.5016    105.8564     17.3635    104.8849
   998.5000     21.8295    105.8594     17.3258    103.4992
   998.7500     21.9483    105.8501     17.3759    104.4779
   999.0000     21.7170    105.8279     17.5085    108.4600
   999.2500     21.2678    105.7989     17.7126    112.2467
   999.5000     20.8783    105.7774     17.9746    118.0675
   999.7500     20.6266    105.7798     18.2820    120.9274
  1000.0000     20.3994    105.8157     18.6218    122.2835
  1000.2500     20.1949    105.8816     18.9807    121.3685
  1000.5000     20.1672    105.9608     19.3446    119.2230
  1000.7500     20.3330    106.0313     19.7017    118.5001
  1001.0000     20.5257    106.0751     20.0432    118.8983
  1001.2500     20.6824    106.0869     20.3574    119.3865
  1001.5000     20.8926    106.0757     20.6153    118.7090
  1001.7500     21.2097    106.0592     20.7604    116.6564
  1002.0000     21.6273    106.0560     20.7220    111.0835
  1002.2500     22.1273    106.0774     20.4607    106.2694
  1002.5000     22.6308    106.1251     20.0115     99.0809
  1002.7500     22.9789    106.1939     19.4779     95.4201
  1003.0000     23.0001    106.2770     18.9776     93.2193
  1003.2500     22.5973    106.3698     18.5885     94.4798
  1003.5000     21.8090    106.4690     18.3316    100.5974
  1003.7500     20.8314    106.5702     18.1836    107.2272
  1004.0000     19.9132    106.6665     18.1000    119.9672
  1004.2500     19.1588    106.7495     18.0348    129.1603
  1004.5000     18.5161    106.8108     17.9537    141.0898
  1004.7500     17.9451    106.8435     17.8428    146.2053
  1005.0000     17.4655    106.8416     17.7110    148.6703
  1005.2500     17.1230    106.7970     17.5852    147.6303
  1005.5000     16.9865    106.7001     17.4976    144.5420
  1005.7500     17.0851    106.5433     17.4709    142.5204
  1006.0000     17.3624    106.3286     17.5112    139.5271
  1006.2500     17.7568    106.0743     17.6124    136.6977
  1006.5000     18.2979    105.8147     17.7709    129.6129
  1006.7500     19.0427    105.5881     17.9983    122.6963
  1007.0000     19.9830    105.4174     18.3213    110.2694
  1007.2500     21.1418    105.2995     18.7687    102.2086
  1007.5000     22.5756    105.2128     19.3539     93.4498
  1007.7500     24.1450    105.1326     20.0662     90.8182
  1008.0000     25.5292    105.0409     20.8709     91.0901
  1008.2500     26.5707    104.9283     21.7126     92.7616
  1008.5000     27.3511    104.7918     22.5196     95.1739
  1008.7500     27.9283    104.6311     23.2114     95.8329
  1009.0000     28.2592    104.4474     23.7112     94.5113
  1009.2500     28.2975    104.2466     23.9607     91.8682
  1009.5000     28.0538    104.0445     23.9323     85.9072
  1009.7500     27.6394    103.8630     23.6413     81.7617
  1010.0000     27.1931    103.7152     23.1505     78.0115
  1010.2500     26.7393    103.5946     22.5546     78.5023
  1010.5000     26.2368    103.4846     21.9472     84.5513
  1010.7500     25.6848    103.3772     21.3936     91.5787
  1011.0000     25.0608    103.2793     20.9249    104.5478
  1011.2500     24.2947    103.2029     20.5466    113.5271
  1011.5000     23.3725    103.1530     20.2485    125.6225
  1011.7500     22.3543    103.1255     20.0139    131.6983
  1012.0000     21.3369    103.1119     19.8274    136.0414
  1012.2500     20.5071    103.1043     19.6796    135.3723
  1012.5000     20.0666    103.0948     19.5644    130.4647
  1012.7500     19.9961    103.0734     19.4715    126.2276
  1013.0000     20.1138    103.0313     19.3822    120.6756
  1013.2500     20.3464    102.9655     19.2746    117.9354
  1013.5000     20.6761    102.8831     19.1319    114.8584
  1013.7500     20.9872    102.8001     18.9488    113.0245
  1014.0000     21.1957    102.7362     18.7338    109.9449
  1014.2500     21.3461    102.7056     18.5065    107.6333
  1014.5000     21.4649    102.7103     18.2914    104.5528
  1014.7500     21.4738    102.7388     18.1109    103.4322
  1015.0000     21.2947    102.7720     17.9838    103.6009
  1015.2500     20.9486    102.7933     17.9268    104.5262
  1015.5000     20.5574    102.7972     17.9488    106.0993
  1015.7500     20.2337    102.7943     18.0392    107.2175
  1016.0000     19.9216    102.8065     18.1619    110.1741
  1016.2500     19.4558    102.8551     18.2632    113.7949
  1016.5000     18.8361    102.9466     18.2926    121.6491
  1016.7500     18.2457    103.0662     18.2197    127.4015
  1017.0000     17.8234    103.1827     18.0399    134.4059
  1017.2500     17.6281    103.2629     17.7700    137.2476
  1017.5000     17.6955    103.2856     17.4417    139.0114
  1017.7500     17.9539    103.2484     17.0928    139.0874
  1018.0000     18.1914    103.1653     16.7561    138.5749
  1018.2500     18.1956    103.0575     16.4521    138.4111
  1018.5000     17.8850    102.9443     16.1888    139.2892
  1018.7500     17.3317    102.8377     15.9672    140.7935
  1019.0000     16.7187    102.7427     15.7875    143.9018
  1019.2500     16.2115    102.6596     15.6512    145.8369
  1019.5000     15.8347    102.5859     15.5600    147.1048
  1019.7500     15.5485    102.5157     15.5117    146.3787
  1020.0000     15.3852    102.4412     15.4979    143.5129
  1020.2500     15.3932    102.3563     15.5070    141.3412
  1020.5000     15.5377    102.2616     15.5300    138.7251
  1020.7500     15.7566    102.1675     15.5621    137.2014
  1021.0000     16.0292    102.0925     15.5977    134.4020
  1021.2500     16.3294    102.0556     15.6269    132.2675
  1021.5000     16.6007    102.0660     15.6397    129.9815
  1021.7500     16.7922    102.1181     15.6366    129.7500
  1022.0000     16.8729    102.1946     15.6315    131.0490
  1022.2500     16.8489    102.2765     15.6455    132.1464
  1022.5000     16.7912    102.3514     15.6991    132.8767
  1022.7500     16.8135    102.4192     15.8111    132.7451
  1023.0000     16.9807    102.4915     15.9990    132.8854
  1023.2500     17.2313    102.5854     16.2729    134.1129
  1023.5000     17.4637    102.7103     16.6230    138.0620
  1023.7500     17.6314    102.8597     17.0106    141.2785
  1024.0000     17.7142    103.0135     17.3730    144.5106
  1024.2500     17.7514    103.1463     17.6456    144.4239
  1024.5000     17.8446    103.2355     17.7877    140.4541
  1024.7500     18.0026    103.2671     17.7956    135.7868
  1025.0000     18.1326    103.2416     17.6923    127.2173
  1025.2500     18.2188    103.1762     17.5060    121.2822
  1025.5000     18.3104    103.0970     17.2583    113.4410
  1025.7500     18.3729    103.0267     16.9695    109.8499
  1026.0000     18.3538    102.9749     16.6707    108.3650
  1026.2500     18.3036    102.9385     16.4020    110.2229
  1026.5000     18.2869    102.9087     16.1949    116.1523
  1026.7500     18.2678    102.8775     16.0513    121.0186
  1027.0000     18.1295    102.8389     15.9367    128.0216
  1027.2500     17.7827    102.7869     15.7939    131.9773
  1027.5000     17.2674    102.7160     15.5685    136.2068
  1027.7500     16.7254    102.6245     15.2313    137.4738
  1028.0000     16.2861    102.5205     14.7829    136.6507
  1028.2500     15.9730    102.4256     14.2435    134.5380
  1028.5000     15.6515    102.3756     13.6415    130.2798
  1028.7500     15.1388    102.4164     13.0082    127.6136
  1029.0000     14.4146    102.5936     12.3774    124.9328
  1029.2500     13.6119    102.9340     11.7818    124.1180
