~Version Information
VERS.                      2.0: CWLS Log ASCII Standard - VERSION 2.0
WRAP.                       NO: One line per depth step
~Well Information Block
STRT.FT                -0.5000: 
STOP.FT              1417.0000: 
STEP.FT                 0.2500: 
NULL.                -999.2500: 
COMP.          Pioneer Natural Resources: COMPANY
WELL.              Darren 11-7: WELL
FLD.           Purgatoire River: FIELD
LOC.           230' FNL & 596' FWL: LOCATION
CNTY.               Las Animas: COUNTY
SRVC.                Patterson: SERVICE COMPANY
DATE.          Thu Mar 30 10:43:52 2006: LOG DATE
UWI.           05 071 08720 00: UNIQUE WELL ID
STAT.                 Colorado: STATE
~Curve Information Block
DEPT.FT            0 000 00 00: Depth
GR.GAPI                       : Gamma Ray
CCL.                          : Casing Collar Locator
TT3.usec                      : CBL 3' Travel Time
AMP3.mV                       : CBL 3' Amplitude
~Parameter Information Block
~A  Depth        GR         CCL         TT3         AMP3    
# ...
   904.0000     81.0907      0.0000    652.5914      4.8712
   904.2500     78.3473      0.0000    650.1942      4.9007
   904.5000     76.4586      0.0000    644.6826      4.9239
   904.7500     75.4962      0.0000    637.6625      4.9338
   905.0000     75.3983      0.0000    631.1663      4.9335
   905.2500     75.9895      0.0000    626.3297      4.9322
   905.5000     76.6607      0.0000    622.5541      4.9375
   905.7500     76.5122      0.0000    617.5164      4.9517
   906.0000     75.0976      0.0000    607.9237      4.9706
   906.2500     73.0149      0.0000    591.3558      4.9845
   906.5000     71.6009      0.0000    569.1268      4.9829
   906.7500     71.8371      0.0000    547.6433      4.9595
   907.0000     73.5157      0.0000    535.2297      4.9124
   907.2500     75.6503      0.0000    535.9990      4.8451
   907.5000     77.6336      0.0000    546.8015      4.7689
   907.7500     79.5812      0.0000    560.4513      4.7026
   908.0000     81.4822      0.0000    571.4948      4.6630
   908.2500     82.5952      0.0000    578.9533      4.6557
   908.5000     82.0025      0.0000    584.9442      4.6719
   908.7500     79.4930      0.0000    591.8870      4.6946
   909.0000     75.8014      0.0000    600.5748      4.7080
   909.2500     72.2581      0.0000    609.7064      4.7025
   909.5000     70.2334      0.0000    616.7565      4.6746
   909.7500     70.5687      0.0000    619.4602      4.6266
   910.0000     73.2404      0.0000    616.9457      4.5696
   910.2500     77.4477      0.0000    610.1025      4.5219
   910.5000     82.0024      0.0000    601.2961      4.4989
   910.7500     85.8491      0.0000    593.4120      4.5040
   911.0000     88.4226      0.0000    588.6936      4.5315
   911.2500     89.5344      0.0000    588.2419      4.5735
   911.5000     89.0269      0.0000    592.3170      4.6217
   911.7500     86.8470      0.0000    600.7409      4.6660
   912.0000     83.5490      0.0000    612.9153      4.6980
   912.2500     80.3629      0.0000    627.6555      4.7176
   912.5000     78.4085      0.0000    643.3381      4.7321
   912.7500     77.9506      0.0000    658.5980      4.7490
   913.0000     78.5343      0.0000    672.7897      4.7729
   913.2500     79.5681      0.0000    685.3478      4.8077
   913.5000     80.5825      0.0000    695.0063      4.8548
   913.7500     81.1682      0.0000    700.2587      4.9087
   914.0000     81.0887      0.0000    700.4071      4.9574
   914.2500     80.5480      0.0000    695.9847      4.9887
   914.5000     80.1977      0.0000    688.7717      4.9953
   914.7500     80.7056      0.0000    681.6131      4.9768
   915.0000     82.1372      0.0000    677.2614      4.9383
   915.2500     83.7395      0.0000    676.3975      4.8856
   915.5000     84.5490      0.0000    676.9924      4.8243
   915.7500     84.4256      0.0000    676.3906      4.7652
   916.0000     84.4745      0.0000    674.2023      4.7256
   916.2500     86.4595      0.0000    672.8133      4.7164
   916.5000     91.8494      0.0000    675.1177      4.7285
   916.7500    100.8929      0.0000    682.1530      4.7371
   917.0000    111.8688      0.0000    692.9778      4.7252
   917.2500    121.5446      0.0000    706.3586      4.6979
   917.5000    127.3055      0.0000    721.8141      4.6737
   917.7500    128.9269      0.0000    738.3281      4.6661
   918.0000    128.0848      0.0000    752.2808      4.6748
   918.2500    126.6649      0.0000    757.7046      4.6906
   918.5000    125.9659      0.0000    749.4666      4.7053
   918.7500    126.8247      0.0000    727.2300      4.7192
   919.0000    129.6111      0.0000    697.4644      4.7358
   919.2500    134.0771      0.0000    670.9660      4.7505
   919.5000    139.5450      0.0000    655.7407      4.7486
   919.7500    145.2466      0.0000    651.2211      4.7209
   920.0000    150.5212      0.0000    650.5168      4.6769
   920.2500    155.0972      0.0000    647.7896      4.6372
   920.5000    159.2369      0.0000    641.8336      4.6145
   920.7500    163.1972      0.0000    633.9460      4.6068
   921.0000    166.6417      0.0000    625.7379      4.6047
   921.2500    168.9732      0.0000    619.8880      4.6022
   921.5000    170.0524      0.0000    621.0463      4.6006
   921.7500    170.2014      0.0000    633.8903      4.6058
   922.0000    169.5569      0.0000    659.4470      4.6204
   922.2500    167.6131      0.0000    693.3010      4.6384
   922.5000    163.5378      0.0000    727.5800      4.6499
   922.7500    156.9176      0.0000    754.8824      4.6503
   923.0000    148.1216      0.0000    770.9017      4.6464
   923.2500    138.0882      0.0000    774.7863      4.6511
   923.5000    127.9813      0.0000    768.6361      4.6734
   923.7500    118.8490      0.0000    757.1661      4.7124
   924.0000    111.1620      0.0000    746.5644      4.7568
   924.2500    104.5604      0.0000    741.8655      4.7908
   924.5000     98.2669      0.0000    744.6155      4.8005
   924.7500     91.9532      0.0000    752.9829      4.7792
   925.0000     86.1984      0.0000    763.6423      4.7286
   925.2500     81.9822      0.0000    773.2192      4.6583
   925.5000     79.7570      0.0000    778.8225      4.5849
   925.7500     79.1274      0.0000    778.6299      4.5279
   926.0000     79.3887      0.0000    772.6992      4.4989
   926.2500     80.1180      0.0000    763.1943      4.4941
   926.5000     81.1242      0.0000    753.3005      4.4989
   926.7500     82.1076      0.0000    744.9766      4.4999
   927.0000     82.6680      0.0000    736.8705      4.4938
   927.2500     82.5880      0.0000    724.4637      4.4887
   927.5000     81.9801      0.0000    703.3099      4.4991
   927.7500     81.1469      0.0000    673.2170      4.5375
   928.0000     80.3633      0.0000    639.3790      4.6071
   928.2500     79.8588      0.0000    608.9898      4.7002
   928.5000     79.8718      0.0000    586.8784      4.8028
   928.7500     80.4858      0.0000    574.4711      4.9015
   929.0000     81.5061      0.0000    571.3103      4.9838
   929.2500     82.6884      0.0000    575.4165      5.0386
   929.5000     83.9482      0.0000    582.5737      5.0607
   929.7500     85.1912      0.0000    587.7592      5.0572
   930.0000     86.2082      0.0000    588.4705      5.0474
   930.2500     86.8926      0.0000    585.9518      5.0539
   930.5000     87.1483      0.0000    583.0797      5.0914
   930.7500     86.3919      0.0000    582.0325      5.1601
   931.0000     83.7157      0.0000    584.1783      5.2469
   931.2500     78.9461      0.0000    591.3545      5.3317
   931.5000     73.2593      0.0000    606.3116      5.3967
   931.7500     68.4806      0.0000    631.0968      5.4318
   932.0000     65.8416      0.0000    664.2143      5.4358
   932.2500     65.3334      0.0000    699.4289      5.4151
   932.5000     65.9774      0.0000    728.3356      5.3792
   932.7500     66.6162      0.0000    745.1474      5.3340
   933.0000     66.5766      0.0000    749.8597      5.2795
   933.2500     65.7817      0.0000    747.5289      5.2119
   933.5000     64.4698      0.0000    744.3592      5.1245
   933.7500     62.9543      0.0000    743.4020      5.0067
   934.0000     61.6274      0.0000    743.0371      4.8509
   934.2500     60.9854      0.0000    739.2375      4.6634
   934.5000     61.4563      0.0000    729.1521      4.4718
   934.7500     63.1456      0.0000    712.8766      4.3191
   935.0000     65.7769      0.0000    692.6549      4.2415
   935.2500     68.8526      0.0000    671.0427      4.2341
   935.5000     71.8095      0.0000    649.9064      4.2458
   935.7500     73.9644      0.0000    631.1972      4.2254
   936.0000     74.4586      0.0000    618.4060      4.1734
   936.2500     72.7745      0.0000    615.8339      4.1301
   936.5000     69.5887      0.0000    624.9580      4.1260
   936.7500     66.6075      3.0000    642.0791      4.1614
   937.0000     65.0523      0.0000    660.8743      4.2234
   937.2500     64.5314      0.0000    677.1586      4.3084
