~Version Information
VERS.                      2.0: CWLS Log ASCII Standard - VERSION 2.0
WRAP.                       NO: One line per depth step
~Well Information Block
STRT.FT                -4.0000: 
STOP.FT              1544.0000: 
STEP.FT                 0.2500: 
NULL.                -999.2500: 
COMP.          Pioneer Natural Resources: COMPANY
WELL.           Screamin 12-29: WELL
FLD.           Purgatoire River: FIELD
LOC.           2038' FNL & 612' FWL--: LOCATION
CNTY.               Las Animas: COUNTY
SRVC.                Patterson: SERVICE COMPANY
DATE.          Fri Apr 14 00:36:42 2006: LOG DATE
UWI.           05 071 08661 00: UNIQUE WELL ID
STAT.                 Colorado: STATE
~Curve Information Block
DEPT.FT            0 000 00 00: Depth
GR.GAPI                       : Gamma Ray
CCL.                          : Casing Collar Locator
TT3.usec                      : CBL 3' Travel Time
AMP3.mV                       : CBL 3' Amplitude
~Parameter Information Block
~A  Depth        GR         CCL         TT3         AMP3    
# ...
   900.5000    118.5063      0.0000    636.9598      6.1878
   900.7500    122.3756      0.0000    635.6422      6.1716
   901.0000    129.2773      0.0000    635.4645      6.0993
   901.2500    132.8690      0.0000    635.4161      6.0200
   901.5000    136.6057      0.0000    634.6658      5.8913
   901.7500    139.1469      0.0000    634.0624      5.8296
   902.0000    144.3436      0.0000    634.4393      5.8070
   902.2500    148.2574      0.0000    636.0270      5.8366
   902.5000    152.9329      0.0000    639.3407      5.9189
   902.7500    154.6486      0.0000    640.8893      5.9796
   903.0000    155.6086      0.0000    641.1017      6.0577
   903.2500    155.9252      0.0000    640.3040      6.0954
   903.5000    157.0795      0.0000    639.2854      6.1303
   903.7500    158.6838      0.0000    639.3725      6.1402
   904.0000    162.1855      0.0000    641.0203      6.1340
   904.2500    164.5346      0.0000    643.1083      6.1151
   904.5000    166.0029      0.0000    647.3853      6.0728
   904.7500    164.5938      0.0000    650.4520      6.0448
   905.0000    159.4049      0.0000    653.5341      6.0135
   905.2500    155.7342      0.0000    653.2783      5.9979
   905.5000    153.1325      0.0000    648.5938      5.9765
   905.7500    153.4463      0.0000    643.8258      5.9666
   906.0000    154.0002      0.0000    638.1778      5.9702
   906.2500    152.6145      0.0000    636.8123      5.9849
   906.5000    147.5599      0.0000    636.5757      6.0056
   906.7500    143.4320      0.0000    635.1754      6.0041
   907.0000    138.1160      0.0000    629.3961      5.9725
   907.2500    135.3015      0.0000    624.6806      5.9422
   907.5000    131.0972      0.0000    620.4420      5.9105
   907.7500    127.7856      0.0000    620.0718      5.9084
   908.0000    122.4306      0.0000    620.5636      5.9314
   908.2500    119.3714      0.0000    620.0820      5.9551
   908.5000    116.4310      0.0000    617.8875      5.9876
   908.7500    115.2296      0.0000    615.3298      6.0009
   909.0000    112.9477      0.0000    606.4951      6.0002
   909.2500    110.4585      0.0000    594.5565      5.9828
   909.5000    105.7955      0.0000    568.2717      5.9359
   909.7500    103.2027      0.0000    550.5927      5.9016
   910.0000    102.5200      0.0000    536.7265      5.8676
   910.2500    105.1889      0.0000    540.6007      5.8613
   910.5000    113.4836      0.0000    564.1276      5.8653
   910.7500    120.3828      0.0000    585.4529      5.8656
   911.0000    129.9237      0.0000    613.4504      5.8520
   911.2500    135.1098      0.0000    625.3436      5.8365
   911.5000    142.2282      0.0000    634.3907      5.8196
   911.7500    147.5435      0.0000    638.1780      5.8196
   912.0000    156.7390      0.0000    644.9104      5.8290
   912.2500    162.8032      0.0000    649.7330      5.8272
   912.5000    169.5051      0.0000    653.8205      5.7923
   912.7500    171.4956      0.0000    653.0478      5.7489
   913.0000    171.0667      0.0000    648.2061      5.6753
   913.2500    169.4826      0.0000    645.3475      5.6349
   913.5000    166.7082      0.0000    647.3679      5.5967
   913.7500    164.9244      0.0000    654.9498      5.5838
   914.0000    162.4727      0.0000    673.3857      5.5828
   914.2500    161.3813      0.0000    685.6791      5.6008
   914.5000    161.7422      0.0000    695.8307      5.6645
   914.7500    163.5663      0.0000    695.4788      5.7232
   915.0000    167.4975      0.0000    687.4649      5.8021
   915.2500    169.8466      0.0000    679.9385      5.8299
   915.5000    172.2155      0.0000    668.4405      5.8243
   915.7500    173.3830      0.0000    661.5975      5.7968
   916.0000    175.2033      0.0000    654.1603      5.7462
   916.2500    176.2902      0.0000    651.9686      5.7193
   916.5000    176.6997      0.0000    653.0867      5.6920
   916.7500    175.7701      0.0000    655.7584      5.6742
   917.0000    173.0678      0.0000    659.5679      5.6366
   917.2500    171.1532      0.0000    660.3028      5.6097
   917.5000    168.9169      0.0000    657.5374      5.5916
   917.7500    167.5766      0.0000    653.6573      5.6057
   918.0000    164.6824      0.0000    647.0315      5.6632
   918.2500    161.9581      0.0000    643.3694      5.7121
   918.5000    157.6794      0.0000    640.0486      5.7762
   918.7500    155.6368      0.0000    639.1990      5.8055
   919.0000    154.8592      0.0000    639.4365      5.8284
   919.2500    155.7744      0.0000    640.4065      5.8290
   919.5000    157.8891      0.0000    642.7811      5.8036
   919.7500    158.7489      0.0000    644.4695      5.7697
   920.0000    158.1691      0.0000    645.3434      5.7050
   920.2500    156.3971      0.0000    643.2932      5.6626
   920.5000    151.4891      0.0000    632.8488      5.6128
   920.7500    146.6070      0.0000    618.6038      5.5913
   921.0000    137.5003      0.0000    584.1815      5.5725
   921.2500    131.3151      0.0000    555.2682      5.5637
   921.5000    124.1919      0.0000    516.3128      5.5464
   921.7500    121.8314      0.0000    502.4044      5.5283
   922.0000    122.0580      0.0000    507.1370      5.4913
   922.2500    123.9793      0.0000    525.0112      5.4644
   922.5000    127.4063      0.0000    562.8197      5.4328
   922.7500    128.9933      0.0000    588.1243      5.4245
   923.0000    130.1773      0.0000    617.1642      5.4365
   923.2500    131.0190      0.0000    628.7606      5.4582
   923.5000    133.2847      0.0000    636.8804      5.5027
   923.7500    134.6846      0.0000    638.8302      5.5395
   924.0000    134.0727      0.0000    640.4107      5.6113
   924.2500    131.0541      0.0000    641.8508      5.6728
   924.5000    122.9521      0.0000    645.4760      5.7781
   924.7500    115.6484      0.0000    648.5521      5.8447
   925.0000    102.8077      0.0000    651.9434      5.9107
   925.2500     94.2009      0.0000    651.4141      5.9184
   925.5000     84.3014      0.0000    644.3185      5.8754
   925.7500     81.1689      0.0000    636.5268      5.8306
   926.0000     82.3969      0.0000    626.4877      5.7941
   926.2500     86.8104      0.0000    624.6669      5.8130
   926.5000     97.9531      0.0000    630.5472      5.9013
   926.7500    107.9269      0.0000    637.5744      5.9760
   927.0000    125.3022      0.0000    646.8862      6.0649
   927.2500    136.9786      0.0000    650.4116      6.0908
   927.5000    151.4180      0.0000    651.6821      6.0724
   927.7500    157.6421      0.0000    650.6535      6.0320
   928.0000    161.4133      0.0000    647.8082      5.9620
   928.2500    160.6989      0.0000    646.0694      5.9271
   928.5000    155.9773      0.0000    645.6818      5.9040
   928.7500    151.3854      0.0000    647.7670      5.9032
   929.0000    144.8348      0.0000    654.2742      5.9079
   929.2500    141.9459      0.0000    659.6021      5.9079
   929.5000    139.6749      0.0000    665.6188      5.9005
   929.7500    138.0388      0.0000    666.5316      5.8929
   930.0000    132.8257      0.0000    662.4269      5.8828
   930.2500    127.3393      0.0000    657.1078      5.8781
   930.5000    118.1740      0.0000    648.4894      5.8797
   930.7500    112.9344      0.0000    644.0021      5.8952
   931.0000    107.6121      0.0000    640.7225      5.9542
   931.2500    105.7245      0.0000    641.0983      6.0134
   931.5000    105.1700      0.0000    645.1149      6.0978
   931.7500    106.2645      0.0000    649.1804      6.1281
   932.0000    109.2941      0.0000    654.6465      6.1217
   932.2500    111.0318      0.0000    656.4776      6.0951
   932.5000    110.6712      0.0000    656.4315      6.0588
   932.7500    107.6263      0.0000    655.8143      6.0538
   933.0000     99.8973      0.0000    656.1592      6.0829
   933.2500     94.5333      0.0000    657.4892      6.1192
   933.5000     89.5769      0.0000    660.4106      6.1747
   933.7500     89.1236      0.0000    662.6901      6.1968
