~Version Information
VERS.                      2.0: CWLS Log ASCII Standard - VERSION 2.0
WRAP.                       NO: One line per depth step
~Well Information Block
STRT.FT               686.2000: 
STOP.FT              1252.7000: 
STEP.FT                 0.1000: 
NULL.                -999.2500: 
COMP.          Pioneer Natural Resources: COMPANY
WELL.          Rock Island 44-24 Tr: WELL
FLD.           Purgatoire River: FIELD
LOC.           814' FSL & 761' FEL--: LOCATION
CNTY.               Las Animas: COUNTY
SRVC.                Patterson: SERVICE COMPANY
DATE.          Thu Apr 20 08:34:45 2006: LOG DATE
UWI.           05 071 08680 00: UNIQUE WELL ID
STAT.                 Colorado: STATE
~Curve Information Block
DEPT.FT            0 000 00 00: Depth
DCAL.in                       : CDL Caliper
RHOB.g/cc                     : CDL Bulk Density
RHOC.g/cc                     : CDL Density Correction
DPOR.pu                       : CDL Density Porosity
GR.GAPI                       : Gamma Ray
~Parameter Information Block
~A  Depth       DCAL        RHOB        RHOC        DPOR         GR     
# ...
  1190.2000      7.9306      2.5113      0.0687      8.4046    119.7478
  1190.3000      7.9311      2.5172      0.0537      8.0505    119.1264
  1190.4000      7.9311      2.5431      0.0941      6.4771    119.5428
  1190.5000      7.9320      2.5754      0.0837      4.5199    123.7244
  1190.6000      7.9320      2.6006      0.1149      2.9959    132.5907
  1190.7000      7.9320      2.6117      0.1199      2.3219    141.5904
  1190.8000      7.9309      2.6133      0.0603      2.2240    141.4500
  1190.9000      7.9309      2.6166      0.1172      2.0264    129.2029
  1191.0000      7.9318      2.6220      0.0866      1.6988    113.9335
  1191.1000      7.9318      2.6319      0.0997      1.0968    102.8360
  1191.2000      7.9318      2.6569      0.0982     -0.4203     95.8750
  1191.3000      7.9337      2.6948      0.1382     -2.7170     91.1787
  1191.4000      7.9337      2.7201      0.1521     -4.2503     86.2525
  1191.5000      7.9347      2.7148      0.1094     -3.9296     80.4389
  1191.6000      7.9347      2.6923      0.0566     -2.5666     74.3198
  1191.7000      7.9347      2.6763      0.0542     -1.5930     67.5836
  1191.8000      7.9353      2.6818      0.0275     -1.9292     62.3574
  1191.9000      7.9353      2.7073      0.0657     -3.4701     59.2024
  1192.0000      7.9349      2.7236      0.0948     -4.4598     55.1427
  1192.1000      7.9349      2.7053      0.0546     -3.3516     50.3039
  1192.2000      7.9349      2.6645      0.0515     -0.8808     47.2007
  1192.3000      7.9352      2.6288      0.0213      1.2824     47.2224
  1192.4000      7.9352      2.6093     -0.0127      2.4675     50.3590
  1192.5000      7.9347      2.5958      0.0045      3.2861     54.4110
  1192.6000      7.9347      2.5797      0.0101      4.2609     57.4792
  1192.7000      7.9347      2.5733     -0.0561      4.6503     59.5573
  1192.8000      7.9338      2.5812      0.0227      4.1672     61.3136
  1192.9000      7.9338      2.5804      0.0345      4.2157     64.7129
  1193.0000      7.9352      2.5613      0.0348      5.3773     72.7147
  1193.1000      7.9352      2.5392      0.0116      6.7147     85.4218
  1193.2000      7.9352      2.5270      0.0123      7.4539     97.3066
  1193.3000      7.9362      2.5291      0.0117      7.3287    103.3274
  1193.4000      7.9362      2.5451      0.0411      6.3567    107.1729
  1193.5000      7.9347      2.5650      0.0797      5.1544    113.9641
  1193.6000      7.9347      2.5752      0.1246      4.5318    121.2527
  1193.7000      7.9347      2.5764      0.0666      4.4611    123.3257
  1193.8000      7.9318      2.5828      0.0647      4.0744    118.4647
  1193.9000      7.9318      2.5995      0.0644      3.0604    111.9152
  1194.0000      7.9318      2.6095      0.0732      2.4538    109.9978
  1194.1000      7.9318      2.5928      0.0802      3.4667    112.0593
  1194.2000      7.9318      2.5603      0.0100      5.4363    115.3526
  1194.3000      7.9357      2.5420      0.0260      6.5468    117.5920
  1194.4000      7.9357      2.5358      0.0315      6.9234    116.5969
  1194.5000      7.9383      2.5182      0.0241      7.9887    114.3725
  1194.6000      7.9383      2.4931     -0.0187      9.5084    112.9390
  1194.7000      7.9383      2.4849     -0.0065     10.0080    112.6006
  1194.8000      7.9359      2.5005      0.0247      9.0609    112.8516
  1194.9000      7.9359      2.5268      0.0287      7.4668    113.5171
  1195.0000      7.9316      2.5519      0.0546      5.9485    115.4003
  1195.1000      7.9316      2.5728      0.0383      4.6764    117.0239
  1195.2000      7.9316      2.5897      0.0693      3.6535    115.6661
  1195.3000      7.9301      2.5954      0.1068      3.3104    109.8914
  1195.4000      7.9301      2.5823      0.0714      4.1023     99.9282
  1195.5000      7.9303      2.5592      0.0414      5.5053     88.7726
  1195.6000      7.9303      2.5439      0.0238      6.4327     81.3809
  1195.7000      7.9303      2.5412      0.0448      6.5948     80.6264
  1195.8000      7.9301      2.5415      0.0547      6.5775     86.2431
  1195.9000      7.9301      2.5395      0.0419      6.6993     93.7081
  1196.0000      7.9314      2.5392      0.0375      6.7172     97.9432
  1196.1000      7.9314      2.5462      0.0551      6.2914     97.1401
  1196.2000      7.9314      2.5610      0.0689      5.3926     92.4856
  1196.3000      7.9340      2.5731      0.0785      4.6597     87.6192
  1196.4000      7.9340      2.5678      0.0732      4.9811     83.1482
  1196.5000      7.9352      2.5489      0.0194      6.1273     79.3089
  1196.6000      7.9352      2.5340      0.0195      7.0330     79.0150
  1196.7000      7.9352      2.5265      0.0299      7.4821     81.8777
  1196.8000      7.9361      2.5193      0.0037      7.9211     84.9517
  1196.9000      7.9361      2.5173      0.0243      8.0433     87.5656
  1197.0000      7.9423      2.5249      0.0519      7.5828     89.6432
  1197.1000      7.9423      2.5287      0.0477      7.3522     88.9262
  1197.2000      7.9423      2.5172      0.0529      8.0511     84.8319
  1197.3000      7.9516      2.4974      0.0030      9.2495     80.6894
  1197.4000      7.9516      2.4915     -0.0074      9.6053     79.6165
  1197.5000      7.9562      2.5132      0.0102      8.2937     82.6690
  1197.6000      7.9562      2.5493      0.0764      6.1049     87.5646
  1197.7000      7.9562      2.5714      0.0750      4.7660     89.9784
  1197.8000      7.9570      2.5643      0.0527      5.1911     89.0366
  1197.9000      7.9570      2.5368      0.0420      6.8587     86.7117
  1198.0000      7.9536      2.5083      0.0172      8.5865     83.0970
  1198.1000      7.9536      2.4968     -0.0094      9.2866     80.4680
  1198.2000      7.9536      2.5040      0.0368      8.8479     83.6250
  1198.3000      7.9464      2.5164      0.0612      8.0997     89.3085
  1198.4000      7.9464      2.5275      0.0613      7.4248     91.2539
  1198.5000      7.9403      2.5395      0.0574      6.6985     90.9549
  1198.6000      7.9403      2.5534      0.0541      5.8567     91.2860
  1198.7000      7.9403      2.5716      0.0702      4.7524     90.5564
  1198.8000      7.9358      2.5944      0.0888      3.3709     87.8842
  1198.9000      7.9358      2.6094      0.1250      2.4579     85.5695
  1199.0000      7.9339      2.6043      0.1319      2.7709     84.9238
  1199.1000      7.9339      2.5864      0.1095      3.8565     87.0873
  1199.2000      7.9339      2.5730      0.0781      4.6692     92.2290
  1199.3000      7.9349      2.5689      0.0785      4.9158     94.8419
  1199.4000      7.9349      2.5637      0.0852      5.2299     91.1930
  1199.5000      7.9362      2.5537      0.0569      5.8363     85.5597
  1199.6000      7.9362      2.5495      0.0339      6.0882     82.2246
  1199.7000      7.9362      2.5540      0.0489      5.8199     79.2261
  1199.8000      7.9361      2.5503      0.0784      6.0394     74.4220
  1199.9000      7.9361      2.5330      0.0378      7.0914     73.5120
  1200.0000      7.9357      2.5214      0.0473      7.7953     79.7991
  1200.1000      7.9357      2.5279      0.0209      7.3989     85.2034
  1200.2000      7.9357      2.5443      0.0727      6.4050     83.3107
  1200.3000      7.9359      2.5562      0.0743      5.6877     78.0234
  1200.4000      7.9359      2.5635      0.0543      5.2445     75.4788
  1200.5000      7.9363      2.5722      0.0938      4.7163     77.0300
  1200.6000      7.9363      2.5767      0.0492      4.4438     80.5763
  1200.7000      7.9363      2.5756      0.0444      4.5099     84.3699
  1200.8000      7.9374      2.5677      0.0690      4.9899     88.5266
  1200.9000      7.9374      2.5458      0.0536      6.3128     93.1596
  1201.0000      7.9380      2.5224     -0.0164      7.7345     95.5372
  1201.1000      7.9380      2.5126      0.0377      8.3301     92.9173
  1201.2000      7.9380      2.5087     -0.0081      8.5646     85.4583
  1201.3000      7.9404      2.5086      0.0135      8.5724     75.3247
