~Version Information
VERS.                      2.0: CWLS Log ASCII Standard - VERSION 2.0
WRAP.                       NO: One line per depth step
~Well Information Block
STRT.FT               620.0000: 
STOP.FT              3067.2500: 
STEP.FT                 0.2500: 
NULL.                -999.2500: 
COMP.          Pioneer Natural Resources: COMPANY
WELL.          Interceptor 43-13 Kv: WELL
FLD.           Purgatoire River: FIELD
LOC.           2073' FSL & 519' FEL--: LOCATION
PROV.                 Colorado: PROVINCE
CNTY.               Las Animas: COUNTRY
SRVC.                Patterson: SERVICE COMPANY
DATE.          Sat Jan 14 19:35:17 2006: LOG DATE
UWI.           05 071 08655 00: UNIQUE WELL ID
~Curve Information Block
DEPT.FT            0 000 00 00: Depth
SN.Ohm-m                      : IEL Short Normal
SP.mV                         : IEL Spontaneous Potential
DIR.Ohm-m                     : IEL Induction Resistivity
GR.GAPI                       : Gamma Ray
~Parameter Information Block
~A  Depth        SN          SP         DIR          GR     
# ...
  2864.5000     33.1239     12.4354 100000.0000     83.9073
  2864.7500     33.0854      7.0118 100000.0000     82.9260
  2865.0000     33.2185      0.5234 100000.0000     81.1675
  2865.2500     33.5533     -7.1574 100000.0000     80.4835
  2865.5000     34.0482    -16.1490 100000.0000     81.0851
  2865.7500     34.5816    -26.5563 100000.0000     82.4540
  2866.0000     34.9887    -38.4570 100000.0000     84.8874
  2866.2500     35.1202    -51.8816 100000.0000     86.1771
  2866.5000     34.8796    -66.7900 100000.0000     87.2970
  2866.7500     34.2168    -83.0530     23.2551     87.6593
  2867.0000     33.0878   -100.4463     12.4633     88.0627
  2867.2500     31.4243   -118.6603     11.7180     88.3636
  2867.5000     29.1473   -137.3250     19.5058     88.6936
  2867.7500     26.2304   -156.0421 100000.0000     88.6803
  2868.0000     22.7690   -174.4155 100000.0000     88.4015
  2868.2500     18.9959   -192.0729 100000.0000     88.2527
  2868.5000     15.2260   -208.6769 100000.0000     88.0327
  2868.7500     11.7666   -223.9312 100000.0000     87.4088
  2869.0000      8.8405   -237.5879     49.0494     84.7861
  2869.2500      6.5490   -249.4617      2.1518     81.8142
  2869.5000      4.8816   -259.4482      0.6934     76.4128
  2869.7500      3.7531   -267.5406      0.2741     72.9432
  2870.0000      3.0459   -273.8351      0.1055     68.8545
  2870.2500      2.6400   -278.5190      0.0424     67.0455
  2870.5000      2.4305   -281.8433      0.0207     65.4566
  2870.7500      2.3371   -284.0864      0.0130     64.7320
  2871.0000      2.3059   -285.5166      0.0102     63.2878
  2871.2500      2.3058   -286.3653      0.0097     61.8895
  2871.5000      2.3222   -286.8111      0.0106     59.7945
  2871.7500      2.3521   -286.9724      0.0132     59.0495
  2872.0000      2.4076   -286.9055      0.0184     59.2902
  2872.2500      2.5223   -286.6003      0.0285     59.8930
  2872.5000      2.7488   -285.9706      0.0489     60.3659
  2872.7500      3.1352   -284.8360      0.0920     60.2872
  2873.0000      3.6818   -282.9017      0.1813     60.7117
  2873.2500      4.3055   -279.7453      0.3552     62.2903
  2873.5000      4.8532   -274.8259      0.6863     67.2576
  2873.7500      5.1734   -267.5286      1.3372     71.7857
  2874.0000      5.2071   -257.2511      2.3686     78.6864
  2874.2500      5.0376   -243.5280      2.7365     82.6346
  2874.5000      4.8728   -226.1647      1.9522     87.5968
  2874.7500      4.9813   -205.3447      1.2354     90.7845
  2875.0000      5.6149   -181.6703      0.8493     96.0920
  2875.2500      6.9192   -156.1156      0.6675     99.9072
  2875.5000      8.8522   -129.8899      0.6085    105.1944
  2875.7500     11.1765   -104.2461      0.6455    107.8610
  2876.0000     13.5635    -80.2810      0.7924    110.0754
  2876.2500     15.7404    -58.7793      1.1223    110.4017
  2876.5000     17.5782    -40.1353      1.8752    109.5190
  2876.7500     19.0994    -24.3641      4.0634    108.3411
  2877.0000     20.4477    -11.1846     19.6726    106.6425
  2877.2500     21.8459     -0.1448 100000.0000    106.3320
  2877.5000     23.5223      9.2472 100000.0000    108.3191
  2877.7500     25.6059     17.4184 100000.0000    111.5923
  2878.0000     28.0426     24.6702 100000.0000    118.8386
  2878.2500     30.6041     31.1642 100000.0000    124.2651
  2878.5000     33.0033     36.9464 100000.0000    131.3881
  2878.7500     35.0349     41.9922 100000.0000    134.7122
  2879.0000     36.6378     46.2532 100000.0000    137.2071
  2879.2500     37.8621     49.6936     96.6127    137.3726
  2879.5000     38.8054     52.3130     28.7774    136.0304
  2879.7500     39.5679     54.1527     17.1232    134.6341
  2880.0000     40.2256     55.2925     12.7416    132.6706
  2880.2500     40.8066     55.8468     10.8938    131.4892
  2880.5000     41.2711     55.9583     10.4036    128.8791
  2880.7500     41.5104     55.7919     10.9709    125.8004
  2881.0000     41.3749     55.5261     12.7139    118.9043
  2881.2500     40.7276     55.3400     16.1231    113.6246
  2881.5000     39.5066     55.3949     22.0394    107.4576
  2881.7500     37.7677     55.8150     30.8541    106.2270
  2882.0000     35.6835     56.6693     39.2983    110.3001
  2882.2500     33.4879     57.9612     40.0246    116.7151
  2882.5000     31.3835     59.6294     33.3832    129.8869
  2882.7500     29.4589     61.5612     26.0775    139.4036
  2883.0000     27.6663     63.6175     20.8463    151.7859
  2883.2500     25.8637     65.6605     17.5063    157.1657
  2883.5000     23.8898     67.5815     15.3981    158.7583
  2883.7500     21.6398     69.3177     14.0078    154.7523
  2884.0000     19.1369     70.8560     12.9987    141.5364
  2884.2500     16.5662     72.2242     12.1736    129.7517
  2884.5000     14.2216     73.4729     11.4439    113.2726
  2884.7500     12.3761     74.6554     10.7946    106.3987
  2885.0000     11.1651     75.8098     10.2416    104.5005
  2885.2500     10.5577     76.9504      9.7962    107.5863
  2885.5000     10.4117     78.0668      9.4517    114.4415
  2885.7500     10.5531     79.1305      9.1866    118.4415
  2886.0000     10.8329     80.1041      8.9756    122.1897
  2886.2500     11.1481     80.9507      8.8009    123.3744
  2886.5000     11.4394     81.6397      8.6576    124.3708
  2886.7500     11.6844     82.1503      8.5542    125.3134
  2887.0000     11.8903     82.4707      8.5079    127.8530
  2887.2500     12.0816     82.5983      8.5375    129.9501
  2887.5000     12.2845     82.5373      8.6576    131.9478
  2887.7500     12.5150     82.2994      8.8742    131.3466
  2888.0000     12.7763     81.9034      9.1818    126.4727
  2888.2500     13.0642     81.3751      9.5649    120.9320
  2888.5000     13.3777     80.7476     10.0006    111.4902
  2888.7500     13.7287     80.0599     10.4644    106.2209
  2889.0000     14.1406     79.3569     10.9366    102.0596
  2889.2500     14.6310     78.6865     11.4063    102.0672
  2889.5000     15.1949     78.0961     11.8719    105.2716
  2889.7500     15.8047     77.6253     12.3370    108.5255
  2890.0000     16.4288     77.2965     12.8063    113.2871
  2890.2500     17.0478     77.1052     13.2841    115.5803
  2890.5000     17.6578     77.0134     13.7769    116.9669
  2890.7500     18.2623     76.9519     14.2972    116.4332
  2891.0000     18.8659     76.8308     14.8630    113.7583
  2891.2500     19.4767     76.5595     15.4929    111.0350
  2891.5000     20.1134     76.0678     16.2008    105.6746
  2891.7500     20.8075     75.3232     16.9948    101.0447
  2892.0000     21.5936     74.3366     17.8789     92.6957
  2892.2500     22.4911     73.1555     18.8537     87.0695
  2892.5000     23.4840     71.8484     19.9084     80.6304
  2892.7500     24.5126     70.4846     21.0061     78.3813
  2893.0000     25.4890     69.1178     22.0731     77.7619
  2893.2500     26.3338     67.7771     23.0100     78.3727
  2893.5000     27.0060     66.4656     23.7301     79.1385
  2893.7500     27.5034     65.1668     24.2016     78.7552
  2894.0000     27.8409     63.8534     24.4588     76.4641
  2894.2500     28.0306     62.4968     24.5730     74.3010
  2894.5000     28.0825     61.0744     24.6141     71.5440
  2894.7500     28.0177     59.5741     24.6298     70.5250
  2895.0000     27.8771     57.9956     24.6445     69.9403
  2895.2500     27.7096     56.3511     24.6630     69.7115
  2895.5000     27.5477     54.6645     24.6713     69.1466
  2895.7500     27.3885     52.9714     24.6425     68.6162
  2896.0000     27.1953     51.3174     24.5484     67.6723
  2896.2500     26.9186     49.7591     24.3702     67.0036
  2896.5000     26.5252     48.3606     24.0997     66.4338
  2896.7500     26.0162     47.1896     23.7358     66.9163
  2897.0000     25.4261     46.3094     23.2831     69.7533
  2897.2500     24.8066     45.7687     22.7553     72.9598
  2897.5000     24.2063     45.5912     22.1791     78.5694
  2897.7500     23.6548     45.7677     21.5907     82.0067
