~Version Information
VERS.                      2.0: CWLS Log ASCII Standard - VERSION 2.0
WRAP.                       NO: One line per depth step
~Well Information Block
STRT.FT               460.0000: 
STOP.FT              1509.0000: 
STEP.FT                 0.2500: 
NULL.                -999.2500: 
COMP.          Pioneer Natural Resources: COMPANY
WELL.           Amore 32-09 Tr: WELL
FLD.           Purgatoire River: FIELD
LOC.           1941' FNL & 2297' FEL: LOCATION
PROV.                 Colorado: PROVINCE
CNTY.               Las Animas: COUNTRY
SRVC.                Patterson: SERVICE COMPANY
DATE.          Mon Nov 14 11:07:52 2005: LOG DATE
UWI.           05 071 08584 00: UNIQUE WELL ID
~Curve Information Block
DEPT.FT            0 000 00 00: Depth
SN.Ohm-m                      : IEL Short Normal
SP.mV                         : IEL Spontaneous Potential
DIR.Ohm-m                     : IEL Induction Resistivity
GR.GAPI                       : Gamma Ray
~Parameter Information Block
~A  Depth        SN          SP         DIR          GR     
# ...
   795.0000   2000.0000   2000.0000     21.3691    144.0824
   795.2500   2000.0000   2000.0000     22.0345    143.7855
   795.5000   2000.0000   2000.0000     22.7801    142.2051
   795.7500   2000.0000   2000.0000     23.6111    140.5108
   796.0000   2000.0000   2000.0000     24.5426    137.0919
   796.2500   2000.0000   2000.0000     25.5974    133.8694
   796.5000   2000.0000   2000.0000     26.8021    126.8320
   796.7500   2000.0000   2000.0000     28.1812    120.5938
   797.0000   2000.0000   2000.0000     29.7500    109.6891
   797.2500   2000.0000   2000.0000     31.5049    102.1324
   797.5000   2000.0000   2000.0000     33.4180     91.7322
   797.7500   2000.0000   2000.0000     35.4530     86.1669
   798.0000   2000.0000   2000.0000     37.5984     80.6902
   798.2500   2000.0000   2000.0000     39.8775     78.9171
   798.5000   2000.0000   2000.0000     42.2953     78.3390
   798.7500   2000.0000   2000.0000     44.7503     78.9465
   799.0000   2000.0000   2000.0000     47.0029     81.0658
   799.2500   2000.0000   2000.0000     48.7693     83.0713
   799.5000   2000.0000   2000.0000     49.8957     86.1239
   799.7500   2000.0000   2000.0000     50.4597     87.6641
   800.0000   2000.0000   2000.0000     50.7041     88.9584
   800.2500   2000.0000   2000.0000     50.8763     89.2633
   800.5000   2000.0000   2000.0000     51.1082     88.7616
   800.7500   2000.0000   2000.0000     51.4069     87.4152
   801.0000   2000.0000   2000.0000     51.7287     83.6078
   801.2500   2000.0000   2000.0000     52.0545     80.4165
   801.5000   2000.0000   2000.0000     52.4036     76.3977
   801.7500   2000.0000   2000.0000     52.7759     75.0152
   802.0000   2000.0000   2000.0000     53.1036     74.9609
   802.2500   2000.0000   2000.0000     53.2602     75.7356
   802.5000   2000.0000   2000.0000     53.1439     77.1094
   802.7500   2000.0000   2000.0000     52.7694     77.8614
   803.0000   2000.0000   2000.0000     52.3145     78.6746
   803.2500   2000.0000   2000.0000     52.0929     78.9895
   803.5000   2000.0000   2000.0000     52.4585     78.7384
   803.7500   2000.0000   2000.0000     53.6739     77.7459
   804.0000   2000.0000   2000.0000     55.7844     74.9039
   804.2500   2000.0000   2000.0000     58.5434     72.5346
   804.5000   2000.0000   2000.0000     61.4561     69.3683
   804.7500   2000.0000   2000.0000     63.9843     67.9341
   805.0000   2000.0000   2000.0000     65.8220     66.8846
   805.2500   2000.0000   2000.0000     67.0199     66.7321
   805.5000   2000.0000   2000.0000     67.8648     66.8274
   805.7500   2000.0000   2000.0000     68.6258     66.8427
   806.0000   2000.0000   2000.0000     69.3440     66.6125
   806.2500   2000.0000   2000.0000     69.8169     66.3033
   806.5000   2000.0000   2000.0000     69.8180     65.5472
   806.7500   2000.0000   2000.0000     69.3534     64.7802
   807.0000   2000.0000   2000.0000     68.6540     63.3614
   807.2500   2000.0000   2000.0000     67.9189     62.5192
   807.5000   2000.0000   2000.0000     67.1410     61.9985
   807.7500   2000.0000   2000.0000     66.1892     62.3077
   808.0000   2000.0000   2000.0000     65.0436     63.4839
   808.2500   2000.0000   2000.0000     63.9141     64.3757
   808.5000   2000.0000   2000.0000     63.1486     65.3228
   808.7500   2000.0000   2000.0000     63.0570     65.5732
   809.0000   2000.0000   2000.0000     63.7923     65.5473
   809.2500   2000.0000   2000.0000     65.3066     65.4437
   809.5000   2000.0000   2000.0000     67.3573     65.3121
   809.7500   2000.0000   2000.0000     69.5633     65.2638
   810.0000   2000.0000   2000.0000     71.5175     65.4179
   810.2500   2000.0000   2000.0000     72.9330     65.8222
   810.5000   2000.0000   2000.0000     73.7659     67.0047
   810.7500   2000.0000   2000.0000     74.2217     68.1713
   811.0000   2000.0000   2000.0000     74.6199     70.4706
   811.2500   2000.0000   2000.0000     75.1992     72.3288
   811.5000   2000.0000   2000.0000     75.9939     75.3870
   811.7500   2000.0000   2000.0000     76.8238     77.4719
   812.0000   2000.0000   2000.0000     77.4004     80.4986
   812.2500   2000.0000   2000.0000     77.5229     82.1858
   812.5000   2000.0000   2000.0000     77.2402     83.2310
   812.7500   2000.0000   2000.0000     76.8066     82.4135
   813.0000   2000.0000   2000.0000     76.4206     79.1464
   813.2500   2000.0000   2000.0000     75.9734     76.4092
   813.5000   2000.0000   2000.0000     75.0863     72.9275
   813.7500   2000.0000   2000.0000     73.4400     71.4183
   814.0000   2000.0000   2000.0000     71.0696     70.1353
   814.2500   2000.0000   2000.0000     68.3045     69.5411
   814.5000   2000.0000   2000.0000     65.4821     68.7173
   814.7500   2000.0000   2000.0000     62.7704     68.3985
   815.0000   2000.0000   2000.0000     60.1966     68.6647
   815.2500   2000.0000   2000.0000     57.7514     69.2225
   815.5000   2000.0000   2000.0000     55.4421     69.9633
   815.7500   2000.0000   2000.0000     53.2605     70.1565
   816.0000   2000.0000   2000.0000     51.1252     70.1987
   816.2500   2000.0000   2000.0000     48.8685     70.2862
   816.5000   2000.0000   2000.0000     46.2993     70.6046
   816.7500   2000.0000   2000.0000     43.3006     70.8879
   817.0000   2000.0000   2000.0000     39.9037     71.5237
   817.2500   2000.0000   2000.0000     36.2921     72.4220
   817.5000   2000.0000   2000.0000     32.7382     75.6588
   817.7500   2000.0000   2000.0000     29.5012     79.9428
   818.0000   2000.0000   2000.0000     26.7438     90.3737
   818.2500   2000.0000   2000.0000     24.5070     99.6018
   818.5000   2000.0000   2000.0000     22.7378    114.6923
   818.7500   2000.0000   2000.0000     21.3353    123.9761
   819.0000   2000.0000   2000.0000     20.1929    134.7435
   819.2500   2000.0000   2000.0000     19.2286    139.6756
   819.5000   2000.0000   2000.0000     18.3996    145.2378
   819.7500   2000.0000   2000.0000     17.7010    149.0190
   820.0000   2000.0000   2000.0000     17.1493    156.0881
   820.2500   2000.0000   2000.0000     16.7617    161.4791
   820.5000   2000.0000   2000.0000     16.5407    168.9742
   820.7500   2000.0000   2000.0000     16.4719    172.6807
   821.0000   2000.0000   2000.0000     16.5321    175.5416
   821.2500   2000.0000   2000.0000     16.7010    175.4933
   821.5000   2000.0000   2000.0000     16.9686    172.2878
   821.7500   2000.0000   2000.0000     17.3331    168.0069
   822.0000   2000.0000   2000.0000     17.7932    158.8116
   822.2500   2000.0000   2000.0000     18.3438    151.5790
   822.5000   2000.0000   2000.0000     18.9822    140.9327
   822.7500   2000.0000   2000.0000     19.7178    134.8702
   823.0000   2000.0000   2000.0000     20.5736    127.6923
   823.2500   2000.0000   2000.0000     21.5723    123.7798
   823.5000   2000.0000   2000.0000     22.7154    118.5072
   823.7500   2000.0000   2000.0000     23.9715    115.4141
   824.0000   2000.0000   2000.0000     25.2809    111.9602
   824.2500   2000.0000   2000.0000     26.5756    110.5762
   824.5000   2000.0000   2000.0000     27.8041    109.4488
   824.7500   2000.0000   2000.0000     28.9427    108.9825
   825.0000   2000.0000   2000.0000     29.9836    108.5115
   825.2500   2000.0000   2000.0000     30.9068    108.5159
   825.5000   2000.0000   2000.0000     31.6640    109.5843
   825.7500   2000.0000   2000.0000     32.2002    111.2661
   826.0000   2000.0000   2000.0000     32.4948    114.8625
   826.2500   2000.0000   2000.0000     32.5770    117.1961
   826.5000   2000.0000   2000.0000     32.4968    119.1897
   826.7500   2000.0000   2000.0000     32.2823    119.2725
   827.0000   2000.0000   2000.0000     31.9344    118.3264
   827.2500   2000.0000   2000.0000     31.4621    117.6890
   827.5000   2000.0000   2000.0000     30.9209    117.4885
   827.7500   2000.0000   2000.0000     30.4088    118.0600
   828.0000   2000.0000   2000.0000     30.0229    120.3416
   828.2500   2000.0000   2000.0000     29.8079    122.9449
