~Version Information
VERS.                      2.0: CWLS Log ASCII Standard - VERSION 2.0
WRAP.                       NO: One line per depth step
~Well Information Block
STRT.FT                 6.0000: 
STOP.FT              1577.7500: 
STEP.FT                 0.2500: 
NULL.                -999.2500: 
COMP.          Pioneer Natural Resources: COMPANY
WELL.           Kermit 32-7 Tr: WELL
FLD.           Purgatoire River: FIELD
LOC.           2009' FNL & 2196' FEL: LOCATION
PROV.                 Colorado: PROVINCE
CNTY.               Las Animas: COUNTRY
SRVC.                Patterson: SERVICE COMPANY
DATE.          Wed Jan 18 14:19:39 2006: LOG DATE
UWI.           05 071 08664 00: UNIQUE WELL ID
~Curve Information Block
DEPT.FT            0 000 00 00: Depth
GR.GAPI                       : Gamma Ray
CCL.                          : Casing Collar Locator
TT3.usec                      : CBL 3' Travel Time
AMP3.mV                       : CBL 3' Amplitude
~Parameter Information Block
~A  Depth        GR         CCL         TT3         AMP3    
# ...
  1346.0000    106.0419      0.0000    729.2226      8.8821
  1346.2500    115.4005      0.0000    733.2569      8.7684
  1346.5000    121.0238      0.0000    740.5872      8.6756
  1346.7500    121.6030      0.0000    753.7586      8.6145
  1347.0000    117.9955      0.0000    771.4628      8.5807
  1347.2500    112.0752      0.0000    788.0086      8.5528
  1347.5000    105.4733      0.0000    797.0800      8.5092
  1347.7500     99.2611      0.0000    796.1733      8.4443
  1348.0000     94.3482      0.0000    787.3171      8.3693
  1348.2500     91.7321      0.0000    774.4995      8.2978
  1348.5000     92.0840      0.0000    761.2231      8.2303
  1348.7500     95.0569      0.0000    749.6216      8.1536
  1349.0000     99.2387      0.0000    740.3803      8.0598
  1349.2500    102.9622      0.0000    732.9261      7.9636
  1349.5000    105.0540      0.0000    725.7401      7.8972
  1349.7500    104.7381      0.0000    716.9031      7.8855
  1350.0000    101.2832      0.0000    705.3278      7.9263
  1350.2500     94.4657      0.0000    692.0800      7.9968
  1350.5000     85.5153      0.0000    679.9821      8.0735
  1350.7500     76.9299      0.0000    671.4925      8.1446
  1351.0000     70.7224      0.0000    667.2089      8.2035
  1351.2500     66.8565      0.0000    666.2757      8.2358
  1351.5000     63.6243      0.0000    667.2313      8.2204
  1351.7500     59.4924      0.0000    667.9262      8.1489
  1352.0000     54.4773      0.0000    665.7228      8.0418
  1352.2500     49.8153      0.0000    659.8339      7.9362
  1352.5000     46.4976      0.0000    653.8755      7.8572
  1352.7500     44.3310      0.0000    653.9426      7.8065
  1353.0000     42.4183      0.0000    662.4726      7.7774
  1353.2500     40.2523      0.0000    674.7671      7.7713
  1353.5000     38.1320      0.0000    682.0210      7.7973
  1353.7500     36.7303      0.0000    677.0675      7.8619
  1354.0000     36.5726      0.0000    658.5633      7.9630
  1354.2500     37.8868      0.0000    633.1176      8.0965
  1354.5000     40.5878      0.0000    614.2431      8.2652
  1354.7500     44.1414      0.0000    615.2519      8.4736
  1355.0000     47.6112      0.0000    638.2634      8.7075
  1355.2500     50.2404      0.0000    669.2425      8.9270
  1355.5000     52.1360      0.0000    686.4001      9.0910
  1355.7500     54.3466      0.0000    675.6766      9.1885
  1356.0000     58.2808      0.0000    639.7346      9.2392
  1356.2500     64.9669      0.0000    595.4561      9.2662
  1356.5000     74.5554      0.0000    564.4794      9.2744
  1356.7500     86.1583      0.0000    561.2911      9.2546
  1357.0000     98.0025      0.0000    584.4271      9.2027
  1357.2500    108.0348      0.0000    618.4661      9.1318
  1357.5000    114.9792      0.0000    645.9504      9.0659
  1357.7500    119.1076      0.0000    658.2639      9.0223
  1358.0000    121.8393      0.0000    657.7308      9.0003
  1358.2500    124.5137      0.0000    652.5747      8.9857
  1358.5000    127.5753      0.0000    650.1339      8.9592
  1358.7500    130.7167      0.0000    652.9088      8.9007
  1359.0000    133.4402      0.0000    659.4352      8.7937
  1359.2500    135.3854      0.0000    667.9158      8.6370
  1359.5000    136.4663      0.0000    678.3996      8.4502
  1359.7500    136.9568      0.0000    691.8181      8.2662
  1360.0000    137.0770      0.0000    707.8453      8.1235
  1360.2500    136.0406      0.0000    724.2366      8.0652
  1360.5000    131.8662      0.0000    738.2560      8.1301
  1360.7500    122.8853      0.0000    748.4604      8.3277
  1361.0000    109.6771      0.0000    754.9694      8.6226
  1361.2500     95.3549      0.0000    758.3210      8.9499
  1361.5000     83.8821      0.0000    758.5750      9.2547
  1361.7500     77.8357      0.0000    755.3453      9.5220
  1362.0000     77.2543      0.0000    748.0016      9.7765
  1362.2500     80.3351      0.0000    736.0831     10.0580
  1362.5000     85.1751      0.0000    720.3408     10.3914
  1362.7500     90.7830      0.0000    703.2266     10.7716
  1363.0000     96.6614      0.0000    687.7507     11.1707
  1363.2500    102.1119      0.0000    675.7155     11.5482
  1363.5000    106.3226      0.0000    667.0256     11.8493
  1363.7500    108.7784      0.0000    660.5677     12.0081
  1364.0000    109.3764      0.0000    655.5959     11.9797
  1364.2500    108.4125      0.0000    652.1993     11.7720
  1364.5000    106.5790      0.0000    650.6821     11.4391
  1364.7500    104.8126      0.0000    651.0511     11.0447
  1365.0000    104.1074      0.0000    653.1341     10.6324
  1365.2500    105.3770      0.0000    656.5375     10.2219
  1365.5000    109.0666      0.0000    660.3670      9.8263
  1365.7500    114.4824      0.0000    663.4919      9.4697
  1366.0000    119.5495      0.0000    665.1611      9.1874
  1366.2500    121.7808      0.0000    665.1296      9.0039
  1366.5000    119.9985      0.0000    663.4374      8.9132
  1366.7500    115.1860      0.0000    660.5498      8.8809
  1367.0000    109.5793      0.0000    657.8023      8.8717
  1367.2500    105.0373      0.0000    657.2842      8.8718
  1367.5000    102.2027      0.0000    660.9927      8.8822
  1367.7500    100.7539      0.0000    670.1038      8.8958
  1368.0000     99.9942      0.0000    684.4160      8.8934
  1368.2500     99.2232      0.0000    701.4302      8.8668
  1368.5000     97.9170      0.0000    715.9579      8.8421
  1368.7500     95.8808      0.0000    722.5090      8.8680
  1369.0000     93.3372      0.0000    720.0627      8.9712
  1369.2500     90.9170      0.0000    714.8021      9.1219
  1369.5000     89.4458      0.0000    716.3340      9.2531
  1369.7500     89.2798      0.0000    729.2010      9.3226
  1370.0000     89.5924      0.0000    748.3915      9.3491
  1370.2500     88.7296      0.0000    763.9172      9.3803
  1370.5000     85.6306      0.0000    768.5308      9.4374
  1370.7500     80.7994      0.0000    760.9046      9.5042
  1371.0000     75.9140      0.0000    744.6523      9.5632
  1371.2500     72.6975      0.0000    726.7115      9.6203
  1371.5000     71.9644      0.0000    715.0980      9.6890
  1371.7500     73.3130      0.0000    714.9357      9.7653
  1372.0000     75.5346      0.0000    725.0546      9.8232
  1372.2500     77.4485      0.0000    738.9415      9.8310
  1372.5000     78.5687      0.0000    749.5734      9.7722
  1372.7500     79.1687      0.0000    753.2162      9.6592
  1373.0000     79.7581      0.0000    749.1605      9.5259
  1373.2500     80.6746      0.0000    738.4235      9.4021
  1373.5000     82.3213      0.0000    724.2674      9.2941
  1373.7500     85.4058      0.0000    711.9834      9.1923
  1374.0000     90.4244      0.0000    705.5975      9.0904
  1374.2500     97.0352      0.0000    704.8437      8.9961
  1374.5000    104.3068      0.0000    706.2125      8.9247
  1374.7500    111.4479      0.0000    706.2065      8.8886
  1375.0000    118.0459      0.0000    702.7692      8.8926
  1375.2500    123.8523      0.0000    694.7733      8.9344
  1375.5000    128.6846      0.0000    682.3828      8.9886
  1375.7500    132.4288      0.0000    668.7554      8.9700
  1376.0000    134.9311      0.0000    660.2619      8.7281
  1376.2500    135.8582      0.0000    662.9749      8.1398
  1376.5000    134.7210      0.0000    677.7839      7.2540
  1376.7500    131.1585      0.0000    699.0350      6.3117
  1377.0000    125.4298      0.0000    718.4874      5.5746
  1377.2500    118.8476      0.0000    730.9844      5.1450
  1377.5000    113.4269      0.0000    736.8892      4.9610
  1377.7500    110.6417     -3.0000    739.8789      4.9172
  1378.0000    110.6307     -3.0000    742.6054      4.9563
  1378.2500    112.7867      0.0000    743.9147      5.0904
  1378.5000    116.5362      0.0000    739.8337      5.3848
  1378.7500    121.0731      0.0000    727.5028      5.8995
  1379.0000    125.0676      0.0000    708.5110      6.5972
  1379.2500    127.5452      0.0000    688.3535      7.3232
