~Version Information
VERS.                      2.0: CWLS Log ASCII Standard - VERSION 2.0
WRAP.                       NO: One line per depth step
~Well Information Block
STRT.FT                -7.7500: 
STOP.FT              1793.5000: 
STEP.FT                 0.2500: 
NULL.                -999.2500: 
COMP.          Pioneer Natural Resources: COMPANY
WELL.           Loews 41-32 Tr: WELL
FLD.           Purgatorie River: FIELD
LOC.           706' FNL & 224' FEL--: LOCATION
CNTY.               Las Animas: COUNTY
SRVC.          Patterson Wireline: SERVICE COMPANY
DATE.          Fri Feb 24 11:31:48 2006: LOG DATE
UWI.           05 071 08690 00: UNIQUE WELL ID
STAT.                       CO: STATE
~Curve Information Block
DEPT.FT            0 000 00 00: Depth
CCL.                          : Casing Collar Locator
TT3.usec                      : CBL 3' Travel Time
AMP3.mV                       : CBL 3' Amplitude
GR.GAPI                       : Gamma Ray
~Parameter Information Block
~A  Depth       CCL         TT3         AMP3         GR     
# ...
   360.7500      0.0000    658.1934     13.8170     48.7551
   361.0000      0.0000    614.9936     13.6296     47.8349
   361.2500      0.0000    575.7125     13.2067     47.1525
   361.5000      0.0000    556.0901     12.4806     46.7344
   361.7500      0.0000    567.1583     11.5463     46.7224
   362.0000      0.0000    605.8851     10.6589     47.1204
   362.2500      0.0000    655.8612     10.0627     47.5215
   362.5000      0.0000    699.2512      9.8211     47.2119
   362.7500      0.0000    727.4814      9.8173     45.8099
   363.0000      0.0000    741.7256      9.8878     43.7414
   363.2500     -2.0000    746.8504      9.9410     41.8932
   363.5000      0.0000    746.3190      9.9827     40.9632
   363.7500      0.0000    740.8425     10.0803     41.2721
   364.0000      0.0000    729.2602     10.3176     42.8482
   364.2500      0.0000    710.4141     10.7503     45.3473
   364.5000      0.0000    685.2417     11.3599     48.0109
   364.7500      0.0000    657.5430     12.0493     49.9828
   365.0000      0.0000    632.8372     12.7057     50.8191
   365.2500      0.0000    617.3059     13.2548     50.7798
   365.5000      0.0000    616.4598     13.6525     50.7421
   365.7500      0.0000    631.0476     13.8731     51.7263
   366.0000      0.0000    654.1971     13.9338     54.0748
   366.2500      0.0000    675.7755     13.8984     56.8323
   366.5000      0.0000    689.8236     13.8358     58.2405
   366.7500      0.0000    696.6047     13.7852     57.2280
   367.0000      0.0000    699.1956     13.7588     54.3367
   367.2500      0.0000    700.1575     13.7586     51.0471
   367.5000      0.0000    700.8412     13.7840     48.4480
   367.7500      0.0000    702.0554     13.8299     46.7278
   368.0000      0.0000    704.6259     13.8837     45.6724
   368.2500      0.0000    709.3341     13.9304     45.2619
   368.5000      0.0000    716.3531     13.9653     45.7268
   368.7500      0.0000    724.9991     13.9959     47.1661
   369.0000      0.0000    734.2435     14.0323     49.2401
   369.2500      0.0000    743.3863     14.0811     51.3195
   369.5000      0.0000    751.5929     14.1480     53.0226
   369.7500      0.0000    756.2358     14.2389     54.5729
   370.0000      0.0000    751.2977     14.3541     56.4606
   370.2500      0.0000    727.7222     14.4882     58.6924
   370.5000      0.0000    677.7619     14.6378     60.5805
   370.7500      0.0000    602.7102     14.8030     61.4992
   371.0000      0.0000    517.0253     14.9800     61.7305
   371.2500      0.0000    441.8725     15.1574     62.2731
   371.5000      0.0000    392.6693     15.3230     63.7920
   371.7500      0.0000    373.3016     15.4648     65.9273
   372.0000      0.0000    379.6021     15.5675     67.6255
   372.2500      0.0000    402.6988     15.6170     68.0558
   372.5000      0.0000    428.3003     15.6137     67.2796
   372.7500      0.0000    440.4268     15.5769     65.9891
   373.0000      0.0000    433.3876     15.5282     64.5166
   373.2500      0.0000    419.9058     15.4686     62.3846
   373.5000      0.0000    423.8608     15.3696     59.1374
   373.7500      0.0000    463.5345     15.1892     55.3845
   374.0000      0.0000    538.9449     14.9040     52.6134
   374.2500      0.0000    631.2716     14.5325     51.9285
   374.5000      0.0000    714.7951     14.1261     53.1457
   374.7500      0.0000    772.7089     13.7381     55.0910
   375.0000      0.0000    803.6851     13.4003     56.5548
   375.2500      0.0000    816.0431     13.1245     56.9278
   375.5000      0.0000    818.7147     12.9161     56.2745
   375.7500      0.0000    817.3812     12.7804     55.2774
   376.0000      0.0000    815.2425     12.7171     55.0418
   376.2500      0.0000    814.2949     12.7090     56.4062
   376.5000      0.0000    815.1801     12.7222     59.3740
   376.7500      0.0000    816.8068     12.7254     63.5815
   377.0000      0.0000    816.9911     12.7115     69.0625
   377.2500      0.0000    813.9446     12.6938     75.8610
   377.5000      0.0000    807.7268     12.6835     82.8579
   377.7500      0.0000    800.7820     12.6778     87.7760
   378.0000      0.0000    796.3179     12.6724     88.8981
   378.2500      0.0000    795.0179     12.6784     86.6591
   378.5000      0.0000    793.9108     12.7176     83.3400
   378.7500      0.0000    789.6632     12.8014     81.4126
   379.0000      0.0000    782.3499     12.9149     82.3177
   379.2500      0.0000    774.6158     13.0248     86.1841
   379.5000      0.0000    767.8152     13.1013     91.6966
   379.7500      0.0000    760.8008     13.1342     96.3545
   380.0000      0.0000    752.4572     13.1302     98.0179
   380.2500      0.0000    743.8093     13.1019     96.5929
   380.5000      0.0000    737.2964     13.0613     93.7118
   380.7500      0.0000    734.8795     13.0237     91.0370
   381.0000      0.0000    736.7995     13.0109     89.5372
   381.2500      0.0000    741.4090     13.0409     89.8232
   381.5000      0.0000    746.0031     13.1109     92.0461
   381.7500      0.0000    748.3084     13.1963     95.4916
   382.0000      0.0000    747.7281     13.2719     98.9286
   382.2500      0.0000    745.3480     13.3303    101.4252
   382.5000      0.0000    742.7485     13.3754    102.6196
   382.7500      0.0000    740.8315     13.4026    102.4620
   383.0000      0.0000    739.6482     13.3982    100.9858
   383.2500      0.0000    738.9072     13.3554     98.3178
   383.5000      0.0000    738.3718     13.2857     94.7890
   383.7500      0.0000    737.9202     13.2133     90.9808
   384.0000      0.0000    737.5009     13.1618     87.6404
   384.2500      0.0000    737.1223     13.1450     85.5655
   384.5000      0.0000    736.8358     13.1611     85.4307
   384.7500      0.0000    736.7164     13.1909     87.2999
   385.0000      0.0000    736.8900     13.2032     90.0013
   385.2500      0.0000    737.6378     13.1695     91.3587
   385.5000      0.0000    739.4105     13.0784     89.6930
   385.7500      0.0000    742.5778     12.9428     85.3179
   386.0000      0.0000    747.0859     12.7941     80.4023
   386.2500      0.0000    752.4286     12.6641     77.1924
   386.5000      0.0000    757.9488     12.5691     76.3335
   386.7500      0.0000    763.0376     12.5085     76.9073
   387.0000      0.0000    767.1597     12.4733     77.8572
   387.2500      0.0000    770.0110     12.4520     79.0102
   387.5000      0.0000    771.7190     12.4286     80.5624
   387.7500      0.0000    772.7373     12.3823     81.9174
   388.0000      0.0000    773.5107     12.2961     81.5900
   388.2500      0.0000    774.2529     12.1715     78.4660
   388.5000      0.0000    774.9482     12.0387     72.9614
   388.7500      0.0000    775.4802     11.9475     66.8096
   389.0000      0.0000    775.7664     11.9363     61.7898
   389.2500      0.0000    775.8317     12.0001     58.6854
   389.5000      0.0000    775.7798     12.0941     57.1636
   389.7500      0.0000    775.6792     12.1714     56.1918
   390.0000      0.0000    775.4031     12.2172     54.6403
   390.2500      0.0000    774.4753     12.2486     52.0318
   390.5000      0.0000    772.0746     12.2905     48.9524
   390.7500      0.0000    767.4382     12.3555     46.5662
   391.0000      0.0000    760.6143     12.4403     45.6780
   391.2500      0.0000    752.8695     12.5319     46.3855
   391.5000      0.0000    746.0548     12.6153     48.3998
   391.7500      0.0000    741.3805     12.6812     51.1507
   392.0000      0.0000    738.8402     12.7296     53.5695
   392.2500      0.0000    737.6879     12.7670     54.4415
   392.5000      0.0000    737.1979     12.8011     53.4136
   392.7500      0.0000    736.9884     12.8395     51.4227
   393.0000      0.0000    736.9255     12.8886     49.9210
   393.2500      0.0000    736.9131     12.9485     49.8578
   393.5000      0.0000    736.7248     13.0094     51.3355
   393.7500      0.0000    735.8799     13.0567     53.7115
   394.0000      0.0000    733.6389     13.0813     55.8911
