~Version Information
VERS.                      2.0: CWLS Log ASCII Standard - VERSION 2.0
WRAP.                       NO: One line per depth step
~Well Information Block
STRT.FT               480.0000: 
STOP.FT              1817.0000: 
STEP.FT                 0.1000: 
NULL.                -999.2500: 
COMP.          Pioneer Natural Resources: COMPANY
WELL.           Bobsy 34-11 Tr: WELL
FLD.           Purgatoire River: FIELD
LOC.           514' FSL & 1784' FEL: LOCATION
PROV.                 Colorado: PROVINCE
CNTY.               Las Animas: COUNTRY
SRVC.                Patterson: SERVICE COMPANY
DATE.          Tue Jul 19 10:30:09 2005: LOG DATE
UWI.           05 071 08438 00: UNIQUE WELL ID
~Curve Information Block
DEPT.FT            0 000 00 00: Depth
DCAL.in                       : CDL Caliper
DPOR.pu                       : CDL Density Porosity
GR.GAPI                       : Gamma Ray
NPOR.pu                       : Neutron Porosity
RHOB.g/cc                     : CDL Bulk Density
RHOC.g/cc                     : CDL Density Correction
~Parameter Information Block
~A  Depth       DCAL        DPOR         GR         NPOR        RHOB        RHOC    
# ...
  1276.8000      8.0934      4.0864    171.1100     28.3906      2.5826      0.0708
  1276.9000      8.0934      5.3061    168.4979     28.2112      2.5624      0.0641
  1277.0000      8.1185      6.2524    160.5399     28.7265      2.5468     -0.0248
  1277.1000      8.1185      5.4191    154.4509     29.2708      2.5606      0.0208
  1277.2000      8.1185      3.3854    152.5813     28.2764      2.5941      0.0544
  1277.3000      8.1262      1.2639    150.7610     26.7757      2.6291      0.0584
  1277.4000      8.1262     -1.3281    147.3128     26.7763      2.6719      0.0703
  1277.5000      8.1279     -4.7187    145.8134     28.3616      2.7279      0.1303
  1277.6000      8.1279     -7.5677    145.8498     29.7855      2.7749      0.1611
  1277.7000      8.1279     -8.0701    144.0212     29.6621      2.7832      0.1362
  1277.8000      8.1281     -6.1683    140.6964     28.6142      2.7518      0.0719
  1277.9000      8.1281     -3.3469    140.1201     27.0434      2.7052      0.0557
  1278.0000      8.0974     -0.5615    143.5421     25.7936      2.6593      0.0683
  1278.1000      8.0974      2.1081    146.6789     25.7303      2.6152      0.0216
  1278.2000      8.0974      4.6480    146.2924     26.5148      2.5733     -0.0007
  1278.3000      8.0918      6.9286    145.7542     27.5978      2.5357     -0.0428
  1278.4000      8.0918      8.6793    148.7599     28.3349      2.5068     -0.0479
  1278.5000      8.1219      9.2969    152.9442     27.9629      2.4966     -0.0564
  1278.6000      8.1219      8.4316    152.7520     27.7514      2.5109     -0.0458
  1278.7000      8.1219      7.0896    147.9205     28.8750      2.5330      0.0108
  1278.8000      8.1245      6.7712    142.1126     29.5623      2.5383      0.0343
  1278.9000      8.1245      7.4633    139.1637     27.6507      2.5269      0.0100
  1279.0000      8.1154      7.9271    143.4097     25.6839      2.5192     -0.0281
  1279.1000      8.1154      7.3990    149.8229     26.1575      2.5279      0.0285
  1279.2000      8.1154      6.0439    148.1319     28.7678      2.5503      0.0277
  1279.3000      8.1100      4.3971    140.5999     30.2675      2.5774      0.1001
  1279.4000      8.1100      2.8064    138.1718     28.7747      2.6037      0.0821
  1279.5000      8.1087      1.6297    143.9483     27.4717      2.6231      0.1043
  1279.6000      8.1087      1.6527    152.4294     27.9148      2.6227      0.1299
  1279.7000      8.1087      2.5352    157.1301     28.4106      2.6082      0.0588
  1279.8000      8.0745      3.4942    155.6216     27.6810      2.5923      0.0959
  1279.9000      8.0745      5.1360    152.7848     27.3937      2.5653      0.0740
  1280.0000      8.0563      7.5208    154.1264     28.2829      2.5259      0.0155
  1280.1000      8.0563      8.7602    157.7238     29.0129      2.5055     -0.0368
  1280.2000      8.0563      7.6632    158.7001     28.7325      2.5236     -0.0121
  1280.3000      8.0531      5.5231    156.2553     27.9085      2.5589      0.0784
  1280.4000      8.0531      3.8493    153.7711     27.0296      2.5865      0.0514
  1280.5000      8.0487      2.7951    152.9997     27.0697      2.6039      0.1019
  1280.6000      8.0487      2.4783    156.1454     28.2104      2.6091      0.0818
  1280.7000      8.0487      3.7768    163.3088     28.3940      2.5877      0.1263
  1280.8000      8.0177      6.8823    167.1355     27.1063      2.5364      0.0481
  1280.9000      8.0177     10.0123    165.2393     27.0904      2.4848     -0.0122
  1281.0000      8.0359     11.6145    160.8989     29.1379      2.4584      0.0149
  1281.1000      8.0359     11.3931    158.4369     30.6968      2.4620     -0.0235
  1281.2000      8.0359      9.9446    163.6487     29.7378      2.4859      0.0716
  1281.3000      8.0441      8.9557    176.1486     27.7770      2.5022      0.0606
  1281.4000      8.0441      9.4168    185.6642     26.4071      2.4946      0.0464
  1281.5000      8.0887     10.7085    184.7764     26.9712      2.4733      0.0878
  1281.6000      8.0887     11.5710    176.5909     29.7762      2.4591      0.1203
  1281.7000      8.0887     10.8269    168.4541     31.7503      2.4714      0.1643
  1281.8000      8.0791      8.8030    163.1184     29.8859      2.5048      0.2372
  1281.9000      8.0791      6.8942    158.9269     27.7663      2.5362      0.2091
  1282.0000      7.9537      5.3009    158.7879     27.7442      2.5625      0.1952
  1282.1000      7.9537      3.6862    163.8811     28.8759      2.5892      0.2065
  1282.2000      7.9537      2.4408    167.5386     29.7546      2.6097      0.2157
  1282.3000      7.9463      2.0461    167.4621     29.8942      2.6162      0.1781
  1282.4000      7.9463      2.2683    163.8141     29.0000      2.6126      0.1628
  1282.5000      8.0086      2.5866    156.6576     27.6685      2.6073      0.1118
  1282.6000      8.0086      3.2089    151.6425     26.6626      2.5971      0.1135
  1282.7000      8.0086      4.3452    150.8513     26.1671      2.5783      0.1046
  1282.8000      8.0053      5.1864    149.2253     26.7967      2.5644      0.0603
  1282.9000      8.0053      4.9675    144.7000     28.5464      2.5680      0.0831
  1283.0000      8.0020      4.0565    141.4350     29.5727      2.5831      0.0714
  1283.1000      8.0020      3.4512    140.3329     28.7542      2.5931      0.1341
  1283.2000      8.0020      4.0876    138.7442     27.4917      2.5826      0.1480
  1283.3000      8.0285      5.5009    142.8492     26.6901      2.5592      0.0612
  1283.4000      8.0285      5.5871    155.6999     25.5893      2.5578      0.0405
  1283.5000      8.0214      3.6279    165.2152     24.0620      2.5901      0.0963
  1283.6000      8.0214      1.0719    164.9506     23.7228      2.6323      0.1219
  1283.7000      8.0214     -0.7254    161.4190     25.2721      2.6620      0.1392
  1283.8000      8.0136     -1.3828    157.9317     27.3536      2.6728      0.1104
  1283.9000      8.0136     -1.3296    153.1893     28.5921      2.6719      0.0744
  1284.0000      8.0250     -0.9186    147.6676     28.3281      2.6652      0.1007
  1284.1000      8.0250     -0.0597    144.0597     26.4765      2.6510      0.0702
  1284.2000      8.0250      1.0361    143.1353     25.3368      2.6329      0.0315
  1284.3000      8.0150      1.9912    143.6231     26.2814      2.6171      0.0483
  1284.4000      8.0150      2.5989    141.2316     28.0169      2.6071      0.0432
  1284.5000      8.0351      2.6623    136.4641     28.1499      2.6061      0.0082
  1284.6000      8.0351      2.4129    138.1547     27.1342      2.6102      0.0436
  1284.7000      8.0351      2.4234    146.0828     26.4448      2.6100      0.0301
  1284.8000      8.0379      2.1809    151.1302     26.4490      2.6140     -0.0282
  1284.9000      8.0379      1.2787    150.0218     26.8937      2.6289      0.0457
  1285.0000      8.0577      0.9964    144.0251     27.5392      2.6336      0.0840
  1285.1000      8.0577      1.8803    136.0751     27.7780      2.6190      0.0326
  1285.2000      8.0577      2.6063    131.6610     26.7539      2.6070      0.0625
  1285.3000      8.0708      2.5212    132.9165     25.8087      2.6084      0.1056
  1285.4000      8.0708      2.2602    135.5927     26.0434      2.6127      0.0463
  1285.5000      8.0666      2.0582    133.6218     26.2876      2.6160      0.0743
  1285.6000      8.0666      1.6556    127.8325     25.6155      2.6227      0.0876
  1285.7000      8.0666      1.2007    125.3484     25.3786      2.6302      0.0785
  1285.8000      8.0336      1.4778    127.0059     26.6406      2.6256      0.0997
  1285.9000      8.0336      2.7414    128.3577     27.9475      2.6048      0.0991
  1286.0000      8.0237      3.9825    128.5103     27.0960      2.5843      0.0570
  1286.1000      8.0237      4.4491    130.8922     25.8591      2.5766      0.0008
  1286.2000      8.0237      4.5456    135.3148     26.1463      2.5750      0.0597
  1286.3000      8.0294      4.4643    136.6525     26.7512      2.5763      0.0142
