~Version Information
VERS.                      2.0: CWLS Log ASCII Standard - VERSION 2.0
WRAP.                       NO: One line per depth step
~Well Information Block
STRT.FT                -7.5000: 
STOP.FT               988.5000: 
STEP.FT                 0.2500: 
NULL.                -999.2500: 
COMP.          Pioneer Natural Resources: COMPANY
WELL.          Stags Leap 13-30: WELL
FLD.           Purgatorie River: FIELD
LOC.           1813' FSL & 117' FWL--: LOCATION
PROV.                       CO: PROVINCE
CNTY.               Las Animas: COUNTRY
SRVC.          Patterson Wireline: SERVICE COMPANY
DATE.          Tue Dec 13 11:29:26 2005: LOG DATE
UWI.           05 071 08595 00: UNIQUE WELL ID
~Curve Information Block
DEPT.FT            0 000 00 00: Depth
CCL.                          : Casing Collar Locator
TT3.usec                      : CBL 3' Travel Time
AMP3.mV                       : CBL 3' Amplitude
GR.GAPI                       : Gamma Ray
~Parameter Information Block
~A  Depth       CCL         TT3         AMP3         GR     
# ...
   562.0000      0.0000    874.6865      9.1874     81.4959
   562.2500      0.0000    840.4104      8.9007     73.3602
   562.5000      0.0000    803.4241      8.4686     68.4823
   562.7500      0.0000    779.6787      7.9996     65.5085
   563.0000      0.0000    782.1147      7.6212     63.2509
   563.2500      0.0000    813.6290      7.3614     60.7661
   563.5000      0.0000    864.3847      7.1657     57.2930
   563.7500      0.0000    916.5657      7.0083     52.5728
   564.0000      0.0000    955.3300      6.9223     47.3578
   564.2500      0.0000    977.4760      6.9324     43.3318
   564.5000     -2.0000    987.3487      7.0185     42.1405
   564.7500      0.0000    984.1202      7.1445     44.4484
   565.0000      0.0000    958.2515      7.3043     49.9343
   565.2500      0.0000    904.0871      7.5497     57.7980
   565.5000      0.0000    832.9962      7.9611     66.9426
   565.7500      0.0000    770.5040      8.5450     75.9342
   566.0000      0.0000    739.4670      9.1579     83.2840
   566.2500      0.0000    744.5280      9.5955     88.1185
   566.5000      0.0000    771.2811      9.7714     90.8337
   566.7500      0.0000    799.9560      9.7682     93.1335
   567.0000      0.0000    819.1118      9.7237     97.0933
   567.2500      0.0000    827.8657      9.7164    103.7670
   567.5000      0.0000    829.9560      9.7499    112.7175
   567.7500      0.0000    828.9208      9.7981    123.0329
   568.0000      0.0000    827.1862      9.8444    134.3674
   568.2500      0.0000    826.4850      9.8900    146.3161
   568.5000      0.0000    827.5294      9.9418    157.1098
   568.7500      0.0000    829.6780      9.9976    163.9845
   569.0000      0.0000    831.4396     10.0405    165.1181
   569.2500      0.0000    831.5386     10.0489    160.5554
   569.5000      0.0000    829.5166     10.0188    151.2509
   569.7500      0.0000    825.7117      9.9776    138.3294
   570.0000      0.0000    820.9467      9.9693    123.7816
   570.2500      0.0000    816.2921     10.0227    110.9779
   570.5000      0.0000    813.0642     10.1330    103.4268
   570.7500      0.0000    812.6088     10.2709    102.7590
   571.0000      0.0000    815.4335     10.4059    107.9587
   571.2500      0.0000    820.4740     10.5251    116.3699
   571.5000      0.0000    825.6605     10.6309    125.2823
   571.7500      0.0000    829.3700     10.7250    132.9050
   572.0000      0.0000    831.2614     10.8006    138.4726
   572.2500      0.0000    831.9260     10.8527    141.8412
   572.5000      0.0000    832.0821     10.8915    143.2796
   572.7500      0.0000    832.0068     10.9364    143.6635
   573.0000      0.0000    831.2853     10.9940    144.3175
   573.2500      0.0000    828.7405     11.0459    145.9951
   573.5000      0.0000    822.8108     11.0621    148.0000
   573.7500      0.0000    812.8589     11.0282    148.5132
   574.0000      0.0000    800.7592     10.9533    145.9826
   574.2500      0.0000    790.5986     10.8517    140.6006
   574.5000      0.0000    785.7012     10.7307    134.8231
   574.7500      0.0000    785.9691     10.6013    132.1422
   575.0000      0.0000    788.6387     10.4917    134.6203
   575.2500      0.0000    791.1072     10.4374    141.3875
   575.5000      0.0000    792.4480     10.4592    149.7452
   575.7500      0.0000    792.9024     10.5544    157.5680
   576.0000      0.0000    792.9200     10.7009    164.2795
   576.2500      0.0000    792.8044     10.8614    169.8673
   576.5000      0.0000    792.8473     10.9891    173.6889
   576.7500      0.0000    793.5369     11.0412    174.6017
   577.0000      0.0000    795.5497     10.9934    172.1504
   577.2500      0.0000    799.2255     10.8463    167.5168
   577.5000      0.0000    803.7166     10.6309    163.1748
   577.7500      0.0000    806.7867     10.4125    161.1340
   578.0000      0.0000    806.0393     10.2729    161.2122
   578.2500      0.0000    800.6725     10.2640    161.2718
   578.5000      0.0000    792.1072     10.3729    159.4423
   578.7500      0.0000    783.2644     10.5370    156.0635
   579.0000      0.0000    777.2942     10.6918    153.3448
   579.2500      0.0000    776.0681     10.8001    153.0595
   579.5000      0.0000    779.0443     10.8509    154.6912
   579.7500      0.0000    783.7687     10.8498    155.9915
   580.0000      0.0000    787.8073     10.8056    155.1827
   580.2500      0.0000    790.1465     10.7231    152.4435
   580.5000      0.0000    791.0291     10.6196    149.2901
   580.7500      0.0000    791.1371     10.5534    146.6585
   581.0000      0.0000    791.1548     10.6186    143.5881
   581.2500      0.0000    791.7562     10.8919    137.8826
   581.5000      0.0000    793.2163     11.3856    128.1748
   581.7500      0.0000    793.8930     12.0518    115.2164
   582.0000      0.0000    787.6964     12.8196    101.2068
   582.2500      0.0000    763.2837     13.6257     88.4725
   582.5000      0.0000    709.3054     14.4236     78.8672
   582.7500      0.0000    625.0752     15.1835     73.5816
   583.0000      0.0000    526.5905     15.8914     72.8515
   583.2500      0.0000    438.3561     16.5530     75.9749
   583.5000      0.0000    377.1643     17.1915     81.9024
   583.7500      0.0000    344.0908     17.8331     89.7408
   584.0000      0.0000    330.0138     18.4883     98.5412
   584.2500      0.0000    325.1489     19.1353    106.8973
   584.5000      0.0000    323.6524     19.7076    113.2727
   584.7500      0.0000    323.2156     20.0978    116.8437
   585.0000      0.0000    323.4357     20.1994    117.6678
   585.2500      0.0000    325.0959     19.9624    116.1330
   585.5000      0.0000    330.5511     19.4192    112.8874
   585.7500      0.0000    344.3396     18.6602    109.1953
   586.0000      0.0000    372.4030     17.7901    106.3967
   586.2500      0.0000    419.0497     16.8964    104.5763
   586.5000      0.0000    483.1532     16.0380    102.3175
   586.7500      0.0000    556.9488     15.2500     98.2887
   587.0000      0.0000    629.1702     14.5578     92.8544
   587.2500      0.0000    690.3264     13.9838     87.7915
   587.5000      0.0000    735.9269     13.5357     84.6196
   587.7500      0.0000    766.0178     13.1877     83.5042
   588.0000      0.0000    783.2275     12.8845     83.5453
   588.2500      0.0000    791.2567     12.5755     83.7415
   588.5000      0.0000    793.2532     12.2495     83.7727
   588.7500      0.0000    790.2364     11.9327     84.0702
   589.0000      0.0000    781.5999     11.6466     85.1894
   589.2500      0.0000    767.8962     11.3771     87.2695
   589.5000      0.0000    752.9141     11.0916     90.1854
   589.7500      0.0000    742.5034     10.7815     93.8810
   590.0000      0.0000    741.3865     10.4805     98.1737
   590.2500      0.0000    750.6005     10.2376    102.3777
   590.5000      0.0000    766.8883     10.0770    105.5284
   590.7500      0.0000    784.2434      9.9862    107.0961
   591.0000      0.0000    796.9180      9.9432    107.4294
   591.2500      0.0000    802.0883      9.9475    107.3744
   591.5000      0.0000    800.4655     10.0122    107.4030
   591.7500      0.0000    794.7765     10.1310    107.4099
   592.0000      0.0000    787.7274     10.2686    107.5995
   592.2500      0.0000    780.9929     10.3867    109.1273
   592.5000      0.0000    775.2947     10.4698    113.0732
   592.7500      0.0000    770.9500     10.5314    118.7556
   593.0000      0.0000    768.5939     10.6056    123.8046
   593.2500      0.0000    769.2985     10.7259    126.2256
   593.5000      0.0000    773.3782     10.9007    125.9784
   593.7500      0.0000    779.3051     11.1040    124.2973
   594.0000      0.0000    784.5599     11.2903    121.8892
   594.2500      0.0000    787.3347     11.4160    118.3201
   594.5000      0.0000    786.8021     11.4485    113.1459
   594.7500      0.0000    782.2183     11.3664    107.0211
   595.0000      0.0000    772.9803     11.1651    101.1211
   595.2500      0.0000    760.3929     10.8711     95.7074
