~Version Information
VERS.                      2.0: CWLS Log ASCII Standard - VERSION 2.0
WRAP.                       NO: One line per depth step
~Well Information Block
STRT.FT                -6.7500: 
STOP.FT              2256.0000: 
STEP.FT                 0.2500: 
NULL.                -999.2500: 
COMP.          Pioneer Natural Resources: COMPANY
WELL.               Relay 12-7: WELL
FLD.           Purgatorie River: FIELD
LOC.           1999' FNL & 848' FWL--: LOCATION
PROV.                       CO: PROVINCE
CNTY.               Las Animas: COUNTRY
SRVC.          Patterson Wireline: SERVICE COMPANY
DATE.          Thu Dec 22 09:06:31 2005: LOG DATE
UWI.           05 071 08453 00: UNIQUE WELL ID
~Curve Information Block
DEPT.FT            0 000 00 00: Depth
CCL.                          : Casing Collar Locator
TT3.usec                      : CBL 3' Travel Time
AMP3.mV                       : CBL 3' Amplitude
GR.GAPI                       : Gamma Ray
~Parameter Information Block
~A  Depth       CCL         TT3         AMP3         GR     
# ...
  1634.7500      0.0000    726.4417      6.4961     95.8177
  1635.0000      0.0000    718.2214      6.5076     98.7597
  1635.2500      0.0000    696.6698      6.5258    102.5288
  1635.5000      0.0000    655.5322      6.5399    105.2186
  1635.7500      0.0000    596.0675      6.5578    106.4348
  1636.0000      0.0000    529.7457      6.5971    106.9705
  1636.2500      0.0000    472.0714      6.6614    107.5797
  1636.5000      0.0000    432.7384      6.7315    108.6444
  1636.7500      0.0000    411.6141      6.7817    110.4639
  1637.0000      0.0000    402.6193      6.8023    113.0653
  1637.2500      0.0000    399.5251      6.8067    115.9141
  1637.5000      0.0000    398.6320      6.8192    118.2901
  1637.7500      0.0000    398.5363      6.8570    119.9092
  1638.0000      0.0000    399.1900      6.9220    120.9502
  1638.2500      0.0000    401.2576      7.0047    121.4543
  1638.5000      0.0000    405.4689      7.0932    120.8740
  1638.7500      0.0000    411.8046      7.1773    118.6550
  1639.0000      0.0000    419.0407      7.2489    115.5112
  1639.2500      0.0000    425.3434      7.3015    113.3823
  1639.5000      0.0000    429.4684      7.3324    113.3061
  1639.7500      0.0000    431.3344      7.3438    113.9263
  1640.0000      0.0000    431.5092      7.3411    113.1078
  1640.2500      0.0000    430.3017      7.3297    110.6840
  1640.5000      0.0000    427.3553      7.3150    108.6378
  1640.7500      0.0000    422.0913      7.3030    108.6135
  1641.0000      0.0000    414.6591      7.2987    110.0165
  1641.2500      0.0000    406.4194      7.3009    110.9267
  1641.5000      0.0000    399.2137      7.3033    110.5826
  1641.7500      0.0000    393.9631      7.3025    110.3174
  1642.0000      0.0000    390.0211      7.3050    111.6827
  1642.2500      0.0000    385.9185      7.3225    114.4384
  1642.5000      0.0000    380.7881      7.3654    117.1815
  1642.7500      0.0000    375.2385      7.4404    119.2024
  1643.0000      0.0000    370.9976      7.5518    120.6759
  1643.2500      0.0000    369.7430      7.6997    121.4610
  1643.5000      0.0000    372.1049      7.8793    120.7589
  1643.7500      0.0000    377.3794      8.0835    118.1924
  1644.0000      0.0000    383.9596      8.3056    114.9023
  1644.2500      0.0000    390.4776      8.5388    113.0742
  1644.5000      0.0000    397.3578      8.7750    113.9613
  1644.7500      0.0000    407.7654      9.0029    116.4703
  1645.0000      0.0000    426.6172      9.2037    118.1166
  1645.2500      0.0000    456.7622      9.3429    117.4338
  1645.5000      0.0000    494.6270      9.3692    115.2787
  1645.7500      0.0000    531.1539      9.2465    113.8743
  1646.0000      0.0000    559.4662      9.0016    114.6893
  1646.2500      0.0000    580.0600      8.7207    117.0659
  1646.5000      0.0000    595.2282      8.4632    118.8532
  1646.7500      0.0000    600.4712      8.1988    118.3920
  1647.0000      0.0000    586.5404      7.8723    115.5932
  1647.2500      0.0000    550.6126      7.4985    111.1975
  1647.5000      0.0000    502.3796      7.1447    105.8150
  1647.7500      0.0000    457.7562      6.8486    100.2243
  1648.0000      2.0000    427.6291      6.5981     96.0893
  1648.2500      0.0000    412.9738      6.3740     95.4574
  1648.5000      0.0000    408.5577      6.1862     99.2692
  1648.7500      0.0000    408.8788      6.0759    106.5602
  1649.0000      0.0000    410.9702      6.0754    115.3097
  1649.2500      0.0000    413.9323      6.1476    124.0504
  1649.5000      0.0000    417.4301      6.1874    132.4879
  1649.7500      0.0000    420.6731      6.1226    140.6250
  1650.0000      0.0000    422.5381      5.9943    147.7822
  1650.2500      0.0000    422.6378      5.9103    152.7597
  1650.5000      0.0000    421.9740      5.9363    154.8292
  1650.7500      0.0000    422.0940      6.0517    154.3725
  1651.0000      0.0000    423.5810      6.1846    152.5531
  1651.2500      0.0000    425.7638      6.2620    150.3135
  1651.5000      0.0000    427.8042      6.2397    147.7283
  1651.7500      0.0000    429.7156      6.1119    144.6070
  1652.0000      0.0000    432.5134      5.9100    141.6397
  1652.2500      0.0000    438.0212      5.6925    140.5827
  1652.5000      0.0000    448.0977      5.5273    143.3037
  1652.7500      0.0000    462.4137      5.4674    150.5984
  1653.0000      0.0000    476.3325      5.5279    161.2930
  1653.2500      0.0000    482.9564      5.6789    172.1566
  1653.5000      0.0000    479.5016      5.8597    179.4853
  1653.7500      0.0000    471.1740      6.0065    181.7397
  1654.0000      0.0000    467.7791      6.0770    180.6059
  1654.2500      0.0000    477.1303      6.0585    179.0349
  1654.5000      0.0000    500.4444      5.9629    178.2619
  1654.7500      0.0000    530.2523      5.8225    176.9571
  1655.0000      0.0000    552.3979      5.6860    173.1287
  1655.2500      0.0000    554.6788      5.6070    166.5584
  1655.5000      0.0000    536.3022      5.6199    159.6599
  1655.7500      0.0000    507.5247      5.7186    156.1499
  1656.0000      0.0000    479.9043      5.8589    158.0864
  1656.2500      0.0000    458.8563      5.9858    163.5327
  1656.5000      0.0000    444.4642      6.0628    167.8329
  1656.7500      0.0000    435.6102      6.0803    168.0347
  1657.0000      0.0000    431.7954      6.0439    165.6821
  1657.2500      0.0000    432.5400      5.9660    164.8567
  1657.5000      0.0000    436.4600      5.8662    168.0416
  1657.7500      0.0000    441.0592      5.7741    174.2894
  1658.0000      0.0000    443.4698      5.7219    180.6829
  1658.2500      0.0000    441.8098      5.7315    184.7791
  1658.5000      0.0000    436.2570      5.8012    185.8378
  1658.7500      0.0000    429.0451      5.9037    184.4548
  1659.0000      0.0000    423.2068      5.9999    181.4405
  1659.2500      0.0000    420.7384      6.0626    177.1098
  1659.5000      0.0000    421.4009      6.0916    171.6515
  1659.7500      0.0000    423.1760      6.1069    165.9351
  1660.0000      0.0000    424.1586      6.1275    161.4926
  1660.2500      0.0000    424.1484      6.1549    159.2705
  1660.5000      0.0000    424.2233      6.1758    158.4711
  1660.7500      0.0000    424.9194      6.1804    157.0062
  1661.0000      0.0000    425.3026      6.1757    153.1663
  1661.2500      0.0000    423.8301      6.1820    146.7019
  1661.5000      0.0000    419.8765      6.2167    138.6785
  1661.7500      0.0000    414.6320      6.2777    131.0848
  1662.0000      0.0000    410.6872      6.3406    126.4241
  1662.2500      0.0000    410.2284      6.3753    126.4203
  1662.5000      0.0000    413.2303      6.3733    130.4913
  1662.7500      0.0000    417.6444      6.3584    136.2015
  1663.0000      0.0000    421.4203      6.3624    141.4531
  1663.2500      0.0000    424.0266      6.3889    145.5091
  1663.5000      0.0000    426.1271      6.4073    147.9696
  1663.7500      0.0000    428.3838      6.3840    148.1409
  1664.0000      0.0000    430.8210      6.3131    146.2677
  1664.2500      0.0000    433.0564      6.2164    144.4988
  1664.5000      0.0000    434.8300      6.1184    145.4732
  1664.7500      0.0000    436.2821      6.0292    150.0748
  1665.0000      0.0000    438.0584      5.9468    157.2339
  1665.2500      0.0000    441.4784      5.8699    165.4293
  1665.5000      0.0000    448.7276      5.8051    173.2310
  1665.7500      0.0000    461.9424      5.7658    178.5924
  1666.0000      0.0000    480.1945      5.7630    179.2970
  1666.2500      0.0000    496.7324      5.7975    174.9533
  1666.5000      0.0000    501.9083      5.8569    167.8173
  1666.7500      0.0000    491.8458      5.9209    161.0959
  1667.0000      0.0000    473.4651      5.9706    156.7702
  1667.2500      0.0000    459.2094      5.9954    155.1044
  1667.5000      0.0000    458.4457      5.9923    155.3854
  1667.7500      0.0000    474.8369      5.9607    156.5904
  1668.0000      0.0000    507.8161      5.8982    157.9848
