~Version Information
VERS.                      2.0: CWLS Log ASCII Standard - VERSION 2.0
WRAP.                       NO: One line per depth step
~Well Information Block
STRT.FT                 0.0000: 
STOP.FT               878.7500: 
STEP.FT                 0.2500: 
NULL.                -999.2500: 
COMP.          Pioneer Natural Resources: COMPANY
WELL.          Screamin 12-29 Tr: WELL
FLD.           Purgatoire River: FIELD
LOC.           1979' FNL & 532' FWL--: LOCATION
CNTY.               Las Animas: COUNTY
SRVC.                Patterson: SERVICE COMPANY
DATE.          Thu Apr 13 22:21:38 2006: LOG DATE
UWI.           05 071 08660 00: UNIQUE WELL ID
STAT.                 Colorado: STATE
~Curve Information Block
DEPT.FT            0 000 00 00: Depth
GR.GAPI                       : Gamma Ray
CCL.                          : Casing Collar Locator
TT3.usec                      : CBL 3' Travel Time
AMP3.mV                       : CBL 3' Amplitude
~Parameter Information Block
~A  Depth        GR         CCL         TT3         AMP3    
# ...
   234.5000     99.5427      0.0000    678.7769      6.8861
   234.7500     97.8786      0.0000    683.0534      6.9518
   235.0000     95.1340      0.0000    686.6183      7.0299
   235.2500     94.2886      0.0000    686.9594      7.0638
   235.5000     95.9826      0.0000    685.5255      7.0882
   235.7500     98.9419      0.0000    684.3058      7.0938
   236.0000    103.7680      0.0000    683.7311      7.1048
   236.2500    105.6735      0.0000    684.5685      7.1201
   236.5000    105.9893      0.0000    686.9758      7.1481
   236.7500    105.4550      0.0000    688.5872      7.1615
   237.0000    105.2085      0.0000    690.1318      7.1729
   237.2500    105.5794      0.0000    690.5095      7.1843
   237.5000    106.2137      0.0000    690.4488      7.2196
   237.7500    106.3238      0.0000    690.2596      7.2511
   238.0000    106.1446      0.0000    690.1185      7.2914
   238.2500    106.1164      0.0000    690.2469      7.3051
   238.5000    106.2037      0.0000    690.8430      7.3042
   238.7500    105.7596      0.0000    691.4503      7.2944
   239.0000    103.1844      0.0000    692.3904      7.2783
   239.2500    100.1430      0.0000    692.8127      7.2730
   239.5000     94.9397      0.0000    692.8730      7.2773
   239.7500     92.1647      0.0000    692.5425      7.2855
   240.0000     90.4818      0.0000    691.7659      7.2945
   240.2500     91.3873      0.0000    691.2619      7.2898
   240.5000     95.8451      0.0000    690.7564      7.2550
   240.7500    100.5234      0.0000    690.6197      7.2123
   241.0000    108.1909      0.0000    690.5938      7.1316
   241.2500    111.9881      0.0000    690.4998      7.0805
   241.5000    113.4844      0.0000    689.6196      7.0290
   241.7500    111.6966      0.0000    688.0020      7.0174
   242.0000    106.4527      0.0000    683.1010      7.0307
   242.2500    102.2668      0.0000    678.0393      7.0523
   242.5000     96.3901      0.0000    668.9210      7.0860
   242.7500     93.4438      0.0000    663.2490      7.1009
   243.0000     90.9202      0.0000    657.9000      7.1074
   243.2500     90.1799      0.0000    657.3477      7.1045
   243.5000     89.8324      0.0000    661.1238      7.0991
   243.7500     90.2488      0.0000    665.8500      7.0964
   244.0000     92.7037      0.0000    673.3475      7.0824
   244.2500     95.6352      0.0000    676.5829      7.0562
   244.5000    100.6899      0.0000    676.4672      6.9920
   244.7500    103.5638      0.0000    673.2173      6.9515
   245.0000    106.5488      0.0000    666.4246      6.9374
   245.2500    107.7839      0.0000    662.9435      6.9673
   245.5000    108.7531      0.0000    662.2717      7.0399
   245.7500    108.9844      0.0000    665.2285      7.0797
   246.0000    109.0235      0.0000    673.0080      7.1014
   246.2500    108.6624      0.0000    678.6504      7.0933
   246.5000    106.7570      0.0000    685.2372      7.0679
   246.7500    104.6245      0.0000    687.7985      7.0543
   247.0000    101.6275      0.0000    689.3590      7.0487
   247.2500    100.6576      0.0000    689.4959      7.0539
   247.5000    100.7086      0.0000    689.2407      7.0686
   247.7500    100.9038      0.0000    689.0665      7.0790
   248.0000     99.8827      0.0000    689.0013      7.0929
   248.2500     98.0001      0.0000    689.0711      7.1025
   248.5000     94.3075      0.0000    689.1144      7.1218
   248.7500     92.3764      0.0000    688.8276      7.1387
   249.0000     91.5772      0.0000    687.1509      7.1657
   249.2500     92.2511      0.0000    684.6537      7.1800
   249.5000     93.7182      0.0000    678.3599      7.1923
   249.7500     94.4122      0.0000    672.9063      7.1971
   250.0000     94.7216      0.0000    664.8929      7.2059
   250.2500     94.2169      0.0000    661.0023      7.2129
   250.5000     91.6030      0.0000    658.4606      7.2170
   250.7500     88.4537      0.0000    658.6346      7.2105
   251.0000     82.8561      0.0000    659.9722      7.1840
   251.2500     79.9073      0.0000    660.4716      7.1589
   251.5000     78.3423      0.0000    659.6235      7.1217
   251.7500     79.1210      0.0000    658.1877      7.1021
   252.0000     81.4576      0.0000    655.8997      7.0777
   252.2500     82.7771      0.0000    654.9233      7.0587
   252.5000     83.2632      0.0000    654.6794      7.0213
   252.7500     82.3264      0.0000    655.1170      6.9946
   253.0000     79.1386      0.0000    655.8188      6.9627
   253.2500     76.1408      0.0000    655.8454      6.9504
   253.5000     71.1626      0.0000    655.1388      6.9519
   253.7500     68.1304      0.0000    654.7103      6.9733
   254.0000     65.0353      0.0000    655.8572      7.0418
   254.2500     64.2244      0.0000    659.0115      7.1033
   254.5000     64.4904      0.0000    668.8060      7.1931
   254.7500     65.0429      0.0000    678.6719      7.2437
   255.0000     65.3534      0.0000    696.9742      7.3054
   255.2500     64.9514      0.0000    710.6357      7.3262
   255.5000     64.3258      0.0000    732.2672      7.2782
   255.7500     65.1612      0.0000    746.0103      7.1698
   256.0000     70.2566      0.0000    760.7606      6.9104
   256.2500     76.2920      0.0000    764.1057      6.7126
   256.5000     87.5648      0.0000    759.1520      6.4388
   256.7500     95.2293      0.0000    751.3591      6.2835
   257.0000    105.1896      0.0000    736.9952      6.0828
   257.2500    110.2100      0.0000    726.8125      5.9615
   257.5000    115.1372      0.0000    711.5222      5.7850
   257.7500    117.0277      0.0000    702.6429      5.6687
   258.0000    118.3981      0.0000    695.6122      5.5037
   258.2500    118.2207      0.0000    697.1573      5.4059
   258.5000    115.0561      0.0000    707.7158      5.2825
   258.7500    110.2521      0.0000    716.8380      5.2170
   259.0000     99.4886     -1.6431    727.5021      5.1427
   259.2500     91.5738     -1.3159    731.5270      5.1038
   259.5000     82.1339     -2.0000    735.5922      5.0468
   259.7500     78.8475      0.0000    738.3989      5.0076
   260.0000     78.6730      0.0000    740.9023      4.9687
   260.2500     80.7439      0.0000    739.2113      4.9841
   260.5000     84.6733      0.0000    731.5606      5.1171
   260.7500     86.7792      0.0000    725.8454      5.2803
   261.0000     88.7142      0.0000    721.2738      5.5699
   261.2500     89.4269      0.0000    721.3824      5.7377
   261.5000     90.0448      0.0000    723.3566      5.9020
   261.7500     90.1636      0.0000    723.9826      5.9621
   262.0000     89.4554      0.0000    722.8972      6.0151
   262.2500     87.8813      0.0000    721.4725      6.0371
   262.5000     82.9030      0.0000    719.9647      6.0489
   262.7500     77.8044      0.0000    720.2339      6.0416
   263.0000     69.3227      0.0000    723.8497      6.0184
   263.2500     64.9819      0.0000    728.9813      6.0031
   263.5000     62.9735      0.0000    740.1776      5.9840
   263.7500     64.8164      0.0000    747.9417      5.9685
   264.0000     70.4649      0.0000    754.4536      5.9338
   264.2500     74.5414      0.0000    753.0052      5.9070
   264.5000     79.3099      0.0000    743.3109      5.8770
   264.7500     81.5931      0.0000    735.0744      5.8695
   265.0000     84.9441      0.0000    725.3464      5.8732
   265.2500     87.8764      0.0000    721.7256      5.8801
   265.5000     93.3801      0.0000    719.6225      5.8929
   265.7500     96.9385      0.0000    719.4017      5.9055
   266.0000    100.3781      0.0000    719.6024      5.9374
   266.2500    101.3471      0.0000    719.7469      5.9678
   266.5000    102.7148      0.0000    719.7761      6.0203
   266.7500    104.7094      0.0000    719.6575      6.0543
   267.0000    109.1694      0.0000    719.3682      6.0937
   267.2500    111.7048      0.0000    719.1923      6.1050
   267.5000    111.9758      0.0000    719.1034      6.0890
   267.7500    109.1875      0.0000    719.2152      6.0559
