~Version Information
VERS.                      2.0: CWLS Log ASCII Standard - VERSION 2.0
WRAP.                       NO: One line per depth step
~Well Information Block
STRT.FT               235.0000: 
STOP.FT              1271.0000: 
STEP.FT                 0.1000: 
NULL.                -999.2500: 
COMP.          Pioneer Natural Resources: COMPANY
WELL.              Julie 11-30: WELL
FLD.           Purgatoire River: FIELD
LOC.           672' FNL & 1052' FWL: LOCATION
CNTY.               Las Animas: COUNTY
SRVC.                Patterson: SERVICE COMPANY
DATE.          Fri Apr 14 07:21:24 2006: LOG DATE
UWI.           05 071 08724 00: UNIQUE WELL ID
STAT.                 Colorado: STATE
~Curve Information Block
DEPT.FT            0 000 00 00: Depth
DCAL.in                       : CDL Caliper
RHOB.g/cc                     : CDL Bulk Density
RHOC.g/cc                     : CDL Density Correction
DPOR.pu                       : CDL Density Porosity
GR.GAPI                       : Gamma Ray
NPOR.pu                       : Neutron Porosity
~Parameter Information Block
~A  Depth       DCAL        RHOB        RHOC        DPOR         GR         NPOR    
# ...
   571.0000      8.1783      2.5429      0.1461      6.4916     85.5393     21.6057
   571.1000      8.1783      2.5524      0.1059      5.9142     84.7443     22.7449
   571.2000      8.1783      2.5510      0.0898      5.9985     83.0485     23.7193
   571.3000      8.1775      2.5497      0.0498      6.0758     81.8350     23.7199
   571.4000      8.1775      2.5641      0.1255      5.2058     80.0359     23.3670
   571.5000      8.1779      2.5925      0.1467      3.4873     81.4257     23.6439
   571.6000      8.1779      2.6225      0.1539      1.6681     85.5961     24.1833
   571.7000      8.1779      2.6357      0.2029      0.8660     87.1031     24.3058
   571.8000      8.1832      2.6244      0.1583      1.5533     84.2365     24.1732
   571.9000      8.1832      2.6085      0.1078      2.5178     79.8857     24.0927
   572.0000      8.1857      2.5961      0.1108      3.2661     80.0221     23.9280
   572.1000      8.1857      2.5714      0.0507      4.7664     87.5004     23.4914
   572.2000      8.1857      2.5391     -0.0042      6.7201     98.1601     23.2563
   572.3000      8.1808      2.5231      0.0196      7.6919    104.6693     23.5576
   572.4000      8.1808      2.5289      0.0274      7.3404    104.2507     23.9251
   572.5000      8.1798      2.5438      0.0651      6.4380    100.4149     23.9613
   572.6000      8.1798      2.5560      0.0486      5.6979    100.2707     23.9672
   572.7000      8.1798      2.5616      0.0653      5.3606    104.8646     24.3716
   572.8000      8.1818      2.5648      0.0713      5.1661    109.1699     25.0552
   572.9000      8.1818      2.5769      0.0922      4.4298    113.6664     25.6908
   573.0000      8.1847      2.6010      0.0719      2.9722    118.1247     26.1827
   573.1000      8.1847      2.6152      0.1168      2.1075    119.1359     26.3705
   573.2000      8.1847      2.6078      0.0383      2.5604    117.2667     26.4696
   573.3000      8.1970      2.6062      0.0019      2.6570    115.1605     26.9316
   573.4000      8.1970      2.6232      0.0903      1.6252    114.5102     27.2836
   573.5000      8.1944      2.6322      0.0491      1.0799    114.3851     26.8075
   573.6000      8.1944      2.6206      0.0435      1.7793    115.2052     25.8828
   573.7000      8.1944      2.6009      0.0118      2.9765    120.6337     25.0375
   573.8000      8.1960      2.5839      0.0035      4.0031    127.1239     24.3576
   573.9000      8.1960      2.5723      0.0262      4.7071    129.0709     24.1338
   574.0000      8.1939      2.5675     -0.0494      5.0005    128.3418     24.7143
   574.1000      8.1939      2.5682     -0.0001      4.9580    126.8059     25.7370
   574.2000      8.1939      2.5635      0.0289      5.2410    124.2555     26.1550
   574.3000      8.1947      2.5477     -0.0020      6.1989    122.4111     25.9555
   574.4000      8.1947      2.5349     -0.0544      6.9745    121.2969     26.4730
   574.5000      8.1970      2.5401      0.0158      6.6633    118.0805     28.0743
   574.6000      8.1970      2.5521      0.0132      5.9357    113.6978     29.7018
   574.7000      8.1970      2.5556     -0.0027      5.7212    109.9843     30.7116
   574.8000      8.1964      2.5547     -0.0170      5.7730    106.7148     31.2847
   574.9000      8.1964      2.5626     -0.0251      5.2952    105.2118     31.7818
   575.0000      8.1961      2.5806      0.0260      4.2090    104.8229     32.1513
   575.1000      8.1961      2.5973      0.0414      3.1913    103.1091     32.1113
   575.2000      8.1961      2.6127      0.0123      2.2589     99.8374     31.9251
   575.3000      8.1972      2.6350      0.0295      0.9084     95.9275     31.7521
   575.4000      8.1972      2.6446      0.1280      0.3266     94.1783     31.3737
   575.5000      8.1840      2.6307      0.0058      1.1683     94.5274     30.8836
   575.6000      8.1840      2.6209      0.0742      1.7656     94.2220     30.3470
   575.7000      8.1840      2.6121      0.1273      2.2947     96.3075     29.7661
   575.8000      8.1634      2.5883      0.0566      3.7381    102.4928     29.2299
   575.9000      8.1634      2.5681      0.0252      4.9628    106.9064     28.5918
   576.0000      8.1863      2.5653      0.0730      5.1325    107.4472     27.8390
   576.1000      8.1863      2.5669      0.0913      5.0376    107.5786     27.1699
   576.2000      8.1863      2.5601      0.0560      5.4479    108.3169     26.3794
   576.3000      8.1767      2.5458      0.0173      6.3165    108.2634     25.4861
   576.4000      8.1767      2.5294      0.0453      7.3061    105.6937     24.9656
   576.5000      8.1823      2.5099      0.0492      8.4928    101.7359     24.9231
   576.6000      8.1823      2.4960      0.0126      9.3309     99.6315     24.9718
   576.7000      8.1823      2.5019      0.0756      8.9770     98.5369     24.7366
   576.8000      8.1889      2.5126      0.0697      8.3252     95.9988     24.3589
   576.9000      8.1889      2.5121      0.0715      8.3587     91.3844     24.2941
   577.0000      8.1844      2.5134     -0.0174      8.2768     86.2464     24.6373
   577.1000      8.1844      2.5255      0.0799      7.5427     85.0094     25.1640
   577.2000      8.1844      2.5354      0.0584      6.9471     90.5365     25.3978
   577.3000      8.1853      2.5415      0.0658      6.5731    100.4160     25.0597
   577.4000      8.1853      2.5563      0.0822      5.6809    106.4745     24.6149
   577.5000      8.1869      2.5892      0.1052      3.6877    104.2714     24.3406
   577.6000      8.1869      2.6324      0.1371      1.0637     99.2944     23.9897
   577.7000      8.1869      2.6562      0.1427     -0.3774     96.0175     23.5283
   577.8000      8.1887      2.6501      0.1463     -0.0060     92.5804     23.2434
   577.9000      8.1887      2.6372      0.1263      0.7770     88.0724     23.3903
   578.0000      8.1888      2.6331      0.1536      1.0235     85.2910     23.8157
   578.1000      8.1888      2.6354      0.1470      0.8861     85.4839     24.3324
   578.2000      8.1888      2.6464      0.1216      0.2181     86.8589     24.8877
   578.3000      8.1918      2.6637      0.1384     -0.8320     87.6585     25.1744
   578.4000      8.1918      2.6659      0.1602     -0.9610     85.3628     25.1582
   578.5000      8.1893      2.6444      0.1490      0.3375     80.5782     25.1413
   578.6000      8.1893      2.6161      0.0752      2.0543     77.7404     25.2684
   578.7000      8.1893      2.5928      0.0258      3.4660     78.7159     25.5459
   578.8000      8.1885      2.5748      0.0227      4.5596     82.1839     25.8635
   578.9000      8.1885      2.5624     -0.0063      5.3092     85.9949     26.0338
   579.0000      8.1895      2.5566      0.0163      5.6603     87.9859     26.0435
   579.1000      8.1895      2.5583      0.0113      5.5597     87.1318     25.9738
   579.2000      8.1895      2.5688     -0.0109      4.9188     83.5372     25.6030
   579.3000      8.1863      2.5822      0.0039      4.1112     79.5146     24.8864
   579.4000      8.1863      2.5837      0.0722      4.0152     78.1754     24.4779
   579.5000      8.1823      2.5769     -0.0099      4.4291     80.3243     24.6951
   579.6000      8.1823      2.5802     -0.0069      4.2320     85.1247     25.2533
   579.7000      8.1823      2.5837      0.0497      4.0179     94.0903     25.5924
   579.8000      8.1833      2.5666      0.0136      5.0560    106.7415     25.1947
   579.9000      8.1833      2.5396      0.0100      6.6925    116.9304     24.3242
   580.0000      8.1686      2.5264      0.0092      7.4923    122.7416     23.8162
   580.1000      8.1686      2.5242      0.0553      7.6244    127.7995     24.0432
   580.2000      8.1686      2.5194      0.0433      7.9121    133.0211     24.4203
   580.3000      8.1760      2.5215      0.0478      7.7895    137.8028     24.3726
   580.4000      8.1760      2.5426      0.0112      6.5069    141.6763     24.2394
   580.5000      8.1788      2.5694      0.0564      4.8863    145.7445     24.3898
