~Version Information
 VERS.                                  2.0 : CWLS LAS VERSION
 WRAP.                                   NO : WRAPING MODE
 SWARE .                 MController 2.5.0J : SOFTWARE VERSION
~Well Information
 WELL.                   Stock Canyon 34-33 : WELL
 COMP.   Pioneer Natrural Resources USA Inc : COMPANY
 FLD.                      Purgatoire River : FIELD
 LOC.                 SW/SE SEC33 T31S R65W : LOCATION
 DATE.                             12/04/05 : DATE(S) LOGGED
 SRVC.       Blanco Geological Services LLC : SERVICE COMPANY
 STAT.                             Colorado : STATE
 CNTY.                           Las Animas : COUNTY
 CTRY.                                  USA : COUNTRY
 API.                       05-071-08601-00 : API NUMBER
 STRT.FT                             618.00 : START DEPTH
 STOP.FT                            1661.00 : STOP DEPTH
 STEP.FT                               1.00 : DEPTH INCREMENT
 NULL.                                -9999 : NULL VALUE
~Curve information
 DEPTH.FT                                   :
 ROP.MIN/FT                                 :
 GAS.UNITS                                  :
~ASCII Log data
# ...
      1418.0         0.43         95.9 
      1419.0         0.40         89.0 
      1420.0         0.40         83.5 
      1421.0         0.40         75.7 
      1422.0         0.40         73.6 
      1423.0         0.42         72.6 
      1424.0         0.50         71.9 
      1425.0         0.47         70.3 
      1426.0         0.47         71.7 
      1427.0         0.43         73.9 
      1428.0         0.47         75.0 
      1429.0         0.40         82.5 
      1430.0         0.37         85.6 
      1431.0         0.42         81.7 
      1432.0         0.33         73.9 
      1433.0         0.40         49.4 
      1434.0         0.37         54.9 
      1435.0         0.33         76.5 
      1436.0         2.35        273.1 
      1437.0         0.63        187.0 
      1438.0         0.37        111.9 
      1439.0         0.37        103.8 
      1440.0         0.47         94.8 
      1441.0         0.50         83.5 
      1442.0         0.45         74.4 
      1443.0         0.40         61.8 
      1444.0         0.43         59.1 
      1445.0         0.53         63.1 
      1446.0         0.37         65.5 
      1447.0         0.33         65.6 
      1448.0         0.50         63.3 
      1449.0         0.43         63.6 
      1450.0         0.38         69.3 
      1451.0         0.37         70.5 
      1452.0         0.27         71.0 
      1453.0         0.30         70.6 
      1454.0         0.33         69.8 
      1455.0         0.40         68.6 
      1456.0         0.47         66.1 
      1457.0         0.47         71.5 
      1458.0         0.53         73.4 
      1459.0         0.42         72.5 
      1460.0         0.37         74.9 
      1461.0         0.40         73.7 
      1462.0         0.33         64.9 
      1463.0         0.37         50.5 
      1464.0         0.37         43.1 
      1465.0         0.40         67.8 
      1466.0         2.68        226.2 
      1467.0         0.67        129.7 
      1468.0         0.50        103.9 
      1469.0         0.48         99.0 
      1470.0         0.53         91.6 
      1471.0         0.50         83.3 
      1472.0         0.53         78.0 
      1473.0         0.40         77.9 
      1474.0         0.27         78.1 
      1475.0         0.37         79.9 
      1476.0         0.23         80.4 
      1477.0         0.27         82.8 
      1478.0         0.18         84.3 
      1479.0         0.27         84.5 
      1480.0         0.30         83.5 
      1481.0         0.37         81.6 
      1482.0         0.33         77.7 
      1483.0         0.37         72.2 
      1484.0         0.30         71.4 
      1485.0         0.33         66.5 
      1486.0         0.30         66.5 
      1487.0         0.33         67.3 
      1488.0         0.45         69.9 
      1489.0         0.33         70.7 
      1490.0         0.43         78.6 
      1491.0         0.43         77.6 
      1492.0         0.43         75.0 
      1493.0         0.40         65.3 
      1494.0         0.37         59.1 
      1495.0         0.40         45.6 
      1496.0         2.95        243.7 
      1497.0         0.57        216.4 
      1498.0         0.42        174.4 
      1499.0         0.43        143.8 
      1500.0         0.47        128.7 
      1501.0         0.60        115.2 
      1502.0         0.57        103.3 
      1503.0         0.43         94.3 
      1504.0         0.27         92.1 
      1505.0         0.27         84.2 
      1506.0         0.42         83.3 
      1507.0         0.67         79.0 
      1508.0         0.77         75.1 
      1509.0         0.43         73.0 
      1510.0         0.27         70.0 
      1511.0         0.27         69.7 
      1512.0         0.40         70.0 
      1513.0         0.35         70.2 
      1514.0         0.33         71.7 
      1515.0         0.33         72.1 
      1516.0         0.30         74.0 
      1517.0         0.37         77.4 
      1518.0         0.37         78.7 
      1519.0         0.33         76.8 
      1520.0         0.33         75.0 
      1521.0         0.33         71.8 
      1522.0         0.33         57.8 
      1523.0         0.38         51.2 
      1524.0         0.33         57.3 
      1525.0         0.27         74.0 
      1526.0       263.75       8706.6 
      1527.0         6.83       1948.6 
      1528.0         0.93        105.0 
      1529.0         0.67         76.2 
      1530.0         0.07         74.9 
      1531.0         5.83       1198.6 
      1532.0         0.57        720.9 
      1533.0         0.50        455.9 
      1534.0         0.70        118.3 
      1535.0         0.62         72.3 
      1536.0         0.43         72.5 
      1537.0         0.47         80.2 
      1538.0         0.50         94.9 
      1539.0         0.50         98.4 
      1540.0         0.43         93.9 
      1541.0         0.47         84.2 
      1542.0         0.48         58.3 
      1543.0         0.50         64.2 
      1544.0         0.43         81.6 
      1545.0         0.50         89.9 
      1546.0         0.50         90.8 
      1547.0         0.57         89.1 
      1548.0         0.78         88.1 
      1549.0         0.83         85.9 
      1550.0         0.73         83.1 
      1551.0         0.97         82.5 
      1552.0         0.60         81.2 
      1553.0         0.45         81.2 
      1554.0         0.37         81.7 
      1555.0         0.50         80.8 
      1556.0         0.63         78.5 
      1557.0         0.63         77.2 
      1558.0         0.87         73.9 
      1559.0         0.72         76.2 
      1560.0         0.63         76.9 
      1561.0         3.28        233.2 
      1562.0         0.63        263.0 
      1563.0         0.67        135.1 
      1564.0         0.78         95.9 
      1565.0         0.63         58.4 
      1566.0         0.60         67.4 
      1567.0         0.70         71.0 
      1568.0         1.27         73.9 
      1569.0         1.05         76.8 
      1570.0         0.83         76.2 
      1571.0         0.83         77.0 
      1572.0         1.08         76.7 
      1573.0         1.00         74.5 
      1574.0         0.93         71.8 
      1575.0         1.42         70.5 
      1576.0         0.93         66.8 
      1577.0         0.93         68.9 
      1578.0         1.00         68.9 
      1579.0         1.05         63.4 
      1580.0         1.00         59.3 
      1581.0         0.83         57.2 
      1582.0         0.75         55.8 
      1583.0         1.33         64.6 
      1584.0         2.15         66.6 
      1585.0         1.20         87.3 
      1586.0         0.87         89.8 
      1587.0         0.80         90.2 
      1588.0         0.88         86.4 
      1589.0         0.87         80.8 
      1590.0         0.53         77.3 
      1591.0         3.02        226.3 
      1592.0         0.83        208.2 
      1593.0         0.70         94.5 
      1594.0         0.65         62.8 
      1595.0         0.57         63.9 
      1596.0         0.63         69.6 
      1597.0         0.67         80.6 
      1598.0         0.67         84.2 
      1599.0         0.65         84.7 
      1600.0         0.77         84.5 
      1601.0         0.73         84.4 
      1602.0         0.60         84.7 
      1603.0         0.63         83.9 
      1604.0         0.65         83.0 
      1605.0         0.63         83.2 
      1606.0         0.60         80.9 
      1607.0         0.63         80.0 
      1608.0         0.63         80.1 
      1609.0         0.72         80.1 
      1610.0         0.77         79.1 
      1611.0         0.70         77.4 
      1612.0         0.70         77.1 
      1613.0         0.70         76.2 
      1614.0         0.72         75.7 
      1615.0         0.80         75.1 
      1616.0         0.73         74.2 
      1617.0         0.73         72.5 
