~Version Information
VERS.                      2.0: CWLS Log ASCII Standard - VERSION 2.0
WRAP.                       NO: One line per depth step
~Well Information Block
STRT.FT                -6.2500: 
STOP.FT              2245.0000: 
STEP.FT                 0.0500: 
NULL.                -999.2500: 
COMP.          Pioneer Natural Resources: COMPANY
WELL.          Roadster 41-33 Kv: WELL
FLD.           Purgatoire River: FIELD
LOC.           903' FNL & 248' FEL--: LOCATION
PROV.                 Colorado: PROVINCE
CNTY.               Las Animas: COUNTRY
SRVC.                Patterson: SERVICE COMPANY
DATE.          Tue Jan 17 11:20:00 2006: LOG DATE
UWI.           05 071 08615 00: UNIQUE WELL ID
~Curve Information Block
DEPT.FT            0 000 00 00: Depth
CCL.                          : Casing Collar Locator
TT3.usec                      : CBL 3' Travel Time
AMP3.mV                       : CBL 3' Amplitude
GR.GAPI                       : Gamma Ray
~Parameter Information Block
~A  Depth       CCL         TT3         AMP3         GR     
# ...
   295.2500      0.0000    774.6938     10.1734     31.8850
   295.3000      0.0000    774.6938     10.1734     31.8850
   295.3500      0.0000    774.6938     10.1734     31.8850
   295.4000      0.0000    774.6938     10.1734     31.8850
   295.4500      0.0000    774.6938     10.1734     31.8850
   295.5000      0.0000    770.5914     10.0462     34.9983
   295.5500      0.0000    770.5914     10.0462     34.9983
   295.6000      0.0000    770.5914     10.0462     34.9983
   295.6500      0.0000    770.5914     10.0462     34.9983
   295.7000      0.0000    770.5914     10.0462     34.9983
   295.7500      0.0000    767.2027      9.9287     37.5598
   295.8000      0.0000    767.2027      9.9287     37.5598
   295.8500      0.0000    767.2027      9.9287     37.5598
   295.9000      0.0000    767.2027      9.9287     37.5598
   295.9500      0.0000    767.2027      9.9287     37.5598
   296.0000      0.0000    765.4977      9.8105     39.2852
   296.0500      0.0000    765.4977      9.8105     39.2852
   296.1000      0.0000    765.4977      9.8105     39.2852
   296.1500      0.0000    765.4977      9.8105     39.2852
   296.2000      0.0000    765.4977      9.8105     39.2852
   296.2500      0.0000    764.5113      9.6840     40.2383
   296.3000      0.0000    764.5113      9.6840     40.2383
   296.3500      0.0000    764.5113      9.6840     40.2383
   296.4000      0.0000    764.5113      9.6840     40.2383
   296.4500      0.0000    764.5113      9.6840     40.2383
   296.5000      0.0000    762.6638      9.5397     40.5683
   296.5500      0.0000    762.6638      9.5397     40.5683
   296.6000      0.0000    762.6638      9.5397     40.5683
   296.6500      0.0000    762.6638      9.5397     40.5683
   296.7000      0.0000    762.6638      9.5397     40.5683
   296.7500      0.0000    759.3157      9.3658     40.0375
   296.8000      0.0000    759.3157      9.3658     40.0375
   296.8500      0.0000    759.3157      9.3658     40.0375
   296.9000      0.0000    759.3157      9.3658     40.0375
   296.9500      0.0000    759.3157      9.3658     40.0375
   297.0000      0.0000    754.8924      9.1588     38.1381
   297.0500      0.0000    754.8924      9.1588     38.1381
   297.1000      0.0000    754.8924      9.1588     38.1381
   297.1500      0.0000    754.8924      9.1588     38.1381
   297.2000      0.0000    754.8924      9.1588     38.1381
   297.2500      0.0000    750.2722      8.9354     34.9831
   297.3000      0.0000    750.2722      8.9354     34.9831
   297.3500      0.0000    750.2722      8.9354     34.9831
   297.4000      0.0000    750.2722      8.9354     34.9831
   297.4500      0.0000    750.2722      8.9354     34.9831
   297.5000      0.0000    746.4196      8.7292     31.7636
   297.5500      0.0000    746.4196      8.7292     31.7636
   297.6000      0.0000    746.4196      8.7292     31.7636
   297.6500      0.0000    746.4196      8.7292     31.7636
   297.7000      0.0000    746.4196      8.7292     31.7636
   297.7500      0.0000    744.1652      8.5684     29.7988
   297.8000      0.0000    744.1652      8.5684     29.7988
   297.8500      0.0000    744.1652      8.5684     29.7988
   297.9000      0.0000    744.1652      8.5684     29.7988
   297.9500      0.0000    744.1652      8.5684     29.7988
   298.0000      0.0000    743.8796      8.4556     29.2787
   298.0500      0.0000    743.8796      8.4556     29.2787
   298.1000      0.0000    743.8796      8.4556     29.2787
   298.1500      0.0000    743.8796      8.4556     29.2787
   298.2000      0.0000    743.8796      8.4556     29.2787
   298.2500      0.0000    745.2054      8.3727     29.2484
   298.3000      0.0000    745.2054      8.3727     29.2484
   298.3500      0.0000    745.2054      8.3727     29.2484
   298.4000      0.0000    745.2054      8.3727     29.2484
   298.4500      0.0000    745.2054      8.3727     29.2484
   298.5000      0.0000    747.0237      8.3024     28.6409
   298.5500      0.0000    747.0237      8.3024     28.6409
   298.6000      0.0000    747.0237      8.3024     28.6409
   298.6500      0.0000    747.0237      8.3024     28.6409
   298.7000      0.0000    747.0237      8.3024     28.6409
   298.7500      0.0000    747.9301      8.2427     27.1061
   298.8000      0.0000    747.9301      8.2427     27.1061
   298.8500      0.0000    747.9301      8.2427     27.1061
   298.9000      0.0000    747.9301      8.2427     27.1061
   298.9500      0.0000    747.9301      8.2427     27.1061
   299.0000      0.0000    747.1796      8.2066     25.0983
   299.0500      0.0000    747.1796      8.2066     25.0983
   299.1000      0.0000    747.1796      8.2066     25.0983
   299.1500      0.0000    747.1796      8.2066     25.0983
   299.2000      0.0000    747.1796      8.2066     25.0983
   299.2500      0.0000    745.2306      8.2115     23.4894
   299.3000      0.0000    745.2306      8.2115     23.4894
   299.3500      0.0000    745.2306      8.2115     23.4894
   299.4000      0.0000    745.2306      8.2115     23.4894
   299.4500      0.0000    745.2306      8.2115     23.4894
   299.5000      0.0000    743.2009      8.2635     23.0113
   299.5500      0.0000    743.2009      8.2635     23.0113
   299.6000      0.0000    743.2009      8.2635     23.0113
   299.6500      0.0000    743.2009      8.2635     23.0113
   299.7000      0.0000    743.2009      8.2635     23.0113
   299.7500      0.0000    741.9011      8.3475     23.7995
   299.8000      0.0000    741.9011      8.3475     23.7995
   299.8500      0.0000    741.9011      8.3475     23.7995
   299.9000      0.0000    741.9011      8.3475     23.7995
   299.9500      0.0000    741.9011      8.3475     23.7995
   300.0000      0.0000    741.5247      8.4351     25.3513
   300.0500      0.0000    741.5247      8.4351     25.3513
   300.1000      0.0000    741.5247      8.4351     25.3513
   300.1500      0.0000    741.5247      8.4351     25.3513
   300.2000      0.0000    741.5247      8.4351     25.3513
   300.2500      0.0000    742.0213      8.5032     26.8616
   300.3000      0.0000    742.0213      8.5032     26.8616
   300.3500      0.0000    742.0213      8.5032     26.8616
   300.4000      0.0000    742.0213      8.5032     26.8616
   300.4500      0.0000    742.0213      8.5032     26.8616
   300.5000      0.0000    743.3946      8.5428     27.6065
   300.5500      0.0000    743.3946      8.5428     27.6065
   300.6000      0.0000    743.3946      8.5428     27.6065
   300.6500      0.0000    743.3946      8.5428     27.6065
   300.7000      0.0000    743.3946      8.5428     27.6065
   300.7500      0.0000    745.4816      8.5543     27.2703
   300.8000      0.0000    745.4816      8.5543     27.2703
   300.8500      0.0000    745.4816      8.5543     27.2703
   300.9000      0.0000    745.4816      8.5543     27.2703
   300.9500      0.0000    745.4816      8.5543     27.2703
   301.0000      0.0000    747.5676      8.5421     26.0713
   301.0500      0.0000    747.5676      8.5421     26.0713
   301.1000      0.0000    747.5676      8.5421     26.0713
   301.1500      0.0000    747.5676      8.5421     26.0713
   301.2000      0.0000    747.5676      8.5421     26.0713
   301.2500      0.0000    748.5926      8.5162     24.5525
   301.3000      0.0000    748.5926      8.5162     24.5525
   301.3500      0.0000    748.5926      8.5162     24.5525
   301.4000      0.0000    748.5926      8.5162     24.5525
   301.4500      0.0000    748.5926      8.5162     24.5525
   301.5000      0.0000    748.0054      8.4927     23.3691
   301.5500      0.0000    748.0054      8.4927     23.3691
   301.6000      0.0000    748.0054      8.4927     23.3691
   301.6500      0.0000    748.0054      8.4927     23.3691
   301.7000      0.0000    748.0054      8.4927     23.3691
   301.7500      0.0000    746.3030      8.4891     23.3223
   301.8000      0.0000    746.3030      8.4891     23.3223
   301.8500      0.0000    746.3030      8.4891     23.3223
   301.9000      0.0000    746.3030      8.4891     23.3223
