~Version Information
VERS.                      2.0: CWLS Log ASCII Standard - VERSION 2.0
WRAP.                       NO: One line per depth step
~Well Information Block
STRT.FT                 8.2500: 
STOP.FT              1156.2500: 
STEP.FT                 0.2500: 
NULL.                -999.2500: 
COMP.          Pioneer Natural Resources: COMPANY
WELL.              Davida 34-8: WELL
FLD.           Purgatoire River: FIELD
LOC.           418' FSL & 1923' FEL: LOCATION
CNTY.               Las Animas: COUNTY
SRVC.                Patterson: SERVICE COMPANY
DATE.          Thu Mar 30 09:09:42 2006: LOG DATE
UWI.           05 071 08722 00: UNIQUE WELL ID
STAT.                 Colorado: STATE
~Curve Information Block
DEPT.FT            0 000 00 00: Depth
GR.GAPI                       : Gamma Ray
CCL.                          : Casing Collar Locator
TT3.usec                      : CBL 3' Travel Time
AMP3.mV                       : CBL 3' Amplitude
~Parameter Information Block
~A  Depth        GR         CCL         TT3         AMP3    
# ...
   443.7500    123.9146      0.0000    709.5858      8.1933
   444.0000    126.2590      0.0000    700.9673      8.1182
   444.2500    127.0641      0.0000    692.1876      7.9880
   444.5000    126.0353      0.0000    685.5969      7.8214
   444.7500    124.1625      0.0000    682.2391      7.6407
   445.0000    122.9759      0.0000    679.7035      7.4612
   445.2500    123.5231      0.0000    673.5366      7.2925
   445.5000    126.0217      0.0000    661.3578      7.1490
   445.7500    130.1144      0.0000    645.7728      7.0520
   446.0000    134.9433      0.0000    633.1782      7.0159
   446.2500    138.8792      0.0000    629.4739      7.0359
   446.5000    139.6538      0.0000    636.4032      7.0942
   446.7500    135.5139      0.0000    651.1043      7.1754
   447.0000    126.6511      0.0000    668.4443      7.2745
   447.2500    115.4374      0.0000    683.9333      7.3914
   447.5000    105.1158      0.0000    695.2240      7.5198
   447.7500     98.0223      0.0000    701.7605      7.6409
   448.0000     94.6022      0.0000    703.7429      7.7314
   448.2500     93.7763      0.0000    701.6744      7.7791
   448.5000     94.2078      0.0000    696.6522      7.7929
   448.7500     95.2834      0.0000    690.6125      7.7938
   449.0000     97.0981      0.0000    685.8578      7.7960
   449.2500     99.8522      0.0000    684.1227      7.7959
   449.5000    103.2949      0.0000    685.9597      7.7793
   449.7500    106.5317      0.0000    690.7600      7.7418
   450.0000    108.4980      0.0000    697.2328      7.7004
   450.2500    108.8851      0.0000    704.2505      7.6855
   450.5000    108.4384      0.0000    711.5019      7.7194
   450.7500    108.1768      0.0000    719.0530      7.8051
   451.0000    108.4755      0.0000    726.0358      7.9322
   451.2500    108.9463      0.0000    730.1446      8.0860
   451.5000    108.9666      0.0000    728.8869      8.2494
   451.7500    108.3527      0.0000    721.5060      8.4034
   452.0000    107.8456      0.0000    709.9285      8.5306
   452.2500    108.9053      0.0000    697.9048      8.6206
   452.5000    112.5043      0.0000    688.8572      8.6722
   452.7500    117.9720      0.0000    684.3382      8.6938
   453.0000    123.5192      0.0000    684.5291      8.6974
   453.2500    128.1253      0.0000    689.7766      8.6917
   453.5000    132.4716      0.0000    700.9238      8.6801
   453.7500    137.7809      0.0000    717.7079      8.6649
   454.0000    144.1932      0.0000    736.7183      8.6492
   454.2500    150.6008      0.0000    751.4143      8.6340
   454.5000    155.6207      0.0000    754.9192      8.6174
   454.7500    158.2489      0.0000    744.0392      8.5977
   455.0000    157.9351      0.0000    722.2888      8.5766
   455.2500    154.8147      0.0000    699.9990      8.5584
   455.5000    149.9063      0.0000    689.5062      8.5462
   455.7500    144.4948      0.0000    696.5648      8.5358
   456.0000    139.2992      0.0000    715.1215      8.5107
   456.2500    134.6857      0.0000    731.6097      8.4480
   456.5000    131.4996      0.0000    734.7557      8.3379
   456.7500    131.0828      0.0000    721.7867      8.2032
   457.0000    134.1604      0.0000    698.0295      8.0841
   457.2500    139.7657      0.0000    672.6259      7.9868
   457.5000    145.5382      0.0000    653.3684      7.8641
   457.7500    149.1808      0.0000    643.4506      7.6793
   458.0000    149.6001      0.0000    641.7119      7.4704
   458.2500    147.0477      0.0000    644.7963      7.3189
   458.5000    142.6548      0.0000    649.4517      7.2696
   458.7500    137.6730      3.0000    655.0903      7.3120
   459.0000    132.7355      0.0000    664.9155      7.4221
   459.2500    127.7786      0.0000    682.7964      7.6068
   459.5000    122.5429      0.0000    708.2419      7.9065
   459.7500    116.8717      0.0000    735.3848      8.3351
   460.0000    110.7609      0.0000    756.9668      8.7990
   460.2500    104.8337      0.0000    768.4836      9.1179
   460.5000    100.8766      0.0000    769.1034      9.1826
   460.7500    101.2781      0.0000    760.7028      9.0598
   461.0000    107.4588      0.0000    747.4379      8.8959
   461.2500    118.7301      0.0000    735.4059      8.7630
   461.5000    132.4772      0.0000    730.0086      8.6386
   461.7500    145.3780      0.0000    731.6949      8.4859
   462.0000    154.8462      0.0000    735.0927      8.3078
   462.2500    159.8218      0.0000    733.9998      8.1409
   462.5000    160.6002      0.0000    727.1318      8.0233
   462.7500    158.2794      0.0000    718.1738      7.9695
   463.0000    154.2916      0.0000    711.1909      7.9653
   463.2500    149.9373      0.0000    707.2675      7.9889
   463.5000    146.0175      0.0000    704.8270      8.0288
   463.7500    142.9392      0.0000    701.3841      8.0817
   464.0000    141.0016      0.0000    695.1875      8.1370
   464.2500    140.1170      0.0000    687.1328      8.1765
   464.5000    139.3377      0.0000    681.7474      8.1914
   464.7500    137.4020      0.0000    684.1777      8.1943
   465.0000    133.9597      0.0000    694.4688      8.2064
   465.2500    129.7892      0.0000    706.3325      8.2346
   465.5000    125.7686      0.0000    713.1254      8.2663
   465.7500    122.1010      0.0000    713.6959      8.2820
   466.0000    118.6845      0.0000    711.5302      8.2687
   466.2500    115.8565      0.0000    710.2840      8.2245
   466.5000    114.4453      0.0000    711.2906      8.1559
   466.7500    115.0811      0.0000    713.5043      8.0737
   467.0000    117.5507      0.0000    714.1163      7.9889
   467.2500    120.7903      0.0000    710.0523      7.9100
   467.5000    123.4275      0.0000    700.5475      7.8385
   467.7500    124.5402      0.0000    688.6781      7.7659
   468.0000    124.2152      0.0000    680.1573      7.6814
   468.2500    123.4222      0.0000    680.3160      7.5846
   468.5000    123.2125      0.0000    690.9120      7.4889
   468.7500    123.9142      0.0000    708.1823      7.4102
   469.0000    125.0483      0.0000    723.5123      7.3558
   469.2500    126.0855      0.0000    726.7550      7.3239
   469.5000    127.2258      0.0000    710.8538      7.3073
   469.7500    129.1497      0.0000    676.5531      7.2953
   470.0000    131.9961      0.0000    634.9310      7.2797
   470.2500    134.9491      0.0000    603.9448      7.2625
   470.5000    136.8439      0.0000    598.5691      7.2601
   470.7500    136.8142      0.0000    621.1475      7.2938
   471.0000    134.5506      0.0000    660.2021      7.3753
   471.2500    130.5326      0.0000    698.8281      7.4941
   471.5000    126.0319      0.0000    724.7853      7.6172
   471.7500    122.4218      0.0000    734.0884      7.7034
   472.0000    120.2102      0.0000    728.7999      7.7257
   472.2500    118.7842      0.0000    714.4778      7.6847
   472.5000    117.2012      0.0000    698.1990      7.6021
   472.7500    115.2377      0.0000    685.7961      7.5013
   473.0000    113.5319      0.0000    680.1188      7.3986
   473.2500    112.8388      0.0000    681.9629      7.3059
   473.5000    113.5386      0.0000    691.1542      7.2332
   473.7500    115.8845      0.0000    705.3059      7.1844
   474.0000    120.1751      0.0000    718.9026      7.1531
   474.2500    126.2134      0.0000    726.5306      7.1261
   474.5000    132.8232      0.0000    727.6370      7.0900
   474.7500    138.3852      0.0000    726.2623      7.0379
   475.0000    141.8265      0.0000    725.8885      6.9678
   475.2500    142.8155      0.0000    726.4695      6.8725
   475.5000    141.2365      0.0000    726.7656      6.7329
   475.7500    137.0059      0.0000    727.5800      6.5303
   476.0000    130.4976      0.0000    731.1720      6.2739
   476.2500    122.7841      0.0000    737.6640      6.0113
   476.5000    115.1690      0.0000    743.4125      5.8056
   476.7500    108.5925      0.0000    744.3147      5.6890
   477.0000    103.6247      0.0000    740.4326      5.6357
