~Version Information
VERS.                      2.0: CWLS Log ASCII Standard - VERSION 2.0
WRAP.                       NO: One line per depth step
~Well Information Block
STRT.FT               325.0000: 
STOP.FT              1014.5000: 
STEP.FT                 0.2500: 
NULL.                -999.2500: 
COMP.          Pioneer Natural Resources: COMPANY
WELL.                Doc 34-30: WELL
FLD.           Purgatoire River: FIELD
LOC.           454' FSL & 1386' FEL: LOCATION
CNTY.               Las Animas: COUNTY
SRVC.                Patterson: SERVICE COMPANY
DATE.          Wed Feb 15 20:26:19 2006: LOG DATE
UWI.           05 071 08694 00: UNIQUE WELL ID
STAT.                 Colorado: STATE
~Curve Information Block
DEPT.FT            0 000 00 00: Depth
SN.Ohm-m                      : IEL Short Normal
SP.mV                         : IEL Spontaneous Potential
DIR.Ohm-m                     : IEL Induction Resistivity
GR.GAPI                       : Gamma Ray
~Parameter Information Block
~A  Depth        SN          SP         DIR          GR     
# ...
   425.5000   2000.0000   2000.0000      9.2505    190.1414
   425.7500   2000.0000   2000.0000      9.3220    188.4820
   426.0000   2000.0000   2000.0000      9.4642    184.6183
   426.2500   2000.0000   2000.0000      9.6636    181.4238
   426.5000   2000.0000   2000.0000      9.9072    175.7690
   426.7500   2000.0000   2000.0000     10.1902    171.2434
   427.0000   2000.0000   2000.0000     10.5170    163.0470
   427.2500   2000.0000   2000.0000     10.8922    156.7138
   427.5000   2000.0000   2000.0000     11.3110    146.3071
   427.7500   2000.0000   2000.0000     11.7562    138.8936
   428.0000   2000.0000   2000.0000     12.2044    126.9823
   428.2500   2000.0000   2000.0000     12.6338    118.5431
   428.5000   2000.0000   2000.0000     13.0271    105.7040
   428.7500   2000.0000   2000.0000     13.3681     97.6179
   429.0000   2000.0000   2000.0000     13.6378     87.5348
   429.2500   2000.0000   2000.0000     13.8166     83.0789
   429.5000   2000.0000   2000.0000     13.8928     81.2409
   429.7500   2000.0000   2000.0000     13.8708     83.7508
   430.0000   2000.0000   2000.0000     13.7708     92.9651
   430.2500   2000.0000   2000.0000     13.6191    102.0843
   430.5000   2000.0000   2000.0000     13.4348    118.8010
   430.7500   2000.0000   2000.0000     13.2249    131.2738
   431.0000   2000.0000   2000.0000     12.9875    150.8143
   431.2500   2000.0000   2000.0000     12.7213    163.4324
   431.5000   2000.0000   2000.0000     12.4317    179.3673
   431.7500   2000.0000   2000.0000     12.1309    186.3672
   432.0000   2000.0000   2000.0000     11.8339    189.2770
   432.2500   2000.0000   2000.0000     11.5571    186.0801
   432.5000   2000.0000   2000.0000     11.3182    176.0801
   432.7500   2000.0000   2000.0000     11.1377    168.3477
   433.0000   2000.0000   2000.0000     11.0351    158.8946
   433.2500   2000.0000   2000.0000     11.0240    155.1747
   433.5000   2000.0000   2000.0000     11.1073    153.4426
   433.7500   2000.0000   2000.0000     11.2785    154.1946
   434.0000   2000.0000   2000.0000     11.5268    157.0886
   434.2500   2000.0000   2000.0000     11.8404    159.5739
   434.5000   2000.0000   2000.0000     12.2030    162.2377
   434.7500   2000.0000   2000.0000     12.5869    161.7852
   435.0000   2000.0000   2000.0000     12.9493    156.0284
   435.2500   2000.0000   2000.0000     13.2417    149.0114
   435.5000   2000.0000   2000.0000     13.4288    136.0228
   435.7500   2000.0000   2000.0000     13.5037    127.6080
   436.0000   2000.0000   2000.0000     13.4887    118.2824
   436.2500   2000.0000   2000.0000     13.4194    115.3029
   436.5000   2000.0000   2000.0000     13.3268    116.1272
   436.7500   2000.0000   2000.0000     13.2290    119.8886
   437.0000   2000.0000   2000.0000     13.1342    129.1836
   437.2500   2000.0000   2000.0000     13.0488    136.7838
   437.5000   2000.0000   2000.0000     12.9824    148.1242
   437.7500   2000.0000   2000.0000     12.9465    154.6245
   438.0000   2000.0000   2000.0000     12.9480    162.2132
   438.2500   2000.0000   2000.0000     12.9837    165.9971
   438.5000   2000.0000   2000.0000     13.0393    169.9984
   438.7500   2000.0000   2000.0000     13.0955    171.5530
   439.0000   2000.0000   2000.0000     13.1384    172.4474
   439.2500   2000.0000   2000.0000     13.1656    172.3502
   439.5000   2000.0000   2000.0000     13.1857    171.1723
   439.7500   2000.0000   2000.0000     13.2136    169.3163
   440.0000   2000.0000   2000.0000     13.2657    164.4662
   440.2500   2000.0000   2000.0000     13.3553    160.1492
   440.5000   2000.0000   2000.0000     13.4868    152.9934
   440.7500   2000.0000   2000.0000     13.6511    148.0388
   441.0000   2000.0000   2000.0000     13.8275    140.3947
   441.2500   2000.0000   2000.0000     13.9931    135.3883
   441.5000   2000.0000   2000.0000     14.1334    128.8789
   441.7500   2000.0000   2000.0000     14.2438    125.8133
   442.0000   2000.0000   2000.0000     14.3194    124.4094
   442.2500   2000.0000   2000.0000     14.3427    126.4388
   442.5000   2000.0000   2000.0000     14.2841    134.4804
   442.7500   2000.0000   2000.0000     14.1184    142.3427
   443.0000   2000.0000   2000.0000     13.8427    154.6573
   443.2500   2000.0000   2000.0000     13.4769    161.2786
   443.5000   2000.0000   2000.0000     13.0489    167.4422
   443.7500   2000.0000   2000.0000     12.5816    169.5754
   444.0000   2000.0000   2000.0000     12.0943    171.6135
   444.2500   2000.0000   2000.0000     11.6114    172.8754
   444.5000   2000.0000   2000.0000     11.1637    174.6906
   444.7500   2000.0000   2000.0000     10.7792    175.6294
   445.0000   2000.0000   2000.0000     10.4730    176.5983
   445.2500   2000.0000   2000.0000     10.2442    177.1151
   445.5000   2000.0000   2000.0000     10.0812    177.6123
   445.7500   2000.0000   2000.0000      9.9703    177.4253
   446.0000   2000.0000   2000.0000      9.9012    176.0459
   446.2500   2000.0000   2000.0000      9.8677    174.5674
   446.5000   2000.0000   2000.0000      9.8658    171.7767
   446.7500   2000.0000   2000.0000      9.8925    169.4015
   447.0000   2000.0000   2000.0000      9.9479    164.8582
   447.2500   2000.0000   2000.0000     10.0373    161.3972
   447.5000   2000.0000   2000.0000     10.1700    156.3998
   447.7500   2000.0000   2000.0000     10.3539    153.7596
   448.0000   2000.0000   2000.0000     10.5884    151.6530
   448.2500   2000.0000   2000.0000     10.8622    151.5641
   448.5000   2000.0000   2000.0000     11.1555    152.3070
   448.7500   2000.0000   2000.0000     11.4448    152.2463
   449.0000   2000.0000   2000.0000     11.7068    149.8211
   449.2500   2000.0000   2000.0000     11.9228    146.5518
   449.5000   2000.0000   2000.0000     12.0876    140.1338
   449.7500   2000.0000   2000.0000     12.2152    135.6488
   450.0000   2000.0000   2000.0000     12.3345    129.9862
   450.2500   2000.0000   2000.0000     12.4736    127.6596
   450.5000   2000.0000   2000.0000     12.6473    127.2331
   450.7500   2000.0000   2000.0000     12.8549    129.0982
   451.0000   2000.0000   2000.0000     13.0851    134.5876
   451.2500   2000.0000   2000.0000     13.3215    139.4566
   451.5000   2000.0000   2000.0000     13.5450    147.1340
   451.7500   2000.0000   2000.0000     13.7380    151.3472
   452.0000   2000.0000   2000.0000     13.8925    154.4181
   452.2500   2000.0000   2000.0000     14.0163    153.9486
   452.5000   2000.0000   2000.0000     14.1308    150.5747
   452.7500   2000.0000   2000.0000     14.2605    147.5585
   453.0000   2000.0000   2000.0000     14.4228    143.0183
   453.2500   2000.0000   2000.0000     14.6242    140.2148
   453.5000   2000.0000   2000.0000     14.8627    136.3289
   453.7500   2000.0000   2000.0000     15.1346    133.6911
   454.0000   2000.0000   2000.0000     15.4393    128.8377
   454.2500   2000.0000   2000.0000     15.7789    124.5535
   454.5000   2000.0000   2000.0000     16.1564    116.3538
   454.7500   2000.0000   2000.0000     16.5709    110.0516
   455.0000   2000.0000   2000.0000     17.0164    100.5060
   455.2500   2000.0000   2000.0000     17.4846     94.7709
   455.5000   2000.0000   2000.0000     17.9705     87.9869
   455.7500   2000.0000   2000.0000     18.4716     85.1573
   456.0000   2000.0000   2000.0000     18.9730     84.4106
   456.2500   2000.0000   2000.0000     19.4331     86.6406
   456.5000   2000.0000   2000.0000     19.7941     93.8997
   456.7500   2000.0000   2000.0000     20.0249    100.6597
   457.0000   2000.0000   2000.0000     20.1522    111.6572
   457.2500   2000.0000   2000.0000     20.2362    118.1381
   457.5000   2000.0000   2000.0000     20.3115    124.5214
   457.7500   2000.0000   2000.0000     20.3559    125.9064
   458.0000   2000.0000   2000.0000     20.3076    123.5965
   458.2500   2000.0000   2000.0000     20.1105    119.6294
   458.5000   2000.0000   2000.0000     19.7482    111.7651
   458.7500   2000.0000   2000.0000     19.2486    106.5448
