~Version Information
VERS.                      2.0: CWLS Log ASCII Standard - VERSION 2.0
WRAP.                       NO: One line per depth step
~Well Information Block
STRT.FT                -5.7500: 
STOP.FT              2734.0000: 
STEP.FT                 0.2500: 
NULL.                -999.2500: 
COMP.          Pioneer Natural Resources: COMPANY
WELL.              Loews 41-32: WELL
FLD.           Purgatoire River: FIELD
LOC.           751' FNL & 128' FEL--: LOCATION
CNTY.               Las Animas: COUNTY
SRVC.                         : SERVICE COMPANY
DATE.          Sat Mar 04 08:20:59 2006: LOG DATE
UWI.           05 071 08693 00: UNIQUE WELL ID
STAT.                       CO: STATE
~Curve Information Block
DEPT.FT            0 000 00 00: Depth
GR.GAPI                       : Gamma Ray
CCL.                          : Casing Collar Locator
TT3.usec                      : CBL 3' Travel Time
AMP3.mV                       : CBL 3' Amplitude
~Parameter Information Block
~A  Depth        GR         CCL         TT3         AMP3    
# ...
  2171.7500    113.2894      0.0000    431.3932      4.5034
  2172.0000    112.9755      0.0000    424.7662      4.5208
  2172.2500    111.9267      0.0000    423.6094      4.5230
  2172.5000    110.5315      0.0000    426.1021      4.5291
  2172.7500    108.8878      0.0000    434.1450      4.5424
  2173.0000    107.2024      0.0000    452.6414      4.5574
  2173.2500    106.0313      0.0000    486.3641      4.5706
  2173.5000    106.0353      0.0000    534.6925      4.5836
  2173.7500    107.5998      0.0000    588.7673      4.5954
  2174.0000    110.7616      0.0000    635.5859      4.5990
  2174.2500    115.2699      0.0000    666.0999      4.5871
  2174.5000    120.4092      0.0000    679.3263      4.5593
  2174.7500    124.9291      0.0000    679.8404      4.5236
  2175.0000    127.6090      0.0000    673.2438      4.4934
  2175.2500    128.2224      0.0000    664.0019      4.4841
  2175.5000    127.9227      0.0000    655.7639      4.5056
  2175.7500    128.3465      0.0000    651.8953      4.5544
  2176.0000    130.1500      0.0000    654.4437      4.6126
  2176.2500    132.6085      0.0000    662.3885      4.6564
  2176.5000    134.6878      0.0000    671.8000      4.6681
  2176.7500    136.1177      0.0000    678.5519      4.6420
  2177.0000    137.1582      0.0000    680.8834      4.5831
  2177.2500    137.7389      0.0000    679.6262      4.5017
  2177.5000    137.3112      0.0000    676.9504      4.4125
  2177.7500    135.4548      0.0000    675.2537      4.3365
  2178.0000    132.4746      0.0000    676.3344      4.3026
  2178.2500    129.4666      0.0000    680.5687      4.3432
  2178.5000    127.6402      0.0000    686.6685      4.4729
  2178.7500    127.3242      0.0000    692.5690      4.6627
  2179.0000    127.8091      0.0000    696.8106      4.8432
  2179.2500    128.2541      0.0000    699.1892      4.9482
  2179.5000    128.4340      0.0000    700.3912      4.9579
  2179.7500    128.6219      0.0000    701.3728      4.8996
  2180.0000    129.1949      0.0000    703.1118      4.8202
  2180.2500    130.3432      0.0000    706.4341      4.7624
  2180.5000    131.7947      0.0000    711.2881      4.7490
  2180.7500    132.7649      0.0000    715.9124      4.7720
  2181.0000    132.4151      0.0000    717.4477      4.7982
  2181.2500    130.5302      0.0000    714.2750      4.7935
  2181.5000    127.8670      0.0000    707.7092      4.7388
  2181.7500    125.8754      0.0000    700.9921      4.6291
  2182.0000    125.7729      0.0000    696.7901      4.4717
  2182.2500    127.5617      0.0000    695.6448      4.2897
  2182.5000    129.9599      0.0000    696.1573      4.1167
  2182.7500    131.4115      0.0000    696.1063      3.9851
  2183.0000    131.2459      0.0000    693.6362      3.9237
  2183.2500    129.9843      0.0000    688.2845      3.9600
  2183.5000    128.6520      0.0000    681.5964      4.1074
  2183.7500    127.8186      0.0000    676.3762      4.3426
  2184.0000    127.1988      0.0000    674.5213      4.6062
  2184.2500    126.0801      0.0000    675.5404      4.8319
  2184.5000    124.1552      0.0000    677.4219      4.9788
  2184.7500    121.9994      0.0000    678.4064      5.0420
  2185.0000    120.8403      0.0000    677.4747      5.0415
  2185.2500    121.8215      0.0000    673.5856      5.0049
  2185.5000    125.3278      0.0000    664.4092      4.9541
  2185.7500    130.7303      0.0000    645.4023      4.9012
  2186.0000    136.4764      0.0000    611.4794      4.8517
  2186.2500    140.3469      0.0000    562.2047      4.8067
  2186.5000    140.1415      0.0000    505.5668      4.7645
  2186.7500    134.7758      0.0000    454.0416      4.7216
  2187.0000    124.8522      0.0000    415.7760      4.6744
  2187.2500    112.0700      0.0000    390.7041      4.6184
  2187.5000     98.3452      0.0000    374.5800      4.5519
  2187.7500     85.5178      0.0000    364.2786      4.4814
  2188.0000     75.1340      0.0000    358.9990      4.4252
  2188.2500     67.8295      0.0000    358.6119      4.4059
  2188.5000     63.1031      0.0000    362.2154      4.4336
  2188.7500     60.1010      0.0000    367.9612      4.4936
  2189.0000     58.5259      0.0000    374.0470      4.5502
  2189.2500     58.5003      0.0000    380.1602      4.5665
  2189.5000     59.7040      0.0000    388.1706      4.5287
  2189.7500     61.0937      0.0000    400.8394      4.4537
  2190.0000     61.7066      0.0000    418.3445      4.3746
  2190.2500     61.5331      0.0000    435.3262      4.3161
  2190.5000     61.3537      0.0000    443.2060      4.2818
  2190.7500     61.7642      0.0000    437.6191      4.2626
  2191.0000     62.4689      0.0000    422.7702      4.2516
  2191.2500     62.4772      0.0000    407.1529      4.2519
  2191.5000     60.9967      0.0000    396.3263      4.2712
  2191.7500     58.2049      0.0000    390.7322      4.3144
  2192.0000     55.1934      0.0000    388.3187      4.3811
  2192.2500     53.1700      0.0000    387.2165      4.4672
  2192.5000     52.6597      0.0000    386.4590      4.5660
  2192.7500     53.2875      0.0000    385.6705      4.6689
  2193.0000     54.1500      0.0000    384.7886      4.7671
  2193.2500     54.4642      0.0000    383.9498      4.8514
  2193.5000     54.1437      0.0000    383.4046      4.9110
  2193.7500     53.8564      0.0000    383.2795      4.9379
  2194.0000     54.4767      0.0000    383.4726      4.9364
  2194.2500     56.5958      0.0000    383.9672      4.9249
  2194.5000     60.5729      0.0000    385.5477      4.9231
  2194.7500     66.7258      0.0000    390.3332      4.9328
  2195.0000     75.1501      0.0000    401.8512      4.9270
  2195.2500     85.2328      0.0000    424.3405      4.8609
  2195.5000     95.3747      0.0000    460.0096      4.7116
  2195.7500    103.5886      0.0000    503.9799      4.5220
  2196.0000    108.8432      0.0000    541.9506      4.3974
  2196.2500    111.6506      0.0000    556.9108      4.4335
  2196.5000    112.9845      0.0000    541.5795      4.6412
  2196.7500    113.0067      0.0000    504.2399      4.9454
  2197.0000    111.5772      0.0000    461.9251      5.2503
  2197.2500    109.7809      0.0000    428.6499      5.5002
  2197.5000    109.9610      1.9409    409.5244      5.6865
  2197.7500    113.6993      1.5799    403.0879      5.8154
  2198.0000    119.9937      0.0000    406.9391      5.8844
  2198.2500    125.7756      0.0000    421.1741      5.8902
  2198.5000    128.4755      0.0000    446.6977      5.8434
  2198.7500    128.1749      0.0000    480.1489      5.7551
  2199.0000    127.1235      0.0000    512.7558      5.6157
  2199.2500    127.3041      0.0000    537.5756      5.4125
  2199.5000    128.9225      0.0000    557.3301      5.1645
  2199.7500    130.9258      0.0000    580.8120      4.9223
  2200.0000    132.1074      0.0000    611.0443      4.7349
  2200.2500    131.7412      0.0000    640.9996      4.6242
  2200.5000    129.8973      0.0000    661.6912      4.5822
  2200.7500    127.3736      0.0000    670.7682      4.5848
  2201.0000    125.1250      0.0000    672.3817      4.6087
  2201.2500    123.8092      0.0000    671.9549      4.6421
  2201.5000    124.0178      0.0000    672.7924      4.6850
  2201.7500    126.6989      0.0000    675.8971      4.7415
  2202.0000    132.7827      0.0000    680.7404      4.8065
  2202.2500    141.8861      0.0000    685.8732      4.8616
  2202.5000    151.5376      0.0000    689.8121      4.8873
  2202.7500    158.3486      0.0000    692.1056      4.8812
  2203.0000    160.2719      0.0000    693.4571      4.8610
  2203.2500    157.5270      0.0000    694.5891      4.8475
  2203.5000    151.6551      0.0000    695.2473      4.8483
  2203.7500    144.3656      0.0000    694.5380      4.8549
  2204.0000    137.1552      0.0000    691.8777      4.8488
  2204.2500    131.1054      0.0000    687.3702      4.8124
  2204.5000    126.6135      0.0000    681.8538      4.7445
  2204.7500    123.5479      0.0000    677.2294      4.6724
  2205.0000    121.8227      0.0000    676.0255      4.6388
