~Version Information
VERS.                      2.0: CWLS Log ASCII Standard - VERSION 2.0
WRAP.                       NO: One line per depth step
~Well Information Block
STRT.FT              1585.0000: 
STOP.FT              2353.0000: 
STEP.FT                 0.2500: 
NULL.                -999.2500: 
COMP.          XTO Energy Inc.: COMPANY
WELL.          Hill Ranch 15-11: WELL
FLD.           Purgatrorie River: FIELD
LOC.           1862' FSL & 1801' FWL: LOCATION
STAT.                       CO: State
CNTY.               Las Animas: COUNTY
CTRY. USA : Country
SECT. 15 : Section
TOWN. 35S : Township
RANG. 67W : Range
SRVC.          Patterson Wireline: SERVICE COMPANY
DATE.          Thu Dec 08 10:20:02 2005: LOG DATE
API.              05 071 08472: UNIQUE WELL ID
~Curve Information Block
DEPT.FT            0 000 00 00: Depth
CCL.                          : Casing Collar Locator
TT3.usec                      : CBL 3' Travel Time
AMP3.mV                       : CBL 3' Amplitude
BONDIX.                       : CBL Bond Index
GR.GAPI                       : Gamma Ray
~Parameter Information Block
~A  Depth       CCL         TT3         AMP3       BONDIX        GR     
# ...
  1977.0000      0.0000    731.1939      5.7127      0.6171    117.0576
  1977.2500      0.0000    732.3234      5.6658      0.6190    116.0591
  1977.5000      0.0000    734.7440      5.6130      0.6210    115.0644
  1977.7500      0.0000    739.3536      5.5401      0.6239    116.3802
  1978.0000      0.0000    746.1592      5.4434      0.6278    121.2102
  1978.2500      0.0000    753.6763      5.3468      0.6317    128.9996
  1978.5000      0.0000    759.3704      5.2868      0.6342    137.8995
  1978.7500      0.0000    761.0098      5.2823      0.6344    145.4877
  1979.0000      0.0000    757.8812      5.3220      0.6327    149.6452
  1979.2500      0.0000    751.1343      5.3833      0.6302    149.8469
  1979.5000      0.0000    743.1612      5.4531      0.6274    147.6092
  1979.7500      0.0000    736.4757      5.5321      0.6242    144.8585
  1980.0000      0.0000    732.8016      5.6224      0.6206    142.0133
  1980.2500      0.0000    732.6830      5.7134      0.6171    138.3309
  1980.5000      0.0000    735.5776      5.7785      0.6146    133.6174
  1980.7500      0.0000    740.5247      5.7905      0.6142    128.6397
  1981.0000      0.0000    746.8428      5.7436      0.6160    124.3042
  1981.2500      0.0000    753.9300      5.6568      0.6193    121.3662
  1981.5000      0.0000    760.6977      5.5553      0.6233    120.4421
  1981.7500      0.0000    765.9177      5.4568      0.6272    121.3057
  1982.0000      0.0000    769.1417      5.3762      0.6305    122.6868
  1982.2500      0.0000    770.9410      5.3330      0.6323    123.7761
  1982.5000      0.0000    772.3760      5.3450      0.6318    125.6107
  1982.7500      0.0000    774.3857      5.4116      0.6290    130.1239
  1983.0000      0.0000    777.2268      5.5107      0.6251    137.8195
  1983.2500      0.0000    780.0747      5.6151      0.6209    146.8539
  1983.5000      0.0000    781.3395      5.7119      0.6172    154.4072
  1983.7500      0.0000    779.7638      5.8071      0.6135    158.5735
  1984.0000      0.0000    774.9910      5.9133      0.6096    158.9160
  1984.2500      0.0000    766.8849      6.0369      0.6050    155.9902
  1984.5000      0.0000    754.9731      6.1711      0.6002    151.2136
  1984.7500      0.0000    739.5550      6.2958      0.5958    147.0322
  1985.0000      0.0000    723.3368      6.3858      0.5927    145.9048
  1985.2500      0.0000    710.9518      6.4248      0.5913    148.0323
  1985.5000      0.0000    705.9507      6.4153      0.5917    150.4875
  1985.7500      0.0000    708.1066      6.3740      0.5931    149.7647
  1986.0000      0.0000    713.8715      6.3192      0.5950    145.4452
  1986.2500      0.0000    719.2858      6.2621      0.5970    140.7178
  1986.5000      0.0000    722.1315      6.2078      0.5989    139.2676
  1986.7500      0.0000    721.6152      6.1604      0.6006    142.1146
  1987.0000      0.0000    717.0056      6.1246      0.6019    147.0965
  1987.2500      0.0000    707.4611      6.1002      0.6027    150.6272
  1987.5000      0.0000    693.4178      6.0775      0.6036    150.3003
  1987.7500      0.0000    677.7642      6.0440      0.6048    146.6507
  1988.0000      0.0000    664.9976      5.9974      0.6065    142.4051
  1988.2500      0.0000    659.1422      5.9505      0.6082    139.7617
  1988.5000      0.0000    662.5597      5.9230      0.6092    138.6614
  1988.7500      0.0000    675.7965      5.9265      0.6091    137.7194
  1989.0000      0.0000    696.9614      5.9538      0.6081    136.2109
  1989.2500      0.0000    721.1801      5.9838      0.6070    134.6779
  1989.5000      0.0000    742.2827      5.9990      0.6064    133.9850
  1989.7500      0.0000    756.1238      5.9980      0.6064    134.5351
  1990.0000      0.0000    762.3088      5.9896      0.6067    136.4317
  1990.2500      0.0000    763.1929      5.9786      0.6072    139.6927
  1990.5000      0.0000    762.0071      5.9653      0.6076    144.0580
  1990.7500      0.0000    761.4578      5.9531      0.6081    148.8675
  1991.0000      0.0000    762.7658      5.9486      0.6083    153.3104
  1991.2500      0.0000    765.4615      5.9533      0.6081    156.8637
  1991.5000      0.0000    768.3054      5.9640      0.6077    159.6352
  1991.7500      0.0000    770.4711      5.9787      0.6071    162.2352
  1992.0000      0.0000    771.8553      5.9994      0.6064    165.2174
  1992.2500      0.0000    772.6476      6.0265      0.6054    168.7157
  1992.5000      0.0000    772.9553      6.0546      0.6044    172.4383
  1992.7500      0.0000    772.7965      6.0712      0.6038    175.6535
  1993.0000      0.0000    772.1797      6.0599      0.6042    177.2663
  1993.2500      0.0000    771.0176      6.0103      0.6060    176.3864
  1993.5000      0.0000    768.9449      5.9269      0.6091    173.1921
  1993.7500      0.0000    765.3171      5.8256      0.6128    169.0041
  1994.0000      0.0000    759.6964      5.7187      0.6169    165.1817
  1994.2500      0.0000    752.7520      5.6091      0.6212    162.1854
  1994.5000      0.0000    746.7388      5.4978      0.6256    160.0305
  1994.7500      0.0000    744.5253      5.3916      0.6299    159.1618
  1995.0000      0.0000    747.5937      5.2990      0.6337    160.2549
  1995.2500      0.0000    754.8372      5.2240      0.6368    163.1502
  1995.5000      0.0000    763.1756      5.1646      0.6393    166.5168
  1995.7500      0.0000    769.0732      5.1153      0.6414    169.1059
  1996.0000      0.0000    769.8478      5.0690      0.6434    171.0891
  1996.2500      0.0000    764.6718      5.0216      0.6455    173.3282
  1996.5000      0.0000    755.1006      4.9758      0.6475    175.4706
  1996.7500      0.0000    744.4653      4.9394      0.6491    176.1057
  1997.0000      0.0000    736.2887      4.9201      0.6500    174.7850
  1997.2500      0.0000    732.9340      4.9217      0.6499    172.3732
  1997.5000      0.0000    735.1736      4.9408      0.6490    169.3892
  1997.7500      0.0000    742.3118      4.9632      0.6480    165.6339
  1998.0000      0.0000    752.4696      4.9684      0.6478    161.7440
  1998.2500      0.0000    763.1512      4.9410      0.6490    159.8161
  1998.5000      0.0000    772.0827      4.8805      0.6517    161.7263
  1998.7500      0.0000    777.9475      4.8019      0.6553    166.7623
  1999.0000      0.0000    780.6395      4.7276      0.6587    171.1044
  1999.2500      0.0000    780.7873      4.6756      0.6612    170.3324
  1999.5000      0.0000    779.0665      4.6506      0.6623    163.0663
  1999.7500      0.0000    776.2453      4.6444      0.6626    152.2292
  2000.0000      0.0000    773.7461      4.6452      0.6626    142.5594
  2000.2500      0.0000    773.4930      4.6449      0.6626    136.6320
  2000.5000      0.0000    776.8275      4.6405      0.6628    132.8889
  2000.7500      0.0000    783.4749      4.6291      0.6634    127.3902
  2001.0000      0.0000    791.4070      4.6040      0.6646    117.4273
  2001.2500      0.0000    797.6776      4.5572      0.6668    103.4210
  2001.5000      0.0000    799.4255      4.4899      0.6701     87.9650
  2001.7500      0.0000    794.3459      4.4181      0.6736     74.0128
  2002.0000      0.0000    781.2037      4.3619      0.6764     63.7524
  2002.2500      0.0000    761.1901      4.3289      0.6781     58.0663
  2002.5000      0.0000    738.7101      4.3104      0.6790     56.6014
  2002.7500      0.0000    719.3298      4.2942      0.6799     58.3904
  2003.0000      0.0000    705.9446      4.2759      0.6808     62.2081
  2003.2500      0.0000    697.2139      4.2557      0.6818     66.4049
  2003.5000      0.0000    689.7052      4.2324      0.6830     69.0745
  2003.7500      0.0000    681.0591      4.2027      0.6846     69.0042
  2004.0000      0.0000    671.6602      4.1644      0.6866     66.4476
  2004.2500      0.0000    664.3036      4.1184      0.6890     62.6368
  2004.5000      0.0000    661.9691      4.0671      0.6918     58.4573
  2004.7500      0.0000    665.2554      4.0116      0.6948     54.0493
