~Version Information
VERS.                      2.0: CWLS Log ASCII Standard - VERSION 2.0
WRAP.                       NO: One line per depth step
~Well Information Block
STRT.FT               410.0000: 
STOP.FT              1530.5000: 
STEP.FT                 0.1000: 
NULL.                -999.2500: 
COMP.          Pioneer Natural Resources: COMPANY
WELL.          Pioneer 34-27 Tr: WELL
FLD.           Purgatoire River: FIELD
LOC.           243' FSL & 1593' FEL: LOCATION
STAT.                 Colorado: State
CNTY.               Las Animas: COUNTY
CTRY. USA : Country
SECT. 27 : Section
TOWN. 32S : Township
RANG. 67W : Range 
SRVC.                Patterson: SERVICE COMPANY
DATE.          Fri Oct 07 07:11:38 2005: LOG DATE
API.           05 071 08548 00: UNIQUE WELL ID
~Curve Information Block
DEPT.FT            0 000 00 00: Depth
DCAL.in                       : CDL Caliper
RHOB.g/cc                     : CDL Bulk Density
RHOC.g/cc                     : CDL Density Correction
DPOR.pu                       : CDL Density Porosity
GR.GAPI                       : Gamma Ray
NPOR.pu                       : Neutron Porosity
~Parameter Information Block
~A  Depth       DCAL        RHOB        RHOC        DPOR         GR         NPOR    
# ...
  1072.4000      8.1609      2.4864      0.0538      9.9131     57.1070     20.3908
  1072.5000      8.1590      2.5076      0.0715      8.6309     59.5059     20.2564
  1072.6000      8.1590      2.5344      0.0841      7.0047     58.5071     20.3572
  1072.7000      8.1590      2.5572      0.1378      5.6232     56.1006     20.1569
  1072.8000      8.1577      2.5617      0.1049      5.3541     57.8204     19.6330
  1072.9000      8.1577      2.5509      0.1002      6.0056     64.1057     19.3946
  1073.0000      8.1630      2.5409      0.0643      6.6131     68.8893     19.5249
  1073.1000      8.1630      2.5406      0.0641      6.6283     68.3595     19.7188
  1073.2000      8.1630      2.5490      0.0849      6.1199     66.7305     19.9492
  1073.3000      8.1609      2.5521      0.1281      5.9360     68.7243     20.0837
  1073.4000      8.1609      2.5388      0.1033      6.7405     69.7641     20.0773
  1073.5000      8.1666      2.5242      0.1059      7.6242     65.0987     20.1857
  1073.6000      8.1666      2.5266      0.1376      7.4813     60.4993     20.4431
  1073.7000      8.1666      2.5428      0.1109      6.4952     62.0608     20.6250
  1073.8000      8.1707      2.5617      0.1478      5.3500     65.9800     20.6146
  1073.9000      8.1707      2.5759      0.1179      4.4893     65.7005     20.5660
  1074.0000      8.1619      2.5792      0.1470      4.2899     60.4337     20.7443
  1074.1000      8.1619      2.5679      0.1490      4.9771     54.0938     20.9989
  1074.2000      8.1619      2.5543      0.1066      5.8003     51.8318     20.8549
  1074.3000      8.1400      2.5576      0.1152      5.5979     54.5661     20.3461
  1074.4000      8.1400      2.5755      0.0971      4.5135     57.9141     20.0454
  1074.5000      8.1330      2.5850      0.1236      3.9388     58.5019     20.2064
  1074.6000      8.1330      2.5711      0.1060      4.7847     56.3848     20.4810
  1074.7000      8.1330      2.5444      0.0748      6.3992     53.8828     20.3818
  1074.8000      8.1489      2.5230      0.0708      7.6945     52.2571     19.9841
  1074.9000      8.1489      2.5158      0.0824      8.1330     50.1405     19.7668
  1075.0000      8.1739      2.5262      0.0937      7.5051     49.9874     19.6757
  1075.1000      8.1739      2.5477      0.1389      6.1994     55.6649     19.3481
  1075.2000      8.1739      2.5652      0.0938      5.1401     64.2309     18.9477
  1075.3000      8.1507      2.5678      0.1161      4.9788     68.7145     18.8094
  1075.4000      8.1507      2.5483      0.1348      6.1623     65.0659     18.8784
  1075.5000      8.1440      2.5158      0.0566      8.1333     56.4250     18.9320
  1075.6000      8.1440      2.5035      0.0550      8.8780     51.4328     18.9873
  1075.7000      8.1440      2.5231      0.1030      7.6904     53.8800     19.1509
  1075.8000      8.1489      2.5497      0.1078      6.0810     60.0553     19.2942
  1075.9000      8.1489      2.5635      0.1282      5.2446     64.7839     19.3142
  1076.0000      8.1584      2.5600      0.1543      5.4559     66.3551     19.4094
  1076.1000      8.1584      2.5360      0.0776      6.9076     67.1272     19.7161
  1076.2000      8.1584      2.5007      0.0603      9.0474     69.2438     20.0219
  1076.3000      8.1589      2.4759      0.0266     10.5509     70.2613     20.1629
  1076.4000      8.1589      2.4774      0.0305     10.4636     69.8730     20.1618
  1076.5000      8.1528      2.5008      0.0603      9.0405     73.4740     19.9935
  1076.6000      8.1528      2.5216      0.1485      7.7814     82.8597     19.7565
  1076.7000      8.1528      2.5176      0.1014      8.0255     90.3644     19.8113
  1076.8000      8.1421      2.4991      0.0585      9.1444     89.8536     20.2764
  1076.9000      8.1421      2.4918      0.0869      9.5895     88.8545     20.8586
  1077.0000      8.1172      2.4997      0.1126      9.1085     90.5972     21.2400
  1077.1000      8.1172      2.5137      0.0461      8.2580     85.4394     21.2189
  1077.2000      8.1172      2.5320      0.1242      7.1541     71.2319     20.9793
  1077.3000      8.1260      2.5511      0.1392      5.9961     59.7467     20.9043
  1077.4000      8.1260      2.5678      0.1510      4.9813     58.9101     20.9407
  1077.5000      8.1217      2.5866      0.1731      3.8415     62.2561     20.9347
  1077.6000      8.1217      2.6064      0.1646      2.6434     63.2183     20.9771
  1077.7000      8.1217      2.6130      0.1666      2.2431     62.5515     20.9889
  1077.8000      8.1204      2.6008      0.1172      2.9800     61.8234     20.7893
  1077.9000      8.1204      2.5785      0.1221      4.3339     60.9342     20.4287
  1078.0000      8.1182      2.5464      0.0756      6.2805     60.8207     20.3095
  1078.1000      8.1182      2.5068     -0.0052      8.6803     62.7261     20.6449
  1078.2000      8.1182      2.4789     -0.0113     10.3721     67.2444     21.0457
  1078.3000      8.1250      2.4758     -0.0023     10.5564     73.6931     21.2785
  1078.4000      8.1250      2.4895      0.0036      9.7293     78.3914     21.5116
  1078.5000      8.1172      2.5007      0.1003      9.0496     79.1206     21.7224
  1078.6000      8.1172      2.4993      0.0590      9.1330     77.6491     21.9326
  1078.7000      8.1172      2.4905      0.0619      9.6648     74.7945     22.2576
  1078.8000      8.1171      2.4834      0.0268     10.0974     70.5084     22.3336
  1078.9000      8.1171      2.4866      0.0284      9.9028     66.9812     22.0327
  1079.0000      8.1291      2.5011      0.0570      9.0242     67.0397     21.9556
  1079.1000      8.1291      2.5257      0.0617      7.5338     71.9735     22.4702
  1079.2000      8.1291      2.5689      0.0821      4.9174     79.3013     23.1202
  1079.3000      8.1300      2.6241      0.1718      1.5698     84.4544     23.3392
  1079.4000      8.1300      2.6657      0.1901     -0.9501     86.1360     23.1881
  1079.5000      8.1042      2.6845      0.1954     -2.0933     86.1504     23.0835
  1079.6000      8.1042      2.6897      0.1919     -2.4086     85.6960     23.1355
  1079.7000      8.1042      2.6854      0.1915     -2.1471     83.3415     23.1446
  1079.8000      8.0707      2.6764      0.1468     -1.6013     81.4182     23.1845
  1079.9000      8.0707      2.6754      0.1613     -1.5367     84.8430     23.5739
  1080.0000      8.0630      2.6850      0.0999     -2.1223     91.9669     24.1196
  1080.1000      8.0630      2.6862      0.1078     -2.1934     98.5333     24.4304
  1080.2000      8.0630      2.6639      0.1128     -0.8406    103.4694     24.5815
  1080.3000      8.0650      2.6401      0.0876      0.6000    107.8345     24.7413
  1080.4000      8.0650      2.6424      0.1071      0.4596    112.8526     24.8565
  1080.5000      8.0819      2.6620      0.1481     -0.7284    117.1719     24.9522
  1080.6000      8.0819      2.6789      0.1155     -1.7509    116.8403     25.2825
  1080.7000      8.0819      2.6872      0.1173     -2.2522    112.0836     25.7203
  1080.8000      8.0949      2.6886      0.0582     -2.3381    107.4346     25.7444
  1080.9000      8.0949      2.6862      0.0825     -2.1922    104.9950     25.2356
  1081.0000      8.0849      2.6735      0.0747     -1.4259    103.6564     24.4611
  1081.1000      8.0849      2.6476      0.0203      0.1463    102.8237     23.6715
  1081.2000      8.0849      2.6179     -0.0040      1.9457    105.0490     22.8950
  1081.3000      8.1377      2.5813      0.0452      4.1653    111.0675     21.9099
  1081.4000      8.1377      2.5218     -0.0043      7.7676    115.6642     20.5216
  1081.5000      8.1558      2.4386      0.0066     12.8132    114.2366     18.9695
  1081.6000      8.1558      2.3458     -0.0179     18.4339    109.4086     17.6833
  1081.7000      8.1558      2.2619     -0.1022     23.5227    106.7744     16.7645
  1081.8000      8.1791      2.1839     -0.0129     28.2457    108.8963     16.3199
  1081.9000      8.1791      2.0909     -0.0879     33.8863    113.4921     16.3686
