~Version Information
VERS.                      2.0: CWLS Log ASCII Standard - VERSION 2.0
WRAP.                       NO: One line per depth step
~Well Information Block
STRT.FT                -9.5000: 
STOP.FT              1401.5000: 
STEP.FT                 0.2500: 
NULL.                -999.2500: 
COMP.          Pioneer Natural Resources: COMPANY
WELL.             John K 12-28: WELL
FLD.           Purgatorie River: FIELD
LOC.           1476' FNL & 465' FWL--: LOCATION
CNTY.               Las Animas: COUNTY
SRVC.          Patterson Wireline: SERVICE COMPANY
DATE.          Fri Apr 28 08:36:46 2006: LOG DATE
UWI.           05 071 08723 00: UNIQUE WELL ID
STAT.                       CO: STATE
~Curve Information Block
DEPT.FT            0 000 00 00: Depth
CCL.                          : Casing Collar Locator
TT3.usec                      : CBL 3' Travel Time
AMP3.mV                       : CBL 3' Amplitude
GR.GAPI                       : Gamma Ray
~Parameter Information Block
~A  Depth       CCL         TT3         AMP3         GR     
# ...
   526.5000      0.0000    722.4003     10.0403    154.2415
   526.7500      0.0000    742.0931      9.7652    152.4383
   527.0000      0.0000    756.3396      9.5114    148.3008
   527.2500      0.0000    763.4540      9.3417    144.5395
   527.5000      0.0000    766.0890      9.2593    143.2252
   527.7500      0.0000    766.7969      9.2467    144.6386
   528.0000      0.0000    766.6201      9.2744    147.4725
   528.2500      0.0000    765.4489      9.3010    150.3770
   528.5000      0.0000    762.7175      9.2977    153.0487
   528.7500      0.0000    758.3267      9.2793    155.3099
   529.0000      0.0000    753.3007      9.3108    155.8570
   529.2500      0.0000    749.3239      9.4769    153.1576
   529.5000      0.0000    747.2504      9.8402    147.3887
   529.7500      0.0000    746.4579     10.4131    140.3454
   530.0000      0.0000    745.8387     11.1578    133.3119
   530.2500      0.0000    744.6773     12.0202    125.8992
   530.5000      0.0000    741.9381     12.9702    117.1391
   530.7500      0.0000    735.0142     13.9974    106.8789
   531.0000      0.0000    719.3279     15.0592     95.6885
   531.2500      0.0000    689.3848     16.0467     84.0641
   531.5000      0.0000    642.0892     16.8083     72.3891
   531.7500      0.0000    582.5300     17.2025     61.3762
   532.0000      0.0000    526.7715     17.1509     52.0454
   532.2500      0.0000    494.6662     16.6747     45.2810
   532.5000      0.0000    496.9780     15.8851     41.3547
   532.7500      0.0000    530.1595     14.9097     39.6257
   533.0000      0.0000    582.0033     13.8309     38.8414
   533.2500      0.0000    638.4754     12.7048     38.0571
   533.5000      0.0000    687.1874     11.6161     37.2140
   533.7500      0.0000    721.2497     10.6839     36.7869
   534.0000      0.0000    742.3328     10.0220     37.1793
   534.2500      0.0000    757.1995      9.7059     38.6393
   534.5000      0.0000    769.2764      9.7686     41.4816
   534.7500      0.0000    773.1132     10.2297     45.9493
   535.0000      0.0000    756.2649     11.1401     51.7209
   535.2500      0.0000    707.4193     12.6003     57.7776
   535.5000      0.0000    626.3600     14.7155     63.0339
   535.7500      0.0000    528.4636     17.5191     67.0991
   536.0000      0.0000    437.2556     20.9451     70.3879
   536.2500      0.0000    369.8537     24.8971     73.6900
   536.5000      0.0000    328.7928     29.3410     77.6482
   536.7500      0.0000    306.1204     34.2751     82.2014
   537.0000      0.0000    292.5448     39.5549     86.2649
   537.2500      0.0000    282.7977     44.7751     88.4189
   537.5000      0.0000    275.4938     49.3980     88.3456
   537.7500      0.0000    270.6484     53.0288     87.4068
   538.0000      0.0000    267.9895     55.5616     87.6409
   538.2500      0.0000    266.7836     57.1063     90.4795
   538.5000      0.0000    266.3372     57.8392     96.3841
   538.7500      0.0000    266.2362     57.9137    104.8057
   539.0000      0.0000    266.2989     57.4635    113.9583
   539.2500      0.0000    266.4489     56.6632    121.5614
   539.5000      0.0000    266.6398     55.7821    126.6978
   539.7500      0.0000    266.8275     55.1575    130.3050
   540.0000      0.0000    266.9709     55.0870    133.2574
   540.2500      0.0000    267.0421     55.7103    134.9298
   540.5000      0.0000    267.0351     56.9645    134.3477
   540.7500      0.0000    266.9632     58.6539    131.6335
   541.0000      0.0000    266.8461     60.5906    127.4915
   541.2500      0.0000    266.6985     62.6878    122.3846
   541.5000      0.0000    266.5276     64.9144    117.1048
   541.7500      0.0000    266.3356     67.1805    113.3720
   542.0000      0.0000    266.1228     69.3328    113.0158
   542.2500      0.0000    265.8920     71.2943    116.6162
   542.5000      0.0000    265.6537     73.1606    122.8729
   542.7500      0.0000    265.4310     75.1201    129.0395
   543.0000      0.0000    265.2520     77.2720    132.3252
   543.2500      0.0000    265.1343     79.5054    131.5558
   543.5000      0.0000    265.0742     81.5411    127.6628
   543.7500      0.0000    265.0510     83.1164    122.5173
   544.0000      0.0000    265.0422     84.1537    117.4176
   544.2500      0.0000    265.0345     84.7607    112.8743
   544.5000      0.0000    265.0244     85.0974    109.5623
   544.7500      0.0000    265.0129     85.2646    108.7489
   545.0000      0.0000    265.0023     85.2902    111.3388
   545.2500      0.0000    264.9937     85.1751    116.6412
   545.5000      0.0000    264.9876     84.9379    122.3074
   545.7500      0.0000    264.9832     84.6340    125.7569
   546.0000      0.0000    264.9784     84.3484    126.1179
   546.2500      0.0000    264.9692     84.1611    125.0618
   546.5000      0.0000    264.9528     84.0976    125.3093
   546.7500      0.0000    264.9302     84.1009    127.8306
   547.0000      0.0000    264.9070     84.0579    130.7630
   547.2500      0.0000    264.8899     83.8594    131.5699
   547.5000      0.0000    264.8818     83.4463    129.9436
   547.7500      0.0000    264.8818     82.8270    127.9291
   548.0000      0.0000    264.8856     82.0781    127.4828
   548.2500      0.0000    264.8875     81.3195    128.9706
   548.5000      0.0000    264.8826     80.6635    132.0142
   548.7500      0.0000    264.8686     80.1660    136.3194
   549.0000      0.0000    264.8472     79.8140    140.9476
   549.2500      0.0000    264.8228     79.5379    143.9973
   549.5000      0.0000    264.8022     79.2259    144.1302
   549.7500      0.0000    264.7947     78.7523    141.9356
   550.0000      0.0000    264.8080     78.0350    139.0055
   550.2500      0.0000    264.8438     77.0950    135.9491
   550.5000      0.0000    264.8951     76.0571    131.7071
   550.7500      0.0000    264.9503     75.0835    124.5201
   551.0000      0.0000    264.9988     74.2900    113.4804
   551.2500      0.0000    265.0353     73.7039     99.7133
   551.5000      0.0000    265.0595     73.2752     86.1951
   551.7500      0.0000    265.0739     72.9201     75.9392
   552.0000      0.0000    265.0824     72.5645     70.1161
   552.2500      0.0000    265.0892     72.1618     68.0035
   552.5000      0.0000    265.0999     71.6906     68.4545
   552.7500      0.0000    265.1200     71.1560     70.8060
   553.0000      0.0000    265.1513     70.6061     74.3800
   553.2500      0.0000    265.1896     70.1348     77.9113
   553.5000      0.0000    265.2268     69.8412     80.0368
   553.7500      0.0000    265.2565     69.7673     80.1460
   554.0000      0.0000    265.2772     69.8685     78.3636
   554.2500      0.0000    265.2914     70.0236     74.9242
   554.5000      0.0000    265.3051     70.0466     70.1110
   554.7500      0.0000    265.3293     69.7075     64.7362
   555.0000      0.0000    265.3772     68.8164     60.0804
   555.2500      0.0000    265.4564     67.3487     57.2253
   555.5000      0.0000    265.5625     65.4913     56.5808
   555.7500      0.0000    265.6810     63.5451     57.7987
   556.0000      0.0000    265.7963     61.7730     59.8174
   556.2500      0.0000    265.8993     60.3057     61.2162
   556.5000      0.0000    265.9908     59.1269     61.0016
   556.7500      0.0000    266.0816     58.1025     59.2176
   557.0000      0.0000    266.1930     57.0249     56.7443
   557.2500      0.0000    266.3584     55.6489     54.4394
   557.5000      0.0000    266.6218     53.7375     52.3392
   557.7500      0.0000    267.0168     51.1795     49.5823
   558.0000      0.0000    267.5309     48.1444     45.3449
   558.2500      0.0000    268.0897     45.0914     40.2185
   558.5000      0.0000    268.5914     42.5341     36.4741
   558.7500      0.0000    268.9644     40.7529     36.3411
   559.0000      0.0000    269.1944     39.7144     39.8995
   559.2500      0.0000    269.3092     39.2040     45.0729
   559.5000      0.0000    269.3504     38.9916     49.7035
   559.7500      0.0000    269.3509     38.9233     53.2589
