~Version Information
VERS.                      2.0: CWLS Log ASCII Standard - VERSION 2.0
WRAP.                       NO: One line per depth step
~Well Information Block
STRT.FT               655.0000: 
STOP.FT              2623.7500: 
STEP.FT                 0.2500: 
NULL.                -999.2500: 
COMP.          Pioneer Natural Resources: COMPANY
WELL.             Aviator 12-4: WELL
FLD.           Purgatoire River: FIELD
LOC.           1969' FNL & 732' FWL--: LOCATION
CNTY.               Las Animas: COUNTY
SRVC.                Patterson: SERVICE COMPANY
DATE.          Sun Apr 09 14:25:03 2006: LOG DATE
UWI.           05 071 08714 00: UNIQUE WELL ID
STAT.                 Colorado: STATE
~Curve Information Block
DEPT.FT            0 000 00 00: Depth
SN.Ohm-m                      : IEL Short Normal
SP.mV                         : IEL Spontaneous Potential
DIR.Ohm-m                     : IEL Induction Resistivity
GR.GAPI                       : Gamma Ray
~Parameter Information Block
~A  Depth        SN          SP         DIR          GR     
# ...
  2598.0000     27.3560     84.9520     26.0278   -999.2500
  2598.2500     27.0766     85.3103     25.8780   -999.2500
  2598.5000     26.8011     85.6777     25.6302   -999.2500
  2598.7500     26.5243     86.0324     25.2855   -999.2500
  2599.0000     26.2500     86.3533     24.8475   -999.2500
  2599.2500     25.9898     86.6206     24.3321   -999.2500
  2599.5000     25.7526     86.8172     23.7754   -999.2500
  2599.7500     25.5386     86.9304     23.2260   -999.2500
  2600.0000     25.3312     86.9543     22.7282   -999.2500
  2600.2500     25.1171     86.8921     22.3092   -999.2500
  2600.5000     24.9161     86.7587     21.9775   -999.2500
  2600.7500     24.7627     86.5814     21.7272   -999.2500
  2601.0000     24.6649     86.3997     21.5379   -999.2500
  2601.2500     24.5930     86.2626     21.3710   -999.2500
  2601.5000     24.4726     86.2229     21.1653   -999.2500
  2601.7500     24.1767     86.3316     20.8421   -999.2500
  2602.0000     23.5671     86.6299     20.3255   -999.2500
  2602.2500     22.5945     87.1437     19.5745   -999.2500
  2602.5000     21.3691     87.8787     18.6103   -999.2500
  2602.7500     20.1126     88.8194     17.5137   -999.2500
  2603.0000     19.0194     89.9304     16.3905   -999.2500
  2603.2500     18.1438     91.1607     15.3276   -999.2500
  2603.5000     17.4046     92.4497     14.3713   -999.2500
  2603.7500     16.6874     93.7352     13.5307   -999.2500
  2604.0000     15.9355     94.9599     12.7953   -999.2500
  2604.2500     15.1582     96.0777     12.1529   -999.2500
  2604.5000     14.4072     97.0571     11.5986   -999.2500
  2604.7500     13.7641     97.8830     11.1369   -999.2500
  2605.0000     13.3052     98.5555     10.7763   -999.2500
  2605.2500     13.0394     99.0872     10.5213   -999.2500
  2605.5000     12.9023     99.5001     10.3658   -999.2500
  2605.7500     12.8170     99.8212     10.2903   -999.2500
  2606.0000     12.7341    100.0787     10.2646   -999.2500
  2606.2500     12.6228    100.2978     10.2552   -999.2500
  2606.5000     12.4709    100.4971     10.2346   -999.2500
  2606.7500     12.3055    100.6852     10.1886   -999.2500
  2607.0000     12.1896    100.8585     10.1193   -999.2500
  2607.2500     12.1804    101.0003     10.0430   -999.2500
  2607.5000     12.3018    101.0826      9.9847   -999.2500
  2607.7500     12.5639    101.0692      9.9718   -999.2500
  2608.0000     12.9893    100.9202     10.0292   -999.2500
  2608.2500     13.5906    100.5984     10.1754   -999.2500
  2608.5000     14.3254    100.0749     10.4200   -999.2500
  2608.7500     15.1063     99.3335     10.7644   -999.2500
  2609.0000     15.8885     98.3735     11.2057   -999.2500
  2609.2500     16.7409     97.2106     11.7443   -999.2500
  2609.5000     17.8304     95.8748     12.3925   -999.2500
  2609.7500     19.3527     94.4061     13.1763   -999.2500
  2610.0000     21.4420     92.8500     14.1327   -999.2500
  2610.2500     24.0688     91.2518     15.3010   -999.2500
  2610.5000     26.9854     89.6527     16.7104   -999.2500
  2610.7500     29.8165     88.0870     18.4113   -999.2500
  2611.0000     32.2527     86.5822     20.2709   -999.2500
  2611.2500     34.1678     85.1596     22.2188   -999.2500
  2611.5000     35.5913     83.8375     24.0924   -999.2500
  2611.7500     36.6104     82.6332     25.7268   -999.2500
  2612.0000     37.3120     81.5649     27.0235   -999.2500
  2612.2500     37.7845     80.6527     27.9921   -999.2500
  2612.5000     38.1009     79.9174     28.7349   -999.2500
  2612.7500     38.2844     79.3788     29.3991   -999.2500
  2613.0000     38.3068     79.0531     30.1406   -999.2500
  2613.2500     38.1101     78.9497     31.1354   -999.2500
  2613.5000     37.6358     79.0690     32.6540   -999.2500
  2613.7500     36.8760     79.4004     35.1988   -999.2500
  2614.0000     35.9051     79.9217     39.7321   -999.2500
  2614.2500     34.8427     80.5997     47.8033   -999.2500
  2614.5000     33.7901     81.3920     64.2385   -999.2500
  2614.7500     32.7922     82.2499    100.7512   -999.2500
  2615.0000     31.8389     83.1194    207.3452   -999.2500
  2615.2500     30.8969     83.9493   1117.5424   -999.2500
  2615.5000     29.9401     84.6896 100000.0000   -999.2500
  2615.7500     28.9709     85.2927 100000.0000   -999.2500
  2616.0000     28.0367     85.7096 100000.0000   -999.2500
  2616.2500     27.2103     85.8824 100000.0000   -999.2500
  2616.5000     26.5408     85.7325 100000.0000   -999.2500
  2616.7500     26.0275     85.1494 100000.0000   -999.2500
  2617.0000     25.6263     83.9816 100000.0000   -999.2500
  2617.2500     25.2681     82.0406 100000.0000   -999.2500
  2617.5000     24.8761     79.1206 100000.0000   -999.2500
  2617.7500     24.3872     75.0377 100000.0000   -999.2500
  2618.0000     23.7796     69.6845 100000.0000   -999.2500
  2618.2500     23.0867     63.0838 100000.0000   -999.2500
  2618.5000     22.3112     55.4246 100000.0000   -999.2500
  2618.7500     21.0935     47.0616 100000.0000   -999.2500
  2619.0000     18.4493     38.4715 100000.0000   -999.2500
  2619.2500     13.6194     30.1738 100000.0000   -999.2500
  2619.5000      7.6485     22.6378 100000.0000   -999.2500
  2619.7500      2.8713     16.2042 100000.0000   -999.2500
  2620.0000      0.4171     11.0421 100000.0000   -999.2500
  2620.2500     -0.3913      7.1497 100000.0000   -999.2500
  2620.5000     -0.5620      4.3918 100000.0000   -999.2500
  2620.7500     -0.5851      2.5557 100000.0000   -999.2500
  2621.0000   -999.2500      1.4072 100000.0000   -999.2500
  2621.2500   -999.2500      0.7322 100000.0000   -999.2500
  2621.5000   -999.2500      0.3595 100000.0000   -999.2500
  2621.7500   -999.2500      0.1662 100000.0000   -999.2500
  2622.0000   -999.2500      0.0720 100000.0000   -999.2500
  2622.2500   -999.2500      0.0289  15161.2217   -999.2500
  2622.5000   -999.2500      0.0103   9555.5869   -999.2500
  2622.7500   -999.2500      0.0029   8277.7998   -999.2500
  2623.0000   -999.2500   -999.2500   7902.3179   -999.2500
  2623.2500   -999.2500   -999.2500   7795.2246   -999.2500
  2623.5000   -999.2500   -999.2500   7768.1558   -999.2500
  2623.7500   -999.2500   -999.2500 100000.0000   -999.2500
