~Version Information
VERS.                      2.0: CWLS Log ASCII Standard - VERSION 2.0
WRAP.                       NO: One line per depth step
~Well Information Block
STRT.FT                -5.5000: 
STOP.FT              2262.7500: 
STEP.FT                 0.2500: 
NULL.                -999.2500: 
COMP.          Pioneer Natural Resources: COMPANY
WELL.             Baa Baa 34-1: WELL
FLD.           Purgatorie River: FIELD
LOC.           617' FSL & 2289' FEL------: LOCATION
STAT.                       CO: State
CNTY.               Las Animas: COUNTY
CTRY. USA : Country
SECT. 1 : Section
TOWN. 33S : Township
RANG. 67W : Range
SRVC.          Patterson Wireline: SERVICE COMPANY
DATE.          Mon Sep 12 14:08:52 2005: LOG DATE
API.           05 071 08502 00: UNIQUE WELL ID
~Curve Information Block
DEPT.FT            0 000 00 00: Depth
LTEN.lb                       : Surface Line Tension
CCL.                          : Casing Collar Locator
TT3.usec                      : CBL 3' Travel Time
AMP3.mV                       : CBL 3' Amplitude
GR.GAPI                       : Gamma Ray
~Parameter Information Block
~A  Depth       LTEN        CCL         TT3         AMP3         GR     
# ...
   890.5000  -4538.5244      0.0000    814.5291      6.4990    135.0393
   890.7500  -4531.8638      0.0000    807.1262      6.3692    131.8168
   891.0000  -4534.5283      0.0000    815.3268      6.3098    127.8071
   891.2500  -4537.1924      0.0000    836.2155      6.2728    125.1981
   891.5000  -4537.1924      0.0000    865.0254      6.2237    124.3245
   891.7500  -4530.5317      0.0000    894.9604      6.1678    124.1918
   892.0000  -4531.8638      0.0000    913.8076      6.1601    123.6208
   892.2500  -4529.1997      0.0000    909.6639      6.2732    122.1393
   892.5000  -4533.1958      0.0000    882.6896      6.5308    120.4274
   892.7500  -4531.8638      0.0000    845.3362      6.8727    119.7713
   893.0000  -4537.1924      0.0000    810.7448      7.1945    120.5891
   893.2500  -4530.5317      0.0000    786.1036      7.4239    121.6243
   893.5000  -4538.5244      0.0000    774.9635      7.5590    120.9339
   893.7500  -4537.1924      0.0000    778.2310      7.6426    117.5259
   894.0000  -4535.8604      0.0000    791.5989      7.7116    112.0070
   894.2500  -4533.1958      0.0000    806.8016      7.7744    106.1226
   894.5000  -4537.1924      0.0000    817.4042      7.8234    101.8682
   894.7500  -4533.1958      0.0000    822.1046      7.8546    100.4677
   895.0000  -4530.5317      0.0000    822.6584      7.8719    101.7475
   895.2500  -4537.1924      0.0000    820.6041      7.8792    104.5689
   895.5000  -4539.8569      0.0000    816.3289      7.8770    107.7503
   895.7500  -4533.1958      0.0000    809.8282      7.8681    110.3307
   896.0000  -4535.8604      0.0000    801.5212      7.8627    111.3304
   896.2500  -4531.8638      0.0000    792.8446      7.8712    110.0439
   896.5000  -4530.5317      0.0000    786.2122      7.8947    106.7973
   896.7500  -4537.1924      0.0000    783.4719      7.9255    102.9253
   897.0000  -4538.5244      0.0000    783.7767      7.9548     99.6842
   897.2500  -4531.8638      0.0000    783.8483      7.9735     97.3881
   897.5000  -4534.5283      0.0000    781.1889      7.9728     95.6594
   897.7500  -4531.8638      0.0000    776.1899      7.9496     94.2001
   898.0000  -4535.8604      0.0000    770.4337      7.9120     93.1215
   898.2500  -4534.5283      0.0000    764.2354      7.8727     92.6519
   898.5000  -4534.5283      0.0000    756.8573      7.8362     92.6786
   898.7500  -4533.1958      0.0000    748.3763      7.7971     92.4525
   899.0000  -4538.5244      0.0000    740.8182      7.7492     90.7600
   899.2500  -4533.1958      0.0000    737.8285      7.6926     86.8171
   899.5000  -4535.8604      0.0000    742.8235      7.6345     81.2642
   899.7500  -4533.1958      0.0000    756.3045      7.5891     76.0336
   900.0000  -4531.8638      0.0000    774.4484      7.5746     72.7659
   900.2500  -4529.1997      0.0000    790.5101      7.6060     71.3051
   900.5000  -4535.8604      0.0000    797.9250      7.6870     70.0484
   900.7500  -4537.1924      0.0000    793.0308      7.8064     67.8883
   901.0000  -4537.1924      0.0000    776.9069      7.9360     65.5966
   901.2500  -4531.8638      0.0000    755.8794      8.0370     65.1284
   901.5000  -4533.1958      0.0000    738.7267      8.0764     67.6978
   901.7500  -4533.1958      0.0000    731.1491      8.0476     72.7519
   902.0000  -4538.5244      0.0000    732.5911      7.9771     78.7287
   902.2500  -4531.8638      0.0000    738.8592      7.9089     84.4636
   902.5000  -4538.5244      0.0000    747.0436      7.8786     89.7673
   902.7500  -4533.1958      0.0000    756.8766      7.8961     95.0878
   903.0000  -4530.5317      0.0000    768.1504      7.9483    101.0938
   903.2500  -4533.1958      0.0000    778.9189      8.0140    108.4191
   903.5000  -4538.5244      0.0000    786.8214      8.0728    117.2255
   903.7500  -4531.8638      0.0000    790.9335      8.1040    126.6751
   904.0000  -4533.1958      0.0000    791.6667      8.0865    135.0979
   904.2500  -4530.5317      0.0000    789.6083      8.0115    141.0391
   904.5000  -4535.8604      0.0000    785.2826      7.8915    143.9314
   904.7500  -4530.5317      0.0000    780.0168      7.7526    143.6158
   905.0000  -4534.5283      0.0000    776.2559      7.6183    139.9645
   905.2500  -4539.8569      0.0000    776.1512      7.5072    133.4239
   905.5000  -4537.1924      0.0000    779.6915      7.4404    125.3807
   905.7500  -4533.1958      0.0000    784.7396      7.4369    117.5954
   906.0000  -4535.8604      0.0000    788.9933      7.4966    111.4427
   906.2500  -4533.1958      0.0000    791.5505      7.5923    107.7956
   906.5000  -4539.8569      0.0000    792.7744      7.6858    107.4480
   906.7500  -4535.8604      0.0000    793.3466      7.7558    111.0530
   907.0000  -4534.5283      0.0000    793.6860      7.8083    117.9790
   907.2500  -4534.5283      0.0000    793.9165      7.8587    125.5052
   907.5000  -4535.8604      0.0000    793.9576      7.9032    130.1906
   907.7500  -4537.1924      0.0000    793.4573      7.9169    130.4323
   908.0000  -4534.5283      0.0000    791.6171      7.8832    127.4153
   908.2500  -4533.1958      0.0000    787.3058      7.8182    123.7551
   908.5000  -4534.5283      0.0000    780.0173      7.7621    121.5030
   908.7500  -4533.1958      0.0000    771.3622      7.7503    121.0710
   909.0000  -4530.5317      0.0000    765.2094      7.7939    121.5859
   909.2500  -4530.5317      0.0000    765.0402      7.8813    122.1116
   909.5000  -4534.5283      0.0000    770.6342      7.9888    122.4760
   909.7500  -4537.1924      0.0000    777.9328      8.0945    123.1191
   910.0000  -4534.5283      0.0000    782.3259      8.1849    124.6860
   910.2500  -4527.8677      0.0000    781.9014      8.2527    127.9411
   910.5000  -4539.8569      0.0000    778.2637      8.2955    133.4546
   910.7500  -4535.8604      0.0000    775.1394      8.3213    140.7143
   911.0000  -4530.5317      0.0000    775.8056      8.3490    147.7661
   911.2500  -4533.1958      0.0000    781.0513      8.3947    152.2135
   911.5000  -4531.8638      0.0000    789.4102      8.4570    152.6628
   911.7500  -4533.1958      0.0000    799.1832      8.5162    149.3468
   912.0000  -4535.8604      0.0000    809.7206      8.5520    143.8752
   912.2500  -4534.5283      0.0000    820.7740      8.5619    138.4490
   912.5000  -4538.5244      0.0000    831.2399      8.5632    134.7136
   912.7500  -4533.1958      0.0000    839.1223      8.5709    133.0135
   913.0000  -4529.1997      0.0000    842.9825      8.5742    132.8367
   913.2500  -4534.5283      0.0000    843.2148      8.5417    133.8780
   913.5000  -4531.8638      0.0000    841.5400      8.4548    136.4314
   913.7500  -4533.1958      0.0000    839.3724      8.3302    140.9550
   914.0000  -4539.8569      0.0000    836.8998      8.2059    147.4576
   914.2500  -4530.5317      0.0000    833.4542      8.1083    155.0270
   914.5000  -4530.5317      0.0000    828.4471      8.0382    161.8506
   914.7500  -4539.8569      0.0000    822.1365      7.9862    166.0844
   915.0000  -4533.1958      0.0000    815.3503      7.9553    166.7020
   915.2500  -4533.1958      0.0000    808.2390      7.9629    163.0717
   915.5000  -4537.1924      0.0000    799.8168      8.0223    154.2472
   915.7500  -4530.5317      0.0000    789.5600      8.1243    139.9178
   916.0000  -4535.8604      0.0000    778.5921      8.2375    122.3210
   916.2500  -4530.5317      0.0000    767.9349      8.3294    106.4182
   916.5000  -4535.8604      0.0000    756.4870      8.3871     97.6440
   916.7500  -4539.8569      0.0000    742.6381      8.4190     99.0085
   917.0000  -4531.8638      0.0000    727.5123      8.4396    109.4707
   917.2500  -4533.1958      0.0000    714.6402      8.4557    124.4325
   917.5000  -4533.1958      0.0000    706.0640      8.4656    138.1360
   917.7500  -4533.1958      0.0000    700.2831      8.4653    146.4842
   918.0000  -4533.1958      0.0000    694.6727      8.4517    148.6213
   918.2500  -4530.5317      0.0000    688.8825      8.4241    146.6887
