~Version Information
VERS.                      2.0: CWLS Log ASCII Standard - VERSION 2.0
WRAP.                       NO: One line per depth step
~Well Information Block
STRT.FT                 0.0000: 
STOP.FT               988.7500: 
STEP.FT                 0.2500: 
NULL.                -999.2500: 
COMP.          Pioneer Natural Resources: COMPANY
WELL.             Quartz 13-22: WELL
FLD.           Purgatoire River: FIELD
LOC.           1933' FSL & 675' FWL --------: LOCATION
PROV.                 Colorado: PROVINCE
CNTY.               Las Animas: COUNTRY
SRVC.                         : SERVICE COMPANY
DATE.          Thu Dec 22 09:29:32 2005: LOG DATE
UWI.                          : UNIQUE WELL ID
~Curve Information Block
DEPT.FT            0 000 00 00: Depth
CCL.                          : Casing Collar Locator
TT3.usec                      : CBL 3' Travel Time
AMP3.mV                       : CBL 3' Amplitude
AMP5.mV                       : CBL 5' Amplitude
GR.GAPI                       : Gamma Ray
~Parameter Information Block
~A  Depth       CCL         TT3         AMP3        AMP5         GR     
# ...
   252.0000      0.0000    730.8094     12.1084      2.7960     92.9315
   252.2500      0.0000    734.1840     12.1371      2.9613     91.7513
   252.5000      0.0000    738.8987     12.1273      3.0285     89.4827
   252.7500      0.0000    743.2288     12.0590      3.0073     86.9306
   253.0000      0.0000    745.8731     11.9221      2.9497     85.3013
   253.2500      0.0000    747.1738     11.7157      2.8633     85.4946
   253.5000      0.0000    748.0443     11.4439      2.7062     87.6408
   253.7500      0.0000    747.5789     11.0908      2.4594     91.2161
   254.0000      0.0000    743.0754     10.6113      2.1709     95.2941
   254.2500      0.0000    733.6525      9.9796      1.9307     98.6292
   254.5000      0.0000    723.4392      9.2616      1.8181     99.9873
   254.7500      0.0000    719.4978      8.6096      1.8554     98.8953
   255.0000      0.0000    725.6214      8.1579      1.9911     95.9723
   255.2500      0.0000    738.9138      7.9347      2.1295     92.2982
   255.5000      0.0000    752.9836      7.8749      2.1960     88.6679
   255.7500      0.0000    763.4816      7.8914      2.1811     85.6930
   256.0000     -2.0000    769.8192      7.9299      2.1338     84.1485
   256.2500      0.0000    773.0404      7.9851      2.1143     84.5647
   256.5000      0.0000    772.9037      8.0888      2.1465     86.4886
   256.7500      0.0000    766.1777      8.3180      2.2045     88.5647
   257.0000      0.0000    747.5719      8.8254      2.2321     89.5448
   257.2500      0.0000    715.1738      9.7908      2.1779     89.2458
   257.5000      0.0000    676.8044     11.2268      2.0310     88.5569
   257.7500      0.0000    648.2988     12.8224      1.8481     88.4774
   258.0000      0.0000    642.1613     14.0883      1.7431     89.1002
   258.2500      0.0000    657.6212     14.7115      1.8193     89.5860
   258.5000      0.0000    682.4826     14.7412      2.0852     89.0141
   258.7500      0.0000    703.8956     14.4574      2.4509     87.0184
   259.0000      0.0000    716.4825     14.1270      2.8134     83.8237
   259.2500      0.0000    721.7924     13.8692      3.1223     80.2139
   259.5000      0.0000    723.3925     13.6747      3.3630     77.4169
   259.7500      0.0000    723.7140     13.4923      3.5303     76.5228
   260.0000      0.0000    723.7393     13.2981      3.6399     77.7555
   260.2500      0.0000    723.7653     13.1103      3.7325     80.2803
   260.5000      0.0000    723.8486     12.9610      3.8423     82.7087
   260.7500      0.0000    724.0416     12.8620      3.9645     83.8712
   261.0000      0.0000    724.3900     12.7925      4.0557     83.2718
   261.2500      0.0000    724.8813     12.7136      4.0729     81.1680
   261.5000      0.0000    725.3964     12.5991      4.0162     78.5258
   261.7500      0.0000    725.7847     12.4596      3.9211     76.6703
   262.0000      0.0000    725.9825     12.3364      3.8145     76.5587
   262.2500      0.0000    726.0280     12.2678      3.7004     78.2780
   262.5000      0.0000    725.9826     12.2565      3.5878     81.2497
   262.7500      0.0000    725.8766     12.2707      3.5061     84.7385
   263.0000      0.0000    725.7217     12.2752      3.4740     88.1584
   263.2500      0.0000    725.5432     12.2641      3.4634     91.1933
   263.5000      0.0000    725.3793     12.2633      3.4305     93.6599
   263.7500      0.0000    725.2603     12.3045      3.3830     95.2245
   264.0000      0.0000    725.2030     12.3956      3.3693     95.4437
   264.2500      0.0000    725.2198     12.5157      3.3995     94.1863
   264.5000      0.0000    725.3096     12.6309      3.4302     92.0393
   264.7500      0.0000    725.4498     12.7151      3.4373     90.3679
   265.0000      0.0000    725.6263     12.7545      3.4492     90.5766
   265.2500      0.0000    725.8630     12.7383      3.4942     92.7673
   265.5000      0.0000    726.1761     12.6571      3.5541     95.2379
   265.7500      0.0000    726.4955     12.5168      3.5825     95.8015
   266.0000      0.0000    726.6822     12.3508      3.5479     93.6960
   266.2500      0.0000    726.6479     12.2136      3.4600     90.0412
   266.5000      0.0000    726.4376     12.1547      3.3706     86.5997
   266.7500      0.0000    726.1806     12.1843      3.3342     84.3445
   267.0000      0.0000    725.9876     12.2609      3.3566     83.1760
   267.2500      0.0000    725.9099     12.3226      3.4019     82.6676
   267.5000      0.0000    725.9690     12.3336      3.4457     82.6829
   267.7500      0.0000    726.1805     12.2957      3.4922     83.1185
   268.0000      0.0000    726.5262     12.2210      3.5428     83.4682
   268.2500      0.0000    726.9120     12.1147      3.5777     83.2604
   268.5000      0.0000    727.1865     11.9858      3.5675     82.7723
   268.7500      0.0000    727.2330     11.8619      3.4971     82.7253
   269.0000      0.0000    727.0488     11.7790      3.3835     83.2851
   269.2500      0.0000    726.7332     11.7573      3.2692     83.8258
   269.5000      0.0000    726.4023     11.7894      3.1915     83.6113
   269.7500      0.0000    726.1149     11.8507      3.1652     82.3729
   270.0000      0.0000    725.8738     11.9141      3.1883     80.4286
   270.2500      0.0000    725.6766     11.9562      3.2450     78.6158
   270.5000      0.0000    725.5457     11.9651      3.3061     78.0085
   270.7500      0.0000    725.5083     11.9495      3.3522     79.4430
   271.0000      0.0000    725.5598     11.9353      3.3968     83.1191
   271.2500      0.0000    725.6600     11.9444      3.4713     88.2748
   271.5000      0.0000    725.7719     11.9766      3.5911     93.0887
   271.7500      0.0000    725.9363     12.0126      3.7448     95.2722
   272.0000      0.0000    726.3693     12.0317      3.9016     93.2987
   272.2500      0.0000    727.5331     12.0284      4.0198     87.4686
   272.5000      0.0000    730.0340     12.0170      4.0666     79.9267
   272.7500      0.0000    734.1416     12.0209      4.0445     73.4365
   273.0000      0.0000    739.0981     12.0594      3.9844     69.8141
   273.2500      0.0000    743.1652     12.1413      3.9255     69.1987
   273.5000      0.0000    744.9946     12.2639      3.9057     70.4758
   273.7500      0.0000    745.0162     12.4120      3.9341     72.2898
   274.0000      0.0000    744.9570     12.5603      3.9618     73.7871
   274.2500      0.0000    745.9288     12.6803      3.9226     74.7560
   274.5000      0.0000    747.3138     12.7482      3.8080     75.3182
   274.7500      0.0000    747.4440     12.7579      3.6770     75.3883
   275.0000      0.0000    745.2219     12.7311      3.6012     74.4211
   275.2500      0.0000    741.3098     12.7086      3.6128     71.9503
   275.5000      0.0000    737.7365     12.7196      3.6859     68.3990
   275.7500      0.0000    736.0769     12.7582      3.7472     65.0529
   276.0000      0.0000    736.0155     12.7895      3.7214     63.0670
   276.2500      0.0000    735.8595     12.7813      3.5834     62.6925
   276.5000      0.0000    734.3676     12.7272      3.3778     63.5681
   276.7500      0.0000    731.8267     12.6443      3.1942     65.6315
   277.0000      0.0000    729.4019     12.5569      3.1094     69.3981
   277.2500      0.0000    727.8827     12.4864      3.1371     75.0584
   277.5000      0.0000    727.2330     12.4456      3.2325     81.4911
   277.7500      0.0000    727.0031     12.4311      3.3482     86.6441
   278.0000      0.0000    726.8231     12.4249      3.4678     89.0394
   278.2500      0.0000    726.5598     12.4086      3.5904     88.7945
   278.5000      0.0000    726.2413     12.3745      3.6902     87.3040
   278.7500      0.0000    725.9424     12.3228      3.7023     86.2003
   279.0000      0.0000    725.7067     12.2559      3.5708     86.5156
   279.2500      0.0000    725.5474     12.1780      3.3290     88.2766
   279.5000      0.0000    725.4923     12.0926      3.1055     90.4722
   279.7500      0.0000    725.5964     12.0042      3.0140     91.5310
