~Version Information
VERS.                      2.0: CWLS Log ASCII Standard - VERSION 2.0
WRAP.                       NO: One line per depth step
~Well Information Block
STRT.FT                -5.5000: 
STOP.FT               791.0000: 
STEP.FT                 0.2500: 
NULL.                -999.2500: 
COMP.          Pioneer Natural Resources: COMPANY
WELL.           Beringer 33-18: WELL
FLD.           Purgatoire River: FIELD
LOC.           2356' FSL & 2338' FEL--: LOCATION
CNTY.               Las Animas: COUNTY
SRVC.                Patterson: SERVICE COMPANY
DATE.          Mon Apr 03 11:39:01 2006: LOG DATE
UWI.           05 071 08725 00: UNIQUE WELL ID
STAT.                 Colorado: STATE
~Curve Information Block
DEPT.FT            0 000 00 00: Depth
CCL.                          : Casing Collar Locator
TT3.usec                      : CBL 3' Travel Time
AMP3.mV                       : CBL 3' Amplitude
GR.GAPI                       : Gamma Ray
~Parameter Information Block
~A  Depth       CCL         TT3         AMP3         GR     
# ...
   363.0000      0.0000    759.4008      6.8239    178.0043
   363.2500      0.0000    761.2413      6.8270    180.0803
   363.5000      0.0000    758.5613      6.8128    180.9419
   363.7500      0.0000    752.6360      6.7864    179.5187
   364.0000      0.0000    739.2607      6.7301    176.2708
   364.2500      0.0000    729.8594      6.6965    175.3566
   364.5000      0.0000    720.5436      6.6796    176.9584
   364.7500      0.0000    719.9675      6.6967    178.4706
   365.0000      0.0000    727.5126      6.7519    177.4832
   365.2500      0.0000    735.1168      6.7941    173.4048
   365.5000      0.0000    743.0096      6.8452    163.1329
   365.7500      0.0000    743.4434      6.8647    155.5762
   366.0000      0.0000    738.7028      6.8670    147.4189
   366.2500      0.0000    735.0252      6.8493    145.6152
   366.5000      0.0000    732.4114      6.7955    147.4927
   366.7500      0.0000    732.8535      6.7461    149.5920
   367.0000      0.0000    735.7994      6.6691    150.2973
   367.2500      0.0000    738.9963      6.6319    148.5508
   367.5000      0.0000    745.7231      6.6268    144.4039
   367.7500      0.0000    751.1996      6.6661    142.0058
   368.0000      0.0000    759.1768      6.7744    139.5997
   368.2500      0.0000    763.0601      6.8588    137.9880
   368.5000      0.0000    765.3041      6.9770    133.7586
   368.7500      0.0000    764.2332      7.0476    129.3774
   369.0000      0.0000    759.3156      7.1426    121.2392
   369.2500      0.0000    754.5151      7.1932    115.3676
   369.5000      0.0000    746.7117      7.2380    106.4698
   369.7500      0.0000    742.1284      7.2506    101.0612
   370.0000      0.0000    737.2724      7.2727     96.1396
   370.2500      0.0000    735.4791      7.3095     96.6792
   370.5000      0.0000    734.6349      7.4159    104.0267
   370.7500      0.0000    735.1762      7.5185    111.6112
   371.0000      0.0000    737.6329      7.7039    121.6722
   371.2500      0.0000    740.2422      7.8392    124.8535
   371.5000      0.0000    745.0172      8.0472    123.6388
   371.7500      0.0000    748.4574      8.1794    120.6364
   372.0000      0.0000    753.6453      8.3422    116.9009
   372.2500      0.0000    756.5871      8.4118    116.5301
   372.5000      0.0000    758.4960      8.4518    120.0825
   372.7500      0.0000    757.4675      8.4505    124.6006
   373.0000      0.0000    753.4828      8.4513    131.3549
   373.2500      0.0000    750.4626      8.4733    133.3406
   373.5000      0.0000    746.5755      8.5355    130.1568
   373.7500      0.0000    744.3478      8.5740    124.4964
   374.0000      0.0000    741.6096      8.5843    114.0893
   374.2500      0.0000    740.7664      8.5481    108.3017
   374.5000      0.0000    741.8854      8.4353    104.8061
   374.7500      0.0000    743.9015      8.3279    106.7802
   375.0000      0.0000    747.0056      8.1201    115.0862
   375.2500      0.0000    748.2688      7.9509    122.6113
   375.5000      0.0000    748.8088      7.6698    134.5239
   375.7500      0.0000    748.4223      7.4866    142.2914
   376.0000      0.0000    746.6530      7.2605    153.5370
   376.2500      0.0000    745.0940      7.1614    160.4259
   376.5000      0.0000    744.4816      7.1130    168.0154
   376.7500      0.0000    746.3311      7.1527    169.9494
   377.0000      0.0000    751.2815      7.3047    167.5559
   377.2500      0.0000    753.9250      7.4442    163.3708
   377.5000      0.0000    754.7516      7.6692    155.3692
   377.7500      0.0000    754.1939      7.8185    149.6224
   378.0000      0.0000    755.7927      8.0432    141.2251
   378.2500      0.0000    760.1755      8.1943    136.5561
   378.5000      0.0000    770.7717      8.4051    132.4007
   378.7500      0.0000    778.0602      8.5171    131.8457
   379.0000      0.0000    784.9102      8.6198    133.3093
   379.2500      0.0000    785.6199      8.6422    134.3820
   379.5000      0.0000    782.3124      8.6084    133.5107
   379.7500      0.0000    779.3956      8.5369    130.5802
   380.0000      0.0000    778.1254      8.3444    123.2828
   380.2500      0.0000    780.8903      8.1599    117.3220
   380.5000      0.0000    789.6932      7.8208    108.3233
   380.7500      0.0000    796.0334      7.5731    103.4197
   381.0000      0.0000    800.9193      7.2041     99.5822
   381.2500      0.0000    799.9853      6.9771     99.6906
   381.5000      0.0000    795.0344      6.6859    102.5543
   381.7500      0.0000    791.7744      6.5295    105.0169
   382.0000      0.0000    788.8265      6.3459    107.9826
   382.2500      0.0000    787.7822      6.2487    109.1403
   382.5000      0.0000    786.0989      6.1260    109.7858
   382.7500      0.0000    784.3737      6.0585    109.8885
   383.0000      0.0000    781.5823      5.9896    110.5968
   383.2500      0.0000    780.9816      5.9703    111.8927
   383.5000      0.0000    784.6948      5.9718    114.7017
   383.7500      0.0000    791.0049      5.9798    116.1199
   384.0000      0.0000    805.4085      5.9866    115.4223
   384.2500      0.0000    816.7740      5.9882    112.6529
   384.5000      0.0000    832.2712      5.9951    106.8226
   384.7500      0.0000    838.5968      6.0066    103.6453
   385.0000      0.0000    838.3951      6.0326    102.0972
   385.2500      0.0000    831.7408      6.0517    103.3945
   385.5000      0.0000    815.1317      6.0772    108.0366
   385.7500      0.0000    801.9966      6.0905    112.1733
   386.0000      0.0000    782.2027      6.0989    118.2084
   386.2500      0.0000    770.1425      6.0876    121.1177
   386.5000      0.0000    755.7133      6.0332    123.0980
   386.7500      0.0000    749.6833      5.9786    123.0585
   387.0000      0.0000    747.2703      5.9039    121.3632
   387.2500      0.0000    749.7810      5.8741    118.8836
   387.5000      0.0000    756.5830      5.8531    112.4888
   387.7500      0.0000    760.1859      5.8407    106.9956
   388.0000      0.0000    760.2101      5.8169    100.4415
   388.2500      0.0000    756.5747      5.8056     99.6634
   388.5000      0.0000    749.2875      5.8013    105.0624
   388.7500      0.0000    745.9088      5.7949    111.1311
   389.0000      0.0000    745.8126      5.7478    118.8563
   389.2500      0.0000    748.9933      5.6832    121.1580
   389.5000      0.0000    756.2720      5.5507    120.0203
   389.7500      0.0000    761.0316      5.4559    116.9657
   390.0000      0.0000    766.1086      5.3295    110.7794
   390.2500      0.0000    768.0070      5.2630    107.0498
   390.5000      0.0000    769.5617      5.1910    104.5428
   390.7500      0.0000    770.4271      5.1596    105.3422
   391.0000      0.0000    772.3384      5.1383    108.5398
   391.2500      0.0000    774.2401      5.1437    110.4077
   391.5000      0.0000    777.9851      5.1737    110.7248
   391.7500      0.0000    780.9466      5.1945    108.8177
   392.0000      0.0000    785.7788      5.2047    103.4630
   392.2500      0.0000    788.8193      5.1983     99.3029
   392.5000      0.0000    791.9094      5.1869     94.2028
   392.7500      0.0000    792.6450      5.1863     92.4312
   393.0000      0.0000    792.6372      5.1959     92.8694
   393.2500      0.0000    792.6146      5.2039     95.0004
   393.5000      0.0000    792.0569      5.2087     99.3716
   393.7500      0.0000    789.9521      5.2058    101.7003
   394.0000      0.0000    782.5436      5.2031    102.4865
   394.2500      0.0000    775.5898      5.2120    101.0928
   394.5000      0.0000    766.0969      5.2436     97.6852
   394.7500      0.0000    762.4088      5.2660     96.0356
   395.0000      0.0000    760.6611      5.2786     97.2977
   395.2500      0.0000    759.5526      5.2678    101.8171
   395.5000      0.0000    752.4379      5.2335    113.9383
   395.7500      0.0000    742.5339      5.2106    124.0193
   396.0000      0.0000    722.9442      5.1904    138.6423
   396.2500      0.0000    710.9623      5.1836    146.5806
