~Version Information
VERS.                      2.0: CWLS Log ASCII Standard - VERSION 2.0
WRAP.                       NO: One line per depth step
~Well Information Block
STRT.FT               -14.7500: 
STOP.FT              1106.0000: 
STEP.FT                 0.2500: 
NULL.                -999.2500: 
COMP.          Pioneer Natural Resources: COMPANY
WELL.          Black Cat 13-32 Tr: WELL
FLD.           Purgatorie River: FIELD
LOC.           1679' FSL & 1150' FWL--: LOCATION
CNTY.               Las Animas: COUNTY
SRVC.          Patterson Wireline: SERVICE COMPANY
DATE.          Wed Mar 15 15:59:24 2006: LOG DATE
UWI.           05 071 08721 00: UNIQUE WELL ID
STAT.                       CO: STATE
~Curve Information Block
DEPT.FT            0 000 00 00: Depth
CCL.                          : Casing Collar Locator
TT3.usec                      : CBL 3' Travel Time
AMP3.mV                       : CBL 3' Amplitude
GR.GAPI                       : Gamma Ray
~Parameter Information Block
~A  Depth       CCL         TT3         AMP3         GR     
# ...
   688.7500      0.0000    772.2847      6.0666    193.9465
   689.0000      0.0000    760.6622      5.9690    194.6728
   689.2500      0.0000    748.4561      5.8832    189.6694
   689.5000      0.0000    739.3427      5.8033    180.5292
   689.7500      0.0000    734.6266      5.7462    171.3910
   690.0000      0.0000    733.2897      5.7409    166.2145
   690.2500      0.0000    733.6096      5.8009    166.1976
   690.5000      0.0000    734.8007      5.9122    169.3347
   690.7500      0.0000    737.4768      6.0435    172.3899
   691.0000      0.0000    742.3916      6.1606    173.4749
   691.2500      0.0000    748.6240      6.2376    172.7686
   691.5000      0.0000    753.6494      6.2656    171.0209
   691.7500      0.0000    755.4475      6.2557    168.1650
   692.0000      0.0000    754.0001      6.2293    163.7461
   692.2500      0.0000    750.5836      6.2018    158.1674
   692.5000      0.0000    746.2880      6.1749    152.8260
   692.7500      0.0000    741.6530      6.1446    149.1083
   693.0000      0.0000    737.0750      6.1137    147.4750
   693.2500      0.0000    732.9288      6.0913    147.3548
   693.5000      0.0000    729.6761      6.0788    147.7300
   693.7500      0.0000    728.0844      6.0604    147.9860
   694.0000      0.0000    729.1630      6.0147    148.3167
   694.2500      0.0000    733.9194      5.9371    149.2114
   694.5000      0.0000    743.1554      5.8567    150.5257
   694.7500      0.0000    757.1260      5.8270    151.1588
   695.0000      0.0000    775.2477      5.8918    149.8137
   695.2500      0.0000    795.9625      6.0532    146.2467
   695.5000      0.0000    816.5336      6.2690    141.7665
   695.7500      0.0000    833.1813      6.4806    138.2902
   696.0000      0.0000    842.0925      6.6416    136.7794
   696.2500      0.0000    840.5167      6.7302    136.6605
   696.5000      0.0000    827.3912      6.7506    136.5165
   696.7500      0.0000    804.0518      6.7306    135.0524
   697.0000      0.0000    774.0505      6.7055    131.6875
   697.2500      0.0000    741.4210      6.6997    126.8619
   697.5000      0.0000    710.6810      6.7219    122.0775
   697.7500      0.0000    689.8334      6.7714    119.4126
   698.0000      0.0000    689.0929      6.8383    120.4498
   698.2500      0.0000    711.4529      6.9015    125.2102
   698.5000      0.0000    746.6571      6.9319    132.0779
   698.7500      0.0000    779.1031      6.9026    138.8476
   699.0000      0.0000    800.5419      6.8005    143.9184
   699.2500      0.0000    812.7028      6.6347    146.6842
   699.5000      0.0000    820.3948      6.4344    147.1521
   699.7500      0.0000    825.4035      6.2317    145.4184
   700.0000      0.0000    825.9928      6.0416    141.6174
   700.2500      0.0000    819.6742      5.8616    136.2827
   700.5000      0.0000    805.9122      5.6927    130.5257
   700.7500      0.0000    786.9537      5.5548    125.8561
   701.0000      0.0000    766.7081      5.4755    123.9180
   701.2500      0.0000    749.2208      5.4654    125.9821
   701.5000      0.0000    737.7305      5.5084    132.1653
   701.7500      0.0000    733.9055      5.5773    141.3001
   702.0000      0.0000    737.0988      5.6513    151.7687
   702.2500      0.0000    744.1154      5.7203    162.1369
   702.5000      0.0000    750.5081      5.7781    171.1385
   702.7500      0.0000    753.6608      5.8178    177.9259
   703.0000      0.0000    754.7331      5.8310    182.4486
   703.2500      0.0000    756.9564      5.8146    184.9409
   703.5000      0.0000    762.9485      5.7794    185.1304
   703.7500      0.0000    774.1541      5.7515    182.5660
   704.0000      0.0000    790.4843      5.7596    177.5259
   704.2500      0.0000    808.5585      5.8161    170.9427
   704.5000      0.0000    821.9463      5.9089    163.5150
   704.7500      0.0000    825.2811      6.0119    155.4283
   705.0000      0.0000    817.9314      6.1007    147.0637
   705.2500      0.0000    803.3724      6.1629    139.5039
   705.5000      0.0000    786.2110      6.2012    133.9997
   705.7500      0.0000    770.2126      6.2292    131.0600
   706.0000      0.0000    757.5474      6.2567    130.2261
   706.2500      0.0000    748.4031      6.2757    130.5564
   706.5000      0.0000    741.5596      6.2669    131.1739
   706.7500      0.0000    736.0428      6.2224    131.5238
   707.0000      0.0000    732.3053      6.1549    131.4797
   707.2500      0.0000    731.4720      6.0820    131.3012
   707.5000      0.0000    733.2932      6.0078    131.3299
   707.7500      0.0000    735.4140      5.9282    131.6696
   708.0000      0.0000    735.5317      5.8484    132.0748
   708.2500      0.0000    734.6943      5.7822    131.9530
   708.5000      0.0000    737.4562      5.7358    130.5599
   708.7500      0.0000    747.7178      5.7003    127.5027
   709.0000      0.0000    764.6404      5.6628    123.2088
   709.2500      0.0000    783.4561      5.6194    119.0479
   709.5000      0.0000    799.7983      5.5776    116.9881
   709.7500      0.0000    812.2640      5.5525    118.4407
   710.0000      0.0000    821.2144      5.5622    122.8104
   710.2500      0.0000    826.6752      5.6184    127.2738
   710.5000      0.0000    827.8977      5.7160    128.3538
   710.7500      0.0000    823.9886      5.8325    123.9849
   711.0000      0.0000    814.1200      5.9377    114.7630
   711.2500      0.0000    796.6663      6.0038    103.8244
   711.5000      0.0000    768.4683      6.0128     95.2273
   711.7500      0.0000    726.7336      5.9619     91.6738
   712.0000      0.0000    673.8737      5.8619     93.2289
   712.2500      0.0000    620.9682      5.7270     97.7607
   712.5000      0.0000    584.3506      5.5703    102.4025
   712.7500      0.0000    576.3925      5.4105    105.0731
   713.0000      0.0000    598.1052      5.2752    105.4354
   713.2500      0.0000    639.3939      5.1904    104.8342
   713.5000      0.0000    685.7012      5.1625    105.0373
   713.7500      0.0000    725.6287      5.1692    106.5773
   714.0000      0.0000    754.5485      5.1685    108.2519
   714.2500      0.0000    773.4930      5.1248    108.2742
   714.5000      0.0000    786.0944      5.0346    105.6662
   714.7500      0.0000    795.8025      4.9272    100.5778
   715.0000      0.0000    804.1185      4.8389     93.9129
   715.2500      0.0000    810.1697      4.7843     86.9371
   715.5000      0.0000    811.2604      4.7509     80.7618
   715.7500      0.0000    803.8777      4.7160     75.7905
   716.0000      0.0000    786.0363      4.6704     71.6596
   716.2500      0.0000    760.5910      4.6262     67.8042
   716.5000      0.0000    735.3885      4.6024     64.1476
   716.7500      0.0000    718.2341      4.6049     61.2863
   717.0000      0.0000    711.4469      4.6277     59.8732
   717.2500      0.0000    711.6370      4.6669     59.6906
   717.5000      0.0000    713.9105      4.7280     59.5566
   717.7500      0.0000    715.6332      4.8171     58.5558
   718.0000      0.0000    716.8568      4.9303     57.2974
   718.2500      0.0000    718.4493      5.0494     57.5349
   718.5000      0.0000    720.5179      5.1433     60.5994
   718.7500      0.0000    722.4474      5.1785     66.6684
   719.0000      0.0000    723.7179      5.1358     75.3047
   719.2500      0.0000    724.2849      5.0238     85.7498
   719.5000      0.0000    724.3734      4.8742     96.5138
   719.7500      0.0000    724.2139      4.7245    105.7539
   720.0000      0.0000    723.9597      4.6020    112.9335
   720.2500      0.0000    723.7114      4.5220    119.6452
   720.5000      0.0000    723.5494      4.4918    127.7122
   720.7500      0.0000    723.5588      4.5119    136.3145
   721.0000      0.0000    723.8768      4.5734    141.8355
   721.2500      0.0000    724.8184      4.6540    140.9574
   721.5000      0.0000    727.0726      4.7195    133.3958
   721.7500      0.0000    731.6404      4.7370    121.5098
   722.0000      0.0000    738.9208      4.6958    108.1919
