~Version Information
VERS.                      2.0: CWLS Log ASCII Standard - VERSION 2.0
WRAP.                       NO: One line per depth step
~Well Information Block
STRT.FT                -1.5000: 
STOP.FT              2143.7500: 
STEP.FT                 0.2500: 
NULL.                -999.2500: 
COMP.          Pioneer Natural Resources: COMPANY
WELL.              Kermit 32-7: WELL
FLD.           Purgatoire River: FIELD
LOC.           2002' FNL & 2103' FEL: LOCATION
PROV.                 Colorado: PROVINCE
CNTY.               Las Animas: COUNTRY
SRVC.                Patterson: SERVICE COMPANY
DATE.          Wed Jan 18 14:17:49 2006: LOG DATE
UWI.           05 071 08647 00: UNIQUE WELL ID
~Curve Information Block
DEPT.FT            0 000 00 00: Depth
GR.GAPI                       : Gamma Ray
CCL.                          : Casing Collar Locator
TT3.usec                      : CBL 3' Travel Time
AMP3.mV                       : CBL 3' Amplitude
~Parameter Information Block
~A  Depth        GR         CCL         TT3         AMP3    
# ...
  1841.0000     85.3020      0.0000    572.8365      9.4988
  1841.2500     86.7486      0.0000    569.1447      9.5172
  1841.5000     89.9985      0.0000    574.9664      9.4683
  1841.7500     94.3646      0.0000    591.0911      9.3783
  1842.0000     98.2373      0.0000    613.9036      9.2837
  1842.2500    100.3095      0.0000    636.8961      9.2090
  1842.5000    100.3564      0.0000    654.7578      9.1638
  1842.7500     99.1740      0.0000    665.4680      9.1484
  1843.0000     98.0416      0.0000    669.3171      9.1540
  1843.2500     97.8597      0.0000    667.4508      9.1577
  1843.5000     98.5125      0.0000    661.4484      9.1246
  1843.7500     99.2468      0.0000    652.9782      9.0235
  1844.0000     99.6858      0.0000    642.5107      8.8500
  1844.2500    100.1665      0.0000    628.4311      8.6420
  1844.5000    101.0112      0.0000    609.2742      8.4670
  1844.7500    101.7171      0.0000    587.9225      8.3805
  1845.0000    101.1129      0.0000    570.8979      8.3905
  1845.2500     98.3535      0.0000    560.3706      8.4636
  1845.5000     93.7730      0.0000    548.6933      8.5617
  1845.7500     88.9033      0.0000    525.1627      8.6670
  1846.0000     85.6995      0.0000    488.3387      8.7787
  1846.2500     85.3510      0.0000    448.7196      8.8963
  1846.5000     87.4027      0.0000    419.8126      9.0119
  1846.7500     90.0024      0.0000    409.0954      9.1185
  1847.0000     91.2519      0.0000    416.1758      9.2220
  1847.2500     90.4748      0.0000    435.2781      9.3412
  1847.5000     88.3624      0.0000    458.2258      9.4900
  1847.7500     86.1374      0.0000    477.5901      9.6590
  1848.0000     84.6378      0.0000    489.5896      9.8189
  1848.2500     83.9235      0.0000    495.5038      9.9455
  1848.5000     83.5031      0.0000    500.3224     10.0393
  1848.7500     82.9302      0.0000    508.3293     10.1226
  1849.0000     82.3424      0.0000    518.2462     10.2192
  1849.2500     82.5369      0.0000    522.6877     10.3362
  1849.5000     84.4379      0.0000    513.2663     10.4611
  1849.7500     88.2086      0.0000    487.3900     10.5733
  1850.0000     92.7305      0.0000    451.2682     10.6564
  1850.2500     96.1816      0.0000    416.4850     10.7000
  1850.5000     97.3970      0.0000    392.9577     10.6961
  1850.7500     96.7490      0.0000    384.4691     10.6413
  1851.0000     95.7996      0.0000    390.0345     10.5393
  1851.2500     96.0973      0.0000    407.5724     10.3988
  1851.5000     98.0273      0.0000    434.6769     10.2347
  1851.7500    100.5620      0.0000    466.3109     10.0751
  1852.0000    102.2563      0.0000    493.7115      9.9656
  1852.2500    102.6195      0.0000    507.2444      9.9534
  1852.5000    102.3657      0.0000    501.3198     10.0590
  1852.7500    102.3781      0.0000    477.8370     10.2560
  1853.0000    102.9729      0.0000    445.6038     10.4822
  1853.2500    104.2645      0.0000    415.4680     10.6731
  1853.5000    106.4112      0.0000    394.3603     10.7932
  1853.7500    109.0895      0.0000    383.0340     10.8429
  1854.0000    111.3363      0.0000    378.4547     10.8420
  1854.2500    112.2624      0.0000    377.4595     10.8086
  1854.5000    111.5827      0.0000    378.8202     10.7500
  1854.7500    109.4453      0.0000    383.8022     10.6697
  1855.0000    106.1634      0.0000    395.7394     10.5780
  1855.2500    102.1314      0.0000    417.7325     10.4902
  1855.5000     97.6908      0.0000    448.2064     10.4113
  1855.7500     93.1263      0.0000    477.9440     10.3301
  1856.0000     89.0721      0.0000    493.7029     10.2337
  1856.2500     86.6009      0.0000    487.5095     10.1246
  1856.5000     86.3086      0.0000    463.0152     10.0191
  1856.7500     87.5077      0.0000    432.2726      9.9312
  1857.0000     88.9993      0.0000    406.6126      9.8645
  1857.2500     90.4690      0.0000    390.6302      9.8191
  1857.5000     92.4388      0.0000    382.9554      9.7999
  1857.7500     94.9681      0.0000    380.2651      9.8095
  1858.0000     97.1105      0.0000    380.1494      9.8341
  1858.2500     97.7942      0.0000    381.8237      9.8467
  1858.5000     96.9185      0.0000    385.7483      9.8274
  1858.7500     95.5327      0.0000    393.0177      9.7822
  1859.0000     95.0255      0.0000    404.8153      9.7379
  1859.2500     95.9406      0.0000    422.0459      9.7190
  1859.5000     97.4735      0.0000    444.7780      9.7277
  1859.7500     98.2309      0.0000    471.0593      9.7440
  1860.0000     97.5319      0.0000    496.1913      9.7422
  1860.2500     95.9938      0.0000    514.5109      9.7060
  1860.5000     95.0221      0.0000    523.0515      9.6287
  1860.7500     95.6945      0.0000    523.3207      9.5084
  1861.0000     97.8522      0.0000    519.1646      9.3541
  1861.2500    100.1643      0.0000    513.0250      9.1942
  1861.5000    101.0929      0.0000    504.1220      9.0694
  1861.7500     99.8277      0.0000    489.9311      9.0071
  1862.0000     96.6231      0.0000    469.7639      8.9975
  1862.2500     92.6125      0.0000    447.7322      8.9842
  1862.5000     89.2933      0.0000    432.0665      8.8771
  1862.7500     87.8548      0.0000    430.4473      8.5990
  1863.0000     88.5865      0.0000    444.6929      8.1656
  1863.2500     90.6887      0.0000    469.4854      7.7265
  1863.5000     92.6956      0.0000    496.6090      7.4674
  1863.7500     93.2224      0.0000    520.6157      7.4226
  1864.0000     91.5444      0.0000    540.0177      7.4372
  1864.2500     87.9514      0.0000    553.9362      7.3656
  1864.5000     83.7158      0.0000    560.4011      7.2389
  1864.7500     80.2360      0.0000    559.2234      7.1728
  1865.0000     78.0313      0.0000    555.4154      7.1853
  1865.2500     76.7700      0.0000    558.5355      7.1822
  1865.5000     75.9692      3.0000    576.9494      7.0800
  1865.7500     75.1579      0.0000    609.9406      6.9076
  1866.0000     73.5940      0.0000    644.8865      6.8061
  1866.2500     70.3730      0.0000    665.2138      6.9135
  1866.5000     65.0309      0.0000    663.7682      7.2040
  1866.7500     58.1640      0.0000    648.5977      7.4707
  1867.0000     51.5041      0.0000    635.0856      7.5258
  1867.2500     47.0472      0.0000    632.8012      7.3695
  1867.5000     45.8279      0.0000    640.1026      7.1140
  1867.7500     47.4850      0.0000    649.6342      6.8273
  1868.0000     50.6870      0.0000    656.1238      6.5211
  1868.2500     53.7342      0.0000    658.7416      6.2215
  1868.5000     55.2332      0.0000    658.9395      5.9731
  1868.7500     54.9165      0.0000    658.1796      5.7947
  1869.0000     53.8626      0.0000    657.2950      5.6669
  1869.2500     53.4054      0.0000    656.6799      5.5583
  1869.5000     53.6285      0.0000    656.4951      5.4516
  1869.7500     53.2350      0.0000    656.7188      5.3626
  1870.0000     51.0340      0.0000    657.1292      5.3518
  1870.2500     47.2012      0.0000    657.3805      5.5179
  1870.5000     42.9541      0.0000    656.9344      5.9590
  1870.7500     39.4191      0.0000    654.4955      6.7260
  1871.0000     37.1302      0.0000    646.8996      7.8050
  1871.2500     36.3640      0.0000    628.6658      9.1372
  1871.5000     37.5289      0.0000    594.3591     10.6503
  1871.7500     41.0880      0.0000    543.6858     12.2787
  1872.0000     47.0972      0.0000    484.4767     13.9716
  1872.2500     54.8299      0.0000    428.7325     15.6926
  1872.5000     62.9387      0.0000    384.8542     17.3927
  1872.7500     70.0531      0.0000    354.1955     18.9602
  1873.0000     75.2998      0.0000    334.0974     20.1998
  1873.2500     78.4978      0.0000    322.1035     20.8940
  1873.5000     80.0872      0.0000    317.0515     20.9210
  1873.7500     80.7409      0.0000    317.7728     20.3338
  1874.0000     80.7252      0.0000    322.2958     19.3331
  1874.2500     79.5961      0.0000    328.8408     18.1571
