~Version Information
VERS.                      2.0: CWLS Log ASCII Standard - VERSION 2.0
WRAP.                       NO: One line per depth step
~Well Information Block
STRT.FT               410.0000: 
STOP.FT              1252.0000: 
STEP.FT                 0.2500: 
NULL.                -999.2500: 
COMP.          Petrogulf Corporation: COMPANY
WELL.           Parsons 15-23R: WELL
FLD.           Purgatorie River: FIELD
LOC.           2244' FSL & 1932' FWL: LOCATION
PROV.                 Colorado: PROVINCE
CNTY.               Las Animas: COUNTRY
SRVC.                Patterson: SERVICE COMPANY
DATE.          Mon Sep 12 10:30:11 2005: LOG DATE
UWI.                          : UNIQUE WELL ID
~Curve Information Block
DEPT.FT            0 000 00 00: Depth
SP.mV                         : DIL Spontaneous Potential
RILD.Ohm-m                    : DIL Deep Resistivity
RILM.Ohm-m                    : DIL Medium Resistivity
RLL3.Ohm-m                    : DIL Shallow Resistivity
GR.GAPI                       : Gamma Ray
~Parameter Information Block
~A  Depth        SP         RILD        RILM        RLL3         GR     
# ...
   886.0000    202.0538      8.1979      8.5207      9.9375    157.8653
   886.2500    202.3003      8.1965      8.7477     10.0602    158.6292
   886.5000    202.7352      8.2410      8.9024     10.8836    169.2459
   886.7500    203.2431      8.2309      9.0131     13.2632    137.6195
   887.0000    203.6185      8.1848      8.9359     14.6929    136.6309
   887.2500    204.1259      8.2815      8.7723     11.1281    139.6393
   887.5000    204.5285      8.3166      8.8936      8.5933    148.7233
   887.7500    204.9531      8.3192      8.6824      9.1418    139.3150
   888.0000    205.2084      8.5227      8.7787     10.1727    160.8895
   888.2500    205.4879      8.5482      9.0415     10.4981    170.1329
   888.5000    206.0047      8.5101      9.1468     10.1871    159.9934
   888.7500    206.4439      8.5230      9.1253     10.2662    156.8672
   889.0000    206.9282      8.4315      9.1716     10.5077    152.6613
   889.2500    207.2488      8.2608      9.2735     11.1780    140.5111
   889.5000    207.2401      8.2114      9.0870     11.4467    145.4280
   889.7500    207.3373      8.1778      8.9674     10.7444    143.8681
   890.0000    207.4612      8.1413      8.9093     10.7695    152.2009
   890.2500    207.2374      8.1712      8.6463     10.8400    160.2953
   890.5000    206.7423      8.0222      8.4818     10.1675    166.9360
   890.7500    206.5786      8.1110      8.3808      9.7362    175.4651
   891.0000    206.3058      8.2208      8.2596      9.4895    168.1084
   891.2500    205.8986      8.2987      8.0926      9.0085    166.0955
   891.5000    205.5819      8.3915      8.0993      8.6754    165.5052
   891.7500    205.3101      8.6351      8.1415      8.1898    162.8586
   892.0000    205.2791      8.9803      8.3522      8.0344    192.3163
   892.2500    205.4070      9.0812      8.6684      8.7834    199.4332
   892.5000    205.5893      9.1969      9.1506     10.3035    174.6282
   892.7500    206.0986      9.3067      9.6063     12.5447    148.8949
   893.0000    206.7020      9.3046     10.3056     14.6768    165.2603
   893.2500    207.4737      9.6302     10.8856     15.5386    150.8287
   893.5000    208.3073      9.8796     11.3383     15.8529    138.5705
   893.7500    209.1620     10.1382     11.7444     17.2981    141.0120
   894.0000    210.2386     10.5664     12.0885     17.4250    118.7721
   894.2500    210.9356     10.8379     12.6446     17.0143    119.9967
   894.5000    211.1546     11.1764     12.9436     17.7664    113.1960
   894.7500    211.2031     11.4078     13.2149     18.7692    110.1814
   895.0000    211.0207     11.6506     13.6748     18.0197    128.9265
   895.2500    210.7028     12.0241     13.7403     16.5573    145.6373
   895.5000    210.5042     12.1887     13.8497     15.4399    113.6517
   895.7500    210.1832     12.3521     13.7192     16.0650    114.8911
   896.0000    209.9381     12.2049     13.7497     16.7108    140.1061
   896.2500    209.6235     12.6463     14.1224     16.3326    141.4550
   896.5000    209.2604     12.3636     14.0967     16.0584    119.0558
   896.7500    208.9345     12.4948     14.5087     16.0977    113.6839
   897.0000    209.0115     12.6632     14.0829     16.7674    120.4006
   897.2500    209.0204     12.7753     13.9255     18.0641    117.7022
   897.5000    208.8164     13.0458     13.8622     18.0120    134.4465
   897.7500    208.7978     13.5752     13.9688     15.9352    138.2697
   898.0000    208.7860     13.7291     14.2646     14.0268    143.3933
   898.2500    208.9477     13.4870     15.0695     13.2015    145.6982
   898.5000    208.9617     13.5864     16.3104     15.0570    150.9505
   898.7500    208.8250     13.4600     17.1064     21.8550    149.6608
   899.0000    208.5951     13.2336     17.1923     37.5641    141.5959
   899.2500    208.2379     13.1479     16.9901     57.1607    126.7909
   899.5000    208.3803     12.8056     16.4298     61.8941    118.1978
   899.7500    208.4567     13.2780     15.4612     43.5214    128.2378
   900.0000    208.6097     13.1705     13.7742     24.3696    154.7068
   900.2500    208.4892     13.5800     13.2667     14.9805    158.1439
   900.5000    208.3166     13.7414     12.8520     10.7679    155.2307
   900.7500    208.2659     14.8257     13.1204      9.0893    163.8873
   901.0000    208.3034     15.0510     14.0577     10.3209    137.6710
   901.2500    208.3713     14.5689     15.0908     13.5593    121.8665
   901.5000    208.8875     14.7046     16.5759     18.9309    103.1907
   901.7500    209.0088     13.9918     17.8900     26.9970    103.7617
   902.0000    209.1295     13.3741     18.7565     40.9391    111.7803
   902.2500    209.5701     13.0508     17.9236     58.7183     91.4314
   902.5000    210.1819     12.3382     17.7014     58.6649     82.7673
   902.7500    210.9420     11.6145     17.1639     45.0855     98.4168
   903.0000    211.4918     11.5571     15.7421     35.3380    109.9911
   903.2500    212.0347     11.3272     14.5550     27.1570    122.6192
   903.5000    212.5080     11.1909     13.1041     18.7642    135.3621
   903.7500    212.9821     10.9810     12.4874     12.9233    145.7568
   904.0000    213.1913     10.8562     11.6892     10.3596    162.4408
   904.2500    212.7585     10.3979     10.9963      9.8661    159.9638
   904.5000    212.5244     10.1252     10.1078      9.4499    161.0846
   904.7500    212.0501      9.6004      9.7344      9.4325    149.1126
   905.0000    211.7356      9.1109      9.4454      9.5152    146.2085
   905.2500    211.1960      8.9963      9.0164     10.1109    172.0242
   905.5000    210.6707      8.6027      8.7186     10.3817    153.9182
   905.7500    210.3686      8.2375      8.4398     10.7806    154.7006
   906.0000    209.8433      8.2515      8.0785     10.8318    165.6413
   906.2500    209.4924      8.4910      7.8788      9.7096    179.4947
   906.5000    209.5048      8.6032      7.8560      8.7459    155.2019
   906.7500    209.5746      8.7755      7.8525      7.9115    132.4460
   907.0000    209.9485      9.1977      8.1838      7.9632    163.3317
   907.2500    210.1364      9.7116      8.6568      8.2947    155.9488
   907.5000    210.5703     10.2620      9.5505     10.6429    138.8201
   907.7500    210.8951     10.7086     10.7147     16.7052    114.8574
   908.0000    211.1407     11.1999     12.3600     32.1814     96.9043
   908.2500    211.2550     11.7602     13.8098     59.9181     77.8269
   908.5000    211.2922     12.2959     15.4202     91.7379     64.4886
   908.7500    211.0470     12.8258     16.7077    111.5668     50.1422
   909.0000    210.8072     13.5542     17.2918    107.6360     50.5850
   909.2500    210.4221     14.6024     19.0543     85.9869     65.0819
   909.5000    210.0612     15.8223     21.4151     61.0752     62.7740
   909.7500    210.1606     17.4214     22.9517     41.6037     60.2002
   910.0000    210.1289     18.7165     23.7473     30.9202     83.3968
   910.2500    210.0057     19.5129     26.0168     27.6559     95.8738
   910.5000    209.6196     19.8563     29.3956     25.2687    114.7225
   910.7500    209.6232     19.5907     29.8197     26.2387    120.4289
   911.0000    209.4233     19.9102     29.8062     33.4436    103.4305
   911.2500    209.5187     18.9327     30.5638     41.9668    105.5124
   911.5000    209.8761     17.7404     30.4178     45.9197     94.4794
   911.7500    210.4404     16.8999     28.3694     46.3214     94.3114
   912.0000    211.2684     15.4425     25.1966     37.0916    104.1490
   912.2500    211.7076     14.6249     22.6792     28.2883    115.4335
   912.5000    212.7924     13.4778     19.8538     26.6315    104.3712
   912.7500    213.6903     12.4328     16.8489     23.5263    114.8972
   913.0000    214.0632     12.1479     14.9462     18.1259    141.2763
   913.2500    213.8994     11.5696     13.2080     13.2158    155.3831
   913.5000    213.8717     11.1324     11.6770      9.8150    143.5337
   913.7500    213.6217     10.7546     10.8214      8.4714    145.7136
