~Version Information
VERS.                      2.0: CWLS Log ASCII Standard - VERSION 2.0
WRAP.                       NO: One line per depth step
~Well Information Block
STRT.FT               -10.0000: 
STOP.FT              2073.0000: 
STEP.FT                 0.2500: 
NULL.                -999.2500: 
COMP.          Pioneer Natural Resources: COMPANY
WELL.              Joplin 44-5: WELL
FLD.           Purgatorie River: FIELD
LOC.           262' FSL & 418' FEL--: LOCATION
PROV.                       CO: PROVINCE
CNTY.               Las Animas: COUNTRY
SRVC.          Patterson Wireline: SERVICE COMPANY
DATE.          Mon Dec 19 09:21:33 2005: LOG DATE
UWI.           05 071 08623 00: UNIQUE WELL ID
~Curve Information Block
DEPT.FT            0 000 00 00: Depth
CCL.                          : Casing Collar Locator
TT3.usec                      : CBL 3' Travel Time
AMP3.mV                       : CBL 3' Amplitude
GR.GAPI                       : Gamma Ray
~Parameter Information Block
~A  Depth       CCL         TT3         AMP3         GR     
# ...
  1497.5000      0.0000    708.9066      6.8014    158.0411
  1497.7500      0.0000    708.9863      6.8327    157.3345
  1498.0000      0.0000    709.6000      6.8056    153.9887
  1498.2500      0.0000    711.1005      6.7220    149.5302
  1498.5000      0.0000    713.4930      6.6047    146.3085
  1498.7500      0.0000    715.9630      6.4897    145.4317
  1499.0000      0.0000    717.1778      6.4097    145.7067
  1499.2500      0.0000    716.3829      6.3764    145.0266
  1499.5000      0.0000    714.0985      6.3740    142.6072
  1499.7500      0.0000    711.5581      6.3693    139.7897
  1500.0000      0.0000    709.6714      6.3313    138.8379
  1500.2500      0.0000    708.6561      6.2486    140.8411
  1500.5000      0.0000    708.3654      6.1342    144.6328
  1500.7500      0.0000    708.6856      6.0125    147.8728
  1501.0000      0.0000    709.6967      5.9027    149.2180
  1501.2500      0.0000    711.5496      5.8082    149.0697
  1501.5000      0.0000    714.0808      5.7210    148.2625
  1501.7500      0.0000    716.4758      5.6343    146.8166
  1502.0000      0.0000    717.6163      5.5510    144.3624
  1502.2500      0.0000    717.0889      5.4822    141.2832
  1502.5000      0.0000    715.8015      5.4371    138.9301
  1502.7500      0.0000    715.3954      5.4143    138.7946
  1503.0000      0.0000    717.0567      5.4018    141.6316
  1503.2500      0.0000    720.8677      5.3856    147.1005
  1503.5000      0.0000    726.0391      5.3615    153.7981
  1503.7500      0.0000    731.4963      5.3402    159.7771
  1504.0000      0.0000    736.1523      5.3437    163.4520
  1504.2500      0.0000    738.9776      5.3931    164.1069
  1504.5000      0.0000    739.4507      5.4995    161.8601
  1504.7500      0.0000    738.0916      5.6625    157.6963
  1505.0000      0.0000    736.1401      5.8712    153.4449
  1505.2500      0.0000    734.5107      6.1038    150.9758
  1505.5000      0.0000    733.2269      6.3282    151.0345
  1505.7500      0.0000    731.6831      6.5129    153.0245
  1506.0000      0.0000    729.0609      6.6448    155.8032
  1506.2500      0.0000    724.8041      6.7411    158.3488
  1506.5000      0.0000    719.2964      6.8384    160.0009
  1506.7500      0.0000    713.8875      6.9638    160.7083
  1507.0000      0.0000    709.8602      7.1092    161.1530
  1507.2500      0.0000    707.3646      7.2330    162.0997
  1507.5000      0.0000    705.2730      7.2877    163.0893
  1507.7500      0.0000    701.6136      7.2504    162.0086
  1508.0000      0.0000    694.4654      7.1318    156.7555
  1508.2500      0.0000    683.8463      6.9585    147.5933
  1508.5000      0.0000    673.5275      6.7488    137.4433
  1508.7500      0.0000    669.6468      6.5095    129.8266
  1509.0000      0.0000    675.8656      6.2550    126.7970
  1509.2500      0.0000    690.2210      6.0212    128.2754
  1509.5000      0.0000    707.1002      5.8492    132.2935
  1509.7500      0.0000    721.0833      5.7535    135.8694
  1510.0000      0.0000    728.6808      5.7125    136.7644
  1510.2500      0.0000    728.5945      5.6911    135.0811
  1510.5000      0.0000    721.7546      5.6699    132.9807
  1510.7500      0.0000    710.7752      5.6531    132.6154
  1511.0000      0.0000    698.5527      5.6548    134.3527
  1511.2500      0.0000    686.0095      5.6791    136.8398
  1511.5000      0.0000    670.1830      5.7134    138.4903
  1511.7500      0.0000    645.9794      5.7382    138.7082
  1512.0000      0.0000    612.2786      5.7434    137.6628
  1512.2500      0.0000    576.1454      5.7309    135.2991
  1512.5000      0.0000    549.2826      5.7048    131.1510
  1512.7500      0.0000    540.1852      5.6628    125.0420
  1513.0000      0.0000    550.1206      5.5973    117.4651
  1513.2500      0.0000    574.8117      5.5051    109.2734
  1513.5000      0.0000    606.9463      5.3965    101.2809
  1513.7500      0.0000    637.4395      5.2911     94.0283
  1514.0000      0.0000    658.6719      5.2052     87.6509
  1514.2500      0.0000    669.6976      5.1456     81.9704
  1514.5000      0.0000    676.6081      5.1144     76.8160
  1514.7500      0.0000    685.7216      5.1157     72.1625
  1515.0000      0.0000    697.6258      5.1534     67.9028
  1515.2500      0.0000    708.8207      5.2226     63.7225
  1515.5000      0.0000    716.7126      5.3047     59.5126
  1515.7500      0.0000    721.2146      5.3737     55.8114
  1516.0000      0.0000    723.1600      5.4090     53.3838
  1516.2500      0.0000    723.0332      5.4038     52.3170
  1516.5000      0.0000    720.9641      5.3632     51.9740
  1516.7500      0.0000    717.1783      5.2983     51.8894
  1517.0000      0.0000    712.3644      5.2218     52.2699
  1517.2500      0.0000    707.6652      5.1474     53.4390
  1517.5000      0.0000    704.1296      5.0876     55.1059
  1517.7500      0.0000    702.1644      5.0498     56.3808
  1518.0000      0.0000    701.5229      5.0346     56.4836
  1518.2500      0.0000    701.6860      5.0413     55.3563
  1518.5000      0.0000    702.2176      5.0725     53.5441
  1518.7500      0.0000    703.0177      5.1341     51.6408
  1519.0000      0.0000    704.5610      5.2304     50.0340
  1519.2500      0.0000    708.0240      5.3625     48.9727
  1519.5000      0.0000    715.0065      5.5306     48.4601
  1519.7500      0.0000    726.7736      5.7368     48.1197
  1520.0000      0.0000    743.3604      5.9846     47.5157
  1520.2500      0.0000    763.0502      6.2729     46.5892
  1520.5000      0.0000    782.5660      6.5915     45.6306
  1520.7500      0.0000    798.2773      6.9170     45.0473
  1521.0000      0.0000    808.1046      7.2139     45.3262
  1521.2500      0.0000    812.4969      7.4419     46.8137
  1521.5000      0.0000    813.2717      7.5697     49.2267
  1521.7500      0.0000    811.7590      7.5862     51.6803
  1522.0000      0.0000    808.4995      7.4995     53.4472
  1522.2500      0.0000    804.0874      7.3288     54.5000
  1522.5000      0.0000    799.2054      7.0977     55.2473
  1522.7500      0.0000    793.6455      6.8336     56.0074
  1523.0000      0.0000    785.7375      6.5657     56.7817
  1523.2500      0.0000    773.0241      6.3201     57.2396
  1523.5000      0.0000    753.7332      6.1139     56.8432
  1523.7500      0.0000    727.8402      5.9527     55.2519
  1524.0000      0.0000    697.2196      5.8352     52.6400
  1524.2500      0.0000    665.2903      5.7588     49.4952
  1524.5000      0.0000    635.9033      5.7192     46.2794
  1524.7500      0.0000    611.2455      5.7086     43.3331
  1525.0000      0.0000    591.4388      5.7179     40.7626
  1525.2500      0.0000    578.0869      5.7407     38.4067
  1525.5000      0.0000    577.2906      5.7750     36.3139
  1525.7500      0.0000    596.0830      5.8212     35.2270
  1526.0000      0.0000    634.7873      5.8799     36.1993
  1526.2500      0.0000    683.9887      5.9512     39.6348
  1526.5000      0.0000    729.9440      6.0338     44.7155
  1526.7500      0.0000    763.1202      6.1238     49.6477
  1527.0000      0.0000    782.0566      6.2148     52.6676
  1527.2500      0.0000    790.6865      6.2988     53.2608
  1527.5000      0.0000    793.4588      6.3684     52.5040
  1527.7500      0.0000    792.4398      6.4177     52.1227
  1528.0000      0.0000    787.2452      6.4465     53.4540
  1528.2500      0.0000    776.8786      6.4640     57.3938
  1528.5000      0.0000    762.2851      6.4896     64.8519
  1528.7500      0.0000    747.3492      6.5404     76.7032
  1529.0000      0.0000    736.4610      6.6152     92.9476
  1529.2500      0.0000    730.6723      6.6881    111.5586
  1529.5000      0.0000    727.1246      6.7258    128.3475
  1529.7500      0.0000    722.6583      6.7133    138.8961
  1530.0000      0.0000    716.9780      6.6682    141.3562
  1530.2500      0.0000    711.9217      6.6277    137.5407
  1530.5000      0.0000    708.9520      6.6204    131.3590
  1530.7500      0.0000    708.2860      6.6478    126.0365
