~Version Information
VERS.                      2.0: CWLS Log ASCII Standard - VERSION 2.0
WRAP.                       NO: One line per depth step
~Well Information Block
STRT.FT                 0.0000: 
STOP.FT              1674.7500: 
STEP.FT                 0.2500: 
NULL.                -999.2500: 
COMP.          Pioneer Natural Resources: COMPANY
WELL.          Culver 14-12 Tr: WELL
FLD.           Purgatorie River: FIELD
LOC.           915' FSL & 1048' FWL: LOCATION
STAT.                 Colorado: Colorado
CNTY.               Las Animas: COUNTY
CTRY. USA : Country
SECT. 12 : Section
TOWN. 32S : Township
RANG. 66W : Range
SRVC.                Patterson: SERVICE COMPANY
DATE.          Mon Oct 03 12:52:29 2005: LOG DATE
API. 05-071-08520                         : UNIQUE WELL ID
~Curve Information Block
DEPT.FT            0 000 00 00: Depth
CCL.                          : Casing Collar Locator
TT3.usec                      : CBL 3' Travel Time
AMP3.mV                       : CBL 3' Amplitude
GR.GAPI                       : Gamma Ray
~Parameter Information Block
~A  Depth       CCL         TT3         AMP3         GR     
# ...
   871.0000      0.0000    725.4673     12.9954     71.4719
   871.2500      0.0000    721.2899     12.7195     74.1703
   871.5000      0.0000    713.7297     12.4177     76.6067
   871.7500      0.0000    706.9385     12.1393     78.3236
   872.0000      0.0000    707.1234     11.9111     79.1572
   872.2500      0.0000    714.6993     11.7460     79.6325
   872.5000      0.0000    724.7605     11.6346     81.0763
   872.7500      0.0000    734.7853     11.5286     84.6985
   873.0000      0.0000    744.3587     11.3991     90.3075
   873.2500      0.0000    750.1677     11.3232     96.4771
   873.5000      0.0000    750.9184     11.4234    102.3205
   873.7500      0.0000    752.3164     11.7230    108.3489
   874.0000      0.0000    758.3335     12.1193    114.9387
   874.2500      0.0000    765.5039     12.4763    120.6830
   874.5000      0.0000    769.9011     12.7345    123.4388
   874.7500      0.0000    771.8956     12.9558    122.8905
   875.0000      0.0000    773.3580     13.2618    121.0905
   875.2500      0.0000    773.7329     13.7389    120.3214
   875.5000      0.0000    770.5521     14.4036    121.0393
   875.7500      0.0000    765.0685     15.1652    121.9652
   876.0000      0.0000    763.6196     15.8476    121.7255
   876.2500      0.0000    770.8113     16.3346    120.2244
   876.5000      0.0000    783.8845     16.6144    118.5672
   876.7500      0.0000    794.6516     16.6675    117.7804
   877.0000      0.0000    797.0199     16.4320    117.7797
   877.2500      0.0000    791.8839     15.9082    117.6790
   877.5000      0.0000    785.9039     15.2319    117.1093
   877.7500      0.0000    785.4338     14.5687    117.0075
   878.0000      0.0000    789.5906     13.9439    118.7025
   878.2500      0.0000    792.2278     13.2811    122.1462
   878.5000      0.0000    789.9950     12.5986    125.4598
   878.7500      0.0000    783.7775     12.0531    126.2639
   879.0000      0.0000    777.3388     11.8119    123.2188
   879.2500      0.0000    777.3597     11.9553    116.4582
   879.5000      0.0000    787.1708     12.4513    107.1552
   879.7500      0.0000    803.5518     13.1424     97.1130
   880.0000      0.0000    825.1505     13.7808     88.4705
   880.2500      0.0000    855.0424     14.1794     82.9423
   880.5000      0.0000    889.3318     14.3216     80.8517
   880.7500      0.0000    911.2873     14.2800     81.1077
   881.0000      0.0000    909.9080     14.1251     82.5797
   881.2500      0.0000    897.1750     13.9272     85.3814
   881.5000      0.0000    888.7433     13.7008     90.4373
   881.7500      0.0000    879.4823     13.3355     97.9421
   882.0000      0.0000    853.1169     12.7057    106.6472
   882.2500      0.0000    807.9494     11.8612    114.5136
   882.5000      0.0000    761.3043     11.0087    119.8317
   882.7500      0.0000    729.5068     10.3461    122.0532
   883.0000      0.0000    715.7204      9.9791    121.9394
   883.2500      0.0000    714.6527      9.8921    120.6186
   883.5000      0.0000    718.5939      9.9499    118.3088
   883.7500      0.0000    721.9432     10.0087    114.3761
   884.0000      0.0000    723.4022     10.0296    108.6914
   884.2500      0.0000    724.2185     10.0486    102.4673
   884.5000      0.0000    726.5287     10.0985     97.6668
   884.7500      0.0000    732.5800     10.2088     95.7665
   885.0000      0.0000    741.5054     10.4150     96.9446
   885.2500      0.0000    747.7786     10.7114    100.1785
   885.5000      0.0000    749.5453     11.0361    103.9279
   885.7500      0.0000    754.3812     11.3004    106.6333
   886.0000      0.0000    768.1009     11.3733    106.8779
   886.2500      0.0000    785.5062     11.0872    103.7224
   886.5000      0.0000    796.6752     10.3660     97.2588
   886.7500      0.0000    792.9154      9.3943     88.8205
   887.0000      0.0000    769.7472      8.5983     80.6352
   887.2500      0.0000    738.1700      8.2041     75.0731
   887.5000      0.0000    723.8268      7.8782     73.6467
   887.7500      0.0000    739.4854      7.3495     76.1505
   888.0000      0.0000    772.1975      7.0021     80.6557
   888.2500      0.0000    805.0288      7.1667     84.8021
   888.5000      0.0000    834.1288      7.5732     87.6876
   888.7500      0.0000    858.5769      7.8623     90.6221
   889.0000     -2.0000    868.4275      7.9331     95.6492
   889.2500      2.0000    855.7648      7.7770    103.1742
   889.5000      0.0000    827.4032      7.4801    111.1250
   889.7500      0.0000    794.7172      7.3571    116.3846
   890.0000      0.0000    764.4087      7.6269    117.0227
   890.2500      0.0000    746.6428      7.9615    113.4990
   890.5000      0.0000    747.7504      8.0762    108.1730
   890.7500      0.0000    756.0684      8.4900    103.8303
   891.0000      0.0000    758.5654      9.6522    102.4292
   891.2500      0.0000    757.1078     11.0588    104.4952
   891.5000      0.0000    757.3279     12.0056    108.8908
   891.7500      0.0000    757.9286     12.3680    113.2437
   892.0000      0.0000    756.3751     12.3930    115.4689
   892.2500      0.0000    755.1835     12.2999    115.3385
   892.5000      0.0000    757.2732     12.1693    114.3337
   892.7500      0.0000    760.2038     12.0020    113.9952
   893.0000      0.0000    759.1002     11.7996    114.8699
   893.2500      0.0000    752.7530     11.5877    116.9824
   893.5000      0.0000    745.8371     11.3908    120.3873
   893.7500      0.0000    744.6182     11.2244    124.6148
   894.0000      0.0000    750.5417     11.1089    128.0022
   894.2500      0.0000    760.0961     11.0467    128.4641
   894.5000      0.0000    767.3663     10.9530    125.3021
   894.7500      0.0000    766.9268     10.6872    119.9672
   895.0000      0.0000    760.5267     10.2156    114.7410
   895.2500      0.0000    758.5073      9.6469    110.9416
   895.5000      0.0000    768.8968      9.0851    108.6422
   895.7500      0.0000    786.0486      8.5505    107.3128
   896.0000      0.0000    797.4865      8.0466    105.8864
   896.2500      0.0000    799.6661      7.6113    102.7723
   896.5000      0.0000    797.7016      7.2671     96.7692
   896.7500      0.0000    795.7264      6.9845     88.0465
   897.0000      0.0000    794.5632      6.7491     77.9903
   897.2500      0.0000    794.0167      6.6019     68.1880
   897.5000      0.0000    793.8948      6.5674     59.7279
   897.7500      0.0000    793.4572      6.6262     53.3950
   898.0000      0.0000    789.9456      6.7715     50.2336
   898.2500      0.0000    778.2198      7.0033     51.5651
   898.5000      0.0000    756.5174      7.2947     58.2071
   898.7500      0.0000    735.0111      7.6373     69.6043
   899.0000      0.0000    729.0263      8.0696     83.7918
   899.2500      0.0000    739.2940      8.6071     98.1386
   899.5000      0.0000    751.4075      9.1991    110.0524
   899.7500      0.0000    755.7115      9.7513    117.4498
   900.0000      0.0000    754.7670     10.1494    119.4651
   900.2500      0.0000    751.8192     10.3241    117.0910
   900.5000      0.0000    744.0370     10.3142    112.8859
   900.7500      0.0000    731.1052     10.2215    109.7894
   901.0000      0.0000    720.4423     10.1355    109.7242
   901.2500      0.0000    717.7929     10.1057    112.7048
   901.5000      0.0000    720.4799     10.1293    117.2375
   901.7500      0.0000    723.4601     10.1713    121.7724
   902.0000      0.0000    725.3137     10.2130    125.6123
   902.2500      0.0000    727.3548     10.2490    128.5739
   902.5000      0.0000    731.1467     10.2703    130.5400
   902.7500      0.0000    736.2305     10.2944    131.6934
   903.0000      0.0000    739.3112     10.3682    132.7496
   903.2500      0.0000    738.8419     10.4969    134.5484
   903.5000      0.0000    739.0953     10.6154    137.4116
   903.7500      0.0000    744.9525     10.6644    140.8226
   904.0000      0.0000    755.0836     10.6583    143.5638
   904.2500      0.0000    764.0478     10.6500    144.4554
