~Version Information
VERS.                      2.0: CWLS Log ASCII Standard - VERSION 2.0
WRAP.                       NO: One line per depth step
~Well Information Block
STRT.FT               197.7500: 
STOP.FT              1631.0000: 
STEP.FT                 0.2500: 
NULL.                -999.2500: 
COMP.          Petrogulf Corporation: COMPANY
WELL.             State 16-44R: WELL
FLD.           Purgatoire River: FIELD
LOC.           632' FSL & 223' FEL--: LOCATION
PROV.                 Colorado: PROVINCE
CNTY.               Las Animas: COUNTRY
SRVC.                Patterson: SERVICE COMPANY
DATE.          Fri Oct 21 11:31:17 2005: LOG DATE
UWI.           05 071 08457 00: UNIQUE WELL ID
~Curve Information Block
DEPT.FT            0 000 00 00: Depth
SP.mV                         : DIL Spontaneous Potential
RILD.Ohm-m                    : DIL Deep Resistivity
RILM.Ohm-m                    : DIL Medium Resistivity
RLL3.Ohm-m                    : DIL Shallow Resistivity
GR.GAPI                       : Gamma Ray
~Parameter Information Block
~A  Depth        SP         RILD        RILM        RLL3         GR     
# ...
   421.7500   2000.0000     33.2399     33.8518   2000.0000     84.9304
   422.0000   2000.0000     33.1919     34.1014   2000.0000     82.0014
   422.2500   2000.0000     33.0890     34.2918   2000.0000     79.8040
   422.5000   2000.0000     32.9928     34.4251   2000.0000     76.4607
   422.7500   2000.0000     32.9670     34.5066   2000.0000     74.4330
   423.0000   2000.0000     33.0487     34.5381   2000.0000     71.9385
   423.2500   2000.0000     33.2357     34.5204   2000.0000     70.5610
   423.5000   2000.0000     33.4909     34.4627   2000.0000     68.6609
   423.7500   2000.0000     33.7545     34.3859   2000.0000     67.5455
   424.0000   2000.0000     33.9648     34.3156   2000.0000     66.3897
   424.2500   2000.0000     34.0833     34.2760   2000.0000     65.9424
   424.5000   2000.0000     34.1120     34.2918   2000.0000     65.3209
   424.7500   2000.0000     34.0854     34.3889   2000.0000     64.8044
   425.0000   2000.0000     34.0377     34.5812   2000.0000     64.3622
   425.2500   2000.0000     33.9705     34.8494   2000.0000     64.7855
   425.5000   2000.0000     33.8437     35.1323   2000.0000     66.7601
   425.7500   2000.0000     33.5921     35.3413   2000.0000     68.5562
   426.0000   2000.0000     33.1557     35.3860   2000.0000     70.9924
   426.2500   2000.0000     32.5119     35.1922   2000.0000     72.2679
   426.5000   2000.0000     31.6978     34.7042   2000.0000     74.1088
   426.7500   2000.0000     30.8081     33.8868   2000.0000     75.5878
   427.0000   2000.0000     29.9656     32.7371   2000.0000     78.4408
   427.2500   2000.0000     29.2789     31.3035   2000.0000     81.0025
   427.5000   2000.0000     28.8121     29.6949   2000.0000     86.4831
   427.7500   2000.0000     28.5753     28.0722   2000.0000     91.2210
   428.0000   2000.0000     28.5287     26.6187   2000.0000     98.3692
   428.2500   2000.0000     28.5910     25.4997   2000.0000    101.6241
   428.5000   2000.0000     28.6463     24.8298   2000.0000    102.1911
   428.7500   2000.0000     28.5567     24.6562   2000.0000     99.4606
   429.0000   2000.0000     28.1875     24.9530   2000.0000     91.8765
   429.2500   2000.0000     27.4465     25.6162   2000.0000     85.6587
   429.5000   2000.0000     26.3219     26.4561   2000.0000     76.5729
   429.7500   2000.0000     24.8872     27.2055   2000.0000     71.5486
   430.0000   2000.0000     23.2626     27.5618   2000.0000     66.3537
   430.2500   2000.0000     21.5664     27.2701   2000.0000     64.4884
   430.5000   2000.0000     19.8863     26.2114   2000.0000     63.8033
   430.7500   2000.0000     18.2790     24.4471   2000.0000     64.7681
   431.0000   2000.0000     16.7795     22.1915   2000.0000     68.9232
   431.2500   2000.0000     15.4072     19.7282   2000.0000     73.8424
   431.5000   2000.0000     14.1685     17.3185   2000.0000     84.3225
   431.7500   2000.0000     13.0578     15.1412   2000.0000     92.8167
   432.0000   2000.0000     12.0624     13.2824   2000.0000    106.3143
   432.2500   2000.0000     11.1680     11.7557   2000.0000    114.8098
   432.5000   2000.0000     10.3628     10.5314   2000.0000    125.2767
   432.7500   2000.0000      9.6396      9.5620   2000.0000    130.3403
   433.0000   2000.0000      8.9942      8.7967   2000.0000    135.7137
   433.2500   2000.0000      8.4230      8.1894   2000.0000    138.6781
   433.5000   2000.0000      7.9216      7.7008   2000.0000    143.1813
   433.7500   2000.0000      7.4854      7.2989   2000.0000    146.0897
   434.0000   2000.0000      7.1101      6.9598   2000.0000    149.2822
   434.2500   2000.0000      6.7922      6.6685   2000.0000    149.9303
   434.5000   2000.0000      6.5286      6.4185   2000.0000    147.7750
   434.7500   2000.0000      6.3153      6.2082   2000.0000    144.2899
   435.0000   2000.0000      6.1473      6.0363   2000.0000    137.7694
   435.2500   2000.0000      6.0187      5.8997   2000.0000    134.3099
   435.5000   2000.0000      5.9229      5.7935   2000.0000    132.7586
   435.7500   2000.0000      5.8536      5.7127   2000.0000    134.2817
   436.0000   2000.0000      5.8046      5.6538   2000.0000    138.9071
   436.2500   2000.0000      5.7698      5.6148   2000.0000    142.4520
   436.5000   2000.0000      5.7432      5.5938   2000.0000    147.1207
   436.7500   2000.0000      5.7196      5.5881   2000.0000    149.3002
   437.0000   2000.0000      5.6950      5.5932   2000.0000    150.4535
   437.2500   2000.0000      5.6685      5.6037   2000.0000    149.5688
   437.5000   2000.0000      5.6422      5.6137   2000.0000    146.2210
   437.7500   2000.0000      5.6195      5.6191   2000.0000    143.4573
   438.0000   2000.0000      5.6039      5.6193   2000.0000    139.9898
   438.2500   2000.0000      5.5969      5.6172   2000.0000    138.5608
   438.5000   2000.0000      5.5968      5.6192   2000.0000    137.7030
   438.7500   2000.0000      5.5998      5.6319   2000.0000    137.7168
   439.0000   2000.0000      5.6016      5.6602   2000.0000    137.8300
   439.2500   2000.0000      5.5991      5.7042   2000.0000    137.3596
   439.5000   2000.0000      5.5920      5.7589   2000.0000    135.0467
   439.7500   2000.0000      5.5820      5.8145   2000.0000    132.5081
   440.0000   2000.0000      5.5717      5.8599   2000.0000    128.4196
   440.2500   2000.0000      5.5637      5.8867   2000.0000    126.4768
   440.5000   2000.0000      5.5597      5.8932   2000.0000    125.7497
   440.7500   2000.0000      5.5600      5.8842   2000.0000    126.6048
   441.0000   2000.0000      5.5638      5.8688   2000.0000    128.7618
   441.2500   2000.0000      5.5701      5.8552   2000.0000    130.0398
   441.5000   2000.0000      5.5779      5.8474   2000.0000    131.0428
   441.7500   2000.0000      5.5873      5.8447   2000.0000    131.1102
   442.0000   2000.0000      5.6002      5.8440   2000.0000    130.6582
   442.2500   2000.0000      5.6196      5.8433   2000.0000    130.2799
   442.5000   2000.0000      5.6497      5.8438   2000.0000    130.1711
   442.7500   2000.0000      5.6949      5.8500   2000.0000    130.5802
   443.0000   2000.0000      5.7581      5.8681   2000.0000    131.6204
   443.2500   2000.0000      5.8411      5.9044   2000.0000    132.2474
   443.5000   2000.0000      5.9443      5.9653   2000.0000    132.7447
   443.7500   2000.0000      6.0689      6.0575   2000.0000    132.7294
   444.0000   2000.0000      6.2166      6.1885   2000.0000    132.0479
   444.2500   2000.0000      6.3894      6.3654   2000.0000    131.0936
   444.5000   2000.0000      6.5891      6.5944   2000.0000    129.1339
   444.7500   2000.0000      6.8175      6.8800   2000.0000    127.6746
   445.0000   2000.0000      7.0773      7.2250   2000.0000    125.1747
   445.2500   2000.0000      7.3723      7.6304   2000.0000    123.0091
   445.5000   2000.0000      7.7058      8.0960   2000.0000    118.7267
   445.7500   2000.0000      8.0811      8.6213   2000.0000    115.3704
   446.0000   2000.0000      8.5017      9.2076   2000.0000    110.2774
   446.2500   2000.0000      8.9735      9.8601   2000.0000    107.1767
   446.5000   2000.0000      9.5038     10.5879   2000.0000    103.2503
   446.7500   2000.0000     10.0982     11.3998   2000.0000    101.2085
   447.0000   2000.0000     10.7531     12.2956   2000.0000     99.0203
   447.2500   2000.0000     11.4511     13.2587   2000.0000     97.8556
   447.5000   2000.0000     12.1611     14.2555   2000.0000     95.5717
   447.7500   2000.0000     12.8483     15.2390   2000.0000     93.2918
   448.0000   2000.0000     13.4867     16.1551   2000.0000     89.1074
   448.2500   2000.0000     14.0693     16.9495   2000.0000     86.4964
   448.5000   2000.0000     14.6059     17.5827   2000.0000     83.9456
   448.7500   2000.0000     15.1133     18.0451   2000.0000     83.4446
   449.0000   2000.0000     15.6025     18.3622   2000.0000     84.3668
   449.2500   2000.0000     16.0696     18.5791   2000.0000     85.7069
   449.5000   2000.0000     16.4927     18.7395   2000.0000     87.6833
