~Version Information
VERS.                      2.0: CWLS Log ASCII Standard - VERSION 2.0
WRAP.                       NO: One line per depth step
~Well Information Block
STRT.FT               -11.5000: 
STOP.FT              1961.7500: 
STEP.FT                 0.2500: 
NULL.                -999.2500: 
COMP.          Petrogulf Corporation: COMPANY
WELL.           State 16-23R-X: WELL
FLD.           Purgatorie River: FIELD
LOC.           2381' FSL & 2072' FWL--: LOCATION
PROV.                       CO: PROVINCE
CNTY.               Las Animas: COUNTRY
SRVC.          Patterson Wireline: SERVICE COMPANY
DATE.          Fri Sep 09 14:32:42 2005: LOG DATE
UWI.           05 071 08324 00: UNIQUE WELL ID
~Curve Information Block
DEPT.FT            0 000 00 00: Depth
CCL.                          : Casing Collar Locator
TT3.usec                      : CBL 3' Travel Time
AMP3.mV                       : CBL 3' Amplitude
GR.GAPI                       : Gamma Ray
~Parameter Information Block
~A  Depth       CCL         TT3         AMP3         GR     
# ...
  1161.0000      0.0000    675.4971      7.4947     70.9465
  1161.2500      0.0000    669.4797      7.0395     60.0628
  1161.5000      0.0000    666.4960      6.7393     51.9887
  1161.7500      0.0000    665.1750      6.5427     46.7806
  1162.0000      0.0000    664.5299      6.4276     43.8150
  1162.2500      0.0000    664.2014      6.3834     42.2268
  1162.5000      0.0000    664.1097      6.3962     41.1871
  1162.7500      0.0000    664.2135      6.4466     40.3388
  1163.0000      0.0000    664.4648      6.5176     40.0763
  1163.2500      0.0000    664.9333      6.6013     41.2044
  1163.5000      0.0000    665.9247      6.6989     44.2074
  1163.7500      0.0000    668.0381      6.8146     48.9528
  1164.0000      0.0000    672.0834      6.9485     55.1359
  1164.2500      0.0000    678.7458      7.0910     62.7050
  1164.5000      0.0000    688.3037      7.2262     71.5661
  1164.7500      0.0000    700.9255      7.3447     80.9554
  1165.0000      0.0000    717.3671      7.4494     89.4479
  1165.2500      0.0000    738.7263      7.5383     95.7531
  1165.5000      0.0000    764.6958      7.5806     99.3904
  1165.7500      0.0000    791.9235      7.5271    100.7115
  1166.0000      0.0000    814.6754      7.3566    100.6987
  1166.2500      0.0000    827.7338      7.1061    100.6132
  1166.5000      0.0000    828.8054      6.8440    101.0902
  1166.7500      0.0000    818.6323      6.6169    101.5089
  1167.0000      0.0000    800.1328      6.4290    100.9199
  1167.2500      0.0000    777.8869      6.2683     99.6805
  1167.5000      0.0000    757.0882      6.1389     99.6473
  1167.7500      0.0000    741.2493      6.0608    102.5483
  1168.0000      0.0000    730.1408      6.0397    108.2932
  1168.2500      0.0000    720.4251      6.0491    114.8124
  1168.5000      0.0000    709.1407      6.0515    119.5958
  1168.7500      0.0000    696.7359      6.0383    121.6995
  1169.0000      0.0000    686.7415      6.0420    122.3800
  1169.2500      0.0000    682.8906      6.1097    123.7695
  1169.5000      0.0000    686.5500      6.2651    127.0945
  1169.7500      0.0000    695.6587      6.4908    132.1023
  1170.0000      0.0000    705.1856      6.7406    137.6291
  1170.2500      0.0000    709.5302      6.9659    142.3484
  1170.5000      0.0000    706.0712      7.1373    145.4237
  1170.7500      0.0000    696.9212      7.2474    147.0774
  1171.0000      0.0000    687.0281      7.3036    148.4988
  1171.2500      0.0000    680.6810      7.3226    150.8353
  1171.5000      0.0000    679.6554      7.3252    154.1483
  1171.7500      0.0000    683.5146      7.3278    157.2912
  1172.0000      0.0000    690.4761      7.3332    158.7258
  1172.2500      0.0000    698.2367      7.3269    157.4441
  1172.5000      0.0000    705.0908      7.2791    153.3556
  1172.7500      0.0000    710.6662      7.1557    147.2841
  1173.0000      0.0000    715.3331      6.9421    140.8691
  1173.2500      0.0000    719.1021      6.6660    136.1014
  1173.5000      0.0000    721.7015      6.3906    134.1133
  1173.7500      0.0000    723.5291      6.1793    133.9632
  1174.0000      0.0000    725.3939      6.0626    133.1984
  1174.2500      0.0000    727.0402      6.0339    130.1517
  1174.5000      0.0000    727.0159      6.0714    125.3200
  1174.7500      0.0000    724.5275      6.1660    120.4176
  1175.0000      0.0000    720.5799      6.3372    116.7341
  1175.2500      0.0000    716.9014      6.6271    114.3819
  1175.5000      0.0000    714.4501      7.0815    112.6428
  1175.7500      0.0000    712.9363      7.7359    111.1094
  1176.0000      0.0000    710.4354      8.6136    110.5082
  1176.2500      0.0000    702.4565      9.7313    111.9809
  1176.5000      0.0000    681.9656     11.1041    115.6699
  1176.7500      0.0000    642.4202     12.7421    120.4279
  1177.0000      0.0000    583.5247     14.6417    124.6480
  1177.2500      0.0000    514.6705     16.7697    126.9641
  1177.5000      0.0000    450.4146     19.0526    126.6313
  1177.7500      0.0000    401.2528     21.3683    123.8837
  1178.0000      0.0000    369.8501     23.5177    119.9181
  1178.2500      0.0000    356.0681     25.1773    116.1787
  1178.5000      0.0000    362.8826     25.9197    113.4471
  1178.7500      0.0000    395.3187     25.3915    111.6030
  1179.0000      0.0000    452.9179     23.5774    110.4017
  1179.2500      0.0000    524.1721     20.9207    110.2325
  1179.5000      0.0000    590.9526     18.1262    111.3991
  1179.7500      0.0000    640.3442     15.7649    112.6834
  1180.0000      0.0000    671.4724     14.0298    111.8846
  1180.2500      0.0000    690.5771     12.8350    108.5598
  1180.5000     -2.0000    702.0309     12.0642    105.3876
  1180.7500      0.0000    704.8969     11.6960    105.8030
  1181.0000      0.0000    695.2676     11.7819    110.6023
  1181.2500      0.0000    670.3541     12.3623    117.4491
  1181.5000      0.0000    632.0651     13.3428    123.3203
  1181.7500      0.0000    586.8679     14.4268    126.8806
  1182.0000      0.0000    540.6962     15.2752    128.9124
  1182.2500      0.0000    495.4538     15.7844    131.1664
  1182.5000      0.0000    451.9476     16.1506    134.7690
  1182.7500      0.0000    413.3485     16.6667    139.1472
  1183.0000      0.0000    383.6032     17.5191    142.3025
  1183.2500      0.0000    364.8393     18.7147    142.5430
  1183.5000      0.0000    358.2608     20.0659    140.3048
  1183.7500      0.0000    366.1952     21.2188    138.0148
  1184.0000      0.0000    391.5104     21.7775    137.8459
  1184.2500      0.0000    434.8765     21.4867    140.0493
  1184.5000      0.0000    493.0229     20.3506    143.7806
  1184.7500      0.0000    559.0244     18.6174    148.6327
  1185.0000      0.0000    623.3401     16.6590    154.2825
  1185.2500      0.0000    675.8861     14.8212    159.1090
  1185.5000      0.0000    709.9223     13.3140    160.5849
  1185.7500      0.0000    724.7990     12.1804    157.3696
  1186.0000      0.0000    724.8040     11.3382    150.4781
  1186.2500      0.0000    716.4333     10.6578    142.4899
  1186.5000      0.0000    706.8056     10.0370    136.1098
  1186.7500      0.0000    702.0652      9.4436    133.0585
  1187.0000      0.0000    704.7656      8.9096    133.2902
  1187.2500      0.0000    712.4867      8.4878    134.8986
  1187.5000      0.0000    720.0784      8.2022    135.3375
  1187.7500      0.0000    723.8942      8.0264    133.2457
  1188.0000      0.0000    724.2609      7.9029    129.0672
  1188.2500      0.0000    724.1114      7.7846    123.9307
  1188.5000      0.0000    725.5143      7.6604    118.4508
  1188.7500      0.0000    727.6377      7.5429    112.9678
  1189.0000      0.0000    727.8064      7.4406    108.2430
  1189.2500      0.0000    724.1774      7.3498    105.0016
  1189.5000      0.0000    717.5828      7.2647    103.0041
  1189.7500      0.0000    711.0284      7.1790    101.3788
  1190.0000      0.0000    706.9409      7.0761     99.7873
  1190.2500      0.0000    704.8824      6.9334     98.6832
  1190.5000      0.0000    702.6693      6.7478     98.5232
  1190.7500      0.0000    699.4153      6.5562     99.2615
  1191.0000      0.0000    696.3531      6.4250    100.6538
  1191.2500      0.0000    695.0070      6.4164    102.6635
  1191.5000      0.0000    695.6850      6.5538    105.2719
  1191.7500      0.0000    697.1493      6.8044    107.7312
  1192.0000      0.0000    697.0720      7.0898    108.2371
  1192.2500      0.0000    694.1298      7.3226    105.0380
  1192.5000      0.0000    690.3799      7.4477     98.2522
  1192.7500      0.0000    689.7810      7.4574     90.2283
  1193.0000      0.0000    693.4634      7.3674     83.8448
  1193.2500      0.0000    698.1229      7.1842     80.7816
  1193.5000      0.0000    699.9069      6.8998     81.4227
  1193.7500      0.0000    698.3073      6.5116     85.4156
  1194.0000      0.0000    695.5425      6.0341     91.5343
  1194.2500      0.0000    693.4293      5.4906     97.5606
