~Version Information
VERS.                      2.0: CWLS Log ASCII Standard - VERSION 2.0
WRAP.                       NO: One line per depth step
~Well Information Block
STRT.FT                 0.0000: 
STOP.FT               878.0000: 
STEP.FT                 0.2500: 
NULL.                -999.2500: 
COMP.          Pioneer Natural Resources: COMPANY
WELL.           Hartford 31-18: WELL
FLD.           Purgatorie River: FIELD
LOC.           375' FNL & 1660' FEL: LOCATION
PROV.                 Colorado: PROVINCE
CNTY.               Las Animas: COUNTRY
SRVC.                Patterson: SERVICE COMPANY
DATE.          Mon Nov 28 12:10:49 2005: LOG DATE
UWI.             05-071-08555             : UNIQUE WELL ID
~Curve Information Block
DEPT.FT            0 000 00 00: Depth
CCL.                          : Casing Collar Locator
TT3.usec                      : CBL 3' Travel Time
AMP3.mV                       : CBL 3' Amplitude
GR.GAPI                       : Gamma Ray
~Parameter Information Block
~A  Depth       CCL         TT3         AMP3         GR     
# ...
   100.5000      0.0000    355.2151      8.9344     83.0209
   100.7500      0.0000    355.2575      8.8791     84.0509
   101.0000      0.0000    354.7916      8.8276     84.6586
   101.2500      0.0000    352.9754      8.7926     84.6595
   101.5000      0.0000    352.6638      8.7732     83.8436
   101.7500      0.0000    357.6867      8.7609     82.3096
   102.0000      0.0000    367.1013      8.7511     80.4766
   102.2500      0.0000    377.6071      8.7607     78.7463
   102.5000      0.0000    392.5660      8.8080     77.1335
   102.7500      0.0000    425.1338      8.8818     75.4188
   103.0000      0.0000    484.0580      8.9782     73.7312
   103.2500      0.0000    554.5929      9.1213     72.6017
   103.5000      0.0000    610.0639      9.2880     72.2005
   103.7500      0.0000    642.2807      9.4038     71.9379
   104.0000      0.0000    660.6832      9.4537     71.2447
   104.2500      0.0000    672.8601      9.4960     70.4196
   104.5000      0.0000    681.7189      9.5556     70.2241
   104.7500      0.0000    688.7954      9.5994     70.7218
   105.0000      0.0000    693.1773      9.6168     70.8960
   105.2500      0.0000    694.3311      9.6319     69.6221
   105.5000      0.0000    694.3641      9.6438     66.9602
   105.7500      0.0000    693.4084      9.6266     64.3644
   106.0000      0.0000    689.5878      9.5722     63.4752
   106.2500      0.0000    683.9476      9.4972     64.7144
   106.5000      0.0000    678.5725      9.4269     67.1800
   106.7500      0.0000    673.0519      9.3836     69.8586
   107.0000      0.0000    667.0352      9.3738     72.6742
   107.2500      0.0000    662.4296      9.3638     76.2713
   107.5000      0.0000    659.1917      9.2993     81.0043
   107.7500      0.0000    653.8772      9.1744     86.3514
   108.0000      0.0000    645.8491      9.0381     91.2066
   108.2500      0.0000    637.8090      8.9256     94.4607
   108.5000      0.0000    631.8742      8.8349     95.3838
   108.7500      0.0000    630.3756      8.7566     93.9057
   109.0000      0.0000    635.1354      8.6973     90.7909
   109.2500      0.0000    644.8322      8.6735     87.4298
   109.5000      0.0000    654.5544      8.6859     85.2637
   109.7500      0.0000    659.8317      8.7143     85.1373
   110.0000      0.0000    662.1832      8.7374     86.9091
   110.2500      0.0000    665.0667      8.7464     89.5288
   110.5000      0.0000    666.6064      8.7427     91.4763
   110.7500      0.0000    662.9913      8.7342     91.3223
   111.0000      0.0000    651.4691      8.7361     88.3901
   111.2500      0.0000    624.1918      8.7645     83.3441
   111.5000      0.0000    576.6843      8.8262     78.1186
   111.7500      0.0000    533.4019      8.9204     74.9980
   112.0000      0.0000    532.5704      9.0462     75.4528
   112.2500      0.0000    568.8517      9.1997     79.2062
   112.5000      0.0000    589.0853      9.3773     84.0733
   112.7500      0.0000    556.0101      9.5697     87.3135
   113.0000      0.0000    487.2624      9.7367     87.6783
   113.2500      0.0000    425.9700      9.8275     85.8559
   113.5000      0.0000    392.5450      9.8423     82.8420
   113.7500      0.0000    377.9424      9.8351     78.5951
   114.0000      0.0000    368.7462      9.8547     72.7778
   114.2500      0.0000    362.1845      9.8957     66.2573
   114.5000      0.0000    361.3981      9.9106     61.0665
   114.7500      0.0000    365.6058      9.8762     58.8872
   115.0000      0.0000    371.4800      9.8318     59.9985
   115.2500      0.0000    383.8514      9.8201     63.5777
   115.5000      0.0000    415.6765      9.8077     68.4616
   115.7500      0.0000    467.2769      9.7391     73.4866
   116.0000      0.0000    507.2193      9.6569     77.6612
   116.2500      0.0000    497.4029      9.6717     80.5189
   116.5000      0.0000    443.2286      9.8092     82.2775
   116.7500      0.0000    387.0233      9.9678     83.4067
   117.0000      0.0000    355.4698     10.0286     84.1019
   117.2500      0.0000    344.5721      9.9528     84.2831
   117.5000      0.0000    342.2493      9.7826     83.9456
   117.7500      0.0000    342.0276      9.5915     83.2961
   118.0000      0.0000    341.9574      9.4479     82.5757
   118.2500      0.0000    341.6990      9.3817     81.9704
   118.5000      0.0000    341.3925      9.3702     81.7596
   118.7500      0.0000    341.2283      9.3715     82.2979
   119.0000      0.0000    341.2494      9.3595     83.6274
   119.2500      0.0000    341.3422      9.3225     85.2526
   119.5000      0.0000    341.3364      9.2585     86.5742
   119.7500      0.0000    341.1405      9.1808     87.4582
   120.0000      0.0000    340.7994      9.1199     88.1126
   120.2500      0.0000    340.4242      9.1122     88.4925
   120.5000      0.0000    340.0994      9.1745     88.2788
   120.7500      0.0000    339.8650      9.2867     87.5646
   121.0000      0.0000    339.7257      9.4218     87.1344
   121.2500      0.0000    339.6773      9.5764     87.7657
   121.5000      0.0000    339.7517      9.7390     89.5202
   121.7500      0.0000    339.9830      9.8553     91.7882
   122.0000      0.0000    340.3322      9.8801     93.5428
   122.2500      0.0000    340.6881      9.8392     93.4489
   122.5000      0.0000    340.9760      9.7946     90.5462
   122.7500      0.0000    341.2771      9.7818     85.4855
   123.0000      0.0000    341.6987      9.8184     80.5703
   123.2500      0.0000    342.3577      9.9309     77.7420
   123.5000      0.0000    344.2127     10.1054     76.7666
   123.7500      0.0000    350.5472     10.2461     75.9295
   124.0000      0.0000    368.3243     10.2636     74.1035
   124.2500      0.0000    407.7469     10.1607     71.6130
   124.5000      0.0000    474.0957      9.9896     69.5964
   124.7500      0.0000    553.4150      9.7896     69.0902
   125.0000      0.0000    616.9053      9.5831     70.3594
   125.2500      0.0000    649.1110      9.3861     72.6045
   125.5000      0.0000    658.9304      9.2043     74.3687
   125.7500      0.0000    659.7928      9.0431     74.5258
   126.0000      0.0000    655.3835      8.9155     73.0576
   126.2500      0.0000    647.7361      8.8001     70.9482
   126.5000      0.0000    643.9930      8.6528     69.3293
   126.7500      0.0000    649.0297      8.5057     68.7209
   127.0000      0.0000    658.6194      8.4714     69.0653
   127.2500      0.0000    663.0124      8.6162     70.2405
   127.5000      0.0000    654.5616      8.8673     72.2801
   127.7500      0.0000    631.4275      9.0623     75.2517
   128.0000      0.0000    601.3638      9.1113     79.1157
   128.2500      0.0000    580.3254      9.0788     83.3967
   128.5000      0.0000    567.4295      9.0777     86.9464
   128.7500      0.0000    536.1207      9.1472     88.6155
   129.0000      0.0000    478.4763      9.2612     88.4565
   129.2500      0.0000    422.8460      9.3809     87.7910
   129.5000      0.0000    391.7473      9.4748     87.7687
   129.7500      0.0000    381.0450      9.5346     88.2349
   130.0000      0.0000    378.7587      9.5766     88.2959
   130.2500      0.0000    378.7912      9.5953     87.5893
   130.5000      0.0000    380.8106      9.5367     86.4801
   130.7500      0.0000    390.2681      9.3549     85.2459
   131.0000      0.0000    419.5927      9.0829     83.6712
   131.2500      0.0000    478.5668      8.8267     81.4079
   131.5000      0.0000    555.8284      8.6727     78.2659
   131.7500      0.0000    622.3280      8.6048     74.3945
   132.0000      0.0000    660.3383      8.5374     70.8167
   132.2500      0.0000    674.9838      8.4130     69.4714
   132.5000      0.0000    678.6083      8.2372     71.9025
   132.7500      0.0000    677.6924      8.0633     77.7849
   133.0000      0.0000    672.6692      7.9699     85.0058
   133.2500      0.0000    663.4048      8.0065     91.1749
   133.5000      0.0000    653.9846      8.1304     95.0240
   133.7500      0.0000    649.8788      8.2436     96.5490
