~Version Information
VERS.                      2.0: CWLS Log ASCII Standard - VERSION 2.0
WRAP.                       NO: One line per depth step
~Well Information Block
STRT.FT               370.0000: 
STOP.FT              1259.0000: 
STEP.FT                 0.1000: 
NULL.                -999.2500: 
COMP.          Pioneer Natural Resources: COMPANY
WELL.           Tennis 7-12 Tr: WELL
FLD.           Purgatoire River: FIELD
LOC.           1794' FNL & 1563' FEL: LOCATION
PROV.                 Colorado: PROVINCE
CNTY.               Las Animas: COUNTRY
SRVC.                Patterson: SERVICE COMPANY
DATE.          Tue Dec 20 13:35:40 2005: LOG DATE
UWI.           05 071 08635 00: UNIQUE WELL ID
~Curve Information Block
DEPT.FT            0 000 00 00: Depth
DCAL.in                       : CDL Caliper
RHOB.g/cc                     : CDL Bulk Density
RHOC.g/cc                     : CDL Density Correction
DPOR.pu                       : CDL Density Porosity
GR.GAPI                       : Gamma Ray
~Parameter Information Block
~A  Depth       DCAL        RHOB        RHOC        DPOR         GR     
# ...
  1131.6000      8.0081      2.4700      0.0574     10.9090    122.5528
  1131.7000      8.0081      2.4889      0.0604      9.7612    118.4123
  1131.8000      8.0026      2.5198      0.0606      7.8933    119.4551
  1131.9000      8.0026      2.5598      0.0954      5.4662    128.3333
  1132.0000      8.0018      2.5950      0.1450      3.3329    139.6421
  1132.1000      8.0018      2.6166      0.1393      2.0262    148.0014
  1132.2000      8.0018      2.6260      0.1767      1.4566    153.4930
  1132.3000      8.0138      2.6146      0.1786      2.1446    158.8535
  1132.4000      8.0138      2.5790      0.0892      4.3006    162.4396
  1132.5000      8.0258      2.5378      0.0785      6.8014    160.2195
  1132.6000      8.0258      2.4962      0.0818      9.3217    152.9209
  1132.7000      8.0258      2.4465      0.0088     12.3305    145.7731
  1132.8000      8.0302      2.4058     -0.0304     14.8006    142.0412
  1132.9000      8.0302      2.3998     -0.0151     15.1654    139.7810
  1133.0000      8.0356      2.4265      0.0159     13.5428    138.9397
  1133.1000      8.0356      2.4612      0.0778     11.4425    142.6994
  1133.2000      8.0356      2.4812      0.1047     10.2292    147.3065
  1133.3000      8.0471      2.4889      0.0816      9.7637    147.7064
  1133.4000      8.0471      2.4948      0.1274      9.4087    144.5257
  1133.5000      8.0571      2.4872      0.1389      9.8646    138.9825
  1133.6000      8.0571      2.4565      0.0744     11.7295    134.2596
  1133.7000      8.0571      2.4017      0.0849     15.0465    132.9358
  1133.8000      8.0611      2.3122      0.0572     20.4703    128.1962
  1133.9000      8.0611      2.1953     -0.0478     27.5598    112.9040
  1134.0000      8.0655      2.0758     -0.0607     34.7979     92.1010
  1134.1000      8.0655      1.9525     -0.0579     42.2728     76.0829
  1134.2000      8.0655      1.8115     -0.0906     50.8174     67.7480
  1134.3000      8.0707      1.6673     -0.1599     59.5553     61.4160
  1134.4000      8.0707      1.5444     -0.1678     67.0056     54.5398
  1134.5000      8.0746      1.4399     -0.1000     73.3420     51.0492
  1134.6000      8.0746      1.3453     -0.1440     79.0725     54.9065
  1134.7000      8.0746      1.2882     -0.1723     82.5340     63.7374
  1134.8000      8.0787      1.3055     -0.0747     81.4874     69.8670
  1134.9000      8.0787      1.3948      0.0269     76.0701     72.1513
  1135.0000      8.0867      1.5239      0.0506     68.2489     75.7965
  1135.1000      8.0867      1.6604      0.1302     59.9781     81.1265
  1135.2000      8.0867      1.7784      0.1469     52.8228     85.4193
  1135.3000      8.0977      1.8626      0.1685     47.7224     85.3631
  1135.4000      8.0977      1.9163      0.1642     44.4690     82.6177
  1135.5000      8.1003      1.9519      0.1864     42.3118     82.2116
  1135.6000      8.1003      1.9630      0.1735     41.6376     82.9300
  1135.7000      8.1003      1.9246      0.1364     43.9659     82.8151
  1135.8000      8.0986      1.8275      0.0090     49.8507     81.9874
  1135.9000      8.0986      1.6990     -0.1047     57.6391     79.1299
  1136.0000      8.1121      1.5810     -0.1710     64.7906     74.3655
  1136.1000      8.1121      1.4909     -0.0992     70.2498     71.2561
  1136.2000      8.1121      1.4161     -0.0695     74.7838     71.1488
  1136.3000      8.1598      1.3566     -0.0922     78.3867     72.4014
  1136.4000      8.1598      1.3325     -0.0284     79.8492     73.0811
  1136.5000      8.2319      1.3397      0.0218     79.4096     72.1677
  1136.6000      8.2319      1.3531      0.0282     78.6003     69.1808
  1136.7000      8.2319      1.3614      0.0154     78.0946     64.4654
  1136.8000      8.2827      1.3734      0.0416     77.3718     62.1725
  1136.9000      8.2827      1.4020      0.0392     75.6376     65.0142
  1137.0000      8.2835      1.4488      0.0804     72.7995     70.4377
  1137.1000      8.2835      1.4968      0.1303     69.8920     76.4871
  1137.2000      8.2835      1.5323      0.1089     67.7410     84.2638
  1137.3000      8.2152      1.5644      0.0742     65.7958     89.5207
  1137.4000      8.2152      1.5997      0.1209     63.6519     89.9586
  1137.5000      8.1029      1.6310      0.0895     61.7583     93.4535
  1137.6000      8.1029      1.6622      0.0850     59.8642    102.5858
  1137.7000      8.1029      1.7077      0.0906     57.1116    110.8629
  1137.8000      8.0316      1.7737      0.0676     53.1097    115.3981
  1137.9000      8.0316      1.8577      0.0777     48.0157    119.1785
  1138.0000      8.0122      1.9544      0.1333     42.1553    126.0166
  1138.1000      8.0122      2.0613      0.1609     35.6778    135.7132
  1138.2000      8.0122      2.1682      0.2061     29.2003    144.5909
  1138.3000      8.0097      2.2574      0.1720     23.7934    149.9360
  1138.4000      8.0097      2.3312      0.1716     19.3211    150.3638
  1138.5000      8.0095      2.3976      0.2055     15.2976    149.3570
  1138.6000      8.0095      2.4438      0.1205     12.4975    151.7063
  1138.7000      8.0095      2.4590      0.1041     11.5729    155.7082
  1138.8000      8.0087      2.4496      0.1217     12.1458    158.5245
  1138.9000      8.0087      2.4266      0.0815     13.5371    159.7655
  1139.0000      8.0070      2.4047      0.0304     14.8660    158.4753
  1139.1000      8.0070      2.3959      0.0593     15.4005    154.7112
  1139.2000      8.0070      2.4056      0.0371     14.8107    151.0502
  1139.3000      8.0116      2.4327      0.0783     13.1700    150.1490
  1139.4000      8.0116      2.4613      0.0933     11.4350    153.0478
  1139.5000      8.0260      2.4785      0.1142     10.3943    157.2120
  1139.6000      8.0260      2.4942      0.0909      9.4410    159.6583
  1139.7000      8.0260      2.5204      0.1956      7.8519    158.6999
  1139.8000      8.0344      2.5462      0.2214      6.2933    154.4889
  1139.9000      8.0344      2.5597      0.1562      5.4734    149.3531
  1140.0000      8.0271      2.5676      0.1880      4.9968    144.1929
  1140.1000      8.0271      2.5749      0.1802      4.5528    140.2107
  1140.2000      8.0271      2.5724      0.1837      4.7012    140.3569
  1140.3000      8.0082      2.5605      0.1007      5.4260    144.6149
  1140.4000      8.0082      2.5573      0.0990      5.6194    149.6859
  1140.5000      7.9927      2.5640      0.1243      5.2101    151.2496
  1140.6000      7.9927      2.5641      0.1235      5.2069    147.5377
  1140.7000      7.9927      2.5504      0.1034      6.0370    141.7178
  1140.8000      7.9879      2.5299      0.0731      7.2760    140.6291
  1140.9000      7.9879      2.5155      0.0491      8.1502    145.6222
  1141.0000      7.9875      2.5079      0.0522      8.6101    149.4790
  1141.1000      7.9875      2.4946      0.0568      9.4158    147.8297
  1141.2000      7.9875      2.4783     -0.0041     10.4037    144.0842
  1141.3000      7.9869      2.4738      0.0276     10.6818    142.8574
  1141.4000      7.9869      2.4812      0.0114     10.2282    144.1125
  1141.5000      7.9862      2.4918      0.0473      9.5900    145.2039
  1141.6000      7.9862      2.4994      0.0265      9.1286    147.2288
  1141.7000      7.9862      2.5082      0.0412      8.5962    150.1104
  1141.8000      7.9853      2.5203      0.0239      7.8627    148.9871
  1141.9000      7.9853      2.5274      0.0257      7.4274    143.9128
  1142.0000      7.9842      2.5234      0.0128      7.6750    141.2460
  1142.1000      7.9842      2.5141      0.0040      8.2381    144.2036
  1142.2000      7.9842      2.5071     -0.0081      8.6618    149.4026
  1142.3000      7.9835      2.5014      0.0483      9.0043    152.1114
  1142.4000      7.9835      2.5051     -0.0316      8.7822    150.9800
  1142.5000      7.9833      2.5255      0.0693      7.5450    148.0297
  1142.6000      7.9833      2.5415      0.0780      6.5787    144.7157
  1142.7000      7.9833      2.5406      0.0325      6.6309    139.4961
