~Version Information
VERS.                      2.0: CWLS Log ASCII Standard - VERSION 2.0
WRAP.                       NO: One line per depth step
~Well Information Block
STRT.FT               197.7500: 
STOP.FT              1631.0000: 
STEP.FT                 0.2500: 
NULL.                -999.2500: 
COMP.          Petrogulf Corporation: COMPANY
WELL.             State 16-44R: WELL
FLD.           Purgatoire River: FIELD
LOC.           632' FSL & 223' FEL--: LOCATION
PROV.                 Colorado: PROVINCE
CNTY.               Las Animas: COUNTRY
SRVC.                Patterson: SERVICE COMPANY
DATE.          Fri Oct 21 11:31:17 2005: LOG DATE
UWI.           05 071 08457 00: UNIQUE WELL ID
~Curve Information Block
DEPT.FT            0 000 00 00: Depth
SP.mV                         : DIL Spontaneous Potential
RILD.Ohm-m                    : DIL Deep Resistivity
RILM.Ohm-m                    : DIL Medium Resistivity
RLL3.Ohm-m                    : DIL Shallow Resistivity
GR.GAPI                       : Gamma Ray
~Parameter Information Block
~A  Depth        SP         RILD        RILM        RLL3         GR     
# ...
   785.7500     41.3761     18.4003     20.5066     21.7520    107.5698
   786.0000     41.3184     18.3454     20.6749     23.0842    104.2089
   786.2500     41.3877     18.3188     20.8768     24.6351    101.9664
   786.5000     41.5553     18.3281     21.0714     26.0706     99.6140
   786.7500     41.7700     18.3828     21.2179     27.1096     98.9304
   787.0000     42.0075     18.4913     21.2858     27.6343     99.0588
   787.2500     42.2845     18.6556     21.2679     27.6742     99.6011
   787.5000     42.6297     18.8664     21.1857     27.2964    100.4977
   787.7500     43.0410     19.1024     21.0820     26.5412    100.9512
   788.0000     43.4676     19.3354     21.0016     25.4822    101.4732
   788.2500     43.8333     19.5401     20.9722     24.3176    101.9192
   788.5000     44.0825     19.7023     20.9975     23.3344    103.1913
   788.7500     44.2103     19.8204     21.0638     22.7459    104.5793
   789.0000     44.2461     19.8991     21.1548     22.5883    107.1083
   789.2500     44.2109     19.9421     21.2599     22.7915    108.5695
   789.5000     44.1002     19.9527     21.3739     23.2921    109.4799
   789.7500     43.9182     19.9392     21.4907     24.0264    108.8511
   790.0000     43.7135     19.9183     21.6015     24.8436    106.1193
   790.2500     43.5590     19.9094     21.6978     25.5010    103.8800
   790.5000     43.4986     19.9211     21.7772     25.7952    102.2026
   790.7500     43.5181     19.9432     21.8429     25.7134    103.2258
   791.0000     43.5616     19.9478     21.8975     25.4513    107.5853
   791.2500     43.5734     19.9011     21.9334     25.2663    110.9256
   791.5000     43.5339     19.7777     21.9285     25.2928    113.7986
   791.7500     43.4656     19.5695     21.8488     25.4715    113.7343
   792.0000     43.4082     19.2844     21.6622     25.6182    112.4786
   792.2500     43.3949     18.9375     21.3530     25.5540    112.5889
   792.5000     43.4532     18.5399     20.9274     25.2136    115.1861
   792.7500     43.6041     18.0933     20.4047     24.6756    117.4134
   793.0000     43.8417     17.5940     19.7991     24.1033    118.8134
   793.2500     44.1224     17.0438     19.1116     23.6352    117.9145
   793.5000     44.4061     16.4581     18.3364     23.2866    114.9757
   793.7500     44.7124     15.8667     17.4782     22.9066    113.0547
   794.0000     45.1184     15.3059     16.5635     22.2256    111.7939
   794.2500     45.6858     14.8074     15.6385     21.0124    112.5724
   794.5000     46.3943     14.3916     14.7558     19.2680    116.0871
   794.7500     47.1519     14.0668     13.9607     17.2896    119.2777
   795.0000     47.8667     13.8345     13.2850     15.5068    123.5974
   795.2500     48.4996     13.6932     12.7481     14.2130    125.3960
   795.5000     49.0569     13.6408     12.3623     13.4302    125.9772
   795.7500     49.5555     13.6729     12.1394     13.0100    124.9249
   796.0000     50.0056     13.7811     12.0943     12.8935    120.9979
   796.2500     50.4138     13.9551     12.2450     13.3955    116.6358
   796.5000     50.7874     14.1868     12.6108     15.3750    107.5873
   796.7500     51.1315     14.4751     13.2074     20.0697    100.3685
   797.0000     51.4464     14.8263     14.0413     28.3698     89.2352
   797.2500     51.7318     15.2528     15.1038     39.6946     82.7591
   797.5000     51.9959     15.7720     16.3669     51.3762     76.3780
   797.7500     52.2609     16.4071     17.7866     59.6426     74.8425
   798.0000     52.5552     17.1868     19.3134     62.0464     75.7354
   798.2500     52.8971     18.1399     20.9071     59.3668     77.3336
   798.5000     53.2865     19.2826     22.5455     55.0304     79.7599
   798.7500     53.7119     20.6058     24.2234     52.4824     81.2163
   799.0000     54.1580     22.0700     25.9425     52.9777     83.2938
   799.2500     54.6057     23.6132     27.6977     55.5015     84.3123
   799.5000     55.0332     25.1646     29.4684     58.2064     84.0809
   799.7500     55.4213     26.6512     31.2197     59.7681     82.2419
   800.0000     55.7527     27.9943     32.9171     59.9390     77.2287
   800.2500     56.0024     29.1148     34.5460     59.5407     73.0575
   800.5000     56.1345     29.9570     36.1170     60.1542     66.6909
   800.7500     56.1175     30.5171     37.6452     63.4655     62.6403
   801.0000     55.9468     30.8432     39.1199     70.3497     56.6257
   801.2500     55.6443     31.0070     40.4942     80.1505     52.5009
   801.5000     55.2339     31.0722     41.7115     90.7253     46.5384
   801.7500     54.7211     31.0792     42.7390     99.4302     43.2496
   802.0000     54.1004     31.0404     43.5741    104.5839     40.0672
   802.2500     53.3777     30.9390     44.2141    106.5589     39.1925
   802.5000     52.5887     30.7328     44.6291    107.7653     39.3684
   802.7500     51.8019     30.3690     44.7678    111.3137     40.0511
   803.0000     51.1059     29.8020     44.5831    118.9379     41.0907
   803.2500     50.5818     29.0080     44.0337    129.4947     41.4225
   803.5000     50.2733     27.9923     43.0546    139.2993     41.1457
   803.7500     50.1806     26.7921     41.5454    144.2542     40.5743
   804.0000     50.2822     25.4734     39.4277    142.1459     39.8763
   804.2500     50.5584     24.1157     36.7378    133.2851     40.2721
   804.5000     50.9965     22.7926     33.6602    119.3123     43.7849
   804.7500     51.5858     21.5559     30.4624    101.7881     48.8429
   805.0000     52.3141     20.4307     27.3961     82.0613     60.7238
   805.2500     53.1585     19.4208     24.6383     62.0282     70.9192
   805.5000     54.0685     18.5187     22.2823     44.2335     87.9724
   805.7500     54.9616     17.7145     20.3515     30.8086     99.3904
   806.0000     55.7475     16.9985     18.8182     22.3862    114.2838
   806.2500     56.3583     16.3620     17.6233     18.0945    121.3638
   806.5000     56.7643     15.7989     16.6938     16.4127    126.6053
   806.7500     56.9874     15.3094     15.9583     15.9942    127.1002
   807.0000     57.1199     14.9002     15.3588     15.9872    125.9843
   807.2500     57.3170     14.5804     14.8575     15.9778    125.6159
   807.5000     57.7248     14.3570     14.4388     15.8374    126.9713
   807.7500     58.3715     14.2331     14.1059     15.6057    128.8057
   808.0000     59.1192     14.2111     13.8732     15.3924    130.9665
   808.2500     59.7396     14.2943     13.7585     15.2785    130.7417
   808.5000     60.0659     14.4870     13.7779     15.2678    127.0960
   808.7500     60.0879     14.7919     13.9461     15.3354    123.1969
   809.0000     59.9032     15.2075     14.2782     15.5417    117.4466
   809.2500     59.5796     15.7287     14.7948     16.1688    114.5129
   809.5000     59.0825     16.3481     15.5234     17.8552    111.0676
   809.7500     58.3683     17.0576     16.4959     21.6772    108.5913
   810.0000     57.5620     17.8458     17.7414     28.9898    103.4843
   810.2500     57.0384     18.6941     19.2775     40.8029     98.9168
   810.5000     57.2937     19.5765     21.1033     56.8472     90.5888
   810.7500     58.6470     20.4658     23.1959     75.0628     84.5165
   811.0000     60.9353     21.3394     25.5081     92.1919     75.5178
   811.2500     63.4459     22.1793     27.9602    105.2335     69.9183
   811.5000     65.2504     22.9643     30.4280    112.7708     62.5318
   811.7500     65.7664     23.6613     32.7343    115.3483     58.7061
   812.0000     65.0888     24.2210     34.6547    114.6915     55.5884
   812.2500     63.8114     24.5794     35.9497    112.1962     55.6697
   812.5000     62.5595     24.6690     36.4204    107.7935     59.2128
   812.7500     61.6565     24.4411     35.9731    100.3065     63.7080
   813.0000     61.1154     23.8901     34.6626     89.0570     72.9919
   813.2500     60.8253     23.0622     32.6873     75.0211     80.2555
   813.5000     60.7171     22.0413     30.3268     60.3608     91.5966
