~Version Information
VERS.                      2.0: CWLS Log ASCII Standard - VERSION 2.0
WRAP.                       NO: One line per depth step
~Well Information Block
STRT.FT               245.0000: 
STOP.FT              1273.7000: 
STEP.FT                 0.1000: 
NULL.                -999.2500: 
COMP.          Pioneer Natural Resources: COMPANY
WELL.                 Ray 34-6: WELL
FLD.           Purgatoire River: FIELD
LOC.           684' FSL & 2254' FEL--: LOCATION
CNTY.               Las Animas: COUNTY
SRVC.                Patterson: SERVICE COMPANY
DATE.          Fri May 26 09:17:30 2006: LOG DATE
UWI.           05 071 08695 00: UNIQUE WELL ID
STAT.                 Colorado: STATE
~Curve Information Block
DEPT.FT            0 000 00 00: Depth
DCAL.in                       : CDL Caliper
RHOB.g/cc                     : CDL Bulk Density
RHOC.g/cc                     : CDL Density Correction
DPOR.pu                       : CDL Density Porosity
NPOR.pu                       : Neutron Porosity
GR.GAPI                       : Gamma Ray
~Parameter Information Block
~A  Depth       DCAL        RHOB        RHOC        DPOR        NPOR         GR     
# ...
   974.6000      7.9947      2.4565      0.0576     11.7288     21.9965     98.6388
   974.7000      7.9947      2.4495      0.0089     12.1516     22.1657     97.2193
   974.8000      7.9936      2.4557      0.0048     11.7768     21.8491     98.3863
   974.9000      7.9936      2.4713      0.0401     10.8321     21.5804    105.1070
   975.0000      7.9924      2.4887      0.0365      9.7761     21.6090    112.0711
   975.1000      7.9924      2.4924      0.0733      9.5505     21.7201    109.2245
   975.2000      7.9924      2.4763      0.0468     10.5284     21.7208    100.4907
   975.3000      7.9933      2.4614     -0.0113     11.4283     21.5283     97.6078
   975.4000      7.9933      2.4640      0.0553     11.2755     21.1619    101.2974
   975.5000      7.9936      2.4776      0.0270     10.4465     20.8634    104.2723
   975.6000      7.9936      2.4945      0.0544      9.4231     20.8146    101.5193
   975.7000      7.9936      2.5047      0.0682      8.8090     21.0842     94.6796
   975.8000      7.9931      2.5030      0.0400      8.9105     21.4422     88.7282
   975.9000      7.9931      2.4947      0.0555      9.4141     21.4120     85.8975
   976.0000      7.9931      2.4858      0.0110      9.9534     21.0063     87.0898
   976.1000      7.9931      2.4761      0.0821     10.5384     20.7005     91.4605
   976.2000      7.9931      2.4591      0.0360     11.5667     20.6117     95.3559
   976.3000      7.9895      2.4433      0.0002     12.5245     20.5449     95.9164
   976.4000      7.9895      2.4408      0.0019     12.6810     20.4586     94.2196
   976.5000      7.9808      2.4478      0.0209     12.2574     20.4377     93.4010
   976.6000      7.9808      2.4603      0.0106     11.4999     20.6679     92.6871
   976.7000      7.9808      2.4763      0.0609     10.5257     21.2269     90.1011
   976.8000      7.9715      2.4878      0.0716      9.8312     21.8619     90.0331
   976.9000      7.9715      2.4926      0.0510      9.5378     22.1190     95.0277
   977.0000      7.9663      2.4942      0.0842      9.4401     21.8621     99.1153
   977.1000      7.9663      2.4853      0.0818      9.9828     21.4601     99.3301
   977.2000      7.9663      2.4574      0.0687     11.6704     21.1947     98.9911
   977.3000      7.9608      2.4249     -0.0222     13.6413     21.2089     98.4089
   977.4000      7.9608      2.4158      0.0097     14.1949     21.5896     94.9687
   977.5000      7.9525      2.4323      0.0482     13.1921     22.1266     91.1262
   977.6000      7.9525      2.4526      0.0548     11.9646     22.5017     91.7831
   977.7000      7.9525      2.4700      0.0469     10.9102     22.6443     94.3125
   977.8000      7.9438      2.4891      0.0618      9.7519     22.7726     94.2078
   977.9000      7.9438      2.4991      0.0786      9.1455     23.0399     94.6832
   978.0000      7.9370      2.4927      0.0731      9.5325     23.2284     99.2081
   978.1000      7.9370      2.4852      0.0507      9.9880     23.2420    104.5357
   978.2000      7.9370      2.4913      0.0778      9.6198     23.3740    105.4880
   978.3000      7.9351      2.5046      0.0867      8.8110     23.8375    100.1265
   978.4000      7.9351      2.5144      0.0688      8.2163     24.5401     93.1468
   978.5000      7.9376      2.5185      0.0649      7.9720     25.1813     89.9513
   978.6000      7.9376      2.5152      0.0779      8.1721     25.4178     90.1992
   978.7000      7.9376      2.5053      0.0367      8.7707     25.3247     91.1905
   978.8000      7.9408      2.4947      0.0544      9.4132     25.2635     91.3710
   978.9000      7.9408      2.4851      0.0368      9.9942     25.1370     91.7975
   979.0000      7.9419      2.4767      0.0754     10.5019     24.7803     93.3569
   979.1000      7.9419      2.4735      0.0522     10.6978     24.4877     94.8482
   979.2000      7.9419      2.4796      0.0562     10.3253     24.3963     95.5913
   979.3000      7.9401      2.4911      0.0858      9.6331     24.2080     96.3625
   979.4000      7.9401      2.5002      0.0571      9.0794     23.8286     96.0996
   979.5000      7.9379      2.5057      0.0626      8.7446     23.5332     93.2683
   979.6000      7.9379      2.5088      0.1033      8.5560     23.4645     90.3890
   979.7000      7.9379      2.5090      0.0825      8.5463     23.3668     89.1856
   979.8000      7.9376      2.5042      0.0705      8.8344     23.1031     88.6789
   979.9000      7.9376      2.4929      0.1070      9.5191     22.7475     88.7246
   980.0000      7.9370      2.4836      0.0543     10.0838     22.4217     88.9705
   980.1000      7.9370      2.4895      0.0882      9.7279     22.2995     88.7618
   980.2000      7.9370      2.5024      0.0877      8.9437     22.3258     89.2803
   980.3000      7.9356      2.5067      0.0590      8.6847     22.3689     91.2948
   980.4000      7.9356      2.5048      0.0221      8.7994     22.4549     93.8002
   980.5000      7.9371      2.4987      0.1102      9.1678     22.4453     95.5319
   980.6000      7.9371      2.4784      0.0527     10.4024     22.1576     97.0116
   980.7000      7.9371      2.4509      0.0216     12.0681     22.0842     97.3882
   980.8000      7.9384      2.4320      0.0494     13.2117     22.6826     93.9641
   980.9000      7.9384      2.4268      0.0318     13.5258     23.3790     88.9977
   981.0000      7.9351      2.4378      0.0283     12.8608     23.4947     87.1221
   981.1000      7.9351      2.4518      0.0816     12.0135     23.2356     88.6993
   981.2000      7.9351      2.4540      0.0461     11.8768     23.1157     91.5724
   981.3000      7.9321      2.4609      0.0273     11.4597     23.5449     93.2516
   981.4000      7.9321      2.4859      0.0681      9.9443     24.3888     91.6335
   981.5000      7.9319      2.5143      0.0838      8.2245     24.9677     87.3746
   981.6000      7.9319      2.5381      0.0896      6.7823     25.0275     81.8191
   981.7000      7.9319      2.5662      0.0943      5.0805     24.8892     76.8322
   981.8000      7.9323      2.5999      0.1174      3.0378     24.9454     72.8733
   981.9000      7.9323      2.6288      0.1225      1.2832     25.2763     69.6229
   982.0000      7.9295      2.6423      0.1471      0.4691     25.4181     69.2209
   982.1000      7.9295      2.6371      0.1430      0.7806     25.2579     71.7193
   982.2000      7.9295      2.6250      0.0699      1.5173     25.1572     73.2839
   982.3000      7.9267      2.6205      0.0816      1.7889     25.1331     73.5257
   982.4000      7.9267      2.6221      0.0856      1.6893     25.1921     74.9172
   982.5000      7.9296      2.6260      0.0494      1.4559     25.4090     76.6284
   982.6000      7.9296      2.6296      0.0448      1.2338     25.5235     77.5453
   982.7000      7.9296      2.6159      0.0585      2.0694     25.1852     78.2966
   982.8000      7.9326      2.5772      0.0125      4.4151     24.5339     78.2512
   982.9000      7.9326      2.5345      0.0132      7.0007     24.0571     77.8152
   983.0000      7.9339      2.5072      0.0489      8.6541     23.9719     78.6494
   983.1000      7.9339      2.4937      0.0231      9.4753     24.3415     79.7101
   983.2000      7.9339      2.4827      0.0304     10.1395     25.0534     81.0191
   983.3000      7.9355      2.4706     -0.0272     10.8732     25.5147     81.2876
   983.4000      7.9355      2.4679      0.0024     11.0389     25.2379     78.7825
   983.5000      7.9370      2.4783      0.0165     10.4088     24.4690     77.7876
   983.6000      7.9370      2.4918      0.0361      9.5860     23.7316     80.6808
   983.7000      7.9370      2.5021      0.0506      8.9623     23.2466     83.1873
   983.8000      7.9381      2.5087      0.0425      8.5654     23.1691     83.9017
   983.9000      7.9381      2.5088      0.0624      8.5592     23.6938     85.0485
   984.0000      7.9409      2.5045      0.0131      8.8196     24.4247     87.1321
   984.1000      7.9409      2.4997      0.0706      9.1121     24.7117     88.5518
