~Version Information
VERS.                      2.0: CWLS Log ASCII Standard - VERSION 2.0
WRAP.                       NO: One line per depth step
~Well Information Block
STRT.FT               530.7500: 
STOP.FT              1325.2500: 
STEP.FT                 0.2500: 
NULL.                -999.2500: 
COMP.          Pioneer Natural Resources: COMPANY
WELL.            Erin 21-15 Tr: WELL
FLD.           Purgatoire River: FIELD
LOC.           1217' FNL & 2284' FWL--: LOCATION
CNTY.               Las Animas: COUNTY
SRVC.                Patterson: SERVICE COMPANY
DATE.          Fri Mar 03 23:07:06 2006: LOG DATE
UWI.           05 071 08712 00: UNIQUE WELL ID
STAT.                 Colorado: STATE
~Curve Information Block
DEPT.FT            0 000 00 00: Depth
SN.Ohm-m                      : IEL Short Normal
SP.mV                         : IEL Spontaneous Potential
DIR.Ohm-m                     : IEL Induction Resistivity
GR.GAPI                       : Gamma Ray
~Parameter Information Block
~A  Depth        SN          SP         DIR          GR     
# ...
  1267.7500     21.4430    197.9156     21.4805     71.3631
  1268.0000     21.9162    197.6919     21.7559     69.0360
  1268.2500     22.2307    197.4967     21.9944     68.3311
  1268.5000     22.3731    197.3324     22.1661     68.2150
  1268.7500     22.3846    197.1935     22.2565     68.6400
  1269.0000     22.3238    197.0685     22.2634     69.6650
  1269.2500     22.2366    196.9413     22.1914     70.2549
  1269.5000     22.1481    196.7940     22.0499     70.6212
  1269.7500     22.0670    196.6099     21.8549     70.7283
  1270.0000     21.9922    196.3772     21.6307     71.5736
  1270.2500     21.9189    196.0932     21.4070     72.9764
  1270.5000     21.8428    195.7681     21.2101     76.2754
  1270.7500     21.7577    195.4261     21.0523     78.9477
  1271.0000     21.6438    195.1056     20.9222     83.0833
  1271.2500     21.4530    194.8550     20.7810     85.6959
  1271.5000     21.1096    194.7260     20.5671     89.1220
  1271.7500     20.5391    194.7652     20.2150     90.8770
  1272.0000     19.7158    195.0048     19.6809     92.3877
  1272.2500     18.6945    195.4565     18.9625     92.8270
  1272.5000     17.5970    196.1079     18.1012     94.2554
  1272.7500     16.5549    196.9240     17.1641     97.2492
  1273.0000     15.6539    197.8526     16.2179    106.8635
  1273.2500     14.9124    198.8320     15.3092    116.6197
  1273.5000     14.3003    199.7996     14.4602    133.6340
  1273.7500     13.7723    200.6994     13.6758    144.3945
  1274.0000     13.2949    201.4861     12.9560    156.9162
  1274.2500     12.8569    202.1269     12.3054    162.2500
  1274.5000     12.4670    202.5998     11.7385    166.0684
  1274.7500     12.1450    202.8911     11.2777    166.5895
  1275.0000     11.9138    202.9918     10.9470    166.1253
  1275.2500     11.7924    202.8955     10.7649    165.7868
  1275.5000     11.7915    202.5982     10.7389    165.3168
  1275.7500     11.9121    202.0997     10.8636    164.3103
  1276.0000     12.1509    201.4068     11.1232    159.9945
  1276.2500     12.5063    200.5369     11.4954    154.4876
  1276.5000     12.9816    199.5205     11.9575    142.2373
  1276.7500     13.5839    198.4016     12.4912    132.1378
  1277.0000     14.3215    197.2359     13.0848    116.0486
  1277.2500     15.1971    196.0853     13.7311    105.9156
  1277.5000     16.1946    195.0116     14.4238     93.4835
  1277.7500     17.2671    194.0689     15.1513     87.9023
  1278.0000     18.3388    193.2979     15.8923     84.4585
  1278.2500     19.3194    192.7217     16.6131     85.5263
  1278.5000     20.1272    192.3462     17.2699     91.5499
  1278.7500     20.7051    192.1620     17.8170     97.6555
  1279.0000     21.0238    192.1496     18.2184    107.5892
  1279.2500     21.0735    192.2843     18.4587    113.1741
  1279.5000     20.8586    192.5405     18.5449    118.3012
  1279.7500     20.4006    192.8938     18.4992    119.5647
  1280.0000     19.7455    193.3210     18.3473    119.4635
  1280.2500     18.9669    193.7984     18.1128    118.9308
  1280.5000     18.1597    194.3002     17.8191    118.7972
  1280.7500     17.4224    194.7964     17.4940    119.9255
  1281.0000     16.8333    195.2543     17.1679    124.3248
  1281.2500     16.4335    195.6400     16.8667    128.8974
  1281.5000     16.2242    195.9220     16.6055    136.7493
  1281.7500     16.1754    196.0755     16.3891    141.6247
  1282.0000     16.2386    196.0859     16.2184    147.1783
  1282.2500     16.3612    195.9506     16.0962    149.2529
  1282.5000     16.4994    195.6799     16.0301    149.2045
  1282.7500     16.6296    195.2956     16.0326    146.8533
  1283.0000     16.7527    194.8286     16.1196    140.5672
  1283.2500     16.8853    194.3147     16.3066    135.6427
  1283.5000     17.0372    193.7908     16.6034    129.3918
  1283.7500     17.1901    193.2911     17.0077    126.9243
  1284.0000     17.2955    192.8436     17.4998    126.1967
  1284.2500     17.2988    192.4689     18.0414    127.2185
  1284.5000     17.1795    192.1793     18.5793    129.3173
  1284.7500     16.9857    191.9790     19.0575    130.0531
  1285.0000     16.8423    191.8645     19.4347    129.3437
  1285.2500     16.9191    191.8256     19.6979    128.1087
  1285.5000     17.3616    191.8457     19.8653    127.0909
  1285.7500     18.2093    191.9031     19.9750    128.0491
  1286.0000     19.3496    191.9731     20.0664    132.2118
  1286.2500     20.5549    192.0302     20.1649    135.9687
  1286.5000     21.5896    192.0522     20.2747    141.1272
  1286.7500     22.3120    192.0228     20.3866    143.4061
  1287.0000     22.7068    191.9351     20.4942    144.5250
  1287.2500     22.8484    191.7924     20.6069    143.9190
  1287.5000     22.8409    191.6087     20.7477    141.7516
  1287.7500     22.7742    191.4069     20.9382    139.7012
  1288.0000     22.7027    191.2161     21.1811    135.3428
  1288.2500     22.6415    191.0677     21.4538    131.3567
  1288.5000     22.5768    190.9907     21.7173    124.4047
  1288.7500     22.4864    191.0065     21.9346    120.0139
  1289.0000     22.3645    191.1242     22.0840    115.1037
  1289.2500     22.2343    191.3369     22.1560    113.1979
  1289.5000     22.1434    191.6195     22.1453    112.2193
  1289.7500     22.1431    191.9302     22.0511    112.6749
  1290.0000     22.2657    192.2137     21.8892    114.8255
  1290.2500     22.5099    192.4083     21.6987    117.0062
  1290.5000     22.8437    192.4541     21.5327    120.4277
  1290.7500     23.2224    192.3024     21.4408    121.8615
  1291.0000     23.6143    191.9232     21.4573    121.0134
  1291.2500     24.0236    191.3100     21.6039    118.0246
  1291.5000     24.4930    190.4808     21.8988    111.0232
  1291.7500     25.0873    189.4753     22.3649    106.0637
  1292.0000     25.8659    188.3490     23.0233     99.9606
  1292.2500     26.8612    187.1663     23.8759     96.7318
  1292.5000     28.0639    185.9939     24.8850     91.7284
  1292.7500     29.4153    184.8941     25.9684     87.6972
  1293.0000     30.8117    183.9198     27.0146     81.4513
  1293.2500     32.1233    183.1104     27.9145     78.5843
  1293.5000     33.2200    182.4890     28.5862     78.3767
  1293.7500     33.9885    182.0622     28.9825     81.0092
  1294.0000     34.3449    181.8216     29.0876     87.0105
  1294.2500     34.2525    181.7490     28.9180     90.8549
  1294.5000     33.7354    181.8228     28.5221     95.1194
  1294.7500     32.8645    182.0245     27.9676     97.2045
  1295.0000     31.7218    182.3434     27.3134    100.2989
  1295.2500     30.3653    182.7785     26.5838    102.7172
  1295.5000     28.8186    183.3359     25.7625    106.4654
  1295.7500     27.0896    184.0239     24.8112    108.3342
  1296.0000     25.2084    184.8471     23.7011    109.0875
  1296.2500     23.2566    185.8006     22.4383    108.1846
  1296.5000     21.3558    186.8676     21.0699    105.7634
  1296.7500     19.6183    188.0196     19.6661    104.0055
  1297.0000     18.1027    189.2189     18.2945    100.1756
  1297.2500     16.8109    190.4240     17.0025     94.7904
  1297.5000     15.7154    191.5928     15.8153     78.8751
  1297.7500     14.7840    192.6870     14.7448     63.1414
  1298.0000     13.9864    193.6732     13.7983     37.2155
  1298.2500     13.2978    194.5240     12.9814     22.5431
  1298.5000     12.7053    195.2186     12.2973      8.3130
  1298.7500     12.2108    195.7437     11.7443      3.5964
  1299.0000     11.8211    196.0950     11.3156      0.7806
  1299.2500     11.5359    196.2778     11.0008      0.2333
  1299.5000     11.3425    196.3072     10.7885      0.0269
  1299.7500     11.2208    196.2066     10.6675      0.0034
  1300.0000     11.1501    196.0047     10.6254   -999.2500
  1300.2500     11.1148    195.7319     10.6474   -999.2500
  1300.5000     11.1072    195.4167     10.7159   -999.2500
  1300.7500     11.1275    195.0840     10.8121   -999.2500
  1301.0000     11.1794    194.7525     10.9196   -999.2500
