~Version Information
VERS.                      2.0: CWLS Log ASCII Standard - VERSION 2.0
WRAP.                       NO: One line per depth step
~Well Information Block
STRT.FT                -4.7500: 
STOP.FT              2723.2500: 
STEP.FT                 0.2500: 
NULL.                -999.2500: 
COMP.          Pioneer Natural Resources: COMPANY
WELL.           Dolzanie 34-12: WELL
FLD.           Purgatorie River: FIELD
LOC.           1001' FSL & 1750' FEL: LOCATION
PROV.                 Colorado: PROVINCE
CNTY.               Las Animas: COUNTRY
SRVC.                Patterson: SERVICE COMPANY
DATE.          Wed Jul 27 14:23:29 2005: LOG DATE
UWI.                          : UNIQUE WELL ID
~Curve Information Block
DEPT.FT            0 000 00 00: Depth
GR.GAPI                       : Gamma Ray
CCL.                          : Casing Collar Locator
TT3.usec                      : CBL 3' Travel Time
AMP3.mV                       : CBL 3' Amplitude
~Parameter Information Block
~A  Depth        GR         CCL         TT3         AMP3    
# ...
   162.7500     85.7758      0.0000    790.8997     15.3751
   163.0000     92.1828      0.0000    765.1816     15.2607
   163.2500     95.7719      0.0000    761.0771     15.1801
   163.5000     95.6106      0.0000    757.4450     15.1382
   163.7500     92.9728      0.0000    743.2986     15.0728
   164.0000     90.2599      0.0000    714.7566     14.9355
   164.2500     89.4185      0.0000    671.4677     14.7641
   164.5000     90.9713      0.0000    627.8058     14.6297
   164.7500     94.0172      0.0000    612.8282     14.5436
   165.0000     96.9611      0.0000    642.7790     14.4710
   165.2500     98.4901      0.0000    701.2573     14.4120
   165.5000     98.2282      0.0000    757.3617     14.4080
   165.7500     96.7553      0.0000    794.6669     14.4917
   166.0000     95.2027      0.0000    810.8538     14.6734
   166.2500     94.5658      0.0000    806.1061     14.9447
   166.5000     94.8737      0.0000    787.6611     15.2570
   166.7500     94.9703      0.0000    772.6817     15.5258
   167.0000     93.5364      0.0000    775.6499     15.6882
   167.2500     90.5000      0.0000    794.6027     15.7412
   167.5000     87.2521      0.0000    815.9865     15.7087
   167.7500     85.3102      0.0000    834.5761     15.6084
   168.0000     84.9138      0.0000    852.9717     15.4821
   168.2500     85.1255      0.0000    864.0501     15.4037
   168.5000     85.1283      0.0000    858.8618     15.4103
   168.7500     85.0872      0.0000    844.5229     15.4727
   169.0000     85.7678      0.0000    839.3732     15.5584
   169.2500     87.5833      0.0000    850.6193     15.6729
   169.5000     90.2100      0.0000    864.6182     15.8169
   169.7500     93.0229      0.0000    869.2425     15.9486
   170.0000     95.3468      0.0000    867.4448     16.0268
   170.2500     96.1125      0.0000    864.9647     16.0472
   170.5000     94.1920      0.0000    863.1614     16.0166
   170.7500     89.7443      0.0000    861.8286     15.9582
   171.0000     84.6032      0.0000    861.0229     15.9528
   171.2500     80.8402      0.0000    860.8261     16.0738
   171.5000     79.3618      0.0000    860.8382     16.2662
   171.7500     79.8292      0.0000    859.0544     16.3904
   172.0000     81.1643      0.0000    848.4821     16.4121
   172.2500     82.1471      0.0000    814.8375     16.4306
   172.5000     82.3227      0.0000    748.2430     16.5045
   172.7500     82.4780      0.0000    664.3457     16.5935
   173.0000     83.9014      0.0000    596.6038     16.6682
   173.2500     87.1885      0.0000    561.3101     16.7326
   173.5000     91.8633      0.0000    549.3630     16.7541
   173.7500     96.8999      0.0000    547.3364     16.6780
   174.0000    101.3239      0.0000    550.5844     16.4325
   174.2500    104.3315      0.0000    562.5102     15.8333
   174.5000    105.0639      0.0000    587.2318     14.7085
   174.7500    102.6570      0.0000    618.1324     13.3693
   175.0000     97.0028      0.0000    640.1673     12.4605
   175.2500     89.4977      0.0000    655.4573     11.9507
   175.5000     82.4955      0.0000    690.2319     11.2577
   175.7500     77.7435      0.0000    753.7747     10.3867
   176.0000     75.5180      0.0000    814.6860      9.7425
   176.2500     75.1122      0.0000    849.2610      9.3966
   176.5000     75.6471     -2.0000    873.3428      9.1947
   176.7500     76.3141     -2.0000    896.6575      9.0474
   177.0000     76.3475      0.0000    903.6185      8.9718
   177.2500     75.2514      0.0000    883.1908      9.0977
   177.5000     73.1684      0.0000    836.7300      9.7776
   177.7500     70.7597      0.0000    781.6672     11.3367
   178.0000     68.5334      0.0000    747.4636     13.3518
   178.2500     66.5730      0.0000    744.9522     14.9936
   178.5000     65.1008      0.0000    761.5724     16.0891
   178.7500     64.8260      0.0000    783.6311     16.7978
   179.0000     66.2432      0.0000    802.2786     17.0768
   179.2500     68.6956      0.0000    812.8286     17.0008
   179.5000     70.4092      0.0000    816.7557     16.8229
   179.7500     69.5758      0.0000    817.9542     16.7183
   180.0000     65.6599      0.0000    818.6594     16.7412
   180.2500     59.8378      0.0000    819.3733     16.8826
   180.5000     54.1287      0.0000    820.0384     17.0574
   180.7500     50.0933      0.0000    820.5815     17.1199
   181.0000     48.2053      0.0000    820.9219     16.9879
   181.2500     48.0054      0.0000    821.0212     16.7196
   181.5000     48.6175      0.0000    820.9393     16.4367
   181.7500     49.3082      0.0000    820.8010     16.2278
   182.0000     49.8337      0.0000    820.7129     16.1241
   182.2500     50.4124      0.0000    820.6432     16.1107
   182.5000     51.3150      0.0000    820.4967     16.1510
   182.7500     52.3761      0.0000    820.3196     16.2212
   183.0000     52.9887      0.0000    820.2303     16.3264
   183.2500     52.6263      0.0000    820.1776     16.4684
   183.5000     51.1963      0.0000    819.9479     16.6097
   183.7500     48.9368      0.0000    819.4393     16.6941
   184.0000     46.2771      0.0000    818.8463     16.6962
   184.2500     43.7471      0.0000    818.5048     16.6428
   184.5000     41.7117      0.0000    818.5707     16.5837
   184.7500     40.1848      0.0000    818.9048     16.5461
   185.0000     39.0768      0.0000    819.2421     16.5147
   185.2500     38.5569      0.0000    819.3937     16.4587
   185.5000     38.8938      0.0000    819.3253     16.3815
   185.7500     39.9345      0.0000    819.1516     16.3321
   186.0000     41.0405      0.0000    819.0175     16.3668
   186.2500     41.6962      0.0000    818.9467     16.4879
   186.5000     42.0211      0.0000    818.8544     16.6157
   186.7500     42.5569      0.0000    818.6941     16.6587
   187.0000     43.6176      0.0000    818.5381     16.6067
   187.2500     44.9653      0.0000    818.5104     16.5166
   187.5000     46.1206      0.0000    818.6814     16.4427
   187.7500     46.8339      0.0000    819.0274     16.4194
   188.0000     47.0789      0.0000    819.4459     16.4571
   188.2500     46.6751      0.0000    819.8066     16.5327
   188.5000     45.2780      0.0000    820.0375     16.5999
   188.7500     42.9691      0.0000    820.1837     16.6209
   189.0000     40.6197      0.0000    820.3232     16.6142
   189.2500     39.3611      0.0000    820.4503     16.6383
   189.5000     39.7003      0.0000    820.5553     16.7036
   189.7500     41.3611      0.0000    820.7153     16.7620
   190.0000     43.8410      0.0000    820.9868     16.7710
   190.2500     46.6244      0.0000    821.2974     16.7252
   190.5000     48.8748      0.0000    821.5047     16.6451
   190.7500     49.7047      0.0000    821.5507     16.5470
   191.0000     49.1482      0.0000    821.5168     16.4188
   191.2500     48.3758      0.0000    821.5021     16.2294
   191.5000     48.5631      0.0000    821.5043     15.9603
   191.7500     49.8712      0.0000    821.4495     15.6475
   192.0000     51.6517      0.0000    821.2869     15.3875
   192.2500     53.1633      0.0000    820.8722     15.2525
   192.5000     53.8822      0.0000    819.5337     15.2159
   192.7500     53.5587      0.0000    816.0269     15.2021
   193.0000     52.3557      0.0000    809.9747     15.1751
   193.2500     51.0028      0.0000    802.8592     15.1413
   193.5000     50.7183      0.0000    795.7806     15.1001
   193.7500     52.7126      0.0000    788.6136     15.0400
   194.0000     57.3875      0.0000    782.4960     14.9624
   194.2500     63.9923      0.0000    779.0493     14.8837
   194.5000     71.2837      0.0000    778.1902     14.8268
   194.7500     78.3902      0.0000    779.3909     14.8067
   195.0000     84.7448      0.0000    783.0980     14.8120
   195.2500     89.4617      0.0000    789.2664     14.8138
   195.5000     91.5449      0.0000    796.1600     14.8061
   195.7500     90.8411      0.0000    802.5168     14.8073
   196.0000     88.2249      0.0000    807.7994     14.8122
