~Version Information
 VERS.                                  2.0 : CWLS LAS VERSION
 WRAP.                                   NO : WRAPING MODE
 SWARE .                 MController 2.5.0J : SOFTWARE VERSION
~Well Information
 WELL.                       Cooper 11-13Tr : WELL
 COMP.    Pioneer Natural Resources USA Inc : COMPANY
 FLD.                      Purgatoire River : FIELD
 LOC.                 NW/NW SEC13 T32S R67W : LOCATION
 DATE.                             09/24/05 : DATE(S) LOGGED
 SRVC.       Blanco Geological Services LLC : SERVICE COMPANY
 STAT.                             Colorado : STATE
 CNTY.                           Las Animas : COUNTY
 CTRY.                                  USA : COUNTRY
 API.                       05-071-08525-00 : API NUMBER
 STRT.FT                             327.00 : START DEPTH
 STOP.FT                            1876.00 : STOP DEPTH
 STEP.FT                               1.00 : DEPTH INCREMENT
 NULL.                                -9999 : NULL VALUE
~Curve information
 DEPTH.FT                                   :
 ROP.MIN/FT                                 :
 GAS.UNITS                                  :
~ASCII Log data
# ...
      1727.0         0.23         47.4 
      1728.0         0.27         48.5 
      1729.0         0.20         48.5 
      1730.0         0.20         48.6 
      1731.0         0.20         49.4 
      1732.0         0.23         47.8 
      1733.0         0.37         49.5 
      1734.0         0.20         47.6 
      1735.0         0.25         43.0 
      1736.0         3.72        180.3 
      1737.0         0.23        132.6 
      1738.0         0.33        127.5 
      1739.0         0.33         98.7 
      1740.0         0.33         90.5 
      1741.0         0.47         84.2 
      1742.0         0.37         67.3 
      1743.0         0.20         74.3 
      1744.0         0.30         87.1 
      1745.0         0.27         94.1 
      1746.0         0.22         91.0 
      1747.0         0.23         89.3 
      1748.0         0.23         83.4 
      1749.0         0.20         78.5 
      1750.0         0.23         70.9 
      1751.0         0.23         70.3 
      1752.0         0.20         64.7 
      1753.0         0.27         62.9 
      1754.0         0.37         55.6 
      1755.0         0.27         51.6 
      1756.0         0.30         49.4 
      1757.0         0.30         47.4 
      1758.0         0.27         48.2 
      1759.0         0.28         47.0 
      1760.0         0.27         48.5 
      1761.0         0.27         51.2 
      1762.0         0.23         50.7 
      1763.0         0.27         50.3 
      1764.0         0.30         50.3 
      1765.0         0.33         49.2 
      1766.0        34.03       2922.8 
      1767.0         0.13       1092.3 
      1768.0         0.13       1206.1 
      1769.0         0.20       1206.1 
      1770.0         0.27       1243.5 
      1771.0         0.25       1243.8 
      1772.0         0.23       1199.6 
      1773.0         0.33       1168.0 
      1774.0         0.37       1103.3 
      1775.0         0.33       1090.1 
      1776.0         0.30        974.4 
      1777.0         0.30       1000.1 
      1778.0         0.40       1021.4 
      1779.0         0.27       1027.5 
      1780.0         0.33       1022.1 
      1781.0         0.65       1010.1 
      1782.0         0.60       1005.0 
      1783.0         0.53        991.4 
      1784.0         0.57        980.8 
      1785.0         0.53        964.4 
      1786.0         0.57        956.3 
      1787.0         0.38        949.9 
      1788.0         0.13        901.9 
      1789.0         0.23        901.9 
      1790.0         0.27        903.1 
      1791.0         0.13        911.5 
      1792.0         0.17        911.5 
      1793.0         0.20        914.1 
      1794.0         0.23        871.2 
      1795.0         0.13        871.2 
      1796.0        22.22       2500.9 
      1797.0         0.57       1883.5 
      1798.0         0.47       1357.5 
      1799.0         0.57       1131.3 
      1800.0         0.37       1090.1 
      1801.0         0.40       1001.8 
      1802.0         0.33        999.8 
      1803.0         0.45        924.7 
      1804.0         0.33        870.6 
      1805.0         0.33        847.7 
      1806.0         0.30        855.4 
      1807.0         0.33        863.8 
      1808.0         0.30        861.2 
      1809.0         0.33        845.5 
      1810.0         0.30        842.2 
      1811.0         0.23        806.8 
      1812.0         0.27        801.6 
      1813.0         0.52        803.2 
      1814.0         0.63        816.8 
      1815.0         0.53        816.5 
      1816.0         0.67        798.7 
      1817.0         0.70        796.5 
      1818.0         0.30        779.1 
      1819.0         0.20        772.0 
      1820.0         0.22        804.5 
      1821.0         0.20        804.5 
      1822.0         0.27        830.0 
      1823.0         0.20        840.0 
      1824.0         0.27        838.7 
      1825.0         0.20        800.0 
      1826.0         5.70       2137.4 
      1827.0         0.57       1640.8 
      1828.0         0.40       1327.6 
      1829.0         0.43       1188.0 
      1830.0         0.43       1140.7 
      1831.0         0.37       1133.9 
      1832.0         0.37       1045.3 
      1833.0         0.40        940.2 
      1834.0         0.35        928.6 
      1835.0         0.37        899.9 
      1836.0         0.27        891.2 
      1837.0         0.27        892.5 
      1838.0         0.23        875.8 
      1839.0         0.23        873.8 
      1840.0         0.20        862.2 
      1841.0         0.20        859.6 
      1842.0         0.37        868.3 
      1843.0         0.30        875.8 
      1844.0         0.27        871.6 
      1845.0         0.47        864.1 
      1846.0         0.38        846.4 
      1847.0         0.20        837.4 
      1848.0         0.10        837.4 
      1849.0         0.13        855.1 
      1850.0         0.13        855.1 
      1851.0         0.17        871.9 
      1852.0         0.13        871.9 
      1853.0         0.17        870.3 
      1854.0         0.20        784.9 
      1855.0         0.23        784.9 
      1856.0         4.93       2589.6 
      1857.0         0.43       1218.0 
      1858.0         0.40       1183.5 
      1859.0         0.33       1082.3 
      1860.0         0.33       1025.9 
      1861.0         0.37       1005.9 
      1862.0         0.30        979.8 
      1863.0         0.27        937.0 
      1864.0         0.37        904.4 
      1865.0         0.30        674.7 
      1866.0         0.38        650.2 
      1867.0         0.33        638.2 
      1868.0         0.33        636.6 
      1869.0         0.30        631.8 
      1870.0         0.23        616.6 
      1871.0         0.23        607.3 
      1872.0         0.23        599.2 
      1873.0         0.23        596.3 
      1874.0         0.23        595.4 
      1875.0         0.27        590.9 
      1876.0         0.20        550.9 
