~Version Information
VERS.                      2.0: CWLS Log ASCII Standard - VERSION 2.0
WRAP.                       NO: One line per depth step
~Well Information Block
STRT.FT                -8.2500: 
STOP.FT              1729.7500: 
STEP.FT                 0.2500: 
NULL.                -999.2500: 
COMP.          Pioneer Natural Resources: COMPANY
WELL.            Dude 43-34 Tr: WELL
FLD.           Purgatorie River: FIELD
LOC.           2083' FSL & 1042' FEL--: LOCATION
PROV.                       CO: PROVINCE
CNTY.               Las Animas: COUNTRY
SRVC.          Patterson Wireline: SERVICE COMPANY
DATE.          Tue Jan 31 09:23:54 2006: LOG DATE
UWI.           05 071 08676 00: UNIQUE WELL ID
~Curve Information Block
DEPT.FT            0 000 00 00: Depth
CCL.                          : Casing Collar Locator
TT3.usec                      : CBL 3' Travel Time
AMP3.mV                       : CBL 3' Amplitude
GR.GAPI                       : Gamma Ray
~Parameter Information Block
~A  Depth       CCL         TT3         AMP3         GR     
# ...
  1465.7500      0.0000    539.2551      3.8041    149.9980
  1466.0000      0.0000    540.5419      3.9483    142.6200
  1466.2500      0.0000    549.1896      4.1052    133.9865
  1466.5000      0.0000    569.1357      4.2380    125.6728
  1466.7500      0.0000    601.3395      4.3203    118.5951
  1467.0000      0.0000    640.3376      4.3433    112.7252
  1467.2500      0.0000    675.1249      4.3175    107.7050
  1467.5000      0.0000    694.6880      4.2657    103.3931
  1467.7500      0.0000    692.9390      4.2102     99.8406
  1468.0000      0.0000    668.9579      4.1631     97.0622
  1468.2500      0.0000    625.1678      4.1255     95.1625
  1468.5000      0.0000    568.0981      4.0939     94.6400
  1468.7500      0.0000    510.1746      4.0650     96.0294
  1469.0000      0.0000    466.4249      4.0362     98.7841
  1469.2500      0.0000    445.7275      4.0036    100.9227
  1469.5000      0.0000    444.4843      3.9639    100.5215
  1469.7500      0.0000    449.4649      3.9209     97.5106
  1470.0000      0.0000    447.9539      3.8875     93.4478
  1470.2500      0.0000    436.4030      3.8809     89.8083
  1470.5000      0.0000    420.2602      3.9132     87.0773
  1470.7500      0.0000    406.9165      3.9819     85.1259
  1471.0000      0.0000    399.9215      4.0660     83.6764
  1471.2500      0.0000    398.5433      4.1337     82.4229
  1471.5000      0.0000    400.2782      4.1635     81.2388
  1471.7500      0.0000    403.3459      4.1564     80.3230
  1472.0000      0.0000    408.4200      4.1289     79.9760
  1472.2500      0.0000    418.6472      4.0965     80.4383
  1472.5000      0.0000    436.9886      4.0675     82.0074
  1472.7500      0.0000    462.5405      4.0461     84.9815
  1473.0000      0.0000    489.4572      4.0336     89.1972
  1473.2500      0.0000    509.7737      4.0301     93.5790
  1473.5000      0.0000    517.3943      4.0370     96.3970
  1473.7500      0.0000    510.2112      4.0574     96.3914
  1474.0000      0.0000    490.5421      4.0914     93.6957
  1474.2500      0.0000    464.8873      4.1330     89.4715
  1474.5000      0.0000    442.1279      4.1718     84.8233
  1474.7500      0.0000    429.6477      4.1979     80.4171
  1475.0000      0.0000    429.4691      4.2093     76.9286
  1475.2500      0.0000    437.2062      4.2179     75.2883
  1475.5000      0.0000    444.9241      4.2475     76.2451
  1475.7500      0.0000    446.2995      4.3169     79.8316
  1476.0000      0.0000    440.1505      4.4233     85.2779
  1476.2500      0.0000    429.6778      4.5447     91.2530
  1476.5000      0.0000    419.1867      4.6566     96.1269
  1476.7500      0.0000    411.6205      4.7432     98.4794
  1477.0000      0.0000    408.0014      4.7963     97.8818
  1477.2500      0.0000    407.9551      4.8120     95.1612
  1477.5000      0.0000    410.4352      4.7912     91.8807
  1477.7500      0.0000    414.3669      4.7380     89.6489
  1478.0000      0.0000    419.5250      4.6581     89.5533
  1478.2500      0.0000    427.2156      4.5570     91.7056
  1478.5000      0.0000    438.9634      4.4416     95.2878
  1478.7500      0.0000    453.0535      4.3203     99.2370
  1479.0000      0.0000    463.1819      4.2061    102.8841
  1479.2500      0.0000    462.8827      4.1137    105.9010
  1479.5000      0.0000    451.7841      4.0539    107.9497
  1479.7500      0.0000    436.0922      4.0275    108.8829
  1480.0000      0.0000    423.0130      4.0266    109.3391
  1480.2500      0.0000    416.1871      4.0401    110.6844
  1480.5000      0.0000    416.2700      4.0590    113.9001
  1480.7500      0.0000    423.6401      4.0771    118.5374
  1481.0000      0.0000    438.8387      4.0845    123.0394
  1481.2500      0.0000    460.4344      4.0652    126.1426
  1481.5000      0.0000    483.9225      4.0067    127.7345
  1481.7500      0.0000    504.2167      3.9126    128.2483
  1482.0000      0.0000    519.3094      3.8022    127.5310
  1482.2500      0.0000    530.8654      3.6982    124.7717
  1482.5000      0.0000    541.7357      3.6178    119.7810
  1482.7500      0.0000    553.6944      3.5734    114.1208
  1483.0000      0.0000    566.2109      3.5739    110.2809
  1483.2500      0.0000    575.3740      3.6194    109.2628
  1483.5000      0.0000    574.6088      3.6987    109.4818
  1483.7500      0.0000    559.0476      3.7940    108.8877
  1484.0000      0.0000    530.0534      3.8892    107.8421
  1484.2500      0.0000    494.8108      3.9715    108.9780
  1484.5000      0.0000    462.1738      4.0277    114.2947
  1484.7500      0.0000    439.1922      4.0453    122.9661
  1485.0000      0.0000    429.1189      4.0218    131.7951
  1485.2500      0.0000    430.2587      3.9727    137.4595
  1485.5000      0.0000    436.9750      3.9273    138.7544
  1485.7500      0.0000    443.1270      3.9124    137.2722
  1486.0000      0.0000    445.3778      3.9349    135.7551
  1486.2500      0.0000    443.9218      3.9825    135.5348
  1486.5000      0.0000    440.8310      4.0397    135.8469
  1486.7500      0.0000    438.2627      4.0999    135.5443
  1487.0000      0.0000    438.1813      4.1603    134.7341
  1487.2500      0.0000    443.4698      4.2163    134.4243
  1487.5000      0.0000    458.6237      4.2646    134.9684
  1487.7500      0.0000    487.8672      4.3066    135.3116
  1488.0000      0.0000    530.7184      4.3459    134.1299
  1488.2500      0.0000    578.9482      4.3837    131.8542
  1488.5000      0.0000    619.2667      4.4178    130.9498
  1488.7500      0.0000    640.3965      4.4436    133.5011
  1489.0000      0.0000    638.6978      4.4547    138.8857
  1489.2500      0.0000    618.6250      4.4456    144.4976
  1489.5000      0.0000    588.6440      4.4141    148.2031
  1489.7500      0.0000    555.8294      4.3643    149.1832
  1490.0000      0.0000    523.0846      4.3084    147.0787
  1490.2500      0.0000    490.6010      4.2636    141.9104
  1490.5000      0.0000    459.2495      4.2407    135.0711
  1490.7500      0.0000    432.2143      4.2343    129.0603
  1491.0000      0.0000    413.2914      4.2286    125.1205
  1491.2500      0.0000    403.7920      4.2146    121.6247
  1491.5000      0.0000    401.3976      4.1994    115.9154
  1491.7500      0.0000    402.0460      4.1960    107.6048
  1492.0000      0.0000    402.6678      4.2101     99.2744
  1492.2500      0.0000    402.2544      4.2382     94.1973
  1492.5000      0.0000    401.1637      4.2777     94.2260
  1492.7500      0.0000    400.0428      4.3291     99.5051
  1493.0000      0.0000    399.2454      4.3901    108.7190
  1493.2500      0.0000    398.6259      4.4482    119.0649
  1493.5000      0.0000    397.5159      4.4836    127.0357
  1493.7500      0.0000    395.0355      4.4803    130.3081
  1494.0000      0.0000    390.8362      4.4336    129.0528
  1494.2500      0.0000    385.6812      4.3439    125.2953
  1494.5000      0.0000    381.1259      4.2056    121.2027
  1494.7500      0.0000    378.5365      4.0134    117.9451
  1495.0000      0.0000    378.5364      3.7937    115.5916
  1495.2500      0.0000    381.2461      3.6226    113.5820
  1495.5000      0.0000    386.4877      3.5795    111.2798
  1495.7500      0.0000    393.2991      3.6604    108.3831
  1496.0000      0.0000    399.4938      3.7692    105.1383
  1496.2500      0.0000    402.5009      3.8232    102.2535
  1496.5000      0.0000    401.2070      3.8346    100.4472
  1496.7500      0.0000    396.9215      3.8612     99.9044
  1497.0000      0.0000    392.4974      3.9134    100.0679
  1497.2500      2.0000    391.0316      3.9406    100.0184
  1497.5000      0.0000    396.0787      3.8858     99.3666
  1497.7500      0.0000    412.7195      3.7347     98.8109
  1498.0000      0.0000    446.0116      3.5272     99.4288
  1498.2500      0.0000    494.7321      3.3214    101.4017
  1498.5000      0.0000    545.3357      3.1401    104.0767
  1498.7500      0.0000    576.1100      2.9680    107.2868
  1499.0000      0.0000    572.9863      2.8120    111.6925
