~Version Information
VERS.                      2.0: CWLS Log ASCII Standard - VERSION 2.0
WRAP.                       NO: One line per depth step
~Well Information Block
STRT.FT               330.0000: 
STOP.FT              1923.5000: 
STEP.FT                 0.1000: 
NULL.                -999.2500: 
COMP.          Pioneer Natural Resources: COMPANY
WELL.          State Wildlife 32-16 Tr: WELL
FLD.           Purgatoire River: FIELD
LOC.           1838' FNL & 1850' FEL: LOCATION
STAT.                 Colorado: State
CNTY.               Las Animas: COUNTY
CTRY. USA : Country
SECT. 16 : Section
TOWN. 32S : Township
RANG. 66W : Range
SRVC.                Patterson: SERVICE COMPANY
DATE.          Mon Nov 14 07:20:48 2005: LOG DATE
API.           05 071 08568 00: UNIQUE WELL ID
~Curve Information Block
DEPT.FT            0 000 00 00: Depth
DCAL.in                       : CDL Caliper
RHOB.g/cc                     : CDL Bulk Density
RHOC.g/cc                     : CDL Density Correction
DPOR.pu                       : CDL Density Porosity
GR.GAPI                       : Gamma Ray
NPOR.pu                       : Neutron Porosity
~Parameter Information Block
~A  Depth       DCAL        RHOB        RHOC        DPOR         GR         NPOR    
# ...
  1798.8000      7.9698      1.9158      0.0085     44.4951    124.8757     29.1069
  1798.9000      7.9698      1.8228     -0.0631     50.1326    113.3333     29.2850
  1799.0000      7.9669      1.7349     -0.0471     55.4584    107.8424     29.9051
  1799.1000      7.9669      1.6208     -0.0432     62.3765    108.9513     31.1622
  1799.2000      7.9669      1.4852     -0.0899     70.5956    109.9003     32.6074
  1799.3000      7.9583      1.3772     -0.0421     77.1370    105.5073     33.3659
  1799.4000      7.9583      1.3282      0.0095     80.1114     94.7430     33.4150
  1799.5000      7.9823      1.3309      0.0131     79.9456     83.3357     33.5331
  1799.6000      7.9823      1.3862      0.0264     76.5924     76.8384     33.7302
  1799.7000      7.9823      1.5206      0.0330     68.4476     73.9985     33.5201
  1799.8000      8.1539      1.7230      0.1639     56.1833     72.8995     33.1137
  1799.9000      8.1539      1.9078      0.2625     44.9833     73.3794     32.9508
  1800.0000      8.2176      2.0151      0.1893     38.4796     74.7583     33.0969
  1800.1000      8.2176      2.0832      0.1956     34.3490     77.6676     33.4587
  1800.2000      8.2176      2.1702      0.2403     29.0791     85.2516     33.6612
  1800.3000      8.3978      2.2759      0.2363     22.6710     96.8998     33.5819
  1800.4000      8.3978      2.3547      0.1583     17.8977    105.9631     33.4040
  1800.5000      8.3081      2.3673      0.0675     17.1322    108.6833     33.0312
  1800.6000      8.3081      2.3161     -0.0147     20.2379    109.4712     32.3846
  1800.7000      8.3081      2.2291     -0.0264     25.5063    110.7749     31.5871
  1800.8000      8.1848      2.1399     -0.0927     30.9142    111.0404     31.0212
  1800.9000      8.1848      2.0771     -0.0456     34.7197    112.4535     31.3301
  1801.0000      7.9413      2.0481     -0.0619     36.4775    116.9678     32.2386
  1801.1000      7.9413      2.0471     -0.0545     36.5403    121.0289     32.3520
  1801.2000      7.9413      2.0739     -0.0515     34.9143    121.4957     31.3269
  1801.3000      7.9344      2.1324      0.0374     31.3724    116.3293     29.8934
  1801.4000      7.9344      2.2162      0.1293     26.2903    106.0806     28.6131
  1801.5000      7.9683      2.3049      0.2611     20.9145     97.8854     27.8804
  1801.6000      7.9683      2.3884      0.2341     15.8554     96.0809     27.8120
  1801.7000      7.9683      2.4769      0.1952     10.4922     98.2912     28.2554
  1801.8000      8.0039      2.5591      0.1860      5.5068    101.3851     28.9825
  1801.9000      8.0039      2.6015      0.1194      2.9372    101.7112     29.0420
  1802.0000      7.9928      2.5951      0.0838      3.3276     98.6641     27.4345
  1802.1000      7.9928      2.5565      0.0525      5.6651     97.7257     25.0383
  1802.2000      7.9928      2.5164     -0.0291      8.0943    102.1117     23.5937
  1802.3000      7.8987      2.5122     -0.0260      8.3522    105.6105     23.3480
  1802.4000      7.8987      2.5438      0.0486      6.4387    103.1010     23.3174
  1802.5000      7.8821      2.5727      0.0611      4.6834    100.6840     22.8927
  1802.6000      7.8821      2.5744      0.0796      4.5796    103.6136     22.2914
  1802.7000      7.8821      2.5562      0.0423      5.6826    107.3111     21.9546
  1802.8000      7.8770      2.5417      0.0093      6.5609    108.0788     22.0483
  1802.9000      7.8770      2.5439     -0.0005      6.4331    106.7860     22.9418
  1803.0000      7.9000      2.5465      0.0190      6.2727    103.6510     24.3221
  1803.1000      7.9000      2.5309      0.0346      7.2159     99.9708     24.7864
  1803.2000      7.9000      2.5028      0.0198      8.9233     96.5703     24.0403
  1803.3000      7.8910      2.4738      0.0258     10.6783     93.0242     23.3309
  1803.4000      7.8910      2.4565     -0.0436     11.7282     90.7204     23.2369
  1803.5000      7.8894      2.4643      0.0001     11.2535     90.2924     23.2511
  1803.6000      7.8894      2.4879      0.0223      9.8259     91.1484     23.2071
  1803.7000      7.8894      2.5027      0.0531      8.9294     92.4147     23.3611
  1803.8000      7.8968      2.5022      0.0182      8.9593     91.5480     23.6992
  1803.9000      7.8968      2.5030     -0.0222      8.9091     87.2688     23.5552
  1804.0000      7.9004      2.5150      0.0240      8.1839     80.2427     22.4224
  1804.1000      7.9004      2.5259      0.0449      7.5184     74.0314     21.2651
  1804.2000      7.9004      2.5292      0.0381      7.3223     73.8054     21.2818
  1804.3000      7.9201      2.5355      0.0302      6.9397     76.3834     21.7491
  1804.4000      7.9201      2.5534      0.0667      5.8575     75.1667     21.5763
  1804.5000      7.9007      2.5742      0.0985      4.5925     72.6761     21.1542
  1804.6000      7.9007      2.5827      0.0946      4.0765     71.9887     20.5314
  1804.7000      7.9007      2.5798      0.0852      4.2574     70.2378     19.4022
  1804.8000      7.8764      2.5780      0.0591      4.3647     67.1879     18.6160
  1804.9000      7.8764      2.5759      0.1226      4.4921     64.2257     19.0715
  1805.0000      7.8739      2.5627      0.0700      5.2888     60.2066     20.0304
  1805.1000      7.8739      2.5429      0.0546      6.4893     56.9954     20.2959
  1805.2000      7.8739      2.5279      0.0447      7.4018     55.8564     20.1888
  1805.3000      7.8854      2.5255      0.0480      7.5433     55.7754     20.6354
  1805.4000      7.8854      2.5351      0.0719      6.9632     57.7889     21.4152
  1805.5000      7.8704      2.5439      0.1020      6.4284     60.7271     21.7117
  1805.6000      7.8704      2.5421      0.1190      6.5391     61.8279     21.3263
  1805.7000      7.8704      2.5296      0.0848      7.2967     59.5954     21.0399
  1805.8000      7.8609      2.5171      0.0726      8.0523     54.1346     21.4106
  1805.9000      7.8609      2.5165      0.0581      8.0884     51.1056     21.6972
  1806.0000      7.8715      2.5208      0.1012      7.8327     53.9172     21.3576
  1806.1000      7.8715      2.5149      0.1075      8.1861     58.7808     21.2306
  1806.2000      7.8715      2.5029      0.0878      8.9158     61.6930     21.5354
  1806.3000      7.8938      2.5001      0.0561      9.0840     62.2298     21.7142
  1806.4000      7.8938      2.5092      0.0974      8.5353     62.0270     22.2339
  1806.5000      7.8770      2.5169      0.0726      8.0649     60.9926     23.1372
  1806.6000      7.8770      2.5185      0.0973      7.9713     58.7522     23.2330
  1806.7000      7.8770      2.5209      0.0543      7.8272     56.5271     22.5012
  1806.8000      7.8745      2.5290      0.0808      7.3348     55.1327     21.8765
  1806.9000      7.8745      2.5452      0.0669      6.3495     55.4156     21.7721
  1807.0000      7.8755      2.5658      0.1155      5.1047     56.9720     21.7975
  1807.1000      7.8755      2.5715      0.1198      4.7587     58.1066     21.4517
  1807.2000      7.8755      2.5514      0.0949      5.9734     59.4034     20.8519
  1807.3000      7.8689      2.5238      0.0520      7.6456     61.5509     20.1511
  1807.4000      7.8689      2.5177      0.0187      8.0168     62.6090     19.5952
  1807.5000      7.8661      2.5373      0.0958      6.8324     62.9623     19.6709
  1807.6000      7.8661      2.5591      0.1045      5.5096     65.6023     20.1404
  1807.7000      7.8661      2.5672      0.1104      5.0153     69.6819     20.4431
  1807.8000      7.8664      2.5657      0.0810      5.1085     73.1397     20.8940
  1807.9000      7.8664      2.5629      0.0737      5.2811     75.7986     21.7588
  1808.0000      7.8915      2.5584      0.0764      5.5532     78.1708     22.6091
  1808.1000      7.8915      2.5513      0.0572      5.9836     80.7296     23.1071
  1808.2000      7.8915      2.5432      0.0857      6.4749     79.7670     23.1649
  1808.3000      7.8746      2.5333      0.0476      7.0715     73.9997     22.9795
