~Version Information
VERS.                      2.0: CWLS Log ASCII Standard - VERSION 2.0
WRAP.                       NO: One line per depth step
~Well Information Block
STRT.FT                 0.0000: 
STOP.FT              2072.7500: 
STEP.FT                 0.2500: 
NULL.                -999.2500: 
COMP.          Pioneer Natural Resources: COMPANY
WELL.          Greenwood 43-29 Tr: WELL
FLD.           Purgatorie River: FIELD
LOC.           1478' FSL & 744' FEL: LOCATION
STAT.                 Colorado: State
CNTY.               Las Animas: COUNTY
CTRY. USA : Country
SECT. 29 : Section
TOWN. 32S : Township
RANG. 67W : Range
SRVC.                Patterson: SERVICE COMPANY
DATE.          Tue Sep 06 12:54:40 2005: LOG DATE
API. 05-071-08478                          : UNIQUE WELL ID
~Curve Information Block
DEPT.FT            0 000 00 00: Depth
GR.GAPI                       : Gamma Ray
CCL.                          : Casing Collar Locator
TT3.usec                      : CBL 3' Travel Time
AMP3.mV                       : CBL 3' Amplitude
~Parameter Information Block
~A  Depth        GR         CCL         TT3         AMP3    
# ...
  1641.5000    105.8388      0.0000    687.2158      6.7076
  1641.7500    117.1021      0.0000    648.0884      6.7028
  1642.0000    126.8334      0.0000    591.1633      6.7114
  1642.2500    134.2195      0.0000    562.7585      6.7448
  1642.5000    139.4827      0.0000    586.9935      6.7936
  1642.7500    142.7761      0.0000    624.5704      6.8228
  1643.0000    143.4286      0.0000    627.6941      6.8016
  1643.2500    140.1885      0.0000    610.7424      6.7414
  1643.5000    132.1939      0.0000    624.4426      6.6751
  1643.7500    119.8573      0.0000    677.1941      6.6207
  1644.0000    105.0923      0.0000    731.8882      6.5874
  1644.2500     90.8069      0.0000    763.5619      6.5902
  1644.5000     80.0461      0.0000    778.0988      6.6347
  1644.7500     75.2625      0.0000    787.8981      6.7027
  1645.0000     77.7684      0.0000    794.9287      6.7689
  1645.2500     87.1197      0.0000    794.8364      6.8111
  1645.5000    100.7090      0.0000    787.2432      6.8024
  1645.7500    114.2087      0.0000    776.8132      6.7372
  1646.0000    123.0462      0.0000    767.9938      6.6546
  1646.2500    124.3714      0.0000    763.8199      6.5945
  1646.5000    118.4354      0.0000    765.0831      6.5551
  1646.7500    108.3380      0.0000    768.4814      6.5178
  1647.0000     98.1028      0.0000    768.6447      6.4817
  1647.2500     90.3792      0.0000    758.3670      6.4523
  1647.5000     85.4711      0.0000    728.9586      6.4334
  1647.7500     82.3296      0.0000    686.8610      6.4323
  1648.0000     80.4310      0.0000    665.4134      6.4461
  1648.2500     80.6505      0.0000    687.3954      6.4630
  1648.5000     84.2601      0.0000    730.0521      6.4806
  1648.7500     91.2403      0.0000    760.2585      6.5017
  1649.0000     99.9140      0.0000    772.1910      6.5275
  1649.2500    108.3718      0.0000    775.3622      6.5639
  1649.5000    116.0615      0.0000    776.2537      6.6126
  1649.7500    123.6524      0.0000    776.6273      6.6553
  1650.0000    131.3609      0.0000    776.6230      6.6730
  1650.2500    137.8165      0.0000    776.3569      6.6709
  1650.5000    140.9683      0.0000    776.1733      6.6652
  1650.7500    140.0889      0.0000    776.1880      6.6633
  1651.0000    136.5284      0.0000    776.1868      6.6674
  1651.2500    132.4441      0.0000    776.0546      6.6824
  1651.5000    129.1900      0.0000    775.8524      6.7138
  1651.7500    126.9808      0.0000    775.5807      6.7579
  1652.0000    125.4500      0.0000    775.2053      6.8051
  1652.2500    123.9859      0.0000    774.8246      6.8537
  1652.5000    121.8104      0.0000    774.6030      6.9037
  1652.7500    118.3164      0.0000    774.5408      6.9470
  1653.0000    113.3912      0.0000    774.3116      6.9849
  1653.2500    107.1874      0.0000    772.3542      7.0314
  1653.5000     99.5864      0.0000    763.4617      7.0832
  1653.7500     90.2063      0.0000    740.1268      7.1201
  1654.0000     79.0960      0.0000    707.0383      7.1228
  1654.2500     67.2310      0.0000    690.3540      7.0438
  1654.5000     56.2312      0.0000    707.4166      6.7654
  1654.7500     47.6314      0.0000    737.0371      6.2155
  1655.0000     42.1955      0.0000    746.6815      5.6293
  1655.2500     39.5931      0.0000    733.2545      5.3965
  1655.5000     38.6686      0.0000    723.5791      5.4557
  1655.7500     38.2034      0.0000    734.9250      5.4002
  1656.0000     37.5894      0.0000    748.1519      5.1709
  1656.2500     36.9337      0.0000    743.0942      4.9721
  1656.5000     36.5999      0.0000    736.6390      4.8411
  1656.7500     36.6899      0.0000    752.1954      4.6994
  1657.0000     37.0238      0.0000    778.2854      4.5189
  1657.2500     37.6936      0.0000    790.6747      4.3405
  1657.5000     39.5930      0.0000    787.1234      4.2832
  1657.7500     44.2086      0.0000    778.3588      4.5316
  1658.0000     52.5370      0.0000    765.5085      5.1117
  1658.2500     63.9994      0.0000    745.9974      5.6688
  1658.5000     76.5823      0.0000    735.0504      5.8479
  1658.7500     88.2463      0.0000    749.5197      5.7596
  1659.0000     98.0609      0.0000    776.1645      5.6695
  1659.2500    105.9427      0.0000    791.4279      5.6291
  1659.5000    111.8506      0.0000    793.7364      5.5996
  1659.7500    115.6677      0.0000    794.7023      5.5977
  1660.0000    117.5508      0.0000    797.4918      5.6758
  1660.2500    117.9826      0.0000    796.3188      5.8627
  1660.5000    117.5378      0.0000    789.3944      6.1191
  1660.7500    116.6733      0.0000    781.8964      6.3489
  1661.0000    115.4770      0.0000    777.9405      6.4759
  1661.2500    113.3129      0.0000    776.9980      6.4998
  1661.5000    108.8509      0.0000    776.9486      6.4726
  1661.7500    101.1658      0.0000    775.7027      6.4339
  1662.0000     91.4261      0.0000    767.1642      6.3915
  1662.2500     83.1541      0.0000    736.3517      6.3483
  1662.5000     79.7911      0.0000    670.7452      6.3132
  1662.7500     81.4534      0.0000    585.5383      6.2857
  1663.0000     84.4542      0.0000    516.6890      6.2557
  1663.2500     84.3744      0.0000    480.2878      6.2180
  1663.5000     79.5307      0.0000    464.7362      6.1773
  1663.7500     71.5897      0.0000    457.1084      6.1440
  1664.0000     63.3992      0.0000    453.3423      6.1250
  1664.2500     56.6661      0.0000    451.9924      6.1179
  1664.5000     51.5717      0.0000    451.5262      6.1234
  1664.7500     47.8514      0.0000    451.0562      6.1506
  1665.0000     45.6201      0.0000    450.0663      6.1939
  1665.2500     45.2249      0.0000    447.0368      6.2330
  1665.5000     46.6051      0.0000    439.0359      6.2592
  1665.7500     48.7756      0.0000    425.5729      6.2717
  1666.0000     50.0487      0.0000    413.6071      6.2646
  1666.2500     49.1367      0.0000    414.1823      6.2384
  1666.5000     46.0919      0.0000    436.4079      6.2068
  1666.7500     42.0637      0.0000    489.6667      6.1827
  1667.0000     38.4149      0.0000    577.2416      6.1712
  1667.2500     36.2168      0.0000    677.1396      6.1758
  1667.5000     36.2061      0.0000    752.4902      6.1951
  1667.7500     38.7583      0.0000    790.3494      6.2118
  1668.0000     43.6548      0.0000    805.7277      6.2060
  1668.2500     49.9072      0.0000    813.4542      6.1772
  1668.5000     56.2854      0.0000    817.7037      6.1415
  1668.7500     62.5759      0.0000    819.0094      6.1120
  1669.0000     70.2808      0.0000    818.6258      6.0871
  1669.2500     81.5054      0.0000    818.2177      6.0467
  1669.5000     96.7105      0.0000    818.5175      5.9607
  1669.7500    113.5088      0.0000    819.2256      5.8177
  1670.0000    127.8242      0.0000    820.2142      5.6290
  1670.2500    136.2584      0.0000    821.6226      5.4035
  1670.5000    137.5675      0.0000    821.7334      5.1510
  1670.7500    132.6207      0.0000    818.1595      4.9117
  1671.0000    123.6008      0.0000    815.8998      4.7319
  1671.2500    113.1022      0.0000    825.8319      4.6053
  1671.5000    103.4974      0.0000    845.0152      4.4764
  1671.7500     96.6790      0.0000    852.5039      4.3033
  1672.0000     93.7757      0.0000    837.7599      4.0891
  1672.2500     94.6291      0.0000    815.2272      3.8598
  1672.5000     97.5963      0.0000    799.9069      3.6439
  1672.7500    100.2281      0.0000    789.6204      3.4676
  1673.0000    100.5649      0.0000    777.7307      3.3497
  1673.2500     98.2280      0.0000    765.7660      3.3060
  1673.5000     94.5325      0.0000    759.7369      3.3483
  1673.7500     91.4684      0.0000    761.5722      3.4557
  1674.0000     90.1902      0.0000    767.6622      3.5590
  1674.2500     90.1540      0.0000    776.3464      3.5936
  1674.5000     89.6907      0.0000    791.5452      3.5688
  1674.7500     87.5398      0.0000    812.2491      3.5412
