~Version Information
VERS.                      2.0: CWLS Log ASCII Standard - VERSION 2.0
WRAP.                       NO: One line per depth step
~Well Information Block
STRT.FT                -7.7500: 
STOP.FT              2446.5000: 
STEP.FT                 0.2500: 
NULL.                -999.2500: 
COMP.          XTO Energy Inc.: COMPANY
WELL.          Hill Ranch 15-09: WELL
FLD.           Purgatoire River: FIELD
LOC.           1816' FSL & 521' FEL: LOCATION
STAT.                 Colorado: State
CNTY.               Las Animas: COUNTY
CTRY. USA : Country
SECT. 15 : Section
TOWN. 35S : Township
RANG. 67W : Range
SRVC.          Patterson Wireline: SERVICE COMPANY
DATE.          Fri Dec 09 17:49:58 2005: LOG DATE
API. 05-071-08474                          : UNIQUE WELL ID
~Curve Information Block
DEPT.FT            0 000 00 00: Depth
CCL.                          : Casing Collar Locator
TT3.usec                      : CBL 3' Travel Time
AMP3.mV                       : CBL 3' Amplitude
AMP5.mV                       : CBL 5' Amplitude
GR.GAPI                       : Gamma Ray
~Parameter Information Block
~A  Depth       CCL         TT3         AMP3        AMP5         GR     
# ...
   468.2500      0.0000    823.9344      8.3543      2.3108     90.5903
   468.5000      0.0000    817.9025      8.2360      2.2937     94.6439
   468.7500      0.0000    809.8487      8.1494      2.2295     99.9894
   469.0000      0.0000    800.9322      8.1046      2.1388    106.3183
   469.2500      0.0000    793.5966      8.0849      2.0066    112.9423
   469.5000      0.0000    788.9727      8.0521      1.8170    119.1232
   469.7500      0.0000    786.0493      7.9769      1.6026    124.5281
   470.0000      0.0000    783.2045      7.8669      1.4382    129.2149
   470.2500      0.0000    779.8561      7.7592      1.3781    133.3910
   470.5000      0.0000    776.5199      7.6847      1.4147    137.1691
   470.7500      0.0000    773.9393      7.6445      1.5006    140.0942
   471.0000      0.0000    772.4709      7.6157      1.5919    140.9898
   471.2500      0.0000    772.0750      7.5747      1.6688    139.0371
   471.5000      0.0000    772.4617      7.5152      1.7312    135.3342
   471.7500      0.0000    773.0730      7.4455      1.7899    132.7157
   472.0000      0.0000    772.9194      7.3682      1.8601    133.3210
   472.2500      0.0000    770.6435      7.2630      1.9516    136.4891
   472.5000      0.0000    765.2501      7.0982      2.0542    139.5853
   472.7500      0.0000    757.1990      6.8625      2.1357    140.7352
   473.0000      0.0000    748.5717      6.5831      2.1620    140.0355
   473.2500      0.0000    741.7563      6.3083      2.1243    138.1844
   473.5000      0.0000    737.9407      6.0746      2.0469    135.0208
   473.7500      0.0000    737.0972      5.8889      1.9690    129.6714
   474.0000      0.0000    738.9790      5.7332      1.9192    121.3206
   474.2500      0.0000    743.2154      5.5808      1.8996    109.7372
   474.5000      0.0000    748.7550      5.4122      1.8910     95.6999
   474.7500      0.0000    754.3832      5.2288      1.8723     80.9825
   475.0000      0.0000    759.9445      5.0525      1.8371     67.5568
   475.2500      0.0000    766.3633      4.9104      1.7964     56.7400
   475.5000      0.0000    774.2578      4.8189      1.7723     49.0749
   475.7500      0.0000    782.8546      4.7823      1.7870     44.7515
   476.0000      0.0000    790.4161      4.8010      1.8517     44.0680
   476.2500      0.0000    795.5201      4.8765      1.9617     47.6259
   476.5000      0.0000    797.7090      5.0109      2.0989     55.9715
   476.7500      0.0000    797.1396      5.2062      2.2345     68.6081
   477.0000      0.0000    794.1266      5.4618      2.3314     83.1074
   477.2500      0.0000    789.1750      5.7704      2.3539     95.5523
   477.5000      0.0000    783.0936      6.1136      2.2861    102.7626
   477.7500      0.0000    776.8559      6.4628      2.1415    104.4428
   478.0000      0.0000    771.5593      6.7853      1.9526    102.7848
   478.2500      0.0000    768.4171      7.0538      1.7502    100.0662
   478.5000      0.0000    768.1976      7.2519      1.5552     97.3866
   478.7500      0.0000    770.3638      7.3734      1.3867     95.5977
   479.0000      0.0000    773.0452      7.4222      1.2748     96.1978
   479.2500      0.0000    774.1699      7.4170      1.2544    100.5520
   479.5000      0.0000    772.7581      7.3905      1.3447    108.4180
   479.7500      0.0000    769.3403      7.3718      1.5372    117.5976
   480.0000      0.0000    765.3301      7.3664      1.8013    125.2890
   480.2500      0.0000    761.9720      7.3574      2.0855    129.9685
   480.5000      0.0000    759.7300      7.3241      2.3153    131.9910
   480.7500      0.0000    758.4702      7.2604      2.4117    132.5713
   481.0000      0.0000    757.9155      7.1795      2.3368    132.5824
   481.2500      0.0000    757.8443      7.1034      2.1236    132.2884
   481.5000      0.0000    758.0710      7.0456      1.8567    131.7161
   481.7500      0.0000    758.4265      7.0042      1.6165    130.9680
   482.0000      0.0000    758.7849      6.9733      1.4420    130.3097
   482.2500      0.0000    759.0621      6.9548      1.3419    130.0905
   482.5000      0.0000    759.2128      6.9557      1.3203    130.6045
   482.7500      0.0000    759.2340      6.9741      1.3769    131.9032
   483.0000      0.0000    759.1599      6.9954      1.4941    133.5824
   483.2500      0.0000    759.0427      7.0014      1.6392    134.7500
   483.5000      0.0000    758.9413      6.9842      1.7752    134.4486
   483.7500      0.0000    758.9142      6.9464      1.8615    132.2886
   484.0000      0.0000    758.9961      6.8934      1.8585    128.5984
   484.2500      0.0000    759.1697      6.8306      1.7580    124.0546
   484.5000      0.0000    759.3710      6.7694      1.6123    119.5372
   484.7500      0.0000    759.5339      6.7287      1.5040    116.4109
   485.0000      0.0000    759.6281      6.7231      1.4743    116.3021
   485.2500      0.0000    759.6505      6.7529      1.4974    119.8304
   485.5000      0.0000    759.5984      6.8027      1.5293    125.4716
   485.7500      0.0000    759.4742      6.8470      1.5608    130.2428
   486.0000      0.0000    759.3073      6.8633      1.6150    131.9080
   486.2500      0.0000    759.1478      6.8463      1.7094    130.4677
   486.5000      0.0000    759.0284      6.8085      1.8315    127.5413
   486.7500      0.0000    758.9445      6.7657      1.9458    124.7607
   487.0000      0.0000    758.8761      6.7264      2.0249    122.9473
   487.2500      0.0000    758.8182      6.6961      2.0700    122.2463
   487.5000      0.0000    758.7789      6.6810      2.0883    122.3977
   487.7500      0.0000    758.7574      6.6815      2.0592    122.7745
   488.0000      0.0000    758.7530      6.6848      1.9542    122.5329
   488.2500      0.0000    758.8499      6.6690      1.7956    121.1343
   488.5000      0.0000    759.3387      6.6168      1.6658    118.7910
   488.7500      0.0000    760.7692      6.5346      1.6360    116.2438
   489.0000      0.0000    763.8063      6.4548      1.6944    114.2590
   489.2500      0.0000    768.9218      6.4124      1.7555    113.3554
   489.5000      0.0000    776.2167      6.4184      1.7442    113.4753
   489.7500      0.0000    785.5645      6.4645      1.6689    113.6979
   490.0000      0.0000    796.7014      6.5365      1.6072    112.8759
   490.2500      0.0000    808.9273      6.6128      1.6203    110.9053
   490.5000      0.0000    821.2927      6.6662      1.6926    108.8079
   490.7500     -2.0000    833.7878      6.6820      1.7573    107.1783
   491.0000      0.0000    847.2510      6.6696      1.7703    105.0511
   491.2500      0.0000    860.2697      6.6582      1.7506    100.9240
   491.5000      0.0000    867.1261      6.6898      1.7490     94.8210
   491.7500      0.0000    861.7416      6.7939      1.7838     88.9081
   492.0000      0.0000    843.9901      6.9354      1.8196     85.9973
   492.2500      0.0000    820.2060      7.0097      1.8117     87.4963
   492.5000      0.0000    797.6901      6.9335      1.7574     92.5501
   492.7500      0.0000    780.3533      6.7321      1.6945     98.8009
   493.0000      0.0000    768.7851      6.5107      1.6629    104.0522
   493.2500      0.0000    762.0489      6.3649      1.6767    107.3821
   493.5000      0.0000    758.7569      6.3405      1.7220    108.7437
   493.7500      0.0000    757.5033      6.4397      1.7703    107.9188
   494.0000      0.0000    757.1642      6.6349      1.7972    104.5779
   494.2500      0.0000    757.0444      6.8838      1.7919     99.3885
   494.5000      0.0000    756.8536      7.1471      1.7573     94.2869
   494.7500      0.0000    756.5860      7.3958      1.7135     91.2301
   495.0000      0.0000    756.3067      7.6084      1.7005     90.9579
   495.2500      0.0000    755.8889      7.7745      1.7567     93.0219
   495.5000      0.0000    754.8078      7.8977      1.8860     96.5443
   495.7500      0.0000    752.3206      7.9912      2.0508    100.7818
   496.0000      0.0000    748.1823      8.0639      2.2001    105.3997
