~Version Information
 VERS.                                  2.0 : CWLS LAS VERSION
 WRAP.                                   NO : WRAPING MODE
 SWARE .                MController 2.5.0QA : SOFTWARE VERSION
~Well Information
 WELL.                          Ernie 31-06 : WELL
 COMP.     Pioneer Natural Resources USA Inc: COMPANY
 FLD.                      Purgatoire River : FIELD
 LOC.                NW/NE Sec 06 T34S R65W : LOCATION
 DATE.                           5/27-28/06 : DATE(S) LOGGED
 SRVC.       Blanco Geological Services LLC : SERVICE COMPANY
 STAT.                                   CO : STATE
 CNTY.                           Las Animas : COUNTY
 CTRY.                                  USA : COUNTRY
 API.                       05-071-08716-00 : API NUMBER
 STRT.FT                             172.00 : START DEPTH
 STOP.FT                             940.00 : STOP DEPTH
 STEP.FT                               1.00 : DEPTH INCREMENT
 NULL.                                -9999 : NULL VALUE
~Curve information
 DEPTH.FT                                   :
 ROP.MIN/FT                                 :
 GAS.UNITS                                  :
~ASCII Log data
# ...
       772.0         2.85       1473.0 
       773.0         0.23        851.9 
       774.0         0.23        816.1 
       775.0         0.23        802.5 
       776.0         0.17        802.5 
       777.0         0.23        789.2 
       778.0         0.13        778.8 
       779.0         0.17        772.6 
       780.0         0.23        772.6 
       781.0         0.30        769.7 
       782.0         0.27        778.5 
       783.0         0.30        787.2 
       784.0         0.23        803.5 
       785.0         0.25        803.5 
       786.0         0.27        848.9 
       787.0         0.23        869.4 
       788.0         0.27        930.8 
       789.0         0.23        921.7 
       790.0         0.23        883.7 
       791.0         0.23        802.8 
       792.0         0.23        802.8 
       793.0         0.40        756.7 
       794.0         0.20        620.0 
       795.0         0.17        481.0 
       796.0         0.20        446.6 
       797.0         0.13        400.0 
       798.0         0.23         30.1 
       799.0         0.28        148.4 
       800.0         0.20       1462.0 
       801.0         0.30       1664.0 
       802.0         2.30       1653.9 
       803.0         0.33        957.4 
       804.0         0.32        959.7 
       805.0         0.27        959.7 
       806.0         0.20        963.2 
       807.0         0.13        949.3 
       808.0         0.23        918.1 
       809.0         0.23        918.1 
       810.0         0.20        881.7 
       811.0         0.20        861.3 
       812.0         0.20        856.1 
       813.0         0.13        847.0 
       814.0         0.23        846.0 
       815.0         0.30        845.4 
       816.0         0.33        844.1 
       817.0         0.30        839.5 
       818.0         0.32        833.0 
       819.0         0.30        826.5 
       820.0         0.27        823.0 
       821.0         0.27        813.5 
       822.0         0.27        808.4 
       823.0         0.27        798.9 
       824.0         0.27        772.6 
       825.0         0.27        692.4 
       826.0         0.27        677.5 
       827.0         0.27        624.9 
       828.0         0.27        611.3 
       829.0         0.27        599.9 
       830.0         0.25        439.5 
       831.0         0.23        431.0 
       832.0         3.35       1926.3 
       833.0         0.57       1019.4 
       834.0         0.27        902.8 
       835.0         0.27        885.0 
       836.0         0.30        877.5 
       837.0         0.27        850.9 
       838.0         0.27        818.7 
       839.0         0.30        805.4 
       840.0         0.30        796.0 
       841.0         0.27        777.2 
       842.0         0.28        770.7 
       843.0         0.23        761.3 
       844.0         0.27        761.6 
       845.0         0.27        760.9 
       846.0         0.27        764.2 
       847.0         0.27        771.7 
       848.0         0.23        779.8 
       849.0         0.30        782.4 
       850.0         0.23        783.3 
       851.0         0.27        776.2 
       852.0         0.23        753.8 
       853.0         0.27        741.5 
       854.0         0.23        749.9 
       855.0         0.25        743.1 
       856.0         0.27        711.6 
       857.0         0.23        671.6 
       858.0         0.30        668.4 
       859.0         0.27        697.6 
       860.0         0.33        779.8 
       861.0         0.43        850.6 
       862.0         4.93       1754.9 
       863.0         0.37        936.9 
       864.0         0.30        905.4 
       865.0         0.33        880.8 
       866.0         0.37        859.3 
       867.0         0.33        854.8 
       868.0         0.27        838.5 
       869.0         0.27        827.2 
       870.0         0.23        820.7 
       871.0         0.27        819.1 
       872.0         0.30        817.8 
       873.0         0.28        815.5 
       874.0         0.23        814.5 
       875.0         0.30        801.5 
       876.0         0.30        799.3 
       877.0         0.27        796.7 
       878.0         0.27        787.2 
       879.0         0.27        784.0 
       880.0         0.27        779.5 
       881.0         0.23        793.1 
       882.0         0.27        775.6 
       883.0         0.27        729.4 
       884.0         0.27        697.3 
       885.0         0.27        615.8 
       886.0         0.25        615.8 
       887.0         0.30        589.2 
       888.0         0.27        440.1 
       889.0         0.30        401.5 
       890.0         0.27        400.0 
       891.0         0.33        435.2 
       892.0         3.05       2070.2 
       893.0         0.43       1064.2 
       894.0         0.37       1100.6 
       895.0         0.30       1035.0 
       896.0         0.30        937.9 
       897.0         0.33        840.2 
       898.0         0.28        787.9 
       899.0         0.23        758.0 
       900.0         0.23        753.2 
       901.0         0.30        730.7 
       902.0         0.30        695.4 
       903.0         0.23        691.1 
       904.0         0.23        664.2 
       905.0         0.27        651.5 
       906.0         0.27        642.1 
       907.0         0.33        642.8 
       908.0         0.33        654.4 
       909.0         0.27        672.3 
       910.0         0.32        690.2 
       911.0         0.30        712.6 
       912.0         0.30        727.5 
       913.0         0.27        730.4 
       914.0         0.30        663.5 
       915.0         0.27        644.4 
       916.0         0.27        559.3 
       917.0         0.27        543.7 
       918.0         0.27        481.0 
       919.0         0.27        424.9 
       920.0         0.27        400.0 
       921.0         0.27         23.5 
       922.0         3.77       2165.3 
       923.0         0.33       1074.3 
       924.0         0.33        952.2 
       925.0         0.30        921.0 
       926.0         0.30        917.1 
       927.0         0.43        903.5 
       928.0         0.40        885.6 
       929.0         0.30        836.0 
       930.0         0.27        823.0 
       931.0         0.27        827.5 
       932.0         0.32        835.6 
       933.0         0.33        844.1 
       934.0         0.30        848.0 
       935.0         0.23        838.2 
       936.0         0.30        829.1 
       937.0         0.43        827.2 
       938.0         0.33        833.4 
       939.0         0.20        837.9 
       940.0         0.17        838.5 
