~Version Information
VERS.                      2.0: CWLS Log ASCII Standard - VERSION 2.0
WRAP.                       NO: One line per depth step
~Well Information Block
STRT.FT               480.0000: 
STOP.FT              1946.0000: 
STEP.FT                 0.2500: 
NULL.                -999.2500: 
COMP.          XTO Energy Inc.: COMPANY
WELL.          Golden Eagle 19-15: WELL
FLD.           Purgatoire River: FIELD
LOC.           1121' FSL & 2332' FEL--: LOCATION
CNTY.               Las Animas: COUNTY
SRVC.                Patterson: SERVICE COMPANY
DATE.          Sun Mar 12 15:00:51 2006: LOG DATE
UWI.           05 071 08717 00: UNIQUE WELL ID
STAT.                 Colorado: STATE
~Curve Information Block
DEPT.FT            0 000 00 00: Depth
SP.mV                         : DIL Spontaneous Potential
RILD.Ohm-m                    : DIL Deep Resistivity
RILM.Ohm-m                    : DIL Medium Resistivity
RLL3.Ohm-m                    : DIL Shallow Resistivity
GR.GAPI                       : Gamma Ray
~Parameter Information Block
~A  Depth        SP         RILD        RILM        RLL3         GR     
# ...
   872.0000   2005.0000     10.1475     12.1775   2000.0000    103.3260
   872.2500   2005.0000     10.3599     12.6524   2000.0000    100.7485
   872.5000   2005.0000     10.5870     12.9564   2000.0000     99.5576
   872.7500   2005.0000     10.8279     13.0606   2000.0000    100.9403
   873.0000   2005.0000     11.0766     12.9777   2000.0000    106.5692
   873.2500   2005.0000     11.3200     12.7591   2000.0000    112.1903
   873.5000   2005.0000     11.5384     12.4777   2000.0000    121.2729
   873.7500   2005.0000     11.7089     12.2054   2000.0000    126.3237
   874.0000   2005.0000     11.8131     11.9969   2000.0000    130.9268
   874.2500   2005.0000     11.8436     11.8814   2000.0000    131.9327
   874.5000   2005.0000     11.8062     11.8609   2000.0000    130.9197
   874.7500   2005.0000     11.7184     11.9140   2000.0000    129.0886
   875.0000   2005.0000     11.6049     12.0045   2000.0000    126.0082
   875.2500   2005.0000     11.4916     12.0960   2000.0000    124.7402
   875.5000   2005.0000     11.4003     12.1666   2000.0000    125.0102
   875.7500   2005.0000     11.3437     12.2169   2000.0000    126.3247
   876.0000   2005.0000     11.3247     12.2656   2000.0000    128.4207
   876.2500   2005.0000     11.3371     12.3354   2000.0000    129.0491
   876.5000   2005.0000     11.3702     12.4382   2000.0000    128.1333
   876.7500   2005.0000     11.4126     12.5650   2000.0000    126.2296
   877.0000   2005.0000     11.4544     12.6859   2000.0000    121.8454
   877.2500   2005.0000     11.4877     12.7600   2000.0000    118.5313
   877.5000   2005.0000     11.5061     12.7506   2000.0000    114.4478
   877.7500   2005.0000     11.5048     12.6408   2000.0000    112.9952
   878.0000   2005.0000     11.4830     12.4406   2000.0000    113.0736
   878.2500   2005.0000     11.4458     12.1811   2000.0000    114.4766
   878.5000   2005.0000     11.4032     11.9025   2000.0000    118.0970
   878.7500   2005.0000     11.3662     11.6420   2000.0000    121.0756
   879.0000   2005.0000     11.3422     11.4267   2000.0000    125.2887
   879.2500   2005.0000     11.3300     11.2723   2000.0000    127.2836
   879.5000   2005.0000     11.3208     11.1839   2000.0000    128.5412
   879.7500   2005.0000     11.3028     11.1581   2000.0000    128.3283
   880.0000   2005.0000     11.2689     11.1837   2000.0000    126.8049
   880.2500   2005.0000     11.2220     11.2444   2000.0000    125.1266
   880.5000   2005.0000     11.1742     11.3227   2000.0000    121.9737
   880.7500   2005.0000     11.1409     11.4055   2000.0000    119.9342
   881.0000   2005.0000     11.1366     11.4892   2000.0000    117.9517
   881.2500   2005.0000     11.1724     11.5800   2000.0000    117.5222
   881.5000   2005.0000     11.2558     11.6881   2000.0000    117.5632
   881.7500   2005.0000     11.3891     11.8222   2000.0000    117.5768
   882.0000   2005.0000     11.5690     11.9869   2000.0000    117.5222
   882.2500   2005.0000     11.7879     12.1856   2000.0000    117.7012
   882.5000   2005.0000     12.0369     12.4247   2000.0000    118.3486
   882.7500   2005.0000     12.3068     12.7134   2000.0000    118.6849
   883.0000   2005.0000     12.5884     13.0582   2000.0000    118.4080
   883.2500   2005.0000     12.8711     13.4578   2000.0000    117.5631
   883.5000   2005.0000     13.1444     13.9050   2000.0000    115.2674
   883.7500   2005.0000     13.4010     14.3974   2000.0000    112.9876
   884.0000   2005.0000     13.6376     14.9424   2000.0000    108.3262
   884.2500   2005.0000     13.8512     15.5479   2000.0000    104.4464
   884.5000   2005.0000     14.0305     16.1958   2000.0000     98.0367
   884.7500   2005.0000     14.1536     16.8207   2000.0000     94.0639
   885.0000   2005.0000     14.1958     17.3156   2000.0000     89.9716
   885.2500   2005.0000     14.1454     17.5681   2000.0000     88.9940
   885.5000   2005.0000     14.0152     17.5068   2000.0000     90.0649
   885.7500   2005.0000     13.8375     17.1256   2000.0000     92.0946
   886.0000   2005.0000     13.6501     16.4811   2000.0000     96.6359
   886.2500   2005.0000     13.4835     15.6730   2000.0000    100.6582
   886.5000   2005.0000     13.3564     14.8170   2000.0000    108.3131
   886.7500   2005.0000     13.2781     14.0166   2000.0000    114.2348
   887.0000   2005.0000     13.2513     13.3451   2000.0000    122.9191
   887.2500   2005.0000     13.2749     12.8442   2000.0000    127.5035
   887.5000   2005.0000     13.3440     12.5335   2000.0000    131.4325
   887.7500   2005.0000     13.4509     12.4211   2000.0000    131.9824
   888.0000   2005.0000     13.5884     12.5086   2000.0000    129.6420
   888.2500   2005.0000     13.7535     12.7900   2000.0000    125.7094
   888.5000   2005.0000     13.9519     13.2490   2000.0000    116.2305
   888.7500   2005.0000     14.2001     13.8608   2000.0000    108.3140
   889.0000   2005.0000     14.5244     14.5981   2000.0000     96.4376
   889.2500   2005.0000     14.9550     15.4427   2000.0000     89.8384
   889.5000   2005.0000     15.5161     16.3932   2000.0000     83.2004
   889.7500   2005.0000     16.2173     17.4643   2000.0000     81.0209
   890.0000   2005.0000     17.0475     18.6767   2000.0000     80.1989
   890.2500   2005.0000     17.9752     20.0419   2000.0000     80.4277
   890.5000   2005.0000     18.9517     21.5484   2000.0000     80.9153
   890.7500   2005.0000     19.9150     23.1557   2000.0000     81.3962
   891.0000   2005.0000     20.7919     24.7957   2000.0000     83.3545
   891.2500   2005.0000     21.5030     26.3709   2000.0000     86.0521
   891.5000   2005.0000     21.9793     27.7443   2000.0000     92.0275
   891.7500   2005.0000     22.1857     28.7336   2000.0000     96.2820
   892.0000   2005.0000     22.1370     29.1470   2000.0000    100.5606
   892.2500   2005.0000     21.8919     28.8762   2000.0000    101.1016
   892.5000   2005.0000     21.5312     27.9890   2000.0000     99.0762
   892.7500   2005.0000     21.1319     26.7215   2000.0000     97.0803
   893.0000   2005.0000     20.7457     25.3606   2000.0000     94.9646
   893.2500   2005.0000     20.3842     24.1213   2000.0000     94.5893
   893.5000   2005.0000     20.0171     23.1026   2000.0000     95.7184
   893.7500   2005.0000     19.5877     22.3107   2000.0000     97.4808
   894.0000   2005.0000     19.0441     21.7025   2000.0000    100.6083
   894.2500   2005.0000     18.3681     21.2121   2000.0000    101.8767
   894.5000   2005.0000     17.5840     20.7549   2000.0000    101.0577
   894.7500   2005.0000     16.7433     20.2267   2000.0000     99.0488
   895.0000   2005.0000     15.9019     19.5243   2000.0000     96.5093
   895.2500   2005.0000     15.1056     18.5891   2000.0000     96.7445
   895.5000   2005.0000     14.3856     17.4442   2000.0000    100.8560
   895.7500   2005.0000     13.7586     16.1867   2000.0000    105.4593
   896.0000   2005.0000     13.2277     14.9395   2000.0000    113.3274
   896.2500   2005.0000     12.7839     13.8028   2000.0000    118.3372
   896.5000   2005.0000     12.4103     12.8321   2000.0000    124.7221
   896.7500   2005.0000     12.0866     12.0422   2000.0000    128.0777
   897.0000   2005.0000     11.7941     11.4224   2000.0000    131.5134
   897.2500   2005.0000     11.5176     10.9505   2000.0000    132.4478
   897.5000   2005.0000     11.2460     10.6033   2000.0000    131.4768
   897.7500   2005.0000     10.9721     10.3607   2000.0000    129.5064
   898.0000   2005.0000     10.6925     10.2069   2000.0000    125.7446
   898.2500   2005.0000     10.4073     10.1284   2000.0000    123.3065
   898.5000   2005.0000     10.1203     10.1097   2000.0000    119.9944
   898.7500   2005.0000      9.8376     10.1289   2000.0000    117.9018
   899.0000   2005.0000      9.5660     10.1545   2000.0000    115.0165
   899.2500   2005.0000      9.3111     10.1482   2000.0000    113.5485
   899.5000   2005.0000      9.0755     10.0739   2000.0000    112.7668
   899.7500   2005.0000      8.8597      9.9102   2000.0000    113.7433
