~Version Information
VERS.                      2.0: CWLS Log ASCII Standard - VERSION 2.0
WRAP.                       NO: One line per depth step
~Well Information Block
STRT.FT               460.0000: 
STOP.FT              2824.0000: 
STEP.FT                 0.2500: 
NULL.                -999.2500: 
COMP.          Pioneer Natural Resources: COMPANY
WELL.           Dolzanie 34-12: WELL
FLD.           Purgatoire River: FIELD
LOC.           1001' FSL & 1750' FEL--: LOCATION
PROV.                 Colorado: PROVINCE
CNTY.               Las Animas: COUNTRY
SRVC.                Patterson: SERVICE COMPANY
DATE.          Wed Jul 20 07:51:58 2005: LOG DATE
UWI.           05 071 08439 00: UNIQUE WELL ID
~Curve Information Block
DEPT.FT            0 000 00 00: Depth
DIR.Ohm-m                     : IEL Induction Resistivity
SN.Ohm-m                      : IEL Short Normal
SP.mV                         : IEL Spontaneous Potential
GR.GAPI                       : Gamma Ray
~Parameter Information Block
~A  Depth       DIR          SN          SP          GR     
# ...
  2034.5000     13.3856     14.5042     19.6875    116.0719
  2034.7500     13.7468     14.6486     20.7601    113.5232
  2035.0000     14.0621     14.7034     22.1376    110.4441
  2035.2500     14.2968     14.6372     23.7528    109.3171
  2035.5000     14.4035     14.4205     25.5188    109.5135
  2035.7500     14.3404     14.0543     27.3386    110.6905
  2036.0000     14.0964     13.5853     29.1159    113.0206
  2036.2500     13.7019     13.0938     30.7664    114.4105
  2036.5000     13.2161     12.6615     32.2260    115.8524
  2036.7500     12.7001     12.3350     33.4563    116.5740
  2037.0000     12.1989     12.1089     34.4435    118.5334
  2037.2500     11.7392     11.9394     35.1952    121.4626
  2037.5000     11.3354     11.7773     35.7329    129.2115
  2037.7500     10.9949     11.5951     36.0842    136.0377
  2038.0000     10.7189     11.3935     36.2763    146.4592
  2038.2500     10.5008     11.1882     36.3313    152.3253
  2038.5000     10.3279     10.9931     36.2645    158.6032
  2038.7500     10.1883     10.8174     36.0845    161.0151
  2039.0000     10.0790     10.6774     35.7955    161.8002
  2039.2500     10.0092     10.6055     35.3996    160.2776
  2039.5000      9.9966     10.6412     34.8995    155.1022
  2039.7500     10.0592     10.8107     34.3004    150.2673
  2040.0000     10.2079     11.1129     33.6113    142.2272
  2040.2500     10.4441     11.5223     32.8459    137.0005
  2040.5000     10.7619     12.0006     32.0238    130.2582
  2040.7500     11.1523     12.5073     31.1712    126.9590
  2041.0000     11.6058     13.0047     30.3206    124.2564
  2041.2500     12.1107     13.4586     29.5102    123.8329
  2041.5000     12.6506     13.8368     28.7819    124.6097
  2041.7500     13.2031     14.1150     28.1773    125.6667
  2042.0000     13.7440     14.2913     27.7330    127.2003
  2042.2500     14.2526     14.4018     27.4753    127.2771
  2042.5000     14.7149     14.5217     27.4152    123.8952
  2042.7500     15.1218     14.7412     27.5462    118.6024
  2043.0000     15.4655     15.1188     27.8444    107.2918
  2043.2500     15.7353     15.6383     28.2714     99.4801
  2043.5000     15.9141     16.2022     28.7801     90.9437
  2043.7500     15.9809     16.6721     29.3215     88.5780
  2044.0000     15.9195     16.9286     29.8518     90.2891
  2044.2500     15.7289     16.9124     30.3376     94.3913
  2044.5000     15.4286     16.6363     30.7584    103.1440
  2044.7500     15.0551     16.1746     31.1066    109.1603
  2045.0000     14.6533     15.6358     31.3851    115.6691
  2045.2500     14.2667     15.1239     31.6030    117.3534
  2045.5000     13.9274     14.7018     31.7716    116.4112
  2045.7500     13.6485     14.3733     31.9007    114.9131
  2046.0000     13.4215     14.0921     31.9963    114.1325
  2046.2500     13.2226     13.7974     32.0600    115.3231
  2046.5000     13.0233     13.4535     32.0898    118.8433
  2046.7500     12.8032     13.0676     32.0816    121.3439
  2047.0000     12.5572     12.6788     32.0313    124.5585
  2047.2500     12.2933     12.3331     31.9359    126.8380
  2047.5000     12.0255     12.0622     31.7947    131.9994
  2047.7500     11.7655     11.8737     31.6094    136.9957
  2048.0000     11.5173     11.7518     31.3835    145.5726
  2048.2500     11.2776     11.6644     31.1222    150.4566
  2048.5000     11.0400     11.5785     30.8307    154.3732
  2048.7500     10.8004     11.4724     30.5137    154.6072
  2049.0000     10.5613     11.3409     30.1737    152.9570
  2049.2500     10.3332     11.1922     29.8111    151.5787
  2049.5000     10.1319     11.0422     29.4232    150.0040
  2049.7500      9.9753     10.9094     29.0053    149.4382
  2050.0000      9.8795     10.8095     28.5519    149.7306
  2050.2500      9.8558     10.7524     28.0584    151.0607
  2050.5000      9.9073     10.7421     27.5229    154.9889
  2050.7500     10.0288     10.7824     26.9472    158.5893
  2051.0000     10.2091     10.8831     26.3373    164.4508
  2051.2500     10.4361     11.0608     25.7017    167.9601
  2051.5000     10.7025     11.3317     25.0494    171.0922
  2051.7500     11.0071     11.7028     24.3876    170.6645
  2052.0000     11.3541     12.1668     23.7192    164.9083
  2052.2500     11.7474     12.7012     23.0412    157.8885
  2052.5000     12.1858     13.2724     22.3447    144.9449
  2052.7500     12.6583     13.8437     21.6153    136.5460
  2053.0000     13.1455     14.3858     20.8354    126.5428
  2053.2500     13.6254     14.8849     19.9876    122.0094
  2053.5000     14.0824     15.3464     19.0575    118.0405
  2053.7500     14.5130     15.7921     18.0378    116.8543
  2054.0000     14.9245     16.2509     16.9311    116.4266
  2054.2500     15.3304     16.7457     15.7521    116.5257
  2054.5000     15.7442     17.2816     14.5286    116.7414
  2054.7500     16.1762     17.8403     13.3018    117.0300
  2055.0000     16.6323     18.3829     12.1250    117.9431
  2055.2500     17.1153     18.8671     11.0610    118.5794
  2055.5000     17.6261     19.2709     10.1778    118.3898
  2055.7500     18.1563     19.6034      9.5423    116.9134
  2056.0000     18.6745     19.8828      9.2124    112.4410
  2056.2500     19.1148     20.0985      9.2285    108.3032
  2056.5000     19.3804     20.1930      9.6056    101.8137
  2056.7500     19.3706     20.0829     10.3279     98.4040
  2057.0000     19.0223     19.7030     11.3474     95.8773
  2057.2500     18.3420     19.0408     12.5877     95.7955
  2057.5000     17.4083     18.1463     13.9528     96.9986
  2057.7500     16.3404     17.1150     15.3393     98.2543
  2058.0000     15.2552     16.0534     16.6498    101.0792
  2058.2500     14.2363     15.0418     17.8048    104.0586
  2058.5000     13.3277     14.1169     18.7507    110.5707
  2058.7500     12.5413     13.2834     19.4626    116.0221
  2059.0000     11.8707     12.5361     19.9420    124.8165
  2059.2500     11.3024     11.8715     20.2107    130.3566
  2059.5000     10.8224     11.2857     20.3024    137.0238
  2059.7500     10.4192     10.7698     20.2558    140.0003
  2060.0000     10.0825     10.3134     20.1080    142.8000
  2060.2500      9.8014      9.9092     19.8917    144.6131
  2060.5000      9.5630      9.5542     19.6342    149.0167
  2060.7500      9.3536      9.2476     19.3584    153.0147
  2061.0000      9.1612      8.9881     19.0847    158.2499
  2061.2500      8.9776      8.7741     18.8321    159.6690
  2061.5000      8.7984      8.6040     18.6192    158.1281
  2061.7500      8.6218      8.4751     18.4633    155.7055
  2062.0000      8.4477      8.3829     18.3784    152.3281
  2062.2500      8.2781      8.3221     18.3732    151.0517
  2062.5000      8.1175      8.2874     18.4498    150.8030
  2062.7500      7.9727      8.2693     18.6034    151.5268
  2063.0000      7.8508      8.2551     18.8247    153.6310
  2063.2500      7.7573      8.2333     19.1045    155.7102
  2063.5000      7.6946      8.1998     19.4392    159.8192
  2063.7500      7.6622      8.1573     19.8354    162.8413
  2064.0000      7.6563      8.1113     20.3118    166.5421
  2064.2500      7.6711      8.0669     20.8977    167.8377
  2064.5000      7.6985      8.0257     21.6258    167.8144
  2064.7500      7.7299      7.9864     22.5223    166.7793
  2065.0000      7.7581      7.9464     23.5966    164.5943
  2065.2500      7.7796      7.9057     24.8333    163.4279
  2065.5000      7.7948      7.8663     26.1896    163.2012
  2065.7500      7.8069      7.8309     27.5996    164.1956
  2066.0000      7.8182      7.8004     28.9840    166.6333
  2066.2500      7.8276      7.7734     30.2635    168.2229
  2066.5000      7.8309      7.7453     31.3714    169.6716
  2066.7500      7.8232      7.7106     32.2630    169.7672
  2067.0000      7.8033      7.6659     32.9197    168.6011
  2067.2500      7.7749      7.6121     33.3468    167.0524
  2067.5000      7.7459      7.5545     33.5685    163.9031
  2067.7500      7.7243      7.5005     33.6197    161.7944
