~Version Information
VERS.                      2.0: CWLS Log ASCII Standard - VERSION 2.0
WRAP.                       NO: One line per depth step
~Well Information Block
STRT.FT                 0.0000: 
STOP.FT              1201.0000: 
STEP.FT                 0.2500: 
NULL.                -999.2500: 
COMP.          Pioneer Natural Resources: COMPANY
WELL.             Margaux 11-1: WELL
FLD.           Purgatoire River: FIELD
LOC.           1154' FNL & 472' FWL --------: LOCATION
PROV.                 Colorado: PROVINCE
CNTY.               Las Animas: COUNTRY
SRVC.                         : SERVICE COMPANY
DATE.          Thu Jan 05 11:16:55 2006: LOG DATE
UWI.                          : UNIQUE WELL ID
~Curve Information Block
DEPT.FT            0 000 00 00: Depth
CCL.                          : Casing Collar Locator
TT3.usec                      : CBL 3' Travel Time
AMP3.mV                       : CBL 3' Amplitude
AMP5.mV                       : CBL 5' Amplitude
GR.GAPI                       : Gamma Ray
~Parameter Information Block
~A  Depth       CCL         TT3         AMP3        AMP5         GR     
# ...
    84.0000      0.0000    757.1409      6.2569      2.4860     91.6830
    84.2500      0.0000    764.0396      6.6482      2.5593     91.8654
    84.5000      0.0000    769.5886      7.1287      2.5767     90.6410
    84.7500      0.0000    774.1369      7.6387      2.5466     88.5310
    85.0000      0.0000    779.2573      8.1005      2.5098     86.7263
    85.2500      0.0000    785.2417      8.4693      2.4879     85.6462
    85.5000      0.0000    789.3042      8.7414      2.4657     84.8032
    85.7500      0.0000    787.1567      8.9249      2.4280     83.8848
    86.0000      0.0000    777.6652      9.0168      2.3962     83.0951
    86.2500      0.0000    765.6907      9.0053      2.4130     82.4074
    86.5000      0.0000    759.3346      8.8921      2.5009     81.3988
    86.7500      0.0000    764.2169      8.7059      2.6415     80.2113
    87.0000      0.0000    779.7286      8.4777      2.7848     80.0389
    87.2500      0.0000    798.8268      8.2050      2.8818     82.1564
    87.5000      0.0000    811.1182      7.8594      2.9244     86.5930
    87.7500      0.0000    808.8734      7.4395      2.9374     91.9571
    88.0000      0.0000    792.4882      7.0028      2.9228     96.5175
    88.2500      0.0000    769.9272      6.6416      2.8426     99.3308
    88.5000      0.0000    750.2151      6.4310      2.6671    100.2464
    88.7500      0.0000    737.6832      6.3904      2.4138     99.2013
    89.0000      0.0000    731.6213      6.4751      2.1335     96.1298
    89.2500      0.0000    729.3501      6.6026      1.8910     91.6318
    89.5000      0.0000    728.6815      6.7034      1.7603     87.2354
    89.7500      0.0000    728.4777      6.7613      1.7876     84.6444
    90.0000      0.0000    728.2877      6.8139      1.9371     84.5876
    90.2500      0.0000    727.9832      6.9156      2.1044     86.1401
    90.5000      0.0000    727.5914      7.0939      2.1977     87.1692
    90.7500      0.0000    727.1885      7.3300      2.1958     85.8613
    91.0000      0.0000    726.8084      7.5749      2.1416     82.0743
    91.2500      0.0000    726.4391      7.7824      2.0993     77.2033
    91.5000      0.0000    726.0938      7.9261      2.1111     72.8983
    91.7500      0.0000    725.8438      7.9951      2.1738     70.0164
    92.0000      0.0000    725.7756      7.9903      2.2543     68.5053
    92.2500      0.0000    725.9295      7.9359      2.3198     67.8556
    92.5000      0.0000    726.2717      7.8873      2.3566     67.5743
    92.7500      0.0000    726.7117      7.9135      2.3725     67.4335
    93.0000      0.0000    727.1645      8.0557      2.3799     67.5500
    93.2500      0.0000    727.6686      8.2860      2.3746     68.2456
    93.5000      0.0000    728.5624      8.4989      2.3416     69.5083
    93.7500      0.0000    730.7375      8.5505      2.2838     70.4344
    94.0000      0.0000    735.6292      8.3477      2.2256     69.5905
    94.2500      0.0000    744.4651      7.9430      2.1867     66.3679
    94.5000      0.0000    756.8298      7.5351      2.1739     61.8783
    94.7500      0.0000    770.3961      7.3221      2.1970     58.1852
    95.0000      0.0000    783.3173      7.3395      2.2640     56.5930
    95.2500      0.0000    797.0173      7.4772      2.3562     56.6736
    95.5000      0.0000    815.1594      7.6358      2.4315     56.8370
    95.7500      0.0000    839.1768      7.8078      2.4620     55.9360
    96.0000     -2.0000    865.6015      8.0257      2.4569     54.4988
    96.2500      0.0000    887.5162      8.2955      2.4477     54.3742
    96.5000      0.0000    897.1828      8.5976      2.4752     57.1790
    96.7500      0.0000    887.0465      8.9498      2.5845     63.1584
    97.0000      0.0000    851.3917      9.4563      2.7814     71.3162
    97.2500      0.0000    792.5783     10.2445      2.9833     80.1024
    97.5000      0.0000    727.3819     11.3029      3.0634     87.8555
    97.7500      0.0000    681.0103     12.4102      2.9744     93.0785
    98.0000      0.0000    668.6191     13.2775      2.8031     94.9966
    98.2500      0.0000    684.1080     13.7451      2.6783     94.1930
    98.5000      0.0000    709.1813     13.8254      2.6542     92.5608
    98.7500      0.0000    730.0328     13.6307      2.7147     92.1954
    99.0000      0.0000    743.1782     13.3059      2.8490     93.9629
    99.2500      0.0000    750.0865     12.9827      3.0565     97.1209
    99.5000      0.0000    751.7828     12.7387      3.2930    100.3568
    99.7500      0.0000    748.7192     12.5790      3.4772    102.8770
   100.0000      0.0000    742.5498     12.4581      3.5624    104.3537
   100.2500      0.0000    735.7547     12.3195      3.5753    104.4695
   100.5000      0.0000    729.5487     12.1225      3.5847    103.1798
   100.7500      0.0000    722.4035     11.8509      3.6380    101.1419
   101.0000      0.0000    710.7516     11.5160      3.7132     99.3060
   101.2500      0.0000    691.3871     11.1607      3.7422     98.1026
   101.5000      0.0000    663.7932     10.8508      3.6980     97.1827
   101.7500      0.0000    630.4633     10.6464      3.6468     95.7048
   102.0000      0.0000    596.3218     10.5750      3.6835     93.0400
   102.2500      0.0000    569.5753     10.6252      3.8137     89.6725
   102.5000      0.0000    560.9266     10.7633      3.9230     87.2139
   102.7500      0.0000    576.8124     10.9492      3.8808     86.9836
   103.0000      0.0000    612.4765     11.1349      3.6688     88.6630
   103.2500      0.0000    654.8688     11.2539      3.4053     90.6367
   103.5000      0.0000    692.5211     11.2390      3.2293     91.5408
   103.7500      0.0000    720.3822     11.0771      3.1599     91.2939
   104.0000      0.0000    737.3034     10.8400      3.0953     90.6799
   104.2500      0.0000    743.8260     10.6337      2.9580     90.2671
   104.5000      0.0000    743.1210     10.5141      2.7970     90.0774
   104.7500      0.0000    740.5549     10.4712      2.7351     90.0446
   105.0000      0.0000    739.8497     10.4915      2.8463     90.1462
   105.2500      0.0000    739.3337     10.6107      3.0831     90.0719
   105.5000      0.0000    731.9891     10.8960      3.3010     89.3851
   105.7500      0.0000    709.5299     11.3823      3.3765     88.1365
   106.0000      0.0000    669.5658     12.0182      3.3202     86.9959
   106.2500      0.0000    622.5230     12.6627      3.2564     86.7802
   106.5000      0.0000    590.0615     13.1499      3.2945     87.9108
   106.7500      0.0000    590.3955     13.3852      3.4408     90.0880
   107.0000      0.0000    622.3588     13.3887      3.6154     92.5227
   107.2500      0.0000    666.6486     13.2515      3.7365     94.6777
   107.5000      0.0000    703.1813     13.0746      3.7964     96.5514
   107.7500      0.0000    724.1127     12.9532      3.8459     98.0383
   108.0000      0.0000    731.5081     12.9729      3.9002     98.3853
   108.2500      0.0000    728.3826     13.1704      3.9106     96.6739
   108.5000      0.0000    715.2135     13.4943      3.8478     92.8020
   108.7500      0.0000    693.8683     13.8160      3.7619     87.9001
   109.0000      0.0000    672.5504     13.9825      3.7223     83.7495
   109.2500      0.0000    663.8348     13.8842      3.7284     81.6586
   109.5000      0.0000    675.0038     13.5191      3.7166     81.7737
   109.7500      0.0000    701.1204     13.0039      3.6462     83.2832
   110.0000      0.0000    729.7162     12.4941      3.5345     85.0762
   110.2500      0.0000    751.1725     12.0820      3.4167     86.2961
   110.5000      0.0000    763.4703     11.7781      3.3176     86.6186
   110.7500      0.0000    769.6434     11.5700      3.2511     86.2721
   111.0000      0.0000    773.7430     11.4660      3.1958     85.7764
   111.2500      0.0000    778.8574     11.4783      3.0947     85.4771
   111.5000      0.0000    786.2645     11.5857      2.9356     85.2230
   111.7500      0.0000    794.4442     11.7265      2.8102     84.6087
