~Version Information
VERS.                      2.0: CWLS Log ASCII Standard - VERSION 2.0
WRAP.                       NO: One line per depth step
~Well Information Block
STRT.FT               570.0000: 
STOP.FT              2090.5000: 
STEP.FT                 0.1000: 
NULL.                -999.2500: 
COMP.          XTO Energy Inc.: COMPANY
WELL.          Golden Eagle 19-10: WELL
FLD.           Purgatoire River: FIELD
LOC.           2684' FSL & 1825' FEL: LOCATION
CNTY.               Las Animas: COUNTY
SRVC.                Patterson: SERVICE COMPANY
DATE.          Mon Mar 06 07:05:15 2006: LOG DATE
UWI.           05 071 08697 00: UNIQUE WELL ID
STAT.                 Colorado: STATE
~Curve Information Block
DEPT.FT            0 000 00 00: Depth
DCAL.in                       : CDL Caliper
RHOB.g/cc                     : CDL Bulk Density
RHOC.g/cc                     : CDL Density Correction
DPOR.pu                       : CDL Density Porosity
GR.GAPI                       : Gamma Ray
NPOR.pu                       : Neutron Porosity
~Parameter Information Block
~A  Depth       DCAL        RHOB        RHOC        DPOR         GR         NPOR    
# ...
  2077.2000      7.8127      2.5395      0.0567      6.6948   -999.2500     53.7589
  2077.3000      7.8153      2.5338      0.0861      7.0451   -999.2500     53.8146
  2077.4000      7.8153      2.5279      0.0333      7.3983   -999.2500     53.8177
  2077.5000      7.8218      2.5307      0.0922      7.2311   -999.2500   -999.2500
  2077.6000      7.8218      2.5390      0.0795      6.7262   -999.2500   -999.2500
  2077.7000      7.8218      2.5406      0.0697      6.6281   -999.2500   -999.2500
  2077.8000      7.8262      2.5298      0.0704      7.2854   -999.2500   -999.2500
  2077.9000      7.8262      2.5095      0.0433      8.5164   -999.2500   -999.2500
  2078.0000      7.8251      2.4911      0.0253      9.6299   -999.2500   -999.2500
  2078.1000      7.8251      2.4827      0.0429     10.1367   -999.2500   -999.2500
  2078.2000      7.8251      2.4826      0.0031     10.1444   -999.2500   -999.2500
  2078.3000      7.8219      2.4878      0.0513      9.8279   -999.2500   -999.2500
  2078.4000      7.8219      2.4922      0.0559      9.5611   -999.2500   -999.2500
  2078.5000      7.8213      2.4920      0.0504      9.5763   -999.2500   -999.2500
  2078.6000      7.8213      2.4943      0.0079      9.4376   -999.2500   -999.2500
  2078.7000      7.8213      2.5091      0.0331      8.5373   -999.2500   -999.2500
  2078.8000      7.8273      2.5333      0.0852      7.0714   -999.2500   -999.2500
  2078.9000      7.8273      2.5547      0.0375      5.7737   -999.2500   -999.2500
  2079.0000      7.8403      2.5681      0.0606      4.9622   -999.2500   -999.2500
  2079.1000      7.8403      2.5704      0.0683      4.8265   -999.2500   -999.2500
  2079.2000      7.8403      2.5613      0.0717      5.3779   -999.2500   -999.2500
  2079.3000      7.8505      2.5489      0.0432      6.1277   -999.2500   -999.2500
  2079.4000      7.8505      2.5384      0.0205      6.7663   -999.2500   -999.2500
  2079.5000      7.8528      2.5267      0.0598      7.4712   -999.2500   -999.2500
  2079.6000      7.8528      2.5160      0.0347      8.1203   -999.2500   -999.2500
  2079.7000      7.8528      2.5104      0.0550      8.4594   -999.2500   -999.2500
  2079.8000      7.8496      2.5044      0.0224      8.8256   -999.2500   -999.2500
  2079.9000      7.8496      2.4970      0.0229      9.2713   -999.2500   -999.2500
  2080.0000      7.8427      2.4950      0.0191      9.3963   -999.2500   -999.2500
  2080.1000      7.8427      2.5017      0.0170      8.9876   -999.2500   -999.2500
  2080.2000      7.8427      2.5123      0.0659      8.3429   -999.2500   -999.2500
  2080.3000      7.8338      2.5193      0.0405      7.9218   -999.2500   -999.2500
  2080.4000      7.8338      2.5246      0.0457      7.5997   -999.2500   -999.2500
  2080.5000      7.8228      2.5350      0.0474      6.9721   -999.2500   -999.2500
  2080.6000      7.8228      2.5526      0.0643      5.9031   -999.2500   -999.2500
  2080.7000      7.8228      2.5688      0.1066      4.9219   -999.2500   -999.2500
  2080.8000      7.8130      2.5681      0.1087      4.9664   -999.2500   -999.2500
  2080.9000      7.8130      2.5485      0.0904      6.1517   -999.2500   -999.2500
  2081.0000      7.8128      2.5287      0.0487      7.3489   -999.2500   -999.2500
  2081.1000      7.8128      2.5214      0.0450      7.7959   -999.2500   -999.2500
  2081.2000      7.8128      2.5187      0.0317      7.9605   -999.2500   -999.2500
  2081.3000      7.8175      2.5124      0.0577      8.3403   -999.2500   -999.2500
  2081.4000      7.8175      2.5048      0.0466      8.8014   -999.2500   -999.2500
  2081.5000      7.8186      2.5074      0.0456      8.6414   -999.2500   -999.2500
  2081.6000      7.8186      2.5244      0.0491      7.6151   -999.2500   -999.2500
  2081.7000      7.8186      2.5393      0.0683      6.7073   -999.2500   -999.2500
  2081.8000      7.8120      2.5409      0.0531      6.6109   -999.2500   -999.2500
  2081.9000      7.8120      2.5379      0.0554      6.7927   -999.2500   -999.2500
  2082.0000      7.8064      2.5398      0.0871      6.6803   -999.2500   -999.2500
  2082.1000      7.8064      2.5441      0.0756      6.4184   -999.2500   -999.2500
  2082.2000      7.8064      2.5436      0.0826      6.4469   -999.2500   -999.2500
  2082.3000      7.8104      2.5333      0.0487      7.0737   -999.2500   -999.2500
  2082.4000      7.8104      2.5189      0.0506      7.9482   -999.2500   -999.2500
  2082.5000      7.8177      2.5137     -0.0250      8.2629   -999.2500   -999.2500
  2082.6000      7.8177      2.5188      0.0638      7.9523   -999.2500   -999.2500
  2082.7000      7.8177      2.5239      0.0164      7.6408   -999.2500   -999.2500
  2082.8000      7.8204      2.5288      0.0592      7.3451   -999.2500   -999.2500
  2082.9000      7.8204      2.5359      0.0433      6.9149   -999.2500   -999.2500
  2083.0000      7.8162      2.5468      0.0521      6.2562   -999.2500   -999.2500
  2083.1000      7.8162      2.5598      0.0562      5.4645   -999.2500   -999.2500
  2083.2000      7.8162      2.5629      0.0738      5.2775   -999.2500   -999.2500
  2083.3000      7.8105      2.5500      0.0610      6.0610   -999.2500   -999.2500
  2083.4000      7.8105      2.5344      0.0735      7.0048   -999.2500   -999.2500
  2083.5000      7.8071      2.5308      0.0462      7.2223   -999.2500   -999.2500
  2083.6000      7.8071      2.5404      0.0498      6.6401   -999.2500   -999.2500
  2083.7000      7.8071      2.5537      0.0533      5.8363   -999.2500   -999.2500
  2083.8000      7.8044      2.5546      0.0698      5.7793   -999.2500   -999.2500
  2083.9000      7.8044      2.5342      0.0467      7.0196   -999.2500   -999.2500
  2084.0000      7.8028      2.5040      0.0353      8.8470   -999.2500   -999.2500
  2084.1000      7.8028      2.4810      0.0448     10.2440   -999.2500   -999.2500
  2084.2000      7.8028      2.4699      0.0356     10.9136   -999.2500   -999.2500
  2084.3000      7.8049      2.4721      0.0082     10.7794   -999.2500   -999.2500
  2084.4000      7.8049      2.4849      0.0414     10.0085   -999.2500   -999.2500
  2084.5000      7.8136      2.4981      0.0510      9.2031   -999.2500   -999.2500
  2084.6000      7.8136      2.5091      0.0602      8.5411   -999.2500   -999.2500
  2084.7000      7.8136      2.5197      0.0793      7.8997   -999.2500   -999.2500
  2084.8000      7.8242      2.5288      0.0749      7.3461   -999.2500   -999.2500
  2084.9000      7.8242      2.5430      0.0473      6.4835   -999.2500   -999.2500
  2085.0000      7.8283      2.5653      0.0950      5.1333   -999.2500   -999.2500
  2085.1000      7.8283      2.5819      0.1107      4.1249   -999.2500   -999.2500
  2085.2000      7.8283      2.5858      0.0886      3.8896   -999.2500   -999.2500
  2085.3000      7.8223      2.5840      0.0769      4.0022   -999.2500   -999.2500
  2085.4000      7.8223      2.5824      0.0686      4.0999   -999.2500   -999.2500
  2085.5000      7.8109      2.5791      0.0635      4.2966   -999.2500   -999.2500
  2085.6000      7.8109      2.5686      0.0639      4.9352   -999.2500   -999.2500
  2085.7000      7.8109      2.5506      0.0709      6.0212   -999.2500   -999.2500
  2085.8000      7.8033      2.5315      0.0283      7.1796   -999.2500   -999.2500
  2085.9000      7.8033      2.5193      0.0370      7.9202   -999.2500   -999.2500
  2086.0000      7.7967      2.5185      0.0239      7.9668   -999.2500   -999.2500
  2086.1000      7.7967      2.5227      0.0681      7.7128   -999.2500   -999.2500
  2086.2000      7.7967      2.5199      0.0429      7.8837   -999.2500   -999.2500
  2086.3000      7.7889      2.5133      0.0261      8.2826   -999.2500   -999.2500
  2086.4000      7.7889      2.5158      0.0336      8.1343   -999.2500   -999.2500
  2086.5000      7.7859      2.5267      0.0375      7.4739   -999.2500   -999.2500
  2086.6000      7.7859      2.5314      0.0791      7.1881   -999.2500   -999.2500
  2086.7000      7.7859      2.5235      0.0654      7.6671   -999.2500   -999.2500
