~Version Information
VERS.                      2.0: CWLS Log ASCII Standard - VERSION 2.0
WRAP.                       NO: One line per depth step
~Well Information Block
STRT.FT                 0.0000: 
STOP.FT               816.5000: 
STEP.FT                 0.1000: 
NULL.                -999.2500: 
COMP.          Pioneer Natural Resources: COMPANY
WELL.           Weissach 32-32: WELL
FLD.           Purgatorie River: FIELD
LOC.           2193' FNL & 2256' FEL: LOCATION
STAT.                 Colorado: State
CNTY.               Las Animas: COUNTY
CTRY. USA : Country
SECT. 32 : Section
TOWN. 33S : Township
RANG. 66W : Range
SRVC.                Patterson: SERVICE COMPANY
DATE.          Mon Sep 26 09:15:29 2005: LOG DATE
API. 05-071-08523                         : UNIQUE WELL ID
~Curve Information Block
DEPT.FT            0 000 00 00: Depth
DCAL.in                       : CDL Caliper
RHOB.g/cc                     : CDL Bulk Density
RHOC.g/cc                     : CDL Density Correction
DPOR.pu                       : CDL Density Porosity
GR.GAPI                       : Gamma Ray
NPOR.pu                       : Neutron Porosity
~Parameter Information Block
~A  Depth       DCAL        RHOB        RHOC        DPOR         GR         NPOR    
# ...
   163.2000     17.4999      2.0573      2.0000     -0.0119     98.6424     24.5253
   163.3000     17.5028      2.0560      2.0000     -0.0119    102.0480     24.7021
   163.4000     17.5028      2.0522      2.0000     -0.0120    104.1022     25.1136
   163.5000     17.4975      2.0438      2.0000     -0.0121    107.6901     25.8441
   163.6000     17.4975      2.0411      2.0000     -0.0122    113.4433     26.4179
   163.7000     17.4975      2.0351      2.0000     -0.0123    120.1010     26.6463
   163.8000     17.4930      2.0228      2.0000     -0.0126    128.2157     26.8200
   163.9000     17.4930      2.0237      2.0000     -0.0125    132.0306     27.0111
   164.0000     17.5025      2.0460      2.0000     -0.0121    123.7461     27.2452
   164.1000     17.5025      2.1076      2.0000     -0.0109    111.1651     27.7781
   164.2000     17.5025      2.2411      2.0000     -0.0082    106.6111     28.9733
   164.3000     17.5030      2.4255      2.0000     -0.0045    110.0693     30.6711
   164.4000     17.5030      2.5678      2.0000     -0.0016    113.1905     32.1172
   164.5000     17.5035      2.6156      2.0000     -0.0007    111.0087     33.3867
   164.6000     17.5035      2.5952      2.0000     -0.0011    106.7368     34.8635
   164.7000     17.5035      2.5176      2.0000     -0.0026    103.1684     36.0479
   164.8000     17.5007      2.3600      2.0000     -0.0058     99.6402     36.5046
   164.9000     17.5007      2.1275      2.0000     -0.0105     96.4773     36.2950
   165.0000     17.5017      1.8914      2.0000     -0.0152     93.4924     35.7838
   165.1000     17.5017      1.7247      2.0000     -0.0185     91.6169     35.2518
   165.2000     17.5017      1.6424      2.0000     -0.0202     92.0897     34.3642
   165.3000     17.5052      1.6351      2.0000     -0.0203     93.6009     33.0333
   165.4000     17.5052      1.6813      2.0000     -0.0194     94.8038     31.7627
   165.5000     17.5062      1.7468      2.0000     -0.0181     95.9137     30.6555
   165.6000     17.5062      1.8280      2.0000     -0.0164     96.9010     29.5521
   165.7000     17.5062      1.9376      2.0000     -0.0143     99.6488     28.6300
   165.8000     17.4958      2.0279      2.0000     -0.0124    104.8951     27.9380
   165.9000     17.4958      2.0551      2.0000     -0.0119    109.2225     27.2568
   166.0000     17.4994      2.0347      2.0000     -0.0123    109.4830     26.6709
   166.1000     17.4994      2.0031      2.0000     -0.0129    108.8347     26.4827
   166.2000     17.4994      1.9772      2.0000     -0.0135    111.4727     26.8286
   166.3000     17.4997      1.9479      2.0000     -0.0141    113.4233     27.5736
   166.4000     17.4997      1.9187      2.0000     -0.0146    112.9184     28.2080
   166.5000     17.4964      1.9108      2.0000     -0.0148    113.2540     28.3318
   166.6000     17.4964      1.9253      2.0000     -0.0145    112.9526     28.1787
   166.7000     17.4964      1.9463      2.0000     -0.0141    109.4036     28.1151
   166.8000     17.4954      1.9638      2.0000     -0.0137    106.1371     28.0983
   166.9000     17.4954      1.9828      2.0000     -0.0134    107.0437     28.0311
   167.0000     17.4985      2.0102      2.0000     -0.0128    110.9790     27.9989
   167.1000     17.4985      2.0411      2.0000     -0.0122    115.3209     27.8725
   167.2000     17.4985      2.0651      2.0000     -0.0117    118.1785     27.4485
   167.3000     17.4997      2.0752      2.0000     -0.0115    117.9052     27.1684
   167.4000     17.4997      2.0662      2.0000     -0.0117    114.0826     27.4342
   167.5000     17.4978      2.0384      2.0000     -0.0122    108.6832     27.8667
   167.6000     17.4978      2.0027      2.0000     -0.0130    103.3018     28.2750
   167.7000     17.4978      1.9697      2.0000     -0.0136     99.8094     28.8376
   167.8000     17.4980      1.9556      2.0000     -0.0139    100.5896     29.1887
   167.9000     17.4980      1.9771      2.0000     -0.0135    103.2649     28.9890
   168.0000     17.5022      2.0090      2.0000     -0.0128    101.2849     28.5689
   168.1000     17.5022      2.0145      2.0000     -0.0127     94.0294     28.1294
   168.2000     17.5022      2.0066      2.0000     -0.0129     89.0377     27.5034
   168.3000     17.5025      2.0262      2.0000     -0.0125     90.3268     26.8053
   168.4000     17.5025      2.0674      2.0000     -0.0117     92.0857     26.4772
   168.5000     17.5002      2.0928      2.0000     -0.0111     90.6194     26.5615
   168.6000     17.5002      2.0973      2.0000     -0.0111     90.3222     26.5550
   168.7000     17.5002      2.0905      2.0000     -0.0112     90.9431     26.2162
   168.8000     17.4996      2.0809      2.0000     -0.0114     89.4981     25.7506
   168.9000     17.4996      2.0909      2.0000     -0.0112     87.5015     25.2557
   169.0000     17.5047      2.1358      2.0000     -0.0103     85.4366     24.8351
   169.1000     17.5047      2.1903      2.0000     -0.0092     82.9222     24.5697
   169.2000     17.5047      2.2024      2.0000     -0.0090     81.1895     24.0885
   169.3000     17.5044      2.1531      2.0000     -0.0099     80.1612     23.4189
   169.4000     17.5044      2.0854      2.0000     -0.0113     77.4654     23.4308
   169.5000     17.4974      2.0504      2.0000     -0.0120     73.4903     24.2336
   169.6000     17.4974      2.0694      2.0000     -0.0116     72.5248     24.9367
   169.7000     17.4974      2.1204      2.0000     -0.0106     75.5468     24.9821
   169.8000     17.4992      2.1529      2.0000     -0.0099     78.0181     24.5474
   169.9000     17.4992      2.1404      2.0000     -0.0102     77.8660     24.2259
   170.0000     17.5040      2.0951      2.0000     -0.0111     75.3278     24.5359
   170.1000     17.5040      2.0403      2.0000     -0.0122     70.8144     25.1590
   170.2000     17.5040      1.9972      2.0000     -0.0131     68.2731     25.2614
   170.3000     17.5002      1.9867      2.0000     -0.0133     69.2252     24.8880
   170.4000     17.5002      2.0100      2.0000     -0.0128     69.8477     24.6374
   170.5000     17.5042      2.0361      2.0000     -0.0123     67.8543     24.4045
   170.6000     17.5042      2.0260      2.0000     -0.0125     63.6412     23.9309
   170.7000     17.5042      1.9638      2.0000     -0.0137     60.1447     23.3115
   170.8000     17.5017      1.8792      2.0000     -0.0154     60.0182     22.9281
   170.9000     17.5017      1.8553      2.0000     -0.0159     61.4236     23.1632
   171.0000     17.4998      1.9235      2.0000     -0.0145     63.6392     23.5567
   171.1000     17.4998      1.9959      2.0000     -0.0131     67.3305     23.6029
   171.2000     17.4998      2.0156      2.0000     -0.0127     71.7604     23.4307
   171.3000     17.4967      2.0306      2.0000     -0.0124     76.2445     23.1686
   171.4000     17.4967      2.0847      2.0000     -0.0113     79.9377     23.0869
   171.5000     17.4968      2.1454      2.0000     -0.0101     81.8516     23.2300
   171.6000     17.4968      2.1658      2.0000     -0.0097     80.5328     23.4557
   171.7000     17.4968      2.1508      2.0000     -0.0100     77.1005     23.8153
   171.8000     17.4939      2.1285      2.0000     -0.0104     75.2029     24.0669
   171.9000     17.4939      2.1177      2.0000     -0.0107     77.0519     24.0843
   172.0000     17.5013      2.1224      2.0000     -0.0106     82.2300     24.2560
   172.1000     17.5013      2.1335      2.0000     -0.0103     88.4737     24.6255
   172.2000     17.5013      2.1395      2.0000     -0.0102     92.2651     24.9014
   172.3000     17.5004      2.1384      2.0000     -0.0102     90.8754     25.0392
   172.4000     17.5004      2.1325      2.0000     -0.0104     86.9866     25.2105
   172.5000     17.5008      2.1195      2.0000     -0.0106     86.7864     25.5064
   172.6000     17.5008      2.0996      2.0000     -0.0110     90.9227     25.8240
   172.7000     17.5008      2.0837      2.0000     -0.0113     95.9054     26.0537
