~Version Information
VERS.                      2.0: CWLS Log ASCII Standard - VERSION 2.0
WRAP.                       NO: One line per depth step
~Well Information Block
STRT.FT                 0.0000: 
STOP.FT               878.7500: 
STEP.FT                 0.2500: 
NULL.                -999.2500: 
COMP.          Pioneer Natural Resources: COMPANY
WELL.          Screamin 12-29 Tr: WELL
FLD.           Purgatoire River: FIELD
LOC.           1979' FNL & 532' FWL--: LOCATION
CNTY.               Las Animas: COUNTY
SRVC.                Patterson: SERVICE COMPANY
DATE.          Thu Apr 13 22:21:38 2006: LOG DATE
UWI.           05 071 08660 00: UNIQUE WELL ID
STAT.                 Colorado: STATE
~Curve Information Block
DEPT.FT            0 000 00 00: Depth
GR.GAPI                       : Gamma Ray
CCL.                          : Casing Collar Locator
TT3.usec                      : CBL 3' Travel Time
AMP3.mV                       : CBL 3' Amplitude
~Parameter Information Block
~A  Depth        GR         CCL         TT3         AMP3    
# ...
   100.5000    102.4389      0.0000    738.1312      6.4231
   100.7500     98.5085      0.0000    743.1551      6.4666
   101.0000     94.7924      0.0000    750.6966      6.5574
   101.2500     93.6032      0.0000    754.9864      6.6280
   101.5000     91.0372      0.0000    759.4952      6.7322
   101.7500     87.4900      0.0000    761.4625      6.7888
   102.0000     80.3489      0.0000    764.1898      6.8414
   102.2500     76.3990      0.0000    766.5826      6.8541
   102.5000     74.6180      0.0000    771.1531      6.8475
   102.7500     76.3747      0.0000    774.0847      6.8338
   103.0000     81.3842      0.0000    776.3737      6.8172
   103.2500     84.7431      0.0000    775.8478      6.8179
   103.5000     88.1486      0.0000    772.6483      6.8377
   103.7500     89.2818      0.0000    770.0849      6.8539
   104.0000     90.3175      0.0000    767.7430      6.8594
   104.2500     91.2138      0.0000    768.0310      6.8408
   104.5000     93.0283      0.0000    771.6193      6.7787
   104.7500     94.1201      0.0000    775.5586      6.7255
   105.0000     94.8725      0.0000    781.4325      6.6583
   105.2500     94.7722      0.0000    783.6206      6.6386
   105.5000     94.5917      0.0000    782.6666      6.6622
   105.7500     95.4574      0.0000    779.7866      6.7126
   106.0000     99.6232      0.0000    775.2004      6.8222
   106.2500    103.7439      0.0000    773.6544      6.9016
   106.5000    108.3225      0.0000    773.9326      7.0066
   106.7500    108.3592      0.0000    774.5852      7.0626
   107.0000    104.1681      0.0000    774.0504      7.1309
   107.2500    100.5559      0.0000    772.5184      7.1717
   107.5000     96.8922      0.0000    769.3981      7.2391
   107.7500     95.5323      0.0000    766.7755      7.2971
   108.0000     92.5245      0.0000    760.8252      7.4055
   108.2500     88.7178      0.0000    755.4437      7.4791
   108.5000     81.1882      0.0000    747.7686      7.5598
   108.7500     76.5484      0.0000    744.9688      7.5839
   109.0000     71.7698      0.0000    745.9496      7.5799
   109.2500     69.6231      0.0000    749.5212      7.5575
   109.5000     66.4325      0.0000    756.6219      7.5070
   109.7500     64.0631      0.0000    760.6246      7.4746
   110.0000     60.9914      0.0000    762.9562      7.4576
   110.2500     59.8855      0.0000    761.7291      7.4777
   110.5000     60.0050      0.0000    757.8851      7.5431
   110.7500     61.0139      0.0000    756.3273      7.5900
   111.0000     63.0503      0.0000    758.7181      7.6335
   111.2500     64.4681      0.0000    763.3916      7.6382
   111.5000     67.3019      0.0000    771.1779      7.6225
   111.7500     70.3695      0.0000    773.8643      7.6119
   112.0000     77.0460      0.0000    770.7380      7.6150
   112.2500     82.1976      0.0000    763.7199      7.6329
   112.5000     89.2334      0.0000    748.7762      7.6765
   112.7500     92.7045      0.0000    739.0720      7.7067
   113.0000     95.6951      0.0000    730.1914      7.7289
   113.2500     96.5718      0.0000    729.2009      7.7139
   113.5000     97.3829      0.0000    733.2852      7.6381
   113.7500     98.0469      0.0000    738.0351      7.5597
   114.0000     98.9818      0.0000    746.5641      7.4258
   114.2500     99.0751      0.0000    752.5700      7.3417
   114.5000     98.0825      0.0000    760.1194      7.2485
   114.7500     97.0788      0.0000    762.7706      7.2186
   115.0000     96.1800      0.0000    761.9101      7.2209
   115.2500     96.2599      0.0000    758.3981      7.2424
   115.5000     97.0429      0.0000    750.3760      7.2836
   115.7500     97.7398      0.0000    744.4684      7.3104
   116.0000     98.9709      0.0000    737.0721      7.3418
   116.2500    100.0283      0.0000    734.2568      7.3523
   116.5000    102.1067      0.0000    734.3009      7.3494
   116.7500    103.5999      0.0000    737.1425      7.3395
   117.0000    104.8672      0.0000    744.2274      7.3292
   117.2500    104.4642      0.0000    749.3267      7.3360
   117.5000    102.3690      0.0000    754.8552      7.3698
   117.7500    100.8354      0.0000    756.3803      7.3941
   118.0000     99.2818      0.0000    756.6481      7.3953
   118.2500     98.7331      0.0000    757.7041      7.3594
   118.5000     98.7311      0.0000    765.4040      7.2600
   118.7500     99.5955      0.0000    776.0152      7.1815
   119.0000    102.0640      0.0000    796.5590      7.0795
   119.2500    103.6854      0.0000    808.1066      7.0363
   119.5000    104.5947      0.0000    813.7591      7.0126
   119.7500    104.0037      0.0000    808.3585      7.0139
   120.0000    102.1309      0.0000    790.6231      7.0229
   120.2500    100.8167      0.0000    776.2575      7.0330
   120.5000     99.2559      0.0000    756.3606      7.0651
   120.7500     98.4409      0.0000    746.3050      7.0982
   121.0000     97.4286      0.0000    738.4510      7.1495
   121.2500     97.1873      0.0000    738.9306      7.1732
   121.5000     98.2394      0.0000    748.7238      7.1888
   121.7500     99.7586      0.0000    760.6001      7.1975
   122.0000    101.7437      0.0000    782.8237      7.2428
   122.2500    102.0101      0.0000    797.2713      7.3074
   122.5000    100.9333      0.0000    812.6794      7.4355
   122.7500    100.2260      0.0000    816.7607      7.5099
   123.0000    100.9619      0.0000    813.9260      7.5611
   123.2500    102.7666      0.0000    808.3785      7.5531
   123.5000    105.6796      0.0000    800.6303      7.5070
   123.7500    106.3329      0.0000    799.2736      7.4724
   124.0000    104.1011      0.0000    805.3655      7.4307
   124.2500    100.8329      0.0000    812.8604      7.4102
   124.5000     95.2006      0.0000    821.1606      7.3868
   124.7500     92.1521      0.0000    820.0509      7.3775
   125.0000     89.8240      0.0000    805.5749      7.3781
   125.2500     89.7874      0.0000    789.5670      7.3855
   125.5000     91.0173      0.0000    763.8167      7.3897
   125.7500     91.7655      0.0000    749.9216      7.3794
   126.0000     91.6508      0.0000    737.9901      7.3441
   126.2500     90.9169      0.0000    736.2556      7.3128
   126.5000     90.3839      0.0000    741.8256      7.2626
   126.7500     91.2333      0.0000    749.5674      7.2322
   127.0000     94.1931      0.0000    762.3773      7.2071
   127.2500     96.4278      0.0000    768.0755      7.2151
   127.5000     98.7790      0.0000    769.3572      7.2764
   127.7500     99.4943      0.0000    767.6440      7.3493
   128.0000     99.9684      0.0000    769.9844      7.4936
   128.2500    100.4764      0.0000    778.6462      7.6037
   128.5000    102.1087      0.0000    799.8675      7.7756
   128.7500    103.5713      0.0000    813.1487      7.8855
   129.0000    105.3122      0.0000    820.9595      8.0176
   129.2500    105.8020      0.0000    816.8194      8.0681
   129.5000    105.9682      0.0000    804.2288      8.0861
   129.7500    106.1855      0.0000    797.5696      8.0803
   130.0000    106.6199      0.0000    794.5274      8.0899
   130.2500    106.4356      0.0000    795.7181      8.1165
   130.5000    105.1151      0.0000    799.6454      8.1556
   130.7500    104.2285      0.0000    804.0937      8.1529
   131.0000    104.4554      0.0000    812.7218      8.0865
   131.2500    105.6592      0.0000    815.5217      8.0187
   131.5000    107.2170      0.0000    806.5579      7.9387
   131.7500    106.9938      0.0000    791.5294      7.9198
   132.0000    104.7131      0.0000    765.1814      7.9324
   132.2500    102.7693      0.0000    752.1921      7.9524
   132.5000    100.4460      0.0000    745.4033      7.9930
   132.7500     99.2737      0.0000    748.0756      8.0331
   133.0000     97.4743      0.0000    755.9927      8.1105
   133.2500     96.2278      0.0000    759.2232      8.1610
   133.5000     94.8764      0.0000    755.4883      8.2177
   133.7500     94.3988      0.0000    747.3776      8.2465
