~Version Information
VERS.                      2.0: CWLS Log ASCII Standard - VERSION 2.0
WRAP.                       NO: One line per depth step
~Well Information Block
STRT.FT              1585.0000: 
STOP.FT              2353.0000: 
STEP.FT                 0.2500: 
NULL.                -999.2500: 
COMP.          XTO Energy Inc.: COMPANY
WELL.          Hill Ranch 15-11: WELL
FLD.           Purgatrorie River: FIELD
LOC.           1862' FSL & 1801' FWL: LOCATION
STAT.                       CO: State
CNTY.               Las Animas: COUNTY
CTRY. USA : Country
SECT. 15 : Section
TOWN. 35S : Township
RANG. 67W : Range
SRVC.          Patterson Wireline: SERVICE COMPANY
DATE.          Thu Dec 08 10:20:02 2005: LOG DATE
API.              05 071 08472: UNIQUE WELL ID
~Curve Information Block
DEPT.FT            0 000 00 00: Depth
CCL.                          : Casing Collar Locator
TT3.usec                      : CBL 3' Travel Time
AMP3.mV                       : CBL 3' Amplitude
BONDIX.                       : CBL Bond Index
GR.GAPI                       : Gamma Ray
~Parameter Information Block
~A  Depth       CCL         TT3         AMP3       BONDIX        GR     
# ...
  1865.0000      0.0000    813.2378      6.0266      0.6054    108.9620
  1865.2500      0.0000    837.4713      6.0735      0.6037    102.9482
  1865.5000      0.0000    851.3047      6.1145      0.6022    100.4188
  1865.7500     -2.0000    849.4419      6.1656      0.6004    103.1931
  1866.0000      0.0000    837.4927      6.2183      0.5985    111.2575
  1866.2500      0.0000    826.9195      6.2667      0.5968    122.1969
  1866.5000      0.0000    825.9681      6.3282      0.5947    132.4575
  1866.7500      0.0000    835.0490      6.4369      0.5909    139.9440
  1867.0000      0.0000    849.3672      6.5963      0.5856    145.1597
  1867.2500      0.0000    864.1050      6.7427      0.5807    149.4774
  1867.5000      0.0000    876.9297      6.7953      0.5790    153.0085
  1867.7500      0.0000    887.3405      6.7465      0.5806    154.8144
  1868.0000      0.0000    894.8672      6.6644      0.5833    154.4720
  1868.2500      0.0000    897.1137      6.6018      0.5854    152.6779
  1868.5000      0.0000    889.1220      6.5312      0.5877    150.5323
  1868.7500      0.0000    866.5965      6.3798      0.5929    148.2832
  1869.0000      0.0000    831.4566      6.1143      0.6022    144.4950
  1869.2500      0.0000    792.9500      5.7824      0.6145    136.9225
  1869.5000      0.0000    761.9092      5.4674      0.6268    124.9146
  1869.7500      0.0000    744.3095      5.2206      0.6369    110.6099
  1870.0000      0.0000    739.9993      5.0616      0.6437     97.2923
  1870.2500      0.0000    745.5035      5.0212      0.6455     87.0188
  1870.5000      0.0000    756.4976      5.1182      0.6413     80.2188
  1870.7500      0.0000    768.5477      5.2969      0.6338     76.7474
  1871.0000      0.0000    777.5520      5.4572      0.6272     76.3006
  1871.2500      0.0000    780.6058      5.5789      0.6224     78.0377
  1871.5000     -2.0000    777.0948      5.7898      0.6142     80.5836
  1871.7500      0.0000    770.0322      6.3115      0.5953     82.6716
  1872.0000      2.0000    764.4930      7.3452      0.5619     83.7274
  1872.2500      0.0000    759.7809      9.0128      0.5170     84.0524
  1872.5000      0.0000    743.0229     11.4352      0.4647     84.5783
  1872.7500     -2.0000    697.1683     14.9361      0.4060     86.2398
  1873.0000      0.0000    618.7631     20.0974      0.3408     89.2350
  1873.2500      0.0000    524.1161     27.3223      0.2733     92.8906
  1873.5000      0.0000    436.5717     36.0371      0.2125     96.6493
  1873.7500      0.0000    371.0499     44.4605      0.1664    101.2480
  1874.0000      0.0000    329.9694     50.7516      0.1373    108.1706
  1874.2500      0.0000    307.8084     54.7081      0.1208    117.4543
  1874.5000      0.0000    296.7140     57.9815      0.1080    126.6236
  1874.7500      0.0000    290.4235     62.3323      0.0921    132.3214
  1875.0000      0.0000    285.9131     67.9220      0.0733    132.9179
  1875.2500      0.0000    282.6114     73.4074      0.0562    129.7496
  1875.5000      0.0000    280.5926     77.2914      0.0449    126.1757
  1875.7500      0.0000    279.6272     78.9234      0.0403    125.2276
  1876.0000      0.0000    279.2538     78.5331      0.0414    127.7025
  1876.2500      0.0000    279.1154     76.8755      0.0461    132.0765
  1876.5000      0.0000    279.0782     75.0166      0.0514    135.8711
  1876.7500      0.0000    279.1414     74.0499      0.0543    137.1759
  1877.0000      0.0000    279.3539     74.4408      0.0531    135.2687
  1877.2500      0.0000    279.8296     75.5096      0.0500    130.2675
  1877.5000      0.0000    280.8504     75.7138      0.0494    122.8801
  1877.7500      0.0000    282.8207     73.6209      0.0556    114.8212
  1878.0000      0.0000    285.8620     68.9234      0.0701    108.6102
  1878.2500      0.0000    289.3352     62.8284      0.0904    105.9468
  1878.5000      0.0000    292.0748     57.3182      0.1106    106.3945
  1878.7500      0.0000    293.4911     53.6878      0.1249    108.1301
  1879.0000      0.0000    294.2512     51.8634      0.1325    109.7206
  1879.2500      0.0000    295.4018     51.2528      0.1351    111.0838
  1879.5000      0.0000    296.8955     51.8784      0.1325    113.2148
  1879.7500      0.0000    297.5073     54.2196      0.1228    117.0792
  1880.0000      0.0000    296.3010     58.0923      0.1076    122.4719
  1880.2500      2.0000    293.6791     62.2273      0.0925    127.8986
  1880.5000      0.0000    290.7211     65.2152      0.0822    131.5284
  1880.7500      0.0000    287.9431     66.6903      0.0773    132.2927
  1881.0000      0.0000    285.1635     67.4876      0.0747    130.6665
  1881.2500      0.0000    282.3731     68.7923      0.0705    128.7726
  1881.5000      0.0000    280.2074     71.2057      0.0629    129.1669
  1881.7500      0.0000    279.3333     74.5297      0.0529    132.9123
  1882.0000      0.0000    279.6619     78.1318      0.0425    138.7733
  1882.2500      0.0000    280.4625     81.2832      0.0338    144.1772
  1882.5000      0.0000    281.0904     83.3843      0.0282    146.7735
  1882.7500      0.0000    281.3769     84.2544      0.0259    145.4907
  1883.0000      0.0000    281.4508     84.2354      0.0260    140.8284
  1883.2500      0.0000    281.4565     83.8848      0.0269    134.5321
  1883.5000      0.0000    281.4575     83.5901      0.0277    128.8253
  1883.7500      0.0000    281.4660     83.4620      0.0280    125.3818
  1884.0000      0.0000    281.4819     83.4549      0.0280    124.4792
  1884.2500      0.0000    281.5133     83.4814      0.0280    124.9899
  1884.5000      0.0000    281.5792     83.4510      0.0280    125.3043
  1884.7500      0.0000    281.7008     83.2633      0.0285    124.4530
  1885.0000      0.0000    281.8716     82.8177      0.0297    122.6399
  1885.2500      0.0000    282.0287     82.0728      0.0317    120.9267
  1885.5000      0.0000    282.0800     81.1149      0.0343    120.3932
  1885.7500      0.0000    281.9845     80.1473      0.0369    121.3710
  1886.0000      0.0000    281.7952     79.3753      0.0390    123.3318
  1886.2500      0.0000    281.6079     78.8945      0.0404    125.2926
  1886.5000      0.0000    281.4814     78.6768      0.0410    126.2766
  1886.7500      0.0000    281.4164     78.6315      0.0411    125.8015
  1887.0000      0.0000    281.3882     78.6641      0.0410    124.2453
  1887.2500      0.0000    281.3763     78.7071      0.0409    122.4794
  1887.5000      0.0000    281.3709     78.7300      0.0408    120.9959
  1887.7500      0.0000    281.3684     78.7342      0.0408    119.7302
  1888.0000      0.0000    281.3679     78.7331      0.0408    118.8545
  1888.2500      0.0000    281.3695     78.7321      0.0408    119.2797
  1888.5000      0.0000    281.3725     78.7224      0.0409    121.9183
  1888.7500      0.0000    281.3750     78.6948      0.0409    126.4099
  1889.0000      0.0000    281.3743     78.6609      0.0410    130.8077
  1889.2500      0.0000    281.3690     78.6559      0.0410    132.8256
  1889.5000      0.0000    281.3596     78.7136      0.0409    131.6743
  1889.7500      0.0000    281.3482     78.8410      0.0405    128.6008
  1890.0000      0.0000    281.3364     79.0158      0.0400    125.4905
  1890.2500      0.0000    281.3246     79.2009      0.0395    123.2068
  1890.5000      0.0000    281.3136     79.3618      0.0391    121.5883
  1890.7500      0.0000    281.3052     79.4782      0.0388    120.5761
  1891.0000      0.0000    281.3017     79.5460      0.0386    120.7130
  1891.2500      0.0000    281.3046     79.5720      0.0385    122.5108
  1891.5000      0.0000    281.3121     79.5680      0.0385    125.4871
  1891.7500      0.0000    281.3192     79.5503      0.0386    127.7000
  1892.0000      0.0000    281.3208     79.5401      0.0386    126.5632
  1892.2500      0.0000    281.3151     79.5595      0.0385    120.8329
  1892.5000      0.0000    281.3039     79.6258      0.0383    111.9269
  1892.7500      0.0000    281.2900     79.7433      0.0380    102.9819
