~Version Information
VERS.                      2.0: CWLS Log ASCII Standard - VERSION 2.0
WRAP.                       NO: One line per depth step
~Well Information Block
STRT.FT                 0.0000: 
STOP.FT               988.7500: 
STEP.FT                 0.2500: 
NULL.                -999.2500: 
COMP.          Pioneer Natural Resources: COMPANY
WELL.             Quartz 13-22: WELL
FLD.           Purgatoire River: FIELD
LOC.           1933' FSL & 675' FWL --------: LOCATION
PROV.                 Colorado: PROVINCE
CNTY.               Las Animas: COUNTRY
SRVC.                         : SERVICE COMPANY
DATE.          Thu Dec 22 09:29:32 2005: LOG DATE
UWI.                          : UNIQUE WELL ID
~Curve Information Block
DEPT.FT            0 000 00 00: Depth
CCL.                          : Casing Collar Locator
TT3.usec                      : CBL 3' Travel Time
AMP3.mV                       : CBL 3' Amplitude
AMP5.mV                       : CBL 5' Amplitude
GR.GAPI                       : Gamma Ray
~Parameter Information Block
~A  Depth       CCL         TT3         AMP3        AMP5         GR     
# ...
   812.0000      0.0000    717.0776      5.1782      1.5965     63.0948
   812.2500      0.0000    719.8989      5.4862      1.6993     63.7265
   812.5000      0.0000    722.6009      5.8526      1.7440     64.4363
   812.7500      0.0000    723.9066      6.2601      1.7434     64.4908
   813.0000      0.0000    723.2560      6.6898      1.7171     64.3385
   813.2500      0.0000    721.4353      7.1199      1.6718     65.1228
   813.5000      0.0000    719.9952      7.5307      1.6024     67.6900
   813.7500      0.0000    720.3486      7.9104      1.5109     71.9243
   814.0000      0.0000    723.6236      8.2467      1.4210     76.6858
   814.2500      0.0000    730.7705      8.5120      1.3700     80.4339
   814.5000      0.0000    741.8635      8.6642      1.3869     82.2851
   814.7500      0.0000    755.0635      8.6744      1.4768     82.6543
   815.0000      0.0000    766.7510      8.5564      1.6211     82.9139
   815.2500      0.0000    773.1026      8.3614      1.7843     84.3926
   815.5000      0.0000    772.0031      8.1429      1.9245     87.4040
   815.7500      0.0000    764.6091      7.9285      2.0080     90.9877
   816.0000      0.0000    755.9239      7.7226      2.0209     93.6529
   816.2500      0.0000    752.9760      7.5281      1.9725     94.4577
   816.5000      0.0000    760.7250      7.3576      1.8873     93.3793
   816.7500      0.0000    778.8835      7.2253      1.7895     90.8808
   817.0000      0.0000    802.3650      7.1301      1.6896     87.4639
   817.2500      0.0000    823.7291      7.0512      1.5863     83.6756
   817.5000      0.0000    834.3364      6.9615      1.4817     80.3179
   817.7500      0.0000    825.4341      6.8482      1.3883     78.5142
   818.0000      0.0000    793.1035      6.7181      1.3173     79.5234
   818.2500      0.0000    743.9839      6.5825      1.2644     84.1565
   818.5000      0.0000    692.8312      6.4422      1.2212     91.8780
   818.7500      0.0000    651.9031      6.2936      1.2021    100.5675
   819.0000      0.0000    623.7416      6.1479      1.2431    107.7270
   819.2500      0.0000    604.1137      6.0335      1.3650    112.1516
   819.5000      0.0000    589.0743      5.9724      1.5421    114.1813
   819.7500      0.0000    578.1216      5.9571      1.7185    114.4374
   820.0000      0.0000    572.5756      5.9563      1.8485    112.8786
   820.2500      0.0000    572.7605      5.9427      1.9175    109.2169
   820.5000      0.0000    576.8315      5.9141      1.9308    103.7938
   820.7500      0.0000    581.7999      5.8879      1.8974     97.7825
   821.0000      0.0000    585.3891      5.8766      1.8306     92.6933
   821.2500      0.0000    586.9092      5.8735      1.7547     89.6482
   821.5000      0.0000    586.7466      5.8655      1.6986     88.8320
   821.7500      0.0000    585.3734      5.8562      1.6763     89.5236
   822.0000      0.0000    582.8342      5.8699      1.6776     90.7885
   822.2500      0.0000    578.9715      5.9296      1.6817     92.1460
   822.5000      0.0000    573.9868      6.0326      1.6832     93.4871
   822.7500      0.0000    568.6945      6.1478      1.6993     94.6117
   823.0000      0.0000    564.2410      6.2366      1.7453     95.3077
   823.2500      0.0000    561.6467      6.2777      1.8083     95.7731
   823.5000      0.0000    561.4877      6.2752      1.8557     96.3722
   823.7500      0.0000    563.8260      6.2491      1.8657     96.9892
   824.0000      0.0000    568.4915      6.2203      1.8392     97.1243
   824.2500      0.0000    575.5849      6.2009      1.7877     96.6721
   824.5000      0.0000    585.8038      6.1904      1.7226     96.1803
   824.7500      0.0000    600.1777      6.1826      1.6603     96.1946
   825.0000      0.0000    619.1079      6.1770      1.6231     96.6303
   825.2500      0.0000    641.6089      6.1825      1.6163     96.8845
   825.5000      0.0000    665.8237      6.2081      1.6148     96.3522
   825.7500      0.0000    689.9602      6.2539      1.5931     94.7868
   826.0000      0.0000    712.0176      6.3133      1.5598     92.3048
   826.2500      0.0000    729.0825      6.3776      1.5403     88.9947
   826.5000      0.0000    738.3178      6.4388      1.5321     84.5832
   826.7500      0.0000    739.2307      6.4935      1.5063     78.8233
   827.0000      0.0000    734.5479      6.5450      1.4517     72.2558
   827.2500      0.0000    728.5995      6.5989      1.3936     66.2235
   827.5000      0.0000    724.9428      6.6565      1.3618     62.0215
   827.7500      0.0000    725.2906      6.7119      1.3590     60.1369
   828.0000      0.0000    729.7732      6.7558      1.3746     60.1178
   828.2500      0.0000    737.2974      6.7802      1.4117     60.8984
   828.5000      0.0000    745.6382      6.7836      1.4816     61.3708
   828.7500      0.0000    751.9285      6.7739      1.5821     61.0019
   829.0000      0.0000    753.6561      6.7644      1.6889     59.9651
   829.2500      0.0000    749.6168      6.7662      1.7659     58.6654
   829.5000      0.0000    740.6021      6.7826      1.7816     57.3929
   829.7500      0.0000    729.5955      6.8102      1.7291     56.6304
   830.0000      0.0000    720.6204      6.8432      1.6409     57.2180
   830.2500      0.0000    716.4498      6.8771      1.5805     59.4899
   830.5000      0.0000    717.1145      6.9066      1.6011     62.3037
   830.7500      0.0000    720.3377      6.9223      1.7013     63.6040
   831.0000      0.0000    722.8337      6.9127      1.8234     62.1282
   831.2500      0.0000    721.4453      6.8748      1.8989     58.2869
   831.5000      0.0000    714.2537      6.8254      1.8921     53.5935
   831.7500      0.0000    701.2628      6.7994      1.8060     49.7573
   832.0000      0.0000    683.8098      6.8317      1.6655     48.1410
   832.2500      0.0000    663.3691      6.9308      1.5071     49.3910
   832.5000      0.0000    641.4651      7.0636      1.3789     53.2987
   832.7500      0.0000    620.8202      7.1627      1.3216     59.0166
   833.0000      0.0000    606.0430      7.1469      1.3318     65.3267
   833.2500      0.0000    602.7446      6.9397      1.3555     70.8687
   833.5000      0.0000    615.2106      6.4907      1.3359     74.6123
   833.7500      0.0000    643.5992      5.8124      1.2664     76.3027
   834.0000      0.0000    682.7972      5.0089      1.1915     76.1869
   834.2500      0.0000    725.1028      4.2564      1.1648     74.4513
   834.5000      0.0000    764.6882      3.7336      1.2077     71.4950
   834.7500      0.0000    799.0665      3.5460      1.2998     68.5894
   835.0000      0.0000    826.7002      3.6750      1.3996     67.3947
   835.2500      0.0000    844.9778      3.9742      1.4751     68.6881
   835.5000      0.0000    851.2867      4.2306      1.5152     72.1667
   835.7500     -2.0000    845.3692      4.2704      1.5214     77.3329
   836.0000      0.0000    830.6315      4.0365      1.5020     83.7215
   836.2500      0.0000    813.3831      3.6060      1.4733     90.1742
   836.5000      0.0000    799.5218      3.1605      1.4527     94.5937
   836.7500      0.0000    790.7288      2.9127      1.4417     94.9208
   837.0000      0.0000    784.3179      2.9993      1.4253     90.5072
   837.2500      0.0000    777.0478      3.4115      1.3994     82.6495
   837.5000      0.0000    768.4547      4.0380      1.3907     73.7523
   837.7500      0.0000    760.5267      4.7646      1.4303     65.7900
   838.0000      0.0000    755.2285      5.5197      1.5033     59.6029
   838.2500      0.0000    753.0509      6.2407      1.5479     55.6110
   838.5000      0.0000    753.1393      6.8455      1.5192     54.7127
   838.7500      0.0000    753.8254      7.2694      1.4397     58.1178
   839.0000      0.0000    753.0940      7.5185      1.3782     66.2990
   839.2500      0.0000    749.3295      7.6639      1.3873     78.0169
   839.5000      0.0000    742.0650      7.7844      1.4709     90.2702
   839.7500      0.0000    731.9075      7.9222      1.5928     99.6118
