~Version Information
VERS.                      2.0: CWLS Log ASCII Standard - VERSION 2.0
WRAP.                       NO: One line per depth step
~Well Information Block
STRT.FT               550.0000: 
STOP.FT              1498.5000: 
STEP.FT                 0.1000: 
NULL.                -999.2500: 
COMP.          Pioneer Natural Resources: COMPANY
WELL.          Surtees 23-34 Tr: WELL
FLD.           Purgatoire River: FIELD
LOC.           1559' FSL & 1997' FWL: LOCATION
PROV.                 Colorado: PROVINCE
CNTY.               Las Animas: COUNTRY
SRVC.                Patterson: SERVICE COMPANY
DATE.          Wed Jul 27 09:35:51 2005: LOG DATE
UWI.           05 071 08449 00: UNIQUE WELL ID
~Curve Information Block
DEPT.FT            0 000 00 00: Depth
DCAL.in                       : CDL Caliper
RHOB.g/cc                     : CDL Bulk Density
RHOC.g/cc                     : CDL Density Correction
DPOR.pu                       : CDL Density Porosity
GR.GAPI                       : Gamma Ray
NPOR.pu                       : Neutron Porosity
~Parameter Information Block
~A  Depth       DCAL        RHOB        RHOC        DPOR         GR         NPOR    
# ...
  1049.2000      8.1109      2.6344      0.0360      0.9464     89.4883     19.8379
  1049.3000      8.1234      2.6540      0.0689     -0.2440     87.6207     20.7914
  1049.4000      8.1234      2.6498      0.0861      0.0097     84.4399     20.9635
  1049.5000      8.1238      2.6272      0.0676      1.3837     83.0268     19.7504
  1049.6000      8.1238      2.6130      0.0263      2.2425     85.4088     18.8286
  1049.7000      8.1238      2.6103      0.0627      2.4074     90.2042     19.3696
  1049.8000      8.0914      2.6037      0.0580      2.8038     93.0088     20.7374
  1049.9000      8.0914      2.5969      0.0836      3.2177     91.1908     21.4910
  1050.0000      8.0467      2.6029      0.0581      2.8533     88.3164     21.6980
  1050.1000      8.0467      2.6148      0.0635      2.1321     87.7428     22.0088
  1050.2000      8.0467      2.6192      0.0707      1.8689     89.3939     21.5344
  1050.3000      8.0454      2.6229      0.0722      1.6397     93.4932     20.2587
  1050.4000      8.0454      2.6346      0.0781      0.9361     97.2583     19.8964
  1050.5000      8.0374      2.6406      0.0880      0.5715     97.7002     20.7526
  1050.6000      8.0374      2.6280      0.0868      1.3329     97.6686     21.2926
  1050.7000      8.0374      2.6105      0.0665      2.3912     99.8831     20.7471
  1050.8000      8.0466      2.6028      0.0854      2.8633    101.2717     20.0752
  1050.9000      8.0466      2.5924      0.0631      3.4922     99.9255     19.7021
  1051.0000      8.0933      2.5695     -0.0096      4.8808     95.9983     19.4324
  1051.1000      8.0933      2.5421      0.0051      6.5422     90.9120     19.0915
  1051.2000      8.0933      2.5136      0.0022      8.2684     88.6561     18.5793
  1051.3000      8.0994      2.4927     -0.0156      9.5359     89.0363     18.1391
  1051.4000      8.0994      2.4928      0.0202      9.5303     89.8456     18.3732
  1051.5000      8.1169      2.5028      0.0685      8.9216     93.5516     19.1823
  1051.6000      8.1169      2.5054      0.0421      8.7627    100.4060     20.1751
  1051.7000      8.1169      2.5087      0.0595      8.5639    106.6992     21.3599
  1051.8000      8.1371      2.5218      0.1379      7.7725    107.0917     22.1600
  1051.9000      8.1371      2.5355      0.1026      6.9399    100.1458     22.0050
  1052.0000      8.1332      2.5402      0.1344      6.6540     91.6676     20.9480
  1052.1000      8.1332      2.5331      0.1353      7.0830     86.4313     19.7347
  1052.2000      8.1332      2.5219      0.1131      7.7649     84.1667     19.5995
  1052.3000      8.0114      2.5194      0.0936      7.9170     81.1870     20.3312
  1052.4000      8.0114      2.5311      0.1286      7.2060     76.2912     20.5877
  1052.5000      7.9339      2.5530      0.1337      5.8787     72.0987     20.5029
  1052.6000      7.9339      2.5760      0.1509      4.4868     70.4912     20.5937
  1052.7000      7.9339      2.5879      0.1593      3.7618     70.1084     19.9408
  1052.8000      7.9169      2.5819      0.1061      4.1283     70.3640     18.2857
  1052.9000      7.9169      2.5636      0.0964      5.2355     71.9157     16.8529
  1053.0000      7.9570      2.5535      0.0478      5.8512     71.4366     16.6841
  1053.1000      7.9570      2.5664      0.0621      5.0682     67.6092     17.9212
  1053.2000      7.9570      2.5859      0.0986      3.8843     66.3770     19.5883
  1053.3000      8.0198      2.5916      0.1000      3.5396     69.9226     20.1492
  1053.4000      8.0198      2.5922      0.0587      3.5015     73.2403     19.0494
  1053.5000      8.0569      2.5938      0.1217      3.4067     74.9584     17.1928
  1053.6000      8.0569      2.5767      0.1163      4.4448     76.4395     16.0583
  1053.7000      8.0569      2.5343      0.0914      7.0097     76.2070     15.9813
  1053.8000      8.0245      2.4942     -0.0016      9.4434     74.8876     16.0361
  1053.9000      8.0245      2.4767      0.0271     10.5019     74.1485     15.9299
  1054.0000      8.0152      2.4672      0.0344     11.0764     71.8666     16.2289
  1054.1000      8.0152      2.4552      0.0083     11.8076     68.0670     17.0923
  1054.2000      8.0152      2.4466      0.0012     12.3243     65.2946     17.8622
  1054.3000      8.0370      2.4416      0.0506     12.6282     65.6975     18.0962
  1054.4000      8.0370      2.4433     -0.0077     12.5250     69.0982     17.9735
  1054.5000      8.0387      2.4614      0.0551     11.4331     71.3538     17.7677
  1054.6000      8.0387      2.4919      0.0601      9.5797     70.8144     17.8828
  1054.7000      8.0387      2.5178      0.1194      8.0144     69.2641     18.2439
  1054.8000      8.0395      2.5263      0.0735      7.4982     67.6416     18.6757
  1054.9000      8.0395      2.5267      0.0762      7.4739     65.1644     19.0380
  1055.0000      8.0410      2.5355      0.0622      6.9372     61.0061     18.7545
  1055.1000      8.0410      2.5548      0.1124      5.7690     57.2994     17.8606
  1055.2000      8.0410      2.5751      0.0998      4.5421     55.9773     17.1836
  1055.3000      8.0013      2.5921      0.0905      3.5077     56.7905     17.0098
  1055.4000      8.0013      2.6047      0.1154      2.7445     59.4374     16.9500
  1055.5000      7.9938      2.6036      0.1368      2.8096     63.0454     16.9468
  1055.6000      7.9938      2.5832      0.1266      4.0512     65.0459     17.3276
  1055.7000      7.9938      2.5558      0.0713      5.7086     64.6528     18.0116
  1055.8000      8.0007      2.5303      0.0845      7.2538     65.2168     18.2949
  1055.9000      8.0007      2.5062     -0.0211      8.7149     68.8307     17.9029
  1056.0000      8.0098      2.5033     -0.0368      8.8929     74.4357     17.4914
  1056.1000      8.0098      2.5391      0.0725      6.7190     82.3095     17.1148
  1056.2000      8.0098      2.6013      0.1174      2.9523     93.0212     16.4773
  1056.3000      8.0092      2.6688      0.1572     -1.1423    102.7144     16.1850
  1056.4000      8.0092      2.7265      0.2906     -4.6392    105.5137     16.9517
  1056.5000      7.9960      2.7614      0.2918     -6.7499     99.9205     18.4741
  1056.6000      7.9960      2.7634      0.3136     -6.8708     90.9301     19.4399
  1056.7000      7.9960      2.7276      0.2789     -4.7044     85.2798     19.1849
  1056.8000      7.9398      2.6736      0.1566     -1.4312     85.9580     18.5422
  1056.9000      7.9398      2.6487      0.1134      0.0765     91.0474     18.5766
  1057.0000      7.9314      2.6773      0.1273     -1.6520     95.3177     19.8783
  1057.1000      7.9314      2.7390      0.1436     -5.3922     95.5167     21.7063
  1057.2000      7.9314      2.8226      0.1201    -10.4633     94.5984     22.7559
  1057.3000      7.9336      2.9231      0.2464    -16.5535     99.4676     23.4480
  1057.4000      7.9336      2.9992      0.3004    -21.1645    111.6690     24.5819
  1057.5000      7.9755      3.0121      0.2533    -21.9440    123.4619     25.4336
  1057.6000      7.9755      2.9694      0.1669    -19.3563    129.0800     25.9407
  1057.7000      7.9755      2.8933      0.1571    -14.7449    130.8305     26.8992
  1057.8000      7.9906      2.7885      0.0258     -8.3967    129.8692     27.3359
  1057.9000      7.9906      2.6733     -0.0268     -1.4096    127.6806     26.7390
  1058.0000      8.0043      2.5853     -0.1026      3.9224    128.3273     26.4778
  1058.1000      8.0043      2.5519     -0.1440      5.9467    134.5735     26.9860
  1058.2000      8.0043      2.5642     -0.0221      5.2028    142.7726     27.4316
  1058.3000      8.0305      2.5826      0.0728      4.0828    145.1961     27.7675
  1058.4000      8.0305      2.5764      0.1077      4.4605    143.1252     28.6604
  1058.5000      8.1181      2.5553      0.0561      5.7389    145.2088     29.7393
  1058.6000      8.1181      2.5466      0.0887      6.2670    151.9535     29.5726
  1058.7000      8.1181      2.5562      0.0340      5.6828    155.7610     28.2081
