~Version Information
VERS.                      2.0: CWLS Log ASCII Standard - VERSION 2.0
WRAP.                       NO: One line per depth step
~Well Information Block
STRT.FT               440.0000: 
STOP.FT              1702.7000: 
STEP.FT                 0.1000: 
NULL.                -999.2500: 
COMP.          Pioneer Natural Resources: COMPANY
WELL.          Culver 14-12 Tr: WELL
FLD.           Purgatoire River: FIELD
LOC.           915' FSL & 1048' FWL--: LOCATION
STAT.                 Colorado: State
CNTY.               Las Animas: COUNTY
CTRY. USA : Country
SECT. 12 : Section
TOWN. 32S : Township
RANG. 66W : Range
SRVC.                Patterson: SERVICE COMPANY
DATE.          Wed Sep 28 10:00:59 2005: LOG DATE
API.           05 071 08520 00: UNIQUE WELL ID
~Curve Information Block
DEPT.FT            0 000 00 00: Depth
DCAL.in                       : CDL Caliper
RHOB.g/cc                     : CDL Bulk Density
RHOC.g/cc                     : CDL Density Correction
DPOR.pu                       : CDL Density Porosity
NPOR.pu                       : Neutron Porosity
GR.GAPI                       : Gamma Ray
~Parameter Information Block
~A  Depth       DCAL        RHOB        RHOC        DPOR        NPOR         GR     
# ...
  1179.2000      8.0452      2.5878      0.0831      3.7720     28.1021    112.7084
  1179.3000      8.0443      2.6124      0.1780      2.2771     26.8657    115.2008
  1179.4000      8.0443      2.6349      0.2015      0.9159     25.9102    116.9429
  1179.5000      8.0315      2.6380      0.1709      0.7273     24.7509    112.5041
  1179.6000      8.0315      2.6261      0.1136      1.4497     23.6276    103.6029
  1179.7000      8.0315      2.6084      0.0628      2.5222     23.0574    100.5640
  1179.8000      8.0048      2.5894      0.0632      3.6717     23.0285    106.3649
  1179.9000      8.0048      2.5715      0.0317      4.7585     23.3782    114.7322
  1180.0000      7.9832      2.5571      0.0247      5.6274     23.6984    118.2275
  1180.1000      7.9832      2.5546     -0.0417      5.7807     23.8807    113.0458
  1180.2000      7.9832      2.5651      0.0082      5.1458     24.4100    105.8615
  1180.3000      7.9839      2.5697      0.0482      4.8652     25.3055    104.9649
  1180.4000      7.9839      2.5601     -0.0131      5.4458     26.2243    105.7599
  1180.5000      8.0048      2.5466      0.0435      6.2653     27.2164    103.6757
  1180.6000      8.0048      2.5296      0.0513      7.2989     28.1439    104.5949
  1180.7000      8.0048      2.5056      0.0320      8.7511     29.1526    112.9567
  1180.8000      8.0311      2.4805      0.0236     10.2727     30.5987    122.7110
  1180.9000      8.0311      2.4599      0.0161     11.5232     31.7926    127.3336
  1181.0000      8.0521      2.4492     -0.0103     12.1716     32.1834    132.2970
  1181.1000      8.0521      2.4586     -0.0008     11.5991     32.1745    142.9653
  1181.2000      8.0521      2.4840      0.0650     10.0602     32.1846    154.2007
  1181.3000      8.0692      2.5059      0.0566      8.7338     32.5184    158.2496
  1181.4000      8.0692      2.5185      0.1308      7.9669     33.1111    150.4211
  1181.5000      8.0859      2.5276      0.1088      7.4165     33.3047    136.8287
  1181.6000      8.0859      2.5313      0.1744      7.1912     32.8415    129.8629
  1181.7000      8.0859      2.5254      0.1376      7.5486     32.3104    129.6830
  1181.8000      8.1040      2.5202      0.0813      7.8673     32.0702    128.7018
  1181.9000      8.1040      2.5183      0.1436      7.9844     31.6672    127.3054
  1182.0000      8.1109      2.5088      0.1064      8.5559     30.8811    128.5122
  1182.1000      8.1109      2.5095      0.0254      8.5132     30.2994    131.1217
  1182.2000      8.1109      2.5578      0.0577      5.5886     30.5545    134.2362
  1182.3000      8.0863      2.6500      0.1432      0.0009     31.3575    137.5541
  1182.4000      8.0863      2.7446      0.1711     -5.7306     31.7287    138.9016
  1182.5000      8.0329      2.8144      0.1963     -9.9643     31.1331    134.2404
  1182.6000      8.0329      2.8578      0.2271    -12.5953     29.9217    126.6756
  1182.7000      8.0329      2.8874      0.1927    -14.3888     28.9628    122.9351
  1182.8000      7.9884      2.9085      0.2114    -15.6657     28.8576    120.3877
  1182.9000      7.9884      2.9164      0.1524    -16.1437     29.0866    112.3755
  1183.0000      7.9750      2.9342      0.0748    -17.2249     28.8234    100.5629
  1183.1000      7.9750      2.9816      0.1024    -20.0947     28.3213     92.9469
  1183.2000      7.9750      3.0215      0.0951    -22.5133     28.2126     94.5719
  1183.3000      7.9844      3.0113      0.1003    -21.8984     28.5009    102.5814
  1183.4000      7.9844      2.9608      0.0340    -18.8341     28.7274    107.0137
  1183.5000      8.0026      2.9032      0.0450    -15.3432     28.5765    103.0050
  1183.6000      8.0026      2.8501     -0.0304    -12.1265     28.4936     99.2011
  1183.7000      8.0026      2.7975     -0.0173     -8.9416     28.5096    105.6430
  1183.8000      8.0128      2.7464     -0.0195     -5.8442     28.2852    119.6705
  1183.9000      8.0128      2.7004      0.0165     -3.0549     28.3612    130.2143
  1184.0000      8.0113      2.6625     -0.0121     -0.7590     28.8007    133.6667
  1184.1000      8.0113      2.6421     -0.0025      0.4798     28.7190    133.4514
  1184.2000      8.0113      2.6408      0.0281      0.5564     28.0156    129.3845
  1184.3000      8.0034      2.6389      0.0361      0.6716     27.2115    122.5882
  1184.4000      8.0034      2.6211      0.0034      1.7519     26.6332    118.6323
  1184.5000      7.9955      2.6012     -0.0201      2.9578     26.3419    118.0999
  1184.6000      7.9955      2.5940      0.0128      3.3942     26.4579    116.1193
  1184.7000      7.9955      2.5896      0.0366      3.6627     27.0247    111.0825
  1184.8000      7.9906      2.5799     -0.0073      4.2500     27.6199    106.8295
  1184.9000      7.9906      2.5702      0.0259      4.8381     27.9936    106.2870
  1185.0000      7.9860      2.5662     -0.0212      5.0795     28.5293    109.9208
  1185.1000      7.9860      2.5695      0.0267      4.8791     29.2136    117.5974
  1185.2000      7.9860      2.5692      0.0517      4.8963     29.5332    125.9737
  1185.3000      7.9837      2.5542      0.0548      5.8079     29.6294    131.8704
  1185.4000      7.9837      2.5336      0.0097      7.0521     29.9238    136.0879
  1185.5000      7.9881      2.5254      0.0237      7.5513     30.5646    139.1975
  1185.6000      7.9881      2.5319      0.0272      7.1551     31.3116    140.4899
  1185.7000      7.9881      2.5446      0.0186      6.3857     31.5430    141.0009
  1185.8000      7.9971      2.5545      0.0340      5.7853     31.1698    141.9309
  1185.9000      7.9971      2.5575      0.0146      5.6072     30.7495    142.4749
  1186.0000      8.0049      2.5610      0.0393      5.3933     30.5665    143.0337
  1186.1000      8.0049      2.5738      0.0496      4.6155     30.3223    144.8053
  1186.2000      8.0049      2.5914      0.0522      3.5516     30.1762    147.0589
  1186.3000      8.0056      2.5991      0.1029      3.0835     30.5361    148.3183
  1186.4000      8.0056      2.5922      0.0531      3.5056     30.9266    146.8697
  1186.5000      8.0017      2.5818      0.0630      4.1329     30.8947    141.2812
  1186.6000      8.0017      2.5777      0.0387      4.3792     30.7413    132.2806
  1186.7000      8.0017      2.5838      0.0611      4.0145     30.6416    122.7044
  1186.8000      7.9992      2.5995      0.0363      3.0615     30.2391    115.3255
  1186.9000      7.9992      2.6205      0.0293      1.7873     29.5106    111.5240
  1187.0000      7.9981      2.6410      0.0580      0.5480     29.1398    110.2281
  1187.1000      7.9981      2.6589      0.0330     -0.5394     29.2908    111.5278
  1187.2000      7.9981      2.6719      0.0663     -1.3292     29.4632    115.6219
  1187.3000      7.9967      2.6711      0.0853     -1.2808     29.5841    120.2864
  1187.4000      7.9967      2.6542      0.0560     -0.2571     29.9039    123.3031
  1187.5000      7.9965      2.6288      0.0599      1.2822     30.3723    124.9307
  1187.6000      7.9965      2.6065      0.0425      2.6376     30.6243    130.1566
  1187.7000      7.9965      2.5991     -0.0149      3.0861     30.2428    138.9200
  1187.8000      7.9960      2.6025      0.0470      2.8779     29.3622    145.3665
  1187.9000      7.9960      2.6003      0.0353      3.0125     28.8114    147.7827
  1188.0000      7.9939      2.5961      0.0137      3.2643     28.8181    145.2664
  1188.1000      7.9939      2.6046      0.0627      2.7498     28.9791    138.0730
  1188.2000      7.9939      2.6232      0.0812      1.6243     28.9413    134.7802
  1188.3000      7.9913      2.6415      0.0747      0.5154     28.7319    137.9226
  1188.4000      7.9913      2.6567      0.0754     -0.4056     28.8727    141.5501
  1188.5000      7.9891      2.6682      0.0989     -1.1051     29.2154    146.4059
  1188.6000      7.9891      2.6697      0.1242     -1.1924     29.2234    153.0979
  1188.7000      7.9891      2.6571      0.0893     -0.4284     29.1559    155.4992
