~Version Information
VERS.                      2.0: CWLS Log ASCII Standard - VERSION 2.0
WRAP.                       NO: One line per depth step
~Well Information Block
STRT.FT               370.0000: 
STOP.FT              2832.5000: 
STEP.FT                 0.1000: 
NULL.                -999.2500: 
COMP.          Pioneer Natural Resources: COMPANY
WELL.          Black Cat 13-32: WELL
FLD.           Purgatoire River: FIELD
LOC.           1865' FSL & 1120' FWL--: LOCATION
PROV.                 Colorado: PROVINCE
CNTY.               Las Animas: COUNTRY
SRVC.                Patterson: SERVICE COMPANY
DATE.          Sun Jul 31 08:38:44 2005: LOG DATE
UWI.           05 071 08450 00: UNIQUE WELL ID
~Curve Information Block
DEPT.FT            0 000 00 00: Depth
DCAL.in                       : CDL Caliper
DPOR.pu                       : CDL Density Porosity
NPOR.pu                       : Neutron Porosity
RHOB.g/cc                     : CDL Bulk Density
RHOC.g/cc                     : CDL Density Correction
GR.GAPI                       : Gamma Ray
~Parameter Information Block
~A  Depth       DCAL        DPOR        NPOR        RHOB        RHOC         GR     
# ...
  2664.4000      7.9092     17.3519     31.0096      2.3637      0.0762     90.5836
  2664.5000      7.8761     19.0954     30.2866      2.3349      0.0061     95.3138
  2664.6000      7.8761     19.9021     29.4539      2.3216     -0.0083    108.2883
  2664.7000      7.8761     18.7209     29.1571      2.3411     -0.0146    126.0319
  2664.8000      7.8655     16.2751     29.4727      2.3815      0.0403    143.0128
  2664.9000      7.8655     14.1706     30.0972      2.4162      0.0705    141.0361
  2665.0000      7.8605     13.1703     30.4040      2.4327      0.0575    116.1137
  2665.1000      7.8605     12.8643     30.0540      2.4377      0.0621     95.5629
  2665.2000      7.8605     12.8269     29.6774      2.4384      0.0419    100.8717
  2665.3000      7.8571     13.1045     29.7068      2.4338      0.0471    127.2622
  2665.4000      7.8571     13.6540     29.9115      2.4247      0.0217    151.1273
  2665.5000      7.8539     14.2285     30.2225      2.4152      0.0203    153.5687
  2665.6000      7.8539     14.9593     30.3346      2.4032      0.0086    142.8852
  2665.7000      7.8539     15.7723     29.8923      2.3898     -0.0331    131.1024
  2665.8000      7.8507     16.2607     29.2656      2.3817      0.0078    119.5510
  2665.9000      7.8507     16.7166     29.1170      2.3742      0.0310    116.8635
  2666.0000      7.8485     17.2184     29.4640      2.3659      0.0037    127.6191
  2666.1000      7.8485     17.2430     29.7709      2.3655      0.0171    140.5995
  2666.2000      7.8485     16.8446     29.8471      2.3721      0.0223    146.6066
  2666.3000      7.8478     16.3022     29.7441      2.3810      0.0464    147.3173
  2666.4000      7.8478     15.9097     29.4643      2.3875      0.0803    142.3670
  2666.5000      7.8475     16.1084     29.2452      2.3842      0.0557    130.2260
  2666.6000      7.8475     16.6603     29.5372      2.3751      0.0448    125.0653
  2666.7000      7.8475     16.7920     30.1735      2.3729      0.0270    139.3770
  2666.8000      7.8486     16.2850     30.5784      2.3813      0.0609    154.5744
  2666.9000      7.8486     15.5984     30.7049      2.3926      0.0700    150.2870
  2667.0000      7.8511     14.8213     30.7545      2.4054      0.0616    141.0258
  2667.1000      7.8511     13.6697     30.6253      2.4245      0.0649    149.4615
  2667.2000      7.8511     12.3811     30.3127      2.4457      0.0750    162.2500
  2667.3000      7.8521     11.8284     30.1225      2.4548      0.1162    154.4676
  2667.4000      7.8521     12.1950     29.7589      2.4488      0.0688    142.5470
  2667.5000      7.8524     12.1281     28.6188      2.4499      0.0443    152.2235
  2667.6000      7.8524     10.7072     27.2214      2.4733      0.0583    167.5910
  2667.7000      7.8524      8.8780     26.5843      2.5035      0.0859    162.7159
  2667.8000      7.8558      7.5783     26.8242      2.5250      0.0647    142.4042
  2667.9000      7.8558      6.9198     27.1579      2.5358      0.0972    128.2098
  2668.0000      7.8606      7.4311     26.9420      2.5274      0.1099    129.6739
  2668.1000      7.8606      9.1910     26.4747      2.4983      0.0559    134.9309
  2668.2000      7.8606     10.9694     26.3947      2.4690      0.0368    131.0610
  2668.3000      7.8599     11.7931     26.4495      2.4554      0.0005    118.0312
  2668.4000      7.8599     12.1681     26.2029      2.4492      0.0394    102.3735
  2668.5000      7.8545     12.3989     25.9088      2.4454     -0.0362     94.2921
  2668.6000      7.8545     11.6150     25.8111      2.4584      0.0002    103.1524
  2668.7000      7.8545      9.9159     26.0868      2.4864      0.0479    122.7955
  2668.8000      7.8522      8.3828     26.7250      2.5117      0.0490    141.7325
  2668.9000      7.8522      7.3595     27.1411      2.5286      0.0571    156.8093
  2669.0000      7.8535      6.7699     26.9772      2.5383      0.0801    160.8258
  2669.1000      7.8535      6.6846     26.9637      2.5397      0.0604    151.0058
  2669.2000      7.8535      7.1804     27.2046      2.5315      0.0649    135.1487
  2669.3000      7.8539      8.2893     27.0693      2.5132      0.0477    120.5943
  2669.4000      7.8539      9.4490     26.8937      2.4941      0.0238    114.5270
  2669.5000      7.8538      9.7510     27.3610      2.4891      0.0319    116.9453
  2669.6000      7.8538      8.9422     28.0833      2.5025      0.0244    122.1083
  2669.7000      7.8538      7.4959     28.1535      2.5263      0.0397    125.8009
  2669.8000      7.8542      6.1110     27.6229      2.5492      0.0588    119.8209
  2669.9000      7.8542      4.9481     27.0568      2.5684      0.0520    104.4247
  2670.0000      7.8544      3.9608     26.3929      2.5846      0.0999     97.5882
  2670.1000      7.8544      3.5895     25.2271      2.5908      0.1116    104.1193
  2670.2000      7.8544      3.6547     23.5504      2.5897      0.0295    105.8438
  2670.3000      7.8565      3.4377     22.1691      2.5933      0.0487     98.4203
  2670.4000      7.8565      3.3651     21.8851      2.5945      0.0807     96.3530
  2670.5000      7.8610      4.1705     22.4511      2.5812      0.0218     97.8798
  2670.6000      7.8610      5.1234     23.0036      2.5655     -0.0124     92.7334
  2670.7000      7.8610      5.3778     23.0047      2.5613      0.0478     84.5451
  2670.8000      7.8658      5.3717     22.6635      2.5614      0.0200     77.8414
  2670.9000      7.8658      5.4444     22.2685      2.5602      0.0258     76.6883
  2671.0000      7.8675      5.5153     21.7651      2.5590      0.0659     83.0192
  2671.1000      7.8675      5.5292     21.4888      2.5588      0.0310     89.7223
  2671.2000      7.8675      5.0501     21.9117      2.5667      0.0405     95.6095
  2671.3000      7.8666      3.9743     22.8950      2.5844      0.0547    102.7119
  2671.4000      7.8666      3.1416     23.7475      2.5982      0.0505    102.2200
  2671.5000      7.8658      3.0491     23.8227      2.5997      0.0337     90.5214
  2671.6000      7.8658      2.8233     23.2164      2.6034      0.0408     79.8478
  2671.7000      7.8658      1.9307     22.8444      2.6181      0.0742     77.5723
  2671.8000      7.8647      1.4400     23.2057      2.6262      0.0766     75.4711
  2671.9000      7.8647      1.8776     23.7469      2.6190      0.0418     70.0038
  2672.0000      7.8644      2.3932     24.0505      2.6105      0.0473     68.0839
  2672.1000      7.8644      2.7843     24.2478      2.6041      0.0893     76.5754
  2672.2000      7.8644      3.7273     24.5517      2.5885      0.0397     89.4748
  2672.3000      7.8651      5.3641     25.0769      2.5615      0.0520     90.1815
  2672.4000      7.8651      7.1376     25.7324      2.5322      0.0100     76.2401
  2672.5000      7.8650      8.0310     26.2001      2.5175      0.0070     64.2402
  2672.6000      7.8650      7.6133     26.2700      2.5244      0.0249     63.6130
  2672.7000      7.8650      6.9423     25.9841      2.5355      0.0692     70.2884
  2672.8000      7.8652      7.2098     25.7636      2.5310      0.0555     81.5049
  2672.9000      7.8652      8.1246     25.6547      2.5159      0.0306     94.5885
  2673.0000      7.8650      9.0746     25.5167      2.5003      0.0626    103.6737
  2673.1000      7.8650     10.2170     25.5631      2.4814      0.0278    111.6581
  2673.2000      7.8650     10.8924     25.7509      2.4703      0.0137    124.0893
  2673.3000      7.8650      9.9072     25.8118      2.4865     -0.0053    133.5523
  2673.4000      7.8650      8.3125     25.7545      2.5128      0.0871    134.3450
  2673.5000      7.8669      7.9709     25.8781      2.5185      0.0457    135.6835
  2673.6000      7.8669      8.5521     26.2461      2.5089      0.0396    141.6199
  2673.7000      7.8669      9.2503     26.7208      2.4974      0.0362    143.2356
  2673.8000      7.8691      9.9736     27.3206      2.4854      0.0400    139.9785
  2673.9000      7.8691     10.6180     27.9522      2.4748      0.0251    139.5700
