~Version Information
VERS.                      2.0: CWLS Log ASCII Standard - VERSION 2.0
WRAP.                       NO: One line per depth step
~Well Information Block
STRT.FT               650.0000: 
STOP.FT              2127.7000: 
STEP.FT                 0.1000: 
NULL.                -999.2500: 
COMP.          Pioneer Natural Resources: COMPANY
WELL.          Kennington 41-26: WELL
FLD.           Purgatoire River: FIELD
LOC.           940' FNL & 1008' FEL--: LOCATION
CNTY.               Las Animas: COUNTY
SRVC.                Patterson: SERVICE COMPANY
DATE.          Wed Mar 29 11:30:50 2006: LOG DATE
UWI.           05 071 08679 00: UNIQUE WELL ID
STAT.                 Colorado: STATE
~Curve Information Block
DEPT.FT            0 000 00 00: Depth
DCAL.in                       : CDL Caliper
RHOB.g/cc                     : CDL Bulk Density
RHOC.g/cc                     : CDL Density Correction
DPOR.pu                       : CDL Density Porosity
NPOR.pu                       : Neutron Porosity
GR.GAPI                       : Gamma Ray
~Parameter Information Block
~A  Depth       DCAL        RHOB        RHOC        DPOR        NPOR         GR     
# ...
  1130.0000      8.0601      2.3018      0.0532     21.1040     15.0633    120.9496
  1130.1000      8.0601      2.2814      0.0310     22.3405     14.6383    116.3095
  1130.2000      8.0601      2.2695      0.0196     23.0601     14.1633    105.3446
  1130.3000      8.0592      2.2901      0.0073     21.8098     13.7749     96.0212
  1130.4000      8.0592      2.3547      0.0498     17.8969     13.5699     92.1578
  1130.5000      8.0490      2.4449      0.1187     12.4293     13.5787     93.9874
  1130.6000      8.0490      2.5343      0.1288      7.0130     13.7807     98.4396
  1130.7000      8.0490      2.6127      0.1880      2.2627     14.1074     99.1742
  1130.8000      8.0392      2.6788      0.1863     -1.7425     14.5099     93.3606
  1130.9000      8.0392      2.7311      0.2127     -4.9128     15.1484     82.2449
  1131.0000      8.0329      2.7678      0.1798     -7.1404     16.3627     70.2313
  1131.1000      8.0329      2.7923      0.1895     -8.6221     18.0704     63.7620
  1131.2000      8.0329      2.8102      0.1304     -9.7117     19.6936     61.4426
  1131.3000      8.0280      2.8157      0.1211    -10.0402     20.9377     58.7375
  1131.4000      8.0280      2.7892      0.0480     -8.4386     21.9265     55.9090
  1131.5000      8.0243      2.7229      0.0375     -4.4163     22.7262     53.3534
  1131.6000      8.0243      2.6305     -0.0318      1.1817     23.1382     51.1088
  1131.7000      8.0243      2.5488     -0.1044      6.1342     22.9769     49.2935
  1131.8000      8.0219      2.5078     -0.0741      8.6211     22.3321     46.6430
  1131.9000      8.0219      2.4936     -0.0914      9.4802     21.5041     44.2034
  1132.0000      8.0225      2.4718     -0.0222     10.8022     20.6144     44.3488
  1132.1000      8.0225      2.4185     -0.0413     14.0290     19.5549     45.6815
  1132.2000      8.0225      2.3353     -0.0511     19.0754     18.1296     46.6191
  1132.3000      8.0303      2.2476     -0.0526     24.3853     16.3604     48.3299
  1132.4000      8.0303      2.1898     -0.1090     27.8886     14.7404     50.3591
  1132.5000      8.0407      2.1757     -0.0132     28.7437     13.6571     51.5206
  1132.6000      8.0407      2.1964     -0.0143     27.4900     12.8150     51.9897
  1132.7000      8.0407      2.2388      0.0748     24.9208     12.0988     51.9787
  1132.8000      8.0414      2.2803      0.0696     22.4086     11.7799     54.1553
  1132.9000      8.0414      2.3035      0.1123     21.0013     11.9369     60.9678
  1133.0000      8.0317      2.3205      0.0675     19.9689     12.6828     69.8427
  1133.1000      8.0317      2.3587      0.0861     17.6570     13.9178     79.1368
  1133.2000      8.0317      2.4168      0.1524     14.1307     15.0935     89.3279
  1133.3000      8.0232      2.4643      0.0773     11.2566     15.9915     96.1295
  1133.4000      8.0232      2.4745      0.1475     10.6376     16.8717     95.8630
  1133.5000      8.0226      2.4490      0.0065     12.1840     17.9855     93.2462
  1133.6000      8.0226      2.4138      0.0462     14.3140     19.2964     93.6435
  1133.7000      8.0226      2.3729      0.0592     16.7916     20.2831     96.4483
  1133.8000      8.0295      2.3144     -0.0205     20.3422     20.6783     99.8283
  1133.9000      8.0295      2.2493     -0.0500     24.2868     20.6373    104.7133
  1134.0000      8.0398      2.2021     -0.0682     27.1480     19.9997    110.2539
  1134.1000      8.0398      2.1867     -0.0358     28.0808     18.8527    110.5574
  1134.2000      8.0398      2.1967      0.0039     27.4715     17.6159    102.9034
  1134.3000      8.0432      2.2205      0.0211     26.0314     16.2096     94.7540
  1134.4000      8.0432      2.2497      0.1025     24.2587     14.7167     91.5536
  1134.5000      8.0367      2.2613      0.1757     23.5596     13.6421     91.0328
  1134.6000      8.0367      2.2291      0.1287     25.5062     13.0289     90.1040
  1134.7000      8.0367      2.1570      0.1022     29.8761     12.7218     85.6457
  1134.8000      8.0280      2.0723     -0.0125     35.0105     12.6767     79.3870
  1134.9000      8.0280      1.9998     -0.0208     39.4080     12.4782     77.3678
  1135.0000      8.0239      1.9457     -0.0518     42.6829     11.7251     79.1812
  1135.1000      8.0239      1.9068     -0.0474     45.0428     10.6007     79.5811
  1135.2000      8.0239      1.8790     -0.0276     46.7287      9.3923     77.3239
  1135.3000      8.0278      1.8592     -0.0371     47.9255      8.2759     74.2081
  1135.4000      8.0278      1.8511     -0.0295     48.4165      7.4062     70.6647
  1135.5000      8.0417      1.8636      0.0650     47.6630      6.8131     65.5423
  1135.6000      8.0417      1.9063      0.0625     45.0705      6.3703     59.3508
  1135.7000      8.0417      1.9735      0.1863     41.0000      6.0578     55.5340
  1135.8000      8.0609      2.0325      0.2091     37.4252      6.0226     55.8069
  1135.9000      8.0609      2.0673      0.1794     35.3160      6.2788     57.6629
  1136.0000      8.0699      2.1020      0.1615     33.2111      6.7032     58.5596
  1136.1000      8.0699      2.1521      0.1573     30.1766      7.1451     57.3587
  1136.2000      8.0699      2.1940      0.1500     27.6349      7.3803     54.4472
  1136.3000      8.0606      2.2080      0.0579     26.7878      7.3656     51.2754
  1136.4000      8.0606      2.2025      0.0447     27.1198      7.3126     48.4875
  1136.5000      8.0499      2.1789      0.0828     28.5489      7.2468     46.8419
  1136.6000      8.0499      2.1275      0.0613     31.6683      7.0913     47.2689
  1136.7000      8.0499      2.0560      0.0265     35.9976      6.8646     49.2387
  1136.8000      8.0454      1.9885      0.0219     40.0914      6.5621     50.8184
  1136.9000      8.0454      1.9351      0.0201     43.3290      6.1450     50.8472
  1137.0000      8.0417      1.8771      0.0490     46.8428      5.6376     50.3565
  1137.1000      8.0417      1.8010     -0.0624     51.4518      5.1517     50.4428
  1137.2000      8.0417      1.7286     -0.0985     55.8420      4.7852     48.4518
  1137.3000      8.0418      1.6843     -0.0528     58.5286      4.5034     43.1411
  1137.4000      8.0418      1.6653      0.0626     59.6811      4.1941     40.0934
  1137.5000      8.0570      1.6569      0.0587     60.1876      3.8940     41.8569
  1137.6000      8.0570      1.6546      0.0551     60.3303      3.6667     43.4319
  1137.7000      8.0570      1.6586      0.0412     60.0861      3.4668     41.1436
  1137.8000      8.0784      1.6626      0.0558     59.8419      3.2798     36.8099
  1137.9000      8.0784      1.6601      0.0585     59.9938      3.1216     34.2203
  1138.0000      8.0901      1.6547      0.0229     60.3219      2.9781     34.5645
  1138.1000      8.0901      1.6512      0.0499     60.5308      2.9229     36.6695
  1138.2000      8.0901      1.6483      0.0460     60.7086      3.0746     37.7257
  1138.3000      8.0937      1.6472      0.0461     60.7753      3.3718     36.3788
  1138.4000      8.0937      1.6496      0.0550     60.6291      3.5377     35.9934
  1138.5000      8.0983      1.6477      0.0618     60.7474      3.4706     39.3443
  1138.6000      8.0983      1.6361      0.0240     61.4491      3.3737     44.5985
  1138.7000      8.0983      1.6244      0.0255     62.1561      3.4066     48.7970
  1138.8000      8.1076      1.6211      0.0309     62.3597      3.6025     49.4887
  1138.9000      8.1076      1.6276      0.0366     61.9608      3.9680     45.5281
  1139.0000      8.1170      1.6515      0.0537     60.5165      4.4679     40.6806
  1139.1000      8.1170      1.7046      0.0471     57.2993      4.9547     39.6546
  1139.2000      8.1170      1.7966      0.0792     51.7191      5.3832     42.3342
  1139.3000      8.1221      1.9222      0.1379     44.1084      5.9542     48.0252
  1139.4000      8.1221      2.0545      0.2106     36.0884      6.7502     56.0226
  1139.5000      8.1222      2.1735      0.2232     28.8812      7.7100     64.2722
