~Version Information
VERS.                      2.0: CWLS Log ASCII Standard - VERSION 2.0
WRAP.                       NO: One line per depth step
~Well Information Block
STRT.FT                -8.5000: 
STOP.FT              1945.2500: 
STEP.FT                 0.2500: 
NULL.                -999.2500: 
COMP.          Pioneer Natural Resources: COMPANY
WELL.          Flying Horse 12-11 Tr: WELL
FLD.           Purgatorie River: FIELD
LOC.           2459' FNL & 410' FWL: LOCATION
STAT.                       CO: PROVINCE
CNTY.               Las Animas: COUNTY
CTRY.        USA : Country
SECT. 11 : Section
TOWN. 32S : Township
RANG. 66W : Range
SRVC.          Patterson Wireline: SERVICE COMPANY
DATE.          Thu Sep 08 15:44:22 2005: LOG DATE
API.           05 071 08485 00: UNIQUE WELL ID
~Curve Information Block
DEPT.FT            0 000 00 00: Depth
CCL.                          : Casing Collar Locator
TT3.usec                      : CBL 3' Travel Time
AMP3.mV                       : CBL 3' Amplitude
GR.GAPI                       : Gamma Ray
~Parameter Information Block
~A  Depth       CCL         TT3         AMP3         GR     
# ...
   762.0000      0.0000    302.0389     37.6684    121.8811
   762.2500      0.0000    302.0620     37.2297    120.3729
   762.5000      0.0000    302.1203     36.8699    118.7863
   762.7500      0.0000    302.3082     36.4749    116.4251
   763.0000      0.0000    302.9993     35.9272    113.0316
   763.2500      0.0000    305.3232     35.0773    109.1232
   763.5000      0.0000    311.6479     33.7266    105.5732
   763.7500      0.0000    324.7883     31.7496    102.6191
   764.0000      0.0000    344.8218     29.3368     99.3632
   764.2500      0.0000    365.8183     27.0449     94.5775
   764.5000      0.0000    378.0646     25.4257     88.2911
   764.7500      0.0000    376.2352     24.5940     82.3690
   765.0000      0.0000    364.5764     24.2651     79.0704
   765.2500      0.0000    352.4555     24.1224     78.9695
   765.5000     -2.0000    346.7279     24.0010     80.5350
   765.7500      2.0000    350.1921     23.8201     81.7029
   766.0000      0.0000    365.7404     23.5413     81.6323
   766.2500      0.0000    397.5913     23.2214     80.9651
   766.5000      0.0000    444.0406     23.0861     80.7203
   766.7500      0.0000    488.7085     23.5291     81.2320
   767.0000      0.0000    506.0823     24.9174     82.2828
   767.2500      0.0000    482.8178     27.2399     83.9028
   767.5000      0.0000    431.2167     29.9769     86.3966
   767.7500      0.0000    377.1829     32.4485     89.5571
   768.0000      0.0000    338.4962     34.2565     92.4654
   768.2500      0.0000    317.4438     35.3507     94.4289
   768.5000      0.0000    308.1288     35.8397     95.9056
   768.7500      0.0000    304.5951     35.8808     98.1586
   769.0000      0.0000    303.4160     35.6671    101.9545
   769.2500      0.0000    303.0620     35.3920    106.7693
   769.5000      0.0000    302.9608     35.1895    111.2198
   769.7500      0.0000    302.8952     35.1038    113.9958
   770.0000      0.0000    302.8206     35.1073    114.5571
   770.2500      0.0000    302.7475     35.1417    113.4560
   770.5000      0.0000    302.7000     35.1600    112.1075
   770.7500      0.0000    302.6971     35.1324    111.9571
   771.0000      0.0000    302.7431     35.0325    113.8219
   771.2500      0.0000    302.8294     34.8351    117.8854
   771.5000      0.0000    302.9385     34.5466    123.8398
   771.7500      0.0000    303.0450     34.2377    130.8416
   772.0000      0.0000    303.1205     34.0262    137.7559
   772.2500      0.0000    303.1482     34.0095    143.7846
   772.5000      0.0000    303.1342     34.2040    148.6352
   772.7500      0.0000    303.1036     34.5439    151.7942
   773.0000      0.0000    303.0804     34.9342    152.1310
   773.2500      0.0000    303.0721     35.3067    149.0453
   773.5000      0.0000    303.0680     35.6383    143.7890
   773.7500      0.0000    303.0492     35.9317    138.8666
   774.0000      0.0000    303.0009     36.1842    136.2230
   774.2500      0.0000    302.9215     36.3723    136.2829
   774.5000      0.0000    302.8233     36.4658    138.0187
   774.7500      0.0000    302.7260     36.4534    139.4169
   775.0000      0.0000    302.6530     36.3443    138.8981
   775.2500      0.0000    302.6285     36.1431    137.1940
   775.5000      0.0000    302.6696     35.8360    137.0354
   775.7500      0.0000    302.7765     35.4184    140.0820
   776.0000      0.0000    302.9269     34.9348    144.6882
   776.2500      0.0000    303.0851     34.4761    147.3696
   776.5000      0.0000    303.2177     34.1265    145.9252
   776.7500      0.0000    303.3051     33.9153    140.5905
   777.0000      0.0000    303.3435     33.8169    132.9813
   777.2500      0.0000    303.3401     33.7856    124.8661
   777.5000      0.0000    303.3071     33.7887    117.6203
   777.7500      0.0000    303.2570     33.8187    112.0996
   778.0000      0.0000    303.1988     33.8889    108.6762
   778.2500      0.0000    303.1371     34.0189    107.2123
   778.5000      0.0000    303.0747     34.2126    106.8503
   778.7500      0.0000    303.0164     34.4440    105.9204
   779.0000      0.0000    302.9689     34.6650    102.5607
   779.2500      0.0000    302.9366     34.8372     96.0720
   779.5000      0.0000    302.9148     34.9625     87.9019
   779.7500      0.0000    302.8882     35.0871     81.0520
   780.0000      0.0000    302.8405     35.2723     78.0430
   780.2500      0.0000    302.7685     35.5550     79.0391
   780.5000      0.0000    302.6837     35.9292     81.7022
   780.7500      0.0000    302.6021     36.3559     82.8705
   781.0000      0.0000    302.5334     36.7885     80.7245
   781.2500      0.0000    302.4793     37.1929     75.7819
   781.5000      0.0000    302.4387     37.5478     70.0827
   781.7500      0.0000    302.4109     37.8391     65.5852
   782.0000      0.0000    302.3959     38.0669     63.2306
   782.2500      0.0000    302.3885     38.2674     62.8933
   782.5000      0.0000    302.3746     38.5178     63.6111
   782.7500      0.0000    302.3373     38.8979     64.0924
   783.0000      0.0000    302.2746     39.4278     63.6009
   783.2500      0.0000    302.2076     40.0408     62.4647
   783.5000      0.0000    302.1653     40.6193     61.5906
   783.7500      0.0000    302.1584     41.0609     61.5827
   784.0000      0.0000    302.1730     41.3178     62.3982
   784.2500      0.0000    302.1894     41.3879     63.6260
   784.5000      0.0000    302.1997     41.2944     64.7855
   784.7500      0.0000    302.2052     41.0859     65.4744
   785.0000      0.0000    302.2053     40.8417     65.7200
   785.2500      0.0000    302.1953     40.6515     66.2428
   785.5000      0.0000    302.1714     40.5768     67.8174
   785.7500      0.0000    302.1332     40.6261     70.1180
   786.0000      0.0000    302.0854     40.7618     71.6882
   786.2500      0.0000    302.0384     40.9302     71.4440
   786.5000      0.0000    302.0062     41.0879     69.8267
   786.7500      0.0000    301.9991     41.2064     68.1374
   787.0000      0.0000    302.0198     41.2593     67.1968
   787.2500      0.0000    302.0643     41.2192     67.1236
   787.5000      0.0000    302.1247     41.0764     67.8915
   787.7500      0.0000    302.1919     40.8575     69.3038
   788.0000      0.0000    302.2582     40.6180     70.5220
   788.2500      0.0000    302.3177     40.4105     70.4450
   788.5000      0.0000    302.3657     40.2599     68.8751
   788.7500      0.0000    302.4002     40.1580     66.8549
   789.0000      0.0000    302.4243     40.0777     65.5826
   789.2500      0.0000    302.4431     39.9995     65.4509
   789.5000      0.0000    302.4542     39.9379     66.3855
   789.7500      0.0000    302.4464     39.9384     68.6116
   790.0000      0.0000    302.4106     40.0408     72.5776
   790.2500      0.0000    302.3557     40.2304     78.2484
   790.5000      0.0000    302.3123     40.4287     84.7368
   790.7500      0.0000    302.3153     40.5394     90.6468
   791.0000      0.0000    302.3790     40.5118     94.8157
   791.2500      0.0000    302.4892     40.3606     96.8872
   791.5000      0.0000    302.6164     40.1365     97.2566
   791.7500      0.0000    302.7350     39.8856     96.7351
   792.0000      0.0000    302.8314     39.6356     96.4948
   792.2500      0.0000    302.8977     39.4175     97.8595
   792.5000      0.0000    302.9196     39.2872    101.3066
   792.7500      0.0000    302.8792     39.3043    105.7193
   793.0000      0.0000    302.7770     39.4636    109.4480
   793.2500      0.0000    302.6555     39.6427    112.3427
   793.5000      0.0000    302.5903     39.6385    115.9400
   793.7500      0.0000    302.6469     39.2895    121.1697
   794.0000      0.0000    302.8363     38.5852    126.5671
   794.2500      0.0000    303.1113     37.6624    129.3906
   794.5000      0.0000    303.4025     36.6982    127.8999
   794.7500      0.0000    303.6585     35.8081    122.0267
   795.0000      0.0000    303.8520     35.0426    112.8027
   795.2500      0.0000    303.9546     34.4659    102.2237
