~Version Information
VERS.                      2.0: CWLS Log ASCII Standard - VERSION 2.0
WRAP.                       NO: One line per depth step
~Well Information Block
STRT.FT               330.0000: 
STOP.FT              2874.7000: 
STEP.FT                 0.1000: 
NULL.                -999.2500: 
COMP.          Pioneer Natural Resources: COMPANY
WELL.                AMX 13-13: WELL
FLD.           Purgatoire River: FIELD
LOC.           2316' FSL & 865' FWL--: LOCATION
PROV.                 Colorado: PROVINCE
CNTY.               Las Animas: COUNTRY
SRVC.                Patterson: SERVICE COMPANY
DATE.          Tue Dec 20 09:57:28 2005: LOG DATE
UWI.           05 071 08630 00: UNIQUE WELL ID
~Curve Information Block
DEPT.FT            0 000 00 00: Depth
DCAL.in                       : CDL Caliper
RHOB.g/cc                     : CDL Bulk Density
RHOC.g/cc                     : CDL Density Correction
DPOR.pu                       : CDL Density Porosity
NPOR.pu                       : Neutron Porosity
GR.GAPI                       : Gamma Ray
~Parameter Information Block
~A  Depth       DCAL        RHOB        RHOC        DPOR        NPOR         GR     
# ...
  2682.0000      7.9966      2.2190     -0.0411     26.1223     23.8227     61.7623
  2682.1000      7.9966      2.1983     -0.0449     27.3752     23.7045     67.7453
  2682.2000      7.9966      2.2027     -0.0690     27.1082     23.1944     71.1797
  2682.3000      8.0148      2.2336      0.0249     25.2352     21.9874     71.7823
  2682.4000      8.0148      2.2788      0.0764     22.4954     20.4721     72.5961
  2682.5000      8.0174      2.3400      0.0616     18.7878     19.1877     72.6550
  2682.6000      8.0174      2.4227      0.1578     13.7767     18.0191     72.1721
  2682.7000      8.0174      2.4983      0.2321      9.1909     16.9269     75.8924
  2682.8000      8.0051      2.5367      0.2021      6.8652     16.3113     84.3948
  2682.9000      8.0051      2.5512      0.1336      5.9902     16.3211     91.6019
  2683.0000      7.9866      2.5643      0.1487      5.1965     16.6091     90.6340
  2683.1000      7.9866      2.5735      0.1203      4.6350     16.6517     81.6180
  2683.2000      7.9866      2.5816      0.0288      4.1466     16.4305     71.8302
  2683.3000      7.9800      2.6044      0.0567      2.7630     16.4760     67.7185
  2683.4000      7.9800      2.6353      0.0789      0.8884     16.7703     69.8438
  2683.5000      7.9816      2.6500      0.0813     -0.0025     16.7511     75.4497
  2683.6000      7.9816      2.6413      0.0737      0.5265     16.4862     80.6985
  2683.7000      7.9816      2.6260      0.0566      1.4548     16.6826     81.9213
  2683.8000      7.9828      2.6200      0.0518      1.8179     17.4797     79.6113
  2683.9000      7.9828      2.6243      0.0547      1.5593     18.3574     77.3119
  2684.0000      7.9853      2.6308      0.0559      1.1618     19.2203     76.5799
  2684.1000      7.9853      2.6262      0.0662      1.4430     20.0851     78.4513
  2684.2000      7.9853      2.6068      0.0435      2.6156     20.4824     83.4261
  2684.3000      7.9886      2.5859      0.0728      3.8842     20.5214     90.5065
  2684.4000      7.9886      2.5736      0.0244      4.6292     20.5863     99.9555
  2684.5000      7.9907      2.5645      0.0923      5.1815     20.2261    109.8614
  2684.6000      7.9907      2.5448      0.0683      6.3757     19.6171    114.2136
  2684.7000      7.9907      2.5249     -0.0061      7.5848     19.9501    109.1552
  2684.8000      7.9931      2.5243      0.0354      7.6163     21.5070    100.4795
  2684.9000      7.9931      2.5250      0.0967      7.5732     23.1582     95.0279
  2685.0000      7.9972      2.4956      0.0560      9.3581     23.8450     92.6653
  2685.1000      7.9972      2.4337      0.0504     13.1074     23.7975     93.2935
  2685.2000      7.9972      2.3553      0.0060     17.8616     23.8510     98.0011
  2685.3000      8.0036      2.2690     -0.0511     23.0923     24.4746    106.4519
  2685.4000      8.0036      2.1707     -0.0552     29.0472     25.5245    113.9326
  2685.5000      8.0105      2.0534     -0.0752     36.1567     26.6013    116.3956
  2685.6000      8.0105      1.9251     -0.1145     43.9321     27.6106    114.6718
  2685.7000      8.0105      1.8105     -0.1413     50.8771     28.7392    109.8218
  2685.8000      8.0127      1.7166     -0.1240     56.5670     29.7260    105.0330
  2685.9000      8.0127      1.6228     -0.1308     62.2552     30.0021    101.0202
  2686.0000      8.0110      1.5275     -0.1431     68.0295     29.7957     96.2080
  2686.1000      8.0110      1.4622     -0.0619     71.9895     29.7394     91.2321
  2686.2000      8.0110      1.4453     -0.0025     73.0139     29.9283     87.0565
  2686.3000      8.0145      1.4721      0.0011     71.3875     30.1057     81.9341
  2686.4000      8.0145      1.5414      0.0456     67.1893     29.9500     78.3635
  2686.5000      8.0319      1.6567      0.0756     60.1998     29.3965     83.1378
  2686.6000      8.0319      1.8051      0.1666     51.2080     28.7133     92.8512
  2686.7000      8.0319      1.9532      0.2302     42.2302     28.0563     99.8683
  2686.8000      8.0863      2.0780      0.2643     34.6677     27.3320    104.7443
  2686.9000      8.0863      2.1781      0.3084     28.6028     26.3935    112.1133
  2687.0000      8.1915      2.2534      0.3249     24.0382     25.3183    124.5962
  2687.1000      8.1915      2.3063      0.2862     20.8288     24.4422    138.9448
  2687.2000      8.1915      2.3592      0.1688     17.6237     23.5890    148.6015
  2687.3000      8.2526      2.4317      0.1313     13.2297     22.4587    152.2276
  2687.4000      8.2526      2.5071      0.1505      8.6605     21.4989    153.5557
  2687.5000      8.1580      2.5544      0.1167      5.7957     21.1201    155.9881
  2687.6000      8.1580      2.5663      0.1061      5.0700     20.9224    157.2890
  2687.7000      8.1580      2.5650      0.0130      5.1496     20.7867    154.7797
  2687.8000      7.9914      2.5808      0.0513      4.1959     21.0755    151.3486
  2687.9000      7.9914      2.6088      0.1157      2.4949     21.5923    145.9624
  2688.0000      7.8964      2.6183      0.0848      1.9185     21.7046    138.2502
  2688.1000      7.8964      2.6045      0.0556      2.7596     21.0271    136.9342
  2688.2000      7.8964      2.5863      0.0408      3.8584     19.8496    144.8753
  2688.3000      7.8704      2.5742      0.0943      4.5937     19.0920    151.6755
  2688.4000      7.8704      2.5654      0.0767      5.1297     19.2254    144.3584
  2688.5000      7.8636      2.5598      0.0367      5.4642     19.6605    127.4633
  2688.6000      7.8636      2.5628      0.0604      5.2856     19.6810    117.2289
  2688.7000      7.8636      2.5767      0.0649      4.4433     19.2994    116.0178
  2688.8000      7.8625      2.5936      0.0708      3.4200     18.9115    116.5449
  2688.9000      7.8625      2.5969      0.0760      3.2165     18.6256    115.4826
  2689.0000      7.8629      2.5819      0.0958      4.1247     18.3835    111.5437
  2689.1000      7.8629      2.5667      0.0338      5.0508     18.3107    106.2593
  2689.2000      7.8629      2.5697      0.0981      4.8664     18.5614    104.6012
  2689.3000      7.8626      2.5947      0.0338      3.3541     19.0311    108.3252
  2689.4000      7.8626      2.6361      0.0805      0.8421     19.4989    113.8648
  2689.5000      7.8613      2.6693      0.1476     -1.1714     19.8119    115.3569
  2689.6000      7.8613      2.6713      0.1135     -1.2920     19.9213    114.0635
  2689.7000      7.8613      2.6531      0.0971     -0.1876     19.9444    117.1625
  2689.8000      7.8587      2.6372      0.1077      0.7762     19.9634    124.5070
  2689.9000      7.8587      2.6237      0.1321      1.5933     19.8539    128.4004
  2690.0000      7.8572      2.6005      0.0617      2.9984     19.6837    126.0497
  2690.1000      7.8572      2.5744      0.0557      4.5802     19.7098    124.9838
  2690.2000      7.8572      2.5616      0.0404      5.3570     19.8005    131.3198
  2690.3000      7.8600      2.5634      0.0501      5.2487     19.5999    140.7231
  2690.4000      7.8600      2.5684      0.1088      4.9464     19.2538    142.6750
  2690.5000      7.8765      2.5711      0.0356      4.7795     19.2843    134.6453
  2690.6000      7.8765      2.5779      0.0785      4.3674     19.6040    127.3548
  2690.7000      7.8765      2.5867      0.1165      3.8354     19.9172    130.1209
  2690.8000      7.9099      2.5900      0.0934      3.6353     20.3905    139.3999
  2690.9000      7.9099      2.5878      0.0890      3.7712     21.0085    145.9491
  2691.0000      7.9497      2.5827      0.0679      4.0764     21.4437    145.6119
  2691.1000      7.9497      2.5765      0.0611      4.4538     21.5363    141.5892
  2691.2000      7.9497      2.5641      0.0579      5.2078     21.5905    139.7891
  2691.3000      7.9866      2.5414      0.0488      6.5813     22.2424    143.3360
  2691.4000      7.9866      2.5202      0.0251      7.8681     23.5116    148.5364
  2691.5000      8.0088      2.5145      0.0278      8.2113     24.6706    149.5789
