~Version Information
VERS.                      2.0: CWLS Log ASCII Standard - VERSION 2.0
WRAP.                       NO: One line per depth step
~Well Information Block
STRT.FT               645.0000: 
STOP.FT              1320.0000: 
STEP.FT                 0.1000: 
NULL.                -999.2500: 
COMP.          Pioneer Natural Resources: COMPANY
WELL.          Rockfish 11-30 Tr: WELL
FLD.           Purgatoire River: FIELD
LOC.           1063' FNL & 1068' FWL: LOCATION
STAT.                 Colorado: State
CNTY.               Las Animas: COUNTY
CTRY. USA : Country
SECT. 30 : Section
TOWN. 32S : Township
RANG. 65W : Range
SRVC.                Patterson: SERVICE COMPANY
DATE.          Wed Nov 16 07:46:07 2005: LOG DATE
API.           05 071 08585 00: UNIQUE WELL ID
~Curve Information Block
DEPT.FT            0 000 00 00: Depth
DCAL.in                       : CDL Caliper
RHOB.g/cc                     : CDL Bulk Density
RHOC.g/cc                     : CDL Density Correction
DPOR.pu                       : CDL Density Porosity
GR.GAPI                       : Gamma Ray
NPOR.pu                       : Neutron Porosity
~Parameter Information Block
~A  Depth       DCAL        RHOB        RHOC        DPOR         GR         NPOR    
   645.0000      4.8315      2.2395      0.1506     24.8798     61.5897     18.5805
   645.1000      4.8315      2.2364      0.1390     25.0649     58.4735     19.8170
   645.2000      4.8315      2.2262      0.0821     25.6854     52.1658     19.3652
   645.3000      4.8226      2.2318      0.0902     25.3476     55.4974     17.7702
   645.4000      4.8226      2.2492      0.1465     24.2915     55.7973     16.3068
   645.5000      4.8264      2.2647      0.1169     23.3502     51.6370     15.2882
   645.6000      4.8264      2.2819      0.1239     22.3112     48.6537     14.5321
   645.7000      4.8264      2.2991      0.1679     21.2655     49.3591     13.9978
   645.8000      4.8264      2.3057      0.1386     20.8650     48.6427     13.5080
   645.9000      4.8264      2.3022      0.0902     21.0761     43.4144     12.9522
   646.0000      4.8193      2.2925      0.1199     21.6652     38.5534     12.7058
   646.1000      4.8193      2.2780      0.0920     22.5464     36.8858     13.0837
   646.2000      4.8193      2.2690      0.1306     23.0907     31.6360     13.7723
   646.3000      4.8276      2.2723      0.0801     22.8885     32.4705     14.1998
   646.4000      4.8276      2.2764      0.1380     22.6423     34.7266     14.0819
   646.5000      4.8218      2.2602      0.1216     23.6259     37.7392     13.6232
   646.6000      4.8218      2.2198      0.0700     26.0718     40.8135     12.7934
   646.7000      4.8218      2.1769      0.0401     28.6738     42.9569     11.6573
   646.8000      4.8232      2.1576      0.0008     29.8398     43.0622     11.0602
   646.9000      4.8232      2.1661      0.0564     29.3274     40.2222     11.4002
   647.0000      4.8165      2.1785      0.1131     28.5785     37.5127     11.9203
   647.1000      4.8165      2.1746      0.0950     28.8099     39.1120     12.0178
   647.2000      4.8165      2.1606      0.0699     29.6600     44.5469     11.8530
   647.3000      4.8169      2.1542      0.0831     30.0497     48.3175     11.9547
   647.4000      4.8169      2.1639      0.0578     29.4618     45.3122     12.4056
   647.5000      4.8274      2.1811      0.0828     28.4209     38.6282     12.9151
   647.6000      4.8274      2.1867      0.1326     28.0776     34.5463     13.4726
   647.7000      4.8274      2.1707      0.1462     29.0502     34.7611     13.9151
   647.8000      4.8327      2.1440      0.0871     30.6658     37.5810     14.1383
   647.9000      4.8327      2.1242      0.0703     31.8676     39.9843     14.3145
   648.0000      4.8329      2.1178      0.0725     32.2562     39.8868     14.3978
   648.1000      4.8329      2.1255      0.0458     31.7850     37.5728     14.2906
   648.2000      4.8329      2.1460      0.0753     30.5445     34.5698     14.0255
   648.3000      4.8252      2.1643      0.1392     29.4373     33.2555     13.6688
   648.4000      4.8252      2.1598      0.1165     29.7077     33.7481     13.4260
   648.5000      4.8313      2.1315      0.1159     31.4231     34.6890     13.3655
   648.6000      4.8313      2.0984      0.0720     33.4277     36.9178     13.2751
   648.7000      4.8313      2.0829      0.0609     34.3702     38.8402     13.1288
   648.8000      4.8216      2.0894      0.0750     33.9786     37.1213     13.4802
   648.9000      4.8216      2.0993      0.1351     33.3737     34.0084     14.3805
   649.0000      4.8089      2.1016      0.0832     33.2339     33.0919     14.7892
   649.1000      4.8089      2.1102      0.0832     32.7178     34.2774     14.3965
   649.2000      4.8089      2.1340      0.1089     31.2751     35.6393     13.9893
   649.3000      4.8174      2.1566      0.1694     29.9042     35.3969     13.8595
   649.4000      4.8174      2.1609      0.1695     29.6447     34.5213     13.9286
   649.5000      4.8205      2.1553      0.1166     29.9792     36.5793     14.3844
   649.6000      4.8205      2.1499      0.1455     30.3106     40.3006     15.1179
   649.7000      4.8205      2.1384      0.1371     31.0065     40.4507     15.4546
   649.8000      4.8244      2.1234      0.1038     31.9150     37.6624     14.9255
   649.9000      4.8244      2.1104      0.1238     32.7009     35.7065     13.5805
   650.0000      4.8296      2.0907      0.1051     33.8950     34.2335     12.0133
   650.1000      4.8296      2.0653      0.0372     35.4386     33.5075     10.9063
   650.2000      4.8296      2.0527      0.0274     36.1990     33.9213     10.6405
   650.3000      4.8208      2.0566      0.0575     35.9641     33.9300     11.0897
   650.4000      4.8208      2.0569      0.0897     35.9447     35.0490     11.8607
   650.5000      4.8260      2.0435      0.0779     36.7549     37.0047     12.6994
   650.6000      4.8260      2.0313      0.0565     37.4976     37.2977     13.4271
   650.7000      4.8260      2.0425      0.0169     36.8164     36.2111     13.7844
   650.8000      4.8286      2.0864      0.1025     34.1605     34.1192     13.8847
   650.9000      4.8286      2.1469      0.1486     30.4887     31.1529     14.1835
   651.0000      4.8173      2.2029      0.1811     27.0948     29.2433     14.7840
   651.1000      4.8173      2.2467      0.2036     24.4447     29.2804     15.1755
   651.2000      4.8173      2.2797      0.2016     22.4423     31.0968     15.1604
   651.3000      4.8182      2.3033      0.2056     21.0108     34.1688     15.4309
   651.4000      4.8182      2.3170      0.1970     20.1804     37.2143     16.0107
   651.5000      4.8264      2.3205      0.1419     19.9709     38.8078     16.3643
   651.6000      4.8264      2.3073      0.1983     20.7687     37.2212     16.6178
   651.7000      4.8264      2.2736      0.1561     22.8119     33.5868     16.9885
   651.8000      4.8258      2.2340      0.1168     25.2142     33.0274     17.2335
   651.9000      4.8258      2.2008      0.1536     27.2244     36.6949     17.2035
   652.0000      4.8207      2.1710      0.1338     29.0283     41.0768     17.0449
   652.1000      4.8207      2.1399      0.1410     30.9145     43.6419     16.6356
   652.2000      4.8207      2.1093      0.1470     32.7711     44.4683     16.1875
   652.3000      4.8223      2.0918      0.1242     33.8307     44.6117     16.1546
   652.4000      4.8223      2.1000      0.1717     33.3335     43.4633     16.1852
   652.5000      4.8247      2.1307      0.1698     31.4748     40.9229     15.5055
   652.6000      4.8247      2.1759      0.2211     28.7304     38.6718     14.3800
   652.7000      4.8247      2.2306      0.2381     25.4152     37.4302     13.9162
   652.8000      4.8217      2.2873      0.2568     21.9789     38.4485     14.3317
   652.9000      4.8217      2.3341      0.2675     19.1452     42.4756     14.9039
   653.0000      4.8347      2.3566      0.3041     17.7843     46.9588     15.0947
   653.1000      4.8347      2.3425      0.3241     18.6356     49.9036     14.8061
   653.2000      4.8347      2.2869      0.2720     22.0038     52.1991     14.3294
   653.3000      4.8394      2.1974      0.1827     27.4323     53.1798     14.1115
   653.4000      4.8394      2.0926      0.0537     33.7825     51.2064     13.9288
   653.5000      4.8347      1.9826      0.0218     40.4474     46.8845     13.4256
   653.6000      4.8347      1.8519     -0.0570     48.3714     43.9397     12.7193
   653.7000      4.8347      1.6717     -0.0400     59.2897     45.9621     12.0905
   653.8000      4.8258      1.4347     -0.1283     73.6539     48.2089     11.9502
   653.9000      4.8258      1.1704     -0.1036     89.6739     44.5001     12.3382
   654.0000      4.8313      0.9253     -0.1790    104.5289     39.1469     12.8161
   654.1000      4.8313      0.7483     -0.2123    115.2553     39.1445     13.3822
   654.2000      4.8313      0.6731     -0.1667    119.8100     42.5410     13.8458
   654.3000      4.8143      0.6908     -0.0177    118.7364     42.5750     13.8994
   654.4000      4.8143      0.7370      0.1675    115.9395     39.2340     13.9341
   654.5000      4.7785      0.7258      0.2410    116.6202     37.7475     14.0393
