~Version Information
VERS.                      2.0: CWLS Log ASCII Standard - VERSION 2.0
WRAP.                       NO: One line per depth step
~Well Information Block
STRT.FT               625.0000: 
STOP.FT              2053.7000: 
STEP.FT                 0.1000: 
NULL.                -999.2500: 
COMP.          Pioneer Natural Resources: COMPANY
WELL.            Zink 44-10 Tr: WELL
FLD.           Purgatoire River: FIELD
LOC.           486' FSL & 554' FEL--: LOCATION
PROV.                 Colorado: PROVINCE
CNTY.               Las Animas: COUNTRY
SRVC.                Patterson: SERVICE COMPANY
DATE.          Sun Jul 24 08:46:57 2005: LOG DATE
UWI.           05 071 08446 00: UNIQUE WELL ID
~Curve Information Block
DEPT.FT            0 000 00 00: Depth
DCAL.in                       : CDL Caliper
RHOB.g/cc                     : CDL Bulk Density
RHOC.g/cc                     : CDL Density Correction
DPOR.pu                       : CDL Density Porosity
NPOR.pu                       : Neutron Porosity
GR.GAPI                       : Gamma Ray
~Parameter Information Block
~A  Depth       DCAL        RHOB        RHOC        DPOR        NPOR         GR     
# ...
   903.4000      8.0907      2.4316     -0.0170     13.2350     22.8429    121.3777
   903.5000      8.0891      2.4173      0.0443     14.1058     21.9478    121.5730
   903.6000      8.0891      2.4236     -0.0026     13.7199     21.0968    121.9711
   903.7000      8.0891      2.4353      0.0752     13.0127     20.2779    122.1803
   903.8000      8.0864      2.4406      0.0387     12.6903     19.4698    120.9562
   903.9000      8.0864      2.4492      0.0060     12.1689     18.8636    118.6437
   904.0000      8.0860      2.4717      0.0771     10.8055     18.6737    115.3174
   904.1000      8.0860      2.4996      0.1310      9.1162     18.5100    111.3378
   904.2000      8.0860      2.5165      0.1644      8.0884     18.0932    110.3945
   904.3000      8.0857      2.5210      0.1391      7.8200     18.0211    113.8764
   904.4000      8.0857      2.5296      0.1650      7.2998     18.6637    117.5025
   904.5000      8.0800      2.5433      0.2316      6.4665     19.4082    117.6099
   904.6000      8.0800      2.5443      0.2073      6.4089     19.6470    114.7864
   904.7000      8.0800      2.5286      0.1261      7.3552     19.5824    112.1855
   904.8000      8.0720      2.5080      0.0854      8.6061     19.7211    111.7572
   904.9000      8.0720      2.4986      0.0378      9.1786     20.0198    114.3327
   905.0000      8.0674      2.5158      0.0429      8.1314     20.2779    118.0482
   905.1000      8.0674      2.5545      0.1023      5.7871     20.8065    118.5477
   905.2000      8.0674      2.5805      0.1442      4.2103     21.5009    116.3927
   905.3000      8.0627      2.5712      0.1297      4.7750     21.8391    115.1158
   905.4000      8.0627      2.5467      0.0750      6.2615     21.9381    114.6361
   905.5000      8.0497      2.5442      0.0650      6.4103     22.1812    114.2113
   905.6000      8.0497      2.5753      0.0597      4.5281     22.6477    113.4589
   905.7000      8.0497      2.6134      0.1662      2.2162     23.2270    110.8435
   905.8000      8.0280      2.6294      0.1260      1.2485     23.6393    107.0787
   905.9000      8.0280      2.6276      0.0871      1.3555     23.6186    104.4842
   906.0000      8.0119      2.6184      0.1147      1.9175     23.4244    101.4600
   906.1000      8.0119      2.5976      0.0867      3.1769     23.5281     96.5066
   906.2000      8.0119      2.5758      0.0465      4.4981     24.1847     92.7504
   906.3000      8.0064      2.5720      0.0278      4.7247     25.0555     93.1140
   906.4000      8.0064      2.5828      0.0499      4.0704     25.4115     97.2107
   906.5000      8.0080      2.5949      0.0465      3.3421     25.2930    102.8926
   906.6000      8.0080      2.6091      0.0131      2.4815     25.5752    108.5191
   906.7000      8.0080      2.6274      0.0470      1.3724     26.4643    110.4355
   906.8000      8.0108      2.6385      0.0553      0.6959     27.0128    107.4853
   906.9000      8.0108      2.6362      0.0675      0.8352     26.6976    105.4687
   907.0000      8.0108      2.6285      0.0025      1.3027     26.2436    107.4587
   907.1000      8.0108      2.6222      0.0544      1.6839     26.3486    108.5040
   907.2000      8.0108      2.6151      0.0340      2.1138     26.5973    107.2808
   907.3000      8.0087      2.6053      0.0367      2.7101     26.5114    107.4771
   907.4000      8.0087      2.5970      0.0057      3.2117     26.3783    111.1159
   907.5000      8.0072      2.5919      0.0485      3.5231     26.4157    116.9797
   907.6000      8.0072      2.5816      0.0422      4.1443     26.4474    122.6316
   907.7000      8.0072      2.5701      0.0213      4.8419     26.5144    127.0803
   907.8000      8.0071      2.5738      0.0573      4.6183     26.6447    127.5096
   907.9000      8.0071      2.5893      0.0200      3.6780     26.7418    122.4165
   908.0000      8.0087      2.5965      0.0772      3.2419     26.9542    116.2945
   908.1000      8.0087      2.5920      0.0467      3.5171     27.3976    113.5370
   908.2000      8.0087      2.5966      0.0500      3.2370     27.8755    114.2541
   908.3000      8.0102      2.6146      0.0485      2.1451     27.9493    114.5502
   908.4000      8.0102      2.6216      0.0941      1.7225     27.5281    112.0822
   908.5000      8.0104      2.6062      0.0500      2.6574     27.0273    109.8141
   908.6000      8.0104      2.5843      0.0412      3.9841     26.5891    110.2015
   908.7000      8.0104      2.5674      0.0677      5.0083     26.3163    112.6736
   908.8000      8.0117      2.5544      0.0350      5.7918     26.4570    116.5661
   908.9000      8.0117      2.5502      0.0300      6.0498     26.6390    118.0767
   909.0000      8.0113      2.5573      0.0281      5.6162     26.5479    113.6290
   909.1000      8.0113      2.5636      0.0493      5.2347     26.4265    106.6482
   909.2000      8.0113      2.5601      0.0247      5.4503     26.2326    103.5294
   909.3000      8.0091      2.5568      0.0205      5.6473     25.8279    106.8222
   909.4000      8.0091      2.5632      0.0422      5.2593     25.2572    111.5524
   909.5000      8.0094      2.5774      0.0346      4.3972     24.4513    112.0176
   909.6000      8.0094      2.5919      0.1002      3.5222     23.5360    111.5078
   909.7000      8.0094      2.5976      0.0723      3.1779     22.8497    113.2214
   909.8000      8.0110      2.5958      0.0931      3.2847     22.3760    113.9681
   909.9000      8.0110      2.5900      0.0933      3.6349     21.7807    112.1661
   910.0000      8.0100      2.5801      0.0699      4.2366     21.1153    110.3325
   910.1000      8.0100      2.5699      0.0739      4.8575     20.5121    109.6191
   910.2000      8.0100      2.5664      0.0730      5.0653     19.9357    108.0807
   910.3000      8.0034      2.5710      0.0988      4.7870     19.8742    104.4423
   910.4000      8.0034      2.5718      0.0917      4.7372     20.6292    100.4182
   910.5000      7.9941      2.5598      0.0758      5.4653     21.4698     99.2952
   910.6000      7.9941      2.5442      0.0516      6.4148     21.8287     99.1751
   910.7000      7.9941      2.5322      0.0540      7.1368     21.9761     97.5176
   910.8000      7.9880      2.5159      0.0408      8.1301     22.0115     94.6734
   910.9000      7.9880      2.4977     -0.0139      9.2281     21.8038     92.5783
   911.0000      7.9833      2.4939     -0.0030      9.4577     21.6472     93.5297
   911.1000      7.9833      2.5049      0.0331      8.7914     21.8967     95.7736
   911.2000      7.9833      2.5217      0.0505      7.7729     22.3050     96.0987
   911.3000      7.9751      2.5366      0.0549      6.8737     22.3830     94.0303
   911.4000      7.9751      2.5368      0.1012      6.8627     21.9941     90.4438
   911.5000      7.9659      2.5187      0.0694      7.9565     21.4931     85.9557
   911.6000      7.9659      2.4999      0.0418      9.0980     21.3967     83.0122
   911.7000      7.9659      2.4983      0.0457      9.1947     21.7090     83.6370
   911.8000      7.9602      2.5157      0.0933      8.1380     21.9157     85.9365
   911.9000      7.9602      2.5457      0.0693      6.3206     21.5818     89.8036
   912.0000      7.9547      2.5774      0.1380      4.4021     20.9684     94.2764
   912.1000      7.9547      2.5925      0.1206      3.4872     20.5714     94.0938
   912.2000      7.9547      2.5880      0.1250      3.7606     20.4822     89.0681
   912.3000      7.9468      2.5811      0.0713      4.1737     20.7120     84.3097
   912.4000      7.9468      2.5814      0.1016      4.1560     21.2587     82.4653
   912.5000      7.9405      2.5774      0.1022      4.3999     21.9595     82.9864
   912.6000      7.9405      2.5626      0.0756      5.2948     22.4871     85.1426
   912.7000      7.9405      2.5435      0.0787      6.4554     22.6257     87.8532
   912.8000      7.9425      2.5264      0.0309      7.4900     22.4819     87.8335
   912.9000      7.9425      2.5184      0.0567      7.9782     22.3239     84.1421
