~Version Information
VERS.                      2.0: CWLS Log ASCII Standard - VERSION 2.0
WRAP.                       NO: One line per depth step
~Well Information Block
STRT.FT               970.0000: 
STOP.FT              1882.0000: 
STEP.FT                 0.2500: 
NULL.                -999.2500: 
COMP.          Petrogulf Corporation: COMPANY
WELL.             Norton 9-14R: WELL
FLD.           Purgatorie River: FIELD
LOC.           725' FSL & 1103' FWL: LOCATION
PROV.                 Colorado: PROVINCE
CNTY.               Las Animas: COUNTRY
SRVC.                Patterson: SERVICE COMPANY
DATE.          Thu Oct 06 16:10:47 2005: LOG DATE
UWI.                          : UNIQUE WELL ID
~Curve Information Block
DEPT.FT            0 000 00 00: Depth
SP.mV                         : DIL Spontaneous Potential
RILD.Ohm-m                    : DIL Deep Resistivity
RILM.Ohm-m                    : DIL Medium Resistivity
RLL3.Ohm-m                    : DIL Shallow Resistivity
GR.GAPI                       : Gamma Ray
~Parameter Information Block
~A  Depth        SP         RILD        RILM        RLL3         GR     
# ...
  1446.0000    182.4924     10.8226     11.5754     13.5844    119.3573
  1446.2500    181.3416     10.5150     11.0819     12.9982    121.2334
  1446.5000    180.2959     10.2344     10.6101     12.5494    121.1828
  1446.7500    179.4195      9.9988     10.1808     12.0628    120.3549
  1447.0000    178.7622      9.8197      9.8108     11.4608    120.4145
  1447.2500    178.3392      9.7027      9.5133     10.8045    122.1615
  1447.5000    178.1279      9.6485      9.2978     10.2409    126.9367
  1447.7500    178.0835      9.6544      9.1709      9.9127    130.5769
  1448.0000    178.1623      9.7158      9.1367      9.8998    135.2944
  1448.2500    178.3361      9.8273      9.1977     10.2158    137.6958
  1448.5000    178.5921      9.9841      9.3548     10.8545    139.9102
  1448.7500    178.9247     10.1835      9.6080     11.8655    139.8816
  1449.0000    179.3277     10.4276      9.9560     13.3909    136.6714
  1449.2500    179.7904     10.7235     10.3964     15.5502    132.6707
  1449.5000    180.2964     11.0815     10.9253     18.1688    125.3202
  1449.7500    180.8250     11.5112     11.5375     20.6222    120.2055
  1450.0000    181.3465     12.0178     12.2268     22.1417    112.8969
  1450.2500    181.8139     12.5997     12.9859     22.4661    108.9215
  1450.5000    182.1647     13.2490     13.8061     22.1932    106.2047
  1450.7500    182.3492     13.9520     14.6758     22.3806    107.4371
  1451.0000    182.3666     14.6896     15.5787     23.7279    113.2373
  1451.2500    182.2711     15.4371     16.4931     26.0366    118.0063
  1451.5000    182.1356     16.1655     17.3925     28.3101    123.0151
  1451.7500    182.0046     16.8478     18.2507     29.3883    123.8997
  1452.0000    181.8746     17.4663     19.0476     28.7235    122.2861
  1452.2500    181.7068     18.0178     19.7748     26.7655    120.3705
  1452.5000    181.4540     18.5100     20.4356     24.6271    117.5910
  1452.7500    181.0813     18.9514     21.0411     23.3116    115.9727
  1453.0000    180.5762     19.3420     21.6019     23.1761    113.4058
  1453.2500    179.9477     19.6722     22.1214     23.9774    110.9645
  1453.5000    179.2216     19.9309     22.5938     25.2428    104.9235
  1453.7500    178.4344     20.1173     23.0053     26.5651     99.0019
  1454.0000    177.6280     20.2477     23.3410     27.6915     88.3483
  1454.2500    176.8392     20.3518     23.5908     28.5030     81.3986
  1454.5000    176.0865     20.4613     23.7538     28.9730     73.4011
  1454.7500    175.3642     20.5972     23.8391     29.1252     70.3180
  1455.0000    174.6497     20.7638     23.8626     28.9931     68.6567
  1455.2500    173.9180     20.9532     23.8431     28.5971     68.5406
  1455.5000    173.1514     21.1536     23.7995     27.9559     67.7325
  1455.7500    172.3454     21.3567     23.7481     27.1259     65.9474
  1456.0000    171.5121     21.5573     23.7029     26.2273     61.5931
  1456.2500    170.6794     21.7506     23.6749     25.4191     58.4939
  1456.5000    169.8813     21.9321     23.6721     24.8347     55.3446
  1456.7500    169.1443     22.1006     23.6999     24.5333     54.7426
  1457.0000    168.4752     22.2614     23.7610     24.5037     55.5500
  1457.2500    167.8598     22.4232     23.8562     24.6981     56.4922
  1457.5000    167.2713     22.5938     23.9857     25.0550     57.7612
  1457.7500    166.6813     22.7782     24.1494     25.5068     58.6349
  1458.0000    166.0711     22.9817     24.3477     25.9902     60.5115
  1458.2500    165.4402     23.2133     24.5818     26.4642     62.2719
  1458.5000    164.8036     23.4851     24.8531     26.9136     65.5758
  1458.7500    164.1766     23.8085     25.1634     27.3308     67.9961
  1459.0000    163.5581     24.1900     25.5149     27.6982     71.1361
  1459.2500    162.9283     24.6284     25.9101     27.9954     72.2888
  1459.5000    162.2661     25.1145     26.3511     28.2305     71.8614
  1459.7500    161.5730     25.6313     26.8386     28.4595     70.0872
  1460.0000    160.8833     26.1566     27.3693     28.7679     65.8029
  1460.2500    160.2508     26.6663     27.9329     29.2295     62.4615
  1460.5000    159.7275     27.1383     28.5104     29.8799     57.5975
  1460.7500    159.3508     27.5565     29.0734     30.7193     54.7253
  1461.0000    159.1414     27.9130     29.5875     31.7164     51.2620
  1461.2500    159.1014     28.2087     30.0180     32.7868     49.7235
  1461.5000    159.2113     28.4498     30.3377     33.7554     48.9178
  1461.7500    159.4322     28.6443     30.5337     34.3593     49.5378
  1462.0000    159.7185     28.8006     30.6101     34.3454     52.3443
  1462.2500    160.0271     28.9294     30.5858     33.6312     55.2728
  1462.5000    160.3185     29.0440     30.4883     32.4000     60.1376
  1462.7500    160.5530     29.1541     30.3454     31.0301     62.8318
  1463.0000    160.6956     29.2560     30.1802     29.9032     65.0902
  1463.2500    160.7267     29.3293     30.0075     29.2351     65.2635
  1463.5000    160.6466     29.3483     29.8355     29.0219     63.6190
  1463.7500    160.4695     29.3010     29.6687     29.0952     61.4679
  1464.0000    160.2168     29.1983     29.5123     29.2369     57.4641
  1464.2500    159.9159     29.0661     29.3742     29.2961     54.9056
  1464.5000    159.6005     28.9311     29.2664     29.2539     52.3333
  1464.7500    159.3090     28.8131     29.2026     29.2014     52.0551
  1465.0000    159.0785     28.7268     29.1960     29.2466     54.1917
  1465.2500    158.9365     28.6851     29.2559     29.4305     56.7745
  1465.5000    158.8911     28.6975     29.3854     29.7296     60.3753
  1465.7500    158.9324     28.7678     29.5804     30.1301     61.5747
  1466.0000    159.0475     28.8932     29.8302     30.6772     61.3182
  1466.2500    159.2365     29.0664     30.1190     31.4319     60.4750
  1466.5000    159.5110     29.2754     30.4289     32.3674     59.8394
  1466.7500    159.8709     29.4990     30.7440     33.3029     60.3695
  1467.0000    160.2784     29.7061     31.0534     33.9513     62.0112
  1467.2500    160.6570     29.8667     31.3552     34.0818     62.7288
  1467.5000    160.9206     29.9712     31.6569     33.6966     62.2438
  1467.7500    161.0143     30.0394     31.9739     33.0787     61.2313
  1468.0000    160.9383     30.1077     32.3251     32.6455     59.9773
  1468.2500    160.7417     30.2058     32.7273     32.7081     59.5272
  1468.5000    160.4932     30.3424     33.1892     33.3252     58.3871
  1468.7500    160.2508     30.5061     33.7073     34.3416     56.5742
  1469.0000    160.0466     30.6775     34.2646     35.5250     52.3482
  1469.2500    159.8875     30.8433     34.8324     36.6635     49.5127
  1469.5000    159.7669     31.0072     35.3752     37.5877     47.1731
  1469.7500    159.6808     31.1903     35.8594     38.1740     47.2925
  1470.0000    159.6407     31.4175     36.2617     38.3644     49.2982
  1470.2500    159.6738     31.6986     36.5767     38.1858     51.2350
  1470.5000    159.8099     32.0210     36.8198     37.7568     54.3562
  1470.7500    160.0621     32.3591     37.0237     37.2871     56.3760
  1471.0000    160.4153     32.6926     37.2287     37.0553     59.0725
  1471.2500    160.8281     33.0177     37.4708     37.3290     60.4891
  1471.5000    161.2457     33.3436     37.7723     38.2182     61.6260
  1471.7500    161.6144     33.6764     38.1365     39.5482     61.4751
  1472.0000    161.8919     34.0036     38.5504     40.8938     59.6723
  1472.2500    162.0548     34.2937     38.9928     41.8196     57.4278
  1472.5000    162.1047     34.5120     39.4442     42.1721     52.8407
  1472.7500    162.0691     34.6402     39.8933     42.1720     49.5899
  1473.0000    161.9946     34.6836     40.3376     42.2124     46.0304
  1473.2500    161.9346     34.6627     40.7766     42.5440     45.1428
  1473.5000    161.9356     34.6017     41.2039     43.1199     45.6394
  1473.7500    162.0262     34.5227     41.6035     43.6813     46.3895
