~Version Information
VERS.                      2.0: CWLS Log ASCII Standard - VERSION 2.0
WRAP.                       NO: One line per depth step
~Well Information Block
STRT.FT               580.0000: 
STOP.FT              1029.0000: 
STEP.FT                 0.1000: 
NULL.                -999.2500: 
COMP.          Pioneer Natural Resources: COMPANY
WELL.             Quartz 13-22: WELL
FLD.           Purgatoire River: FIELD
LOC.           1933' FSL & 675' FWL: LOCATION
PROV.                 Colorado: PROVINCE
CNTY.               Las Animas: COUNTRY
SRVC.                Patterson: SERVICE COMPANY
DATE.          Fri Dec 16 10:30:09 2005: LOG DATE
UWI.           05 071 08638 00: UNIQUE WELL ID
~Curve Information Block
DEPT.FT            0 000 00 00: Depth
DCAL.in                       : CDL Caliper
RHOB.g/cc                     : CDL Bulk Density
RHOC.g/cc                     : CDL Density Correction
DPOR.pu                       : CDL Density Porosity
GR.GAPI                       : Gamma Ray
NPOR.pu                       : Neutron Porosity
~Parameter Information Block
~A  Depth       DCAL        RHOB        RHOC        DPOR         GR         NPOR    
# ...
  1012.0000      7.8109      2.6210      0.1351      1.7585   -999.2500     21.3341
  1012.1000      7.8109      2.6000      0.0678      3.0282   -999.2500     21.7233
  1012.2000      7.8109      2.5645      0.0430      5.1814   -999.2500     22.5900
  1012.3000      7.8264      2.5363     -0.0178      6.8899   -999.2500     23.1972
  1012.4000      7.8264      2.5297      0.0098      7.2938   -999.2500     22.9973
  1012.5000      7.8488      2.5408      0.0194      6.6197   -999.2500     22.3575
  1012.6000      7.8488      2.5541      0.0347      5.8135   -999.2500     21.8076
  1012.7000      7.8488      2.5595      0.0770      5.4840   -999.2500     21.6131
  1012.8000      7.8586      2.5595      0.0598      5.4873   -999.2500     21.6827
  1012.9000      7.8586      2.5581      0.0842      5.5712   -999.2500     21.3295
  1013.0000      7.8432      2.5578      0.0225      5.5854   -999.2500     20.7075
  1013.1000      7.8432      2.5650      0.0387      5.1504   -999.2500     20.7707
  1013.2000      7.8432      2.5724      0.0963      4.7015   -999.2500     21.8167
  1013.3000      7.8632      2.5660      0.0791      5.0885   -999.2500     23.5457
  1013.4000      7.8632      2.5595      0.0232      5.4835   -999.2500     24.9511
  1013.5000      7.8291      2.5758      0.0407      4.4983   -999.2500     24.8907
  1013.6000      7.8291      2.5990      0.1136      3.0920   -999.2500     24.0120
  1013.7000      7.8291      2.5975      0.0639      3.1808   -999.2500     23.5018
  1013.8000      7.8097      2.5771      0.0547      4.4172   -999.2500     23.2077
  1013.9000      7.8097      2.5639      0.0374      5.2169   -999.2500     23.1132
  1014.0000      7.7998      2.5617      0.0558      5.3491   -999.2500     23.6786
  1014.1000      7.7998      2.5570      0.0387      5.6348   -999.2500     25.8636
  1014.2000      7.7998      2.5509      0.0034      6.0049   -999.2500     31.6932
  1014.3000      7.8787      2.5551      0.0352      5.7530   -999.2500     40.4030
  1014.4000      7.8787      2.5665      0.0424      5.0585   -999.2500     46.7782
  1014.5000      7.9002      2.5706      0.0723      4.8145   -999.2500     49.1453
  1014.6000      7.9002      2.5602      0.0457      5.4401   -999.2500     49.6173
  1014.7000      7.9002      2.5435      0.0300      6.4538   -999.2500     49.6677
  1014.8000      7.8793      2.5273      0.0508      7.4348   -999.2500     49.6706
  1014.9000      7.8793      2.5128      0.0446      8.3141   -999.2500   -999.2500
  1015.0000      7.8696      2.5095      0.0017      8.5141   -999.2500   -999.2500
  1015.1000      7.8696      2.5264      0.0351      7.4900   -999.2500   -999.2500
  1015.2000      7.8696      2.5526      0.0687      5.9057   -999.2500   -999.2500
  1015.3000      7.8361      2.5690      0.1262      4.9071   -999.2500   -999.2500
  1015.4000      7.8361      2.5679      0.0810      4.9750   -999.2500   -999.2500
  1015.5000      7.7945      2.5569      0.0899      5.6401   -999.2500   -999.2500
  1015.6000      7.7945      2.5498      0.0794      6.0733   -999.2500   -999.2500
  1015.7000      7.7945      2.5540      0.0328      5.8195   -999.2500   -999.2500
  1015.8000      7.7819      2.5634      0.0807      5.2458   -999.2500   -999.2500
  1015.9000      7.7819      2.5670      0.0611      5.0333   -999.2500   -999.2500
  1016.0000      7.7606      2.5660      0.0532      5.0915   -999.2500   -999.2500
  1016.1000      7.7606      2.5654      0.0891      5.1288   -999.2500   -999.2500
  1016.2000      7.7606      2.5614      0.0727      5.3688   -999.2500   -999.2500
  1016.3000      7.7658      2.5529      0.0826      5.8836   -999.2500   -999.2500
  1016.4000      7.7658      2.5464      0.0328      6.2769   -999.2500   -999.2500
  1016.5000      7.8554      2.5534      0.0031      5.8541   -999.2500   -999.2500
  1016.6000      7.8554      2.5771      0.0332      4.4156   -999.2500   -999.2500
  1016.7000      7.8554      2.6007      0.0807      2.9888   -999.2500   -999.2500
  1016.8000      7.8172      2.6103      0.0808      2.4087   -999.2500   -999.2500
  1016.9000      7.8172      2.6114      0.0929      2.3377   -999.2500   -999.2500
  1017.0000      7.8395      2.6085      0.1081      2.5147   -999.2500   -999.2500
  1017.1000      7.8395      2.6004      0.0761      3.0041   -999.2500   -999.2500
  1017.2000      7.8395      2.5914      0.0745      3.5539   -999.2500   -999.2500
  1017.3000      7.8778      2.5821      0.0758      4.1180   -999.2500   -999.2500
  1017.4000      7.8778      2.5713      0.0478      4.7698   -999.2500   -999.2500
  1017.5000      7.8646      2.5726      0.0241      4.6902   -999.2500   -999.2500
  1017.6000      7.8646      2.5937      0.0835      3.4095   -999.2500   -999.2500
  1017.7000      7.8646      2.6176      0.0808      1.9613   -999.2500   -999.2500
  1017.8000      7.8368      2.6373      0.0788      0.7680   -999.2500   -999.2500
  1017.9000      7.8368      2.6618      0.0665     -0.7169   -999.2500   -999.2500
  1018.0000      7.9047      2.6760      0.1315     -1.5754   -999.2500   -999.2500
  1018.1000      7.9047      2.6541      0.1044     -0.2505   -999.2500   -999.2500
  1018.2000      7.9047      2.6057      0.0878      2.6831   -999.2500   -999.2500
  1018.3000      7.9497      2.5617      0.0756      5.3517   -999.2500   -999.2500
  1018.4000      7.9497      2.5438      0.0337      6.4393   -999.2500   -999.2500
  1018.5000      7.9395      2.5511      0.0476      5.9950   -999.2500   -999.2500
  1018.6000      7.9395      2.5602      0.0979      5.4427   -999.2500   -999.2500
  1018.7000      7.9395      2.5551      0.0524      5.7521   -999.2500   -999.2500
  1018.8000      7.9245      2.5414      0.0668      6.5827   -999.2500   -999.2500
  1018.9000      7.9245      2.5280      0.0473      7.3943   -999.2500   -999.2500
  1019.0000      7.9317      2.5269      0.0467      7.4628   -999.2500   -999.2500
  1019.1000      7.9317      2.5447      0.0570      6.3789   -999.2500   -999.2500
  1019.2000      7.9317      2.5634      0.0767      5.2510   -999.2500   -999.2500
  1019.3000      7.9171      2.5609      0.0675      5.4018   -999.2500   -999.2500
  1019.4000      7.9171      2.5431      0.0500      6.4776   -999.2500   -999.2500
  1019.5000      7.9358      2.5313      0.0399      7.1946   -999.2500   -999.2500
  1019.6000      7.9358      2.5347      0.0366      6.9885   -999.2500   -999.2500
  1019.7000      7.9358      2.5485      0.0550      6.1501   -999.2500   -999.2500
  1019.8000      7.8993      2.5701      0.0185      4.8450   -999.2500   -999.2500
  1019.9000      7.8993      2.5981      0.0645      3.1448   -999.2500   -999.2500
  1020.0000      7.9289      2.6198      0.0917      1.8331   -999.2500   -999.2500
  1020.1000      7.9289      2.6264      0.0507      1.4314   -999.2500   -999.2500
  1020.2000      7.9289      2.6261      0.0638      1.4456   -999.2500   -999.2500
  1020.3000      7.8957      2.6249      0.0880      1.5187   -999.2500   -999.2500
  1020.4000      7.8957      2.6212      0.0662      1.7431   -999.2500   -999.2500
  1020.5000      7.8835      2.6171      0.0750      1.9930   -999.2500   -999.2500
  1020.6000      7.8835      2.6131      0.0695      2.2346   -999.2500   -999.2500
  1020.7000      7.8835      2.6037      0.1087      2.8036   -999.2500   -999.2500
  1020.8000      7.8352      2.5879      0.0454      3.7634   -999.2500   -999.2500
  1020.9000      7.8352      2.5780      0.0428      4.3645   -999.2500   -999.2500
  1021.0000      7.8089      2.5868      0.0429      3.8292   -999.2500   -999.2500
  1021.1000      7.8089      2.6117      0.0940      2.3203   -999.2500   -999.2500
  1021.2000      7.8089      2.6335      0.0897      1.0019   -999.2500   -999.2500
  1021.3000      7.8682      2.6324      0.0917      1.0664   -999.2500   -999.2500
  1021.4000      7.8682      2.6133      0.0512      2.2219   -999.2500   -999.2500
  1021.5000      7.8671      2.6018      0.0764      2.9228   -999.2500   -999.2500
