~Version Information
VERS.                      2.0: CWLS Log ASCII Standard - VERSION 2.0
WRAP.                       NO: One line per depth step
~Well Information Block
STRT.FT                -8.0000: 
STOP.FT               918.7500: 
STEP.FT                 0.2500: 
NULL.                -999.2500: 
COMP.          Pioneer Natural Resources: COMPANY
WELL.          Sculpin 32-30 Tr: WELL
FLD.           Purgatorie River: FIELD
LOC.           1600' FNL & 1857' FEL--: LOCATION
CNTY.               Las Animas: COUNTY
SRVC.          Patterson Wireline: SERVICE COMPANY
DATE.          Thu Aug 03 08:40:45 2006: LOG DATE
UWI.           05 071 08706 00: UNIQUE WELL ID
STAT.                       CO: STATE
~Curve Information Block
DEPT.FT            0 000 00 00: Depth
CCL.                          : Casing Collar Locator
TT3.usec                      : CBL 3' Travel Time
AMP3.mV                       : CBL 3' Amplitude
GR.GAPI                       : Gamma Ray
~Parameter Information Block
~A  Depth       CCL         TT3         AMP3         GR     
# ...
   159.5000      0.0000    374.1446      6.2058     87.7352
   159.7500      0.0000    375.4432      6.0086     90.6862
   160.0000      0.0000    376.5497      5.8227     92.0241
   160.2500      0.0000    377.3240      5.6701     92.5356
   160.5000      0.0000    377.8510      5.5587     93.3533
   160.7500      0.0000    378.4253      5.4812     94.9409
   161.0000      0.0000    379.5847      5.4269     96.3264
   161.2500      0.0000    382.2392      5.3956     95.7300
   161.5000      0.0000    387.4632      5.3987     92.5567
   161.7500      0.0000    395.3953      5.4509     88.4426
   162.0000      0.0000    403.9542      5.5589     85.8037
   162.2500      0.0000    409.4471      5.7111     85.6710
   162.5000      0.0000    409.5632      5.8781     87.3608
   162.7500      0.0000    405.6270      6.0266     89.7690
   163.0000      0.0000    401.2638      6.1395     92.2722
   163.2500      0.0000    399.1890      6.2218     94.5619
   163.5000      0.0000    399.6796      6.2879     96.3424
   163.7500      0.0000    401.4519      6.3469     97.3454
   164.0000      0.0000    403.2279      6.3967     97.2602
   164.2500      0.0000    404.5212      6.4277     95.7275
   164.5000      0.0000    405.4359      6.4309     92.8281
   164.7500      0.0000    405.9223      6.4052     89.6656
   165.0000      0.0000    405.0394      6.3591     88.1918
   165.2500      0.0000    401.0077      6.3062     90.2455
   165.5000      0.0000    392.6068      6.2562     96.4109
   165.7500      0.0000    380.8969      6.2118    105.3210
   166.0000      0.0000    369.0554      6.1730    114.0278
   166.2500      0.0000    360.0641      6.1422    119.6837
   166.5000      0.0000    354.8035      6.1237    121.5051
   166.7500      0.0000    352.3289      6.1197    121.2598
   167.0000      0.0000    351.2838      6.1256    121.6145
   167.2500      0.0000    350.7697      6.1295    123.8179
   167.5000      0.0000    350.3809      6.1166    126.9220
   167.7500      0.0000    349.9620      6.0771    128.9986
   168.0000      0.0000    349.4601      6.0119    128.5885
   168.2500      0.0000    348.8886      5.9313    124.9766
   168.5000      0.0000    348.3315      5.8493    118.0175
   168.7500      0.0000    347.9063      5.7787    108.6783
   169.0000      0.0000    347.7003      5.7289     99.5943
   169.2500      0.0000    347.7212      5.7056     94.0207
   169.5000      0.0000    347.8958      5.7113     93.4538
   169.7500      0.0000    348.1118      5.7468     96.4558
   170.0000      0.0000    348.2762      5.8098    100.1323
   170.2500      0.0000    348.3601      5.8904    102.5019
   170.5000      0.0000    348.4063      5.9683    103.2258
   170.7500      0.0000    348.4897      6.0203    102.8208
   171.0000      0.0000    348.6368      6.0325    102.0212
   171.2500      0.0000    348.7431      6.0071    101.5365
   171.5000      0.0000    348.5306      5.9576    101.5492
   171.7500      0.0000    347.6357      5.8989    101.4269
   172.0000      0.0000    345.8896      5.8429    100.3428
   172.2500      0.0000    343.5328      5.7984     98.1482
   172.5000      0.0000    340.9081      5.7698     95.4167
   172.7500      0.0000    337.8659      5.7564     92.7524
   173.0000      0.0000    333.8719      5.7549     90.1965
   173.2500      0.0000    328.9104      5.7618     87.3924
   173.5000      0.0000    323.8748      5.7752     84.3765
   173.7500      0.0000    319.8328      5.7939     81.9178
   174.0000      0.0000    317.2398      5.8192     80.8518
   174.2500      0.0000    316.0218      5.8532     81.5193
   174.5000      0.0000    316.1500      5.8954     84.0930
   174.7500      0.0000    317.9430      5.9390     88.8541
   175.0000      0.0000    321.7848      5.9731     95.5732
   175.2500      0.0000    327.4557      5.9889    102.8223
   175.5000      0.0000    333.6950      5.9854    108.5149
   175.7500      0.0000    338.5678      5.9677    111.4081
   176.0000      0.0000    340.3995      5.9399    111.9154
   176.2500      0.0000    338.5336      5.9011    111.2710
   176.5000      0.0000    333.5895      5.8473    110.0407
   176.7500      0.0000    327.2316      5.7786    107.6361
   177.0000      0.0000    321.3984      5.7021    103.1559
   177.2500      0.0000    317.3230      5.6290     96.5416
   177.5000      0.0000    315.1237      5.5679     88.9883
   177.7500      0.0000    314.2091      5.5210     82.3463
   178.0000      0.0000    313.9182      5.4848     78.0719
   178.2500      0.0000    313.8413      5.4554     76.4851
   178.5000      0.0000    313.8099      5.4316     76.6123
   178.7500      0.0000    313.7820      5.4145     76.7926
   179.0000      0.0000    313.7610      5.4045     75.9033
   179.2500      0.0000    313.7647      5.3990     74.1746
   179.5000      0.0000    313.8238      5.3967     72.6570
   179.7500      0.0000    313.9783      5.4037     71.9767
   180.0000      0.0000    314.2544      5.4341     71.8612
   180.2500      0.0000    314.6189      5.5041     71.7624
   180.5000      0.0000    314.9560      5.6293     71.4977
   180.7500      0.0000    315.1191      5.8238     71.1815
   181.0000      0.0000    315.0406      6.0838     71.0343
   181.2500      0.0000    314.7882      6.3671     71.5971
   181.5000      0.0000    314.5066      6.6054     73.6725
   181.7500      2.0000    314.3245      6.7461     77.5240
   182.0000      0.0000    314.3545      6.7749     82.3453
   182.2500      0.0000    314.7918      6.7039     86.9465
   182.5000      0.0000    316.0023      6.5553     90.8808
   182.7500      0.0000    318.4324      6.3580     94.5926
   183.0000      0.0000    322.1820      6.1410     98.5500
   183.2500      0.0000    326.4272      5.9290    102.4979
   183.5000      0.0000    329.4698      5.7516    105.4248
   183.7500      0.0000    329.9474      5.6412    106.0990
   184.0000      0.0000    328.2614      5.6056    103.9492
   184.2500      0.0000    326.5189      5.6154     99.8027
   184.5000      0.0000    326.7967      5.6323     95.6599
   184.7500      0.0000    329.3785      5.6387     93.3485
   185.0000      0.0000    332.5055      5.6362     93.2654
   185.2500      0.0000    333.7531      5.6289     94.5657
   185.5000      0.0000    331.8836      5.6153     96.3431
   185.7500      0.0000    327.6416      5.5915     98.1946
   186.0000      0.0000    322.9038      5.5547     99.9360
   186.2500      0.0000    319.1791      5.5051    101.4461
   186.5000      0.0000    316.8811      5.4449    102.7662
   186.7500      0.0000    315.6601      5.3766    103.9553
   187.0000      0.0000    315.0340      5.3009    105.0672
   187.2500      0.0000    314.6997      5.2210    106.3910
   187.5000      0.0000    314.5181      5.1466    108.1488
   187.7500      0.0000    314.4156      5.0916    109.7229
   188.0000      0.0000    314.3357      5.0681    109.7375
   188.2500      0.0000    314.2414      5.0822    107.2179
   188.5000      0.0000    314.1314      5.1332    102.4746
   188.7500      0.0000    314.0415      5.2110     96.7593
   189.0000      0.0000    314.0506      5.2975     91.3008
   189.2500      0.0000    314.3352      5.3744     86.9112
   189.5000      0.0000    315.2786      5.4322     84.1967
   189.7500      0.0000    317.5055      5.4710     83.4301
   190.0000      0.0000    321.6083      5.4951     83.9414
   190.2500      0.0000    327.6037      5.5083     84.1693
   190.5000      0.0000    334.7325      5.5159     82.9315
   190.7500      0.0000    342.1684      5.5249     80.6177
   191.0000      0.0000    350.0716      5.5356     78.7761
   191.2500      0.0000    359.4719      5.5360     78.4996
   191.5000      0.0000    370.4683      5.5123     79.4359
   191.7500      0.0000    380.5775      5.4650     80.3189
   192.0000      0.0000    385.7701      5.4091     80.3085
   192.2500      0.0000    383.8572      5.3604     79.8558
   192.5000      0.0000    376.5411      5.3253     80.4506
   192.7500      0.0000    367.6985      5.3030     83.5081
