~Version Information
VERS.                      2.0: CWLS Log ASCII Standard - VERSION 2.0
WRAP.                       NO: One line per depth step
~Well Information Block
STRT.FT               245.0000: 
STOP.FT              1102.5000: 
STEP.FT                 0.1000: 
NULL.                -999.2500: 
COMP.          Pioneer Natural Resources: COMPANY
WELL.           Pavilion 44-25: WELL
FLD.           Purgatoire River: FIELD
LOC.           719' FSL & 650' FEL: LOCATION
PROV.                 Colorado: PROVINCE
CNTY.               Las Animas: COUNTRY
SRVC.                Patterson: SERVICE COMPANY
DATE.          Wed Dec 14 09:57:07 2005: LOG DATE
UWI.           05 071 08624 00: UNIQUE WELL ID
~Curve Information Block
DEPT.FT            0 000 00 00: Depth
DCAL.in                       : CDL Caliper
RHOB.g/cc                     : CDL Bulk Density
RHOC.g/cc                     : CDL Density Correction
DPOR.pu                       : CDL Density Porosity
GR.GAPI                       : Gamma Ray
NPOR.pu                       : Neutron Porosity
~Parameter Information Block
~A  Depth       DCAL        RHOB        RHOC        DPOR         GR         NPOR    
# ...
   302.6000      8.1183      1.9459      0.0626     42.6738    124.7967     20.0616
   302.7000      8.1183      1.9628      0.0930     41.6498    125.0593     21.3452
   302.8000      8.1175      1.9810      0.0335     40.5483    132.3501     22.5332
   302.9000      8.1175      2.0105      0.1156     38.7564    140.4950     22.8927
   303.0000      8.1176      2.0586      0.1732     35.8421    143.3138     22.7333
   303.1000      8.1176      2.1199      0.1773     32.1303    139.7845     22.5659
   303.2000      8.1176      2.1851      0.1867     28.1763    134.2410     22.3109
   303.3000      8.1166      2.2412      0.1508     24.7755    133.1324     21.9916
   303.4000      8.1166      2.2774      0.0661     22.5843    136.7793     21.7337
   303.5000      8.1096      2.2776      0.1122     22.5712    140.4778     21.1682
   303.6000      8.1096      2.2264      0.0449     25.6730    143.4934     19.9378
   303.7000      8.1096      2.1345      0.0505     31.2431    146.7469     18.7382
   303.8000      8.1150      2.0294     -0.0152     37.6130    146.6693     18.4001
   303.9000      8.1150      1.9345      0.0048     43.3632    140.4289     18.7772
   304.0000      8.1173      1.8688     -0.0668     47.3469    132.1110     19.2545
   304.1000      8.1173      1.8453     -0.0397     48.7714    124.8112     19.3749
   304.2000      8.1173      1.8582     -0.0174     47.9905    116.0066     19.3732
   304.3000      8.1213      1.8916      0.0363     45.9643    104.8726     19.7586
   304.4000      8.1213      1.9428      0.0523     42.8580     94.9017     20.4228
   304.5000      8.1205      2.0178      0.1745     38.3153     88.7781     21.0607
   304.6000      8.1205      2.1085      0.2663     32.8193     84.6587     21.5735
   304.7000      8.1205      2.2040      0.2537     27.0298     80.6780     21.7805
   304.8000      8.1122      2.2961      0.2590     21.4469     79.3678     21.9645
   304.9000      8.1122      2.3634      0.2199     17.3672     81.8166     22.6662
   305.0000      8.0400      2.3952      0.0929     15.4432     85.7564     23.7053
   305.1000      8.0400      2.4123      0.0518     14.4072     91.4421     24.5080
   305.2000      8.0400      2.4330      0.0920     13.1542     99.3595     24.7483
   305.3000      8.0248      2.4573      0.1159     11.6813    108.9880     24.4330
   305.4000      8.0248      2.4861      0.0957      9.9308    118.0222     23.8606
   305.5000      8.0212      2.5132      0.0964      8.2936    121.8129     23.5711
   305.6000      8.0212      2.5196      0.0982      7.9035    119.6259     23.8435
   305.7000      8.0212      2.5092      0.0355      8.5358    116.6353     24.3712
   305.8000      8.0230      2.5050      0.0463      8.7886    117.8157     24.3939
   305.9000      8.0230      2.5112      0.0688      8.4096    121.8992     23.9025
   306.0000      8.0252      2.5235      0.0445      7.6650    122.7750     23.5078
   306.1000      8.0252      2.5402      0.0755      6.6523    120.0742     23.2040
   306.2000      8.0252      2.5485      0.0800      6.1495    118.9841     22.7357
   306.3000      8.0256      2.5385      0.0675      6.7588    120.5682     22.2001
   306.4000      8.0256      2.5218      0.0222      7.7716    121.3718     21.8040
   306.5000      8.0227      2.5179     -0.0109      8.0084    119.7076     21.7379
   306.6000      8.0227      2.5248      0.0263      7.5870    118.0546     21.7278
   306.7000      8.0227      2.5244      0.0215      7.6141    117.9352     21.4561
   306.8000      8.0250      2.5171      0.0020      8.0517    116.5205     21.2513
   306.9000      8.0250      2.5166      0.0245      8.0839    113.3564     21.2788
   307.0000      8.0231      2.5217      0.0001      7.7782    111.6945     21.3562
   307.1000      8.0231      2.5250      0.0200      7.5740    111.9886     21.2690
   307.2000      8.0231      2.5189      0.0161      7.9477    113.5556     20.9099
   307.3000      8.0242      2.4998      0.0155      9.1025    116.1803     20.5520
   307.4000      8.0242      2.4804     -0.0128     10.2758    115.5422     20.3783
   307.5000      8.0231      2.4728     -0.0228     10.7401    111.6430     20.1134
   307.6000      8.0231      2.4706      0.0113     10.8700    109.1491     19.8538
   307.7000      8.0231      2.4698     -0.0074     10.9193    106.9592     20.0921
   307.8000      8.0231      2.4819     -0.0311     10.1903    105.8383     20.6733
   307.9000      8.0231      2.5069     -0.0118      8.6726    107.2848     20.9242
   308.0000      8.0242      2.5264      0.0402      7.4929    106.3450     20.7509
   308.1000      8.0242      2.5313      0.0262      7.1950    103.1349     20.7459
   308.2000      8.0242      2.5312      0.0363      7.1999    103.9893     21.3012
   308.3000      8.0250      2.5296      0.0126      7.2992    106.0655     22.0018
   308.4000      8.0250      2.5223      0.0065      7.7383    103.2368     22.4175
   308.5000      8.0238      2.5177      0.0153      8.0192     97.2958     22.3700
   308.6000      8.0238      2.5282      0.0353      7.3834     91.7440     21.9094
   308.7000      8.0238      2.5456      0.0107      6.3277     90.4500     21.7288
   308.8000      8.0249      2.5506      0.0151      6.0237     94.6913     21.9967
   308.9000      8.0249      2.5397     -0.0015      6.6846     99.6600     22.2206
   309.0000      8.0229      2.5295     -0.0269      7.3015    102.6567     22.3557
   309.1000      8.0229      2.5371      0.0152      6.8444    105.2238     22.3201
   309.2000      8.0229      2.5578      0.0317      5.5867    108.8857     22.0822
   309.3000      8.0235      2.5708      0.0355      4.7995    115.6904     22.0962
   309.4000      8.0235      2.5594      0.0392      5.4910    123.1643     22.4512
   309.5000      8.0273      2.5277      0.0231      7.4103    123.0522     22.5347
   309.6000      8.0273      2.4991     -0.0039      9.1441    115.8308     21.8058
   309.7000      8.0273      2.4930     -0.0230      9.5160    111.2421     20.8216
   309.8000      8.0254      2.5007      0.0131      9.0455    111.4861     20.6313
   309.9000      8.0254      2.5001      0.0092      9.0824    110.9672     21.1474
   310.0000      8.0225      2.4944     -0.0175      9.4285    108.0933     21.3121
   310.1000      8.0225      2.5008      0.0052      9.0430    107.1558     21.0533
   310.2000      8.0225      2.5110      0.0364      8.4248    108.4864     21.3692
   310.3000      8.0199      2.5106     -0.0218      8.4509    105.8818     22.1783
   310.4000      8.0199      2.5086      0.0074      8.5690     98.5376     22.4922
   310.5000      8.0237      2.5139      0.0165      8.2465     95.1369     22.2536
   310.6000      8.0237      2.5203      0.0251      7.8584     98.3034     22.0507
   310.7000      8.0237      2.5179      0.0065      8.0062    102.5911     21.8915
   310.8000      8.0228      2.5055     -0.0096      8.7598    106.4479     21.7697
   310.9000      8.0228      2.4978     -0.0275      9.2246    111.7733     22.1425
   311.0000      8.0249      2.5071      0.0194      8.6633    120.5958     22.8697
   311.1000      8.0249      2.5240      0.0328      7.6380    129.9346     23.6109
   311.2000      8.0249      2.5303      0.0554      7.2563    131.9846     24.9241
   311.3000      8.0251      2.5233     -0.0002      7.6775    127.3444     26.6248
   311.4000      8.0251      2.5195      0.0166      7.9114    125.0340     27.3591
   311.5000      8.0298      2.5272      0.0434      7.4444    129.2669     26.6335
   311.6000      8.0298      2.5409      0.0426      6.6105    134.5094     25.7114
   311.7000      8.0298      2.5570      0.0477      5.6356    134.9358     25.6718
   311.8000      8.0249      2.5676      0.0839      4.9935    134.1624     25.9406
   311.9000      8.0249      2.5635      0.0588      5.2403    138.8163     25.9372
   312.0000      8.0240      2.5543      0.0479      5.7980    147.5604     25.7677
   312.1000      8.0240      2.5580      0.0479      5.5751    154.0073     25.4185
