~Version Information
 VERS.                                  2.0 : CWLS LAS VERSION
 WRAP.                                   NO : WRAPING MODE
 SWARE .                 MController 2.5.0N : SOFTWARE VERSION
~Well Information
 WELL.                      Whitecoat 14-36 : WELL
 COMP.   Pioneer Natural Resources USA Inc. : COMPANY
 FLD.                      Purgatoire River : FIELD
 LOC.               SW/SW Sec 36 T34S  R65W : LOCATION
 DATE.                            12/4-5/05 : DATE(S) LOGGED
 SRVC.       BLANCO Geological Services LLC : SERVICE COMPANY
 STAT.                                   CO : STATE
 CNTY.                           Las Animas : COUNTY
 CTRY.                                  USA : COUNTRY
 API.                       05-071-08593-00 : API NUMBER
 STRT.FT                             161.00 : START DEPTH
 STOP.FT                            1182.00 : STOP DEPTH
 STEP.FT                               1.00 : DEPTH INCREMENT
 NULL.                                -9999 : NULL VALUE
~Curve information
 DEPTH.FT                                   :
 ROP.MIN/FT                                 :
 GAS.UNITS                                  :
~ASCII Log data
       161.0     -9999.00          2.1 
       162.0         0.93          3.1 
       163.0         0.62          2.9 
       164.0         0.57          3.7 
       165.0         1.33          3.6 
       166.0         0.20          3.3 
       167.0         0.10          3.3 
       168.0         0.13          3.3 
       169.0         7.30          4.2 
       170.0         0.28          4.0 
       171.0         0.23          4.0 
       172.0         0.20          4.0 
       173.0         0.23          4.0 
       174.0         0.20          3.8 
       175.0         0.23          3.6 
       176.0         0.23          3.9 
       177.0         0.23          3.7 
       178.0         0.23          3.9 
       179.0         0.23          3.9 
       180.0         0.23          3.8 
       181.0         0.23          3.9 
       182.0         0.23          4.1 
       183.0         0.23          4.1 
       184.0         0.25          4.2 
       185.0         0.27          4.3 
       186.0         0.23          4.3 
       187.0         0.23          3.8 
       188.0         0.23          4.0 
       189.0         0.27          3.9 
       190.0         0.23          3.8 
       191.0         0.27          3.6 
       192.0         0.23          4.0 
       193.0         0.23          3.4 
       194.0         0.27          3.9 
       195.0         0.23          4.0 
       196.0         0.27          3.3 
       197.0         0.27          3.6 
       198.0         0.38          3.9 
       199.0         0.30          3.9 
       200.0         0.33          4.1 
       201.0         5.12          3.7 
       202.0         0.20          3.2 
       203.0         0.23          3.2 
       204.0         0.25          3.0 
       205.0         0.23          3.1 
       206.0         0.23          2.9 
       207.0         0.23          3.1 
       208.0         0.23          3.3 
       209.0         0.23          3.3 
       210.0         0.20          3.3 
       211.0         0.23          3.6 
       212.0         0.23          2.9 
       213.0         0.23          3.3 
       214.0         0.20          3.3 
       215.0         0.23          3.2 
       216.0         0.23          3.5 
       217.0         0.23          3.5 
       218.0         0.23          3.6 
       219.0         0.25          3.6 
       220.0         0.23          3.4 
       221.0         0.23          3.6 
       222.0         0.23          3.0 
       223.0         0.20          3.0 
       224.0         0.23          3.4 
       225.0         0.23          2.9 
       226.0         0.27          3.4 
       227.0         0.23          3.6 
       228.0         0.23          3.6 
       229.0         0.23          3.7 
       230.0         0.33          4.2 
       231.0         0.23          3.1 
       232.0         0.38          3.1 
       233.0         2.20          4.0 
       234.0         0.27          3.9 
       235.0         0.20          3.4 
       236.0         0.20          3.3 
       237.0         0.20          3.9 
       238.0         0.22          3.5 
       239.0         0.20          3.7 
       240.0         0.20          3.7 
       241.0         0.20          3.1 
       242.0         0.20          3.2 
       243.0         0.20          3.3 
       244.0         0.20          3.1 
       245.0         0.20          3.1 
       246.0         0.20          3.2 
       247.0         0.23          3.4 
       248.0         0.20          3.4 
       249.0         0.20          3.5 
       250.0         0.20          3.0 
       251.0         0.20          3.1 
       252.0         0.20          3.1 
       253.0         0.20          3.1 
       254.0         0.20          2.3 
       255.0         0.25          2.4 
       256.0         0.20          2.6 
       257.0         0.20          2.4 
       258.0         0.20          2.4 
       259.0         0.23          2.6 
       260.0         0.23          2.6 
       261.0         0.27          2.8 
       262.0         0.30          2.3 
       263.0         0.37          2.8 
       264.0         2.18          3.4 
       265.0         0.30          3.0 
       266.0         0.20          2.6 
       267.0         0.20          2.6 
       268.0         0.20          2.6 
       269.0         0.20          3.0 
       270.0         0.20          3.0 
       271.0         0.20          2.5 
       272.0         0.20          2.5 
       273.0         0.20          2.9 
       274.0         0.20          3.0 
       275.0         0.32          3.1 
       276.0         0.30          3.0 
       277.0         0.23          2.9 
       278.0         0.27          3.2 
       279.0         0.30          3.4 
       280.0         0.33          3.5 
       281.0         0.30          3.5 
       282.0         0.27          3.5 
       283.0         0.23          3.5 
       284.0         0.23          3.7 
       285.0         0.27          3.9 
       286.0         0.23          3.4 
       287.0         0.25          3.7 
       288.0         0.23          3.8 
       289.0         0.23          3.8 
       290.0         0.23          3.6 
       291.0         0.27          3.4 
       292.0         3.58          3.7 
       293.0         0.33          1.9 
       294.0         0.30          2.6 
       295.0         0.30          2.4 
       296.0         0.27          2.1 
       297.0         0.23          2.3 
       298.0         0.30          2.7 
       299.0         0.27          2.5 
       300.0         0.35          2.9 
       301.0         0.27          2.7 
       302.0         0.23          3.0 
       303.0         0.27          2.9 
       304.0         0.27          3.3 
       305.0         0.27          3.3 
       306.0         0.23          2.8 
       307.0         0.23          3.5 
       308.0         0.23          3.1 
       309.0         0.30          3.4 
       310.0         0.33          3.1 
       311.0         0.27          3.0 
       312.0         0.25          2.6 
       313.0         0.30          3.1 
       314.0         0.30          3.1 
       315.0         0.30          2.8 
       316.0         0.27          3.2 
       317.0         0.23          3.2 
       318.0         0.27          3.2 
       319.0         0.37          3.4 
       320.0         0.27          3.5 
       321.0         0.70          3.6 
       322.0         1.75          3.8 
       323.0         0.27          1.9 
       324.0         0.40          2.0 
       325.0         0.30          1.8 
       326.0         0.30          1.9 
       327.0         0.33          2.2 
       328.0         0.35          2.4 
       329.0         0.27          2.4 
       330.0         0.30          2.0 
       331.0         0.30          2.3 
       332.0         0.23          2.7 
       333.0         0.33          2.4 
       334.0         0.27          2.2 
       335.0         0.27          2.2 
       336.0         0.23          2.4 
       337.0         0.37          2.2 
       338.0         0.30          2.4 
       339.0         0.23          2.8 
       340.0         0.22          2.2 
       341.0         0.27          2.2 
       342.0         0.30          2.5 
       343.0         0.23          2.2 
       344.0         0.27          1.9 
       345.0         0.17          2.3 
       346.0         0.20          2.0 
       347.0         0.20          1.8 
       348.0         0.17          1.8 
       349.0         0.20          2.3 
       350.0         0.47          2.6 
       351.0         0.73          2.6 
       352.0         1.82          2.3 
       353.0         0.23          2.3 
       354.0         0.33          2.3 
       355.0         0.30          2.0 
       356.0         0.30          2.8 
       357.0         0.30          2.2 
       358.0         0.28          2.4 
       359.0         0.30          2.6 
       360.0         0.30          2.3 
