~Version Information
VERS.                      2.0: CWLS Log ASCII Standard - VERSION 2.0
WRAP.                       NO: One line per depth step
~Well Information Block
STRT.FT               550.0000: 
STOP.FT              1498.5000: 
STEP.FT                 0.1000: 
NULL.                -999.2500: 
COMP.          Pioneer Natural Resources: COMPANY
WELL.          Surtees 23-34 Tr: WELL
FLD.           Purgatoire River: FIELD
LOC.           1559' FSL & 1997' FWL: LOCATION
PROV.                 Colorado: PROVINCE
CNTY.               Las Animas: COUNTRY
SRVC.                Patterson: SERVICE COMPANY
DATE.          Wed Jul 27 09:35:51 2005: LOG DATE
UWI.           05 071 08449 00: UNIQUE WELL ID
~Curve Information Block
DEPT.FT            0 000 00 00: Depth
DCAL.in                       : CDL Caliper
RHOB.g/cc                     : CDL Bulk Density
RHOC.g/cc                     : CDL Density Correction
DPOR.pu                       : CDL Density Porosity
GR.GAPI                       : Gamma Ray
NPOR.pu                       : Neutron Porosity
~Parameter Information Block
~A  Depth       DCAL        RHOB        RHOC        DPOR         GR         NPOR    
# ...
  1423.6000      7.9807      2.5462      0.0926      6.2906     83.6510     18.7043
  1423.7000      7.9807      2.5208      0.0768      7.8313     87.0803     19.4042
  1423.8000      7.9742      2.5151     -0.0167      8.1736     90.4821     20.2391
  1423.9000      7.9742      2.5349      0.0732      6.9772     88.9350     19.9316
  1424.0000      7.9702      2.5493      0.0588      6.1046     85.1267     19.0790
  1424.1000      7.9702      2.5420      0.0295      6.5436     84.2007     18.8140
  1424.2000      7.9702      2.5321      0.0210      7.1453     86.9134     18.9739
  1424.3000      7.9786      2.5372      0.0073      6.8370     89.9730     19.1545
  1424.4000      7.9786      2.5526      0.0397      5.9008     89.7490     19.2913
  1424.5000      7.9705      2.5608      0.0990      5.4062     86.5590     19.4631
  1424.6000      7.9705      2.5524      0.0449      5.9129     82.0870     19.6775
  1424.7000      7.9705      2.5429      0.0146      6.4918     75.6468     19.4553
  1424.8000      7.9690      2.5510      0.0147      5.9973     69.1518     18.8090
  1424.9000      7.9690      2.5679      0.0883      4.9771     66.9483     17.9378
  1425.0000      7.9719      2.5739      0.0132      4.6148     69.7227     16.7376
  1425.1000      7.9719      2.5703      0.0354      4.8329     74.0721     15.6429
  1425.2000      7.9719      2.5561      0.1069      5.6889     75.7907     15.2397
  1425.3000      7.9786      2.5272      0.0080      7.4437     75.3488     15.5569
  1425.4000      7.9786      2.4983      0.0494      9.1966     76.3692     16.3229
  1425.5000      7.9744      2.4880      0.0255      9.8186     79.1964     17.4580
  1425.6000      7.9744      2.5098      0.0208      8.4985     82.2189     19.0815
  1425.7000      7.9744      2.5526      0.1055      5.9020     85.1866     20.3097
  1425.8000      7.9887      2.5812      0.0862      4.1672     87.5467     19.9848
  1425.9000      7.9887      2.5870      0.0767      3.8177     87.3510     18.4969
  1426.0000      7.9801      2.5885      0.1142      3.7295     85.5083     17.4787
  1426.1000      7.9801      2.5899      0.1054      3.6436     85.1013     18.1270
  1426.2000      7.9801      2.5831      0.1021      4.0536     86.7071     19.7274
  1426.3000      7.9549      2.5632      0.1087      5.2594     87.7196     20.5003
  1426.4000      7.9549      2.5380      0.0673      6.7858     85.3134     19.7844
  1426.5000      7.9526      2.5279      0.0473      7.4026     82.5064     18.5328
  1426.6000      7.9526      2.5445      0.0544      6.3940     82.3855     17.9149
  1426.7000      7.9526      2.5772      0.0997      4.4136     84.2363     18.1265
  1426.8000      7.9560      2.6002      0.1161      3.0204     87.1119     18.6123
  1426.9000      7.9560      2.6003      0.0637      3.0100     92.0135     18.9191
  1427.0000      7.9749      2.5921      0.1100      3.5085    100.1696     19.4385
  1427.1000      7.9749      2.5997      0.0645      3.0484    105.5589     20.3707
  1427.2000      7.9749      2.6382      0.1331      0.7157    102.3417     21.4011
  1427.3000      7.9857      2.7086      0.1332     -3.5539     93.8714     22.3636
  1427.4000      7.9857      2.8022      0.1490     -9.2228     85.3735     23.0333
  1427.5000      7.9669      2.8958      0.2057    -14.8978     78.5150     23.3767
  1427.6000      7.9669      2.9608      0.2031    -18.8364     75.3977     23.4991
  1427.7000      7.9669      2.9873      0.1814    -20.4444     77.4761     23.1282
  1427.8000      7.9169      2.9883      0.1075    -20.5025     81.5058     22.1788
  1427.9000      7.9169      2.9729      0.1436    -19.5709     85.0727     21.1678
  1428.0000      7.9160      2.9302      0.1039    -16.9806     89.5489     20.2695
  1428.1000      7.9160      2.8503      0.0539    -12.1380     93.8987     19.3815
  1428.2000      7.9160      2.7455     -0.0098     -5.7881     95.4223     18.6423
  1428.3000      7.8943      2.6409     -0.0399      0.5486     95.7510     18.1544
  1428.4000      7.8943      2.5658     -0.1206      5.1022     97.3906     18.3235
  1428.5000      7.8780      2.5371     -0.0609      6.8424     99.8704     19.1898
  1428.6000      7.8780      2.5391     -0.0102      6.7212    101.0196     19.7922
  1428.7000      7.8780      2.5501      0.0606      6.0524     99.8156     19.5473
  1428.8000      7.9493      2.5634      0.0952      5.2499     97.5526     18.9573
  1428.9000      7.9493      2.5786      0.1300      4.3273     94.3882     18.8615
  1429.0000      8.0005      2.5854      0.1596      3.9130     90.5852     19.4912
  1429.1000      8.0005      2.5728      0.1337      4.6789     87.9362     19.6168
  1429.2000      8.0005      2.5575      0.1066      5.6070     90.1475     18.4436
  1429.3000      7.9914      2.5674      0.0920      5.0082     98.6351     17.2591
  1429.4000      7.9914      2.6005      0.1649      3.0015    105.2300     17.3825
  1429.5000      7.9670      2.6313      0.1589      1.1351    103.5238     18.8808
  1429.6000      7.9670      2.6526      0.1622     -0.1564    100.7767     20.5369
  1429.7000      7.9670      2.6708      0.1773     -1.2594    104.7016     21.0318
  1429.8000      7.9537      2.6802      0.1021     -1.8325    114.1276     20.6058
  1429.9000      7.9537      2.6685      0.1206     -1.1201    122.3637     19.9551
  1430.0000      7.9626      2.6435      0.0090      0.3958    121.6767     19.4703
  1430.1000      7.9626      2.6349      0.0676      0.9152    115.0399     19.4728
  1430.2000      7.9626      2.6413      0.0808      0.5285    111.8330     19.9016
  1430.3000      7.9700      2.6405      0.0835      0.5751    112.0073     20.5682
  1430.4000      7.9700      2.6349      0.0457      0.9151    109.6881     21.2363
  1430.5000      7.9642      2.6345      0.0671      0.9369    107.1896     21.4388
  1430.6000      7.9642      2.6299      0.1030      1.2158    107.5401     21.4059
  1430.7000      7.9642      2.6188      0.0486      1.8879    107.1379     21.3476
  1430.8000      8.0078      2.6217      0.0581      1.7150    106.3851     20.7239
  1430.9000      8.0078      2.6347      0.1039      0.9262    106.4495     19.7278
  1431.0000      8.0080      2.6264      0.1114      1.4298    106.3146     19.1197
  1431.1000      8.0080      2.5965      0.1031      3.2434    108.1590     19.0877
  1431.2000      8.0080      2.5740      0.0245      4.6054    112.3419     19.1887
  1431.3000      7.9978      2.5663      0.0773      5.0718    115.9881     18.9062
  1431.4000      7.9978      2.5610      0.0184      5.3967    118.2191     17.9478
  1431.5000      8.0000      2.5603      0.0120      5.4338    117.9144     16.6793
  1431.6000      8.0000      2.5633      0.0525      5.2553    112.9121     15.9499
  1431.7000      8.0000      2.5550      0.0158      5.7553    103.9059     16.1088
  1431.8000      8.0094      2.5347      0.0275      6.9875     92.4405     16.5358
  1431.9000      8.0094      2.5193      0.0009      7.9204     82.0244     16.3037
  1432.0000      7.9841      2.5288     -0.0068      7.3472     77.4134     15.7002
  1432.1000      7.9841      2.5625      0.0687      5.3043     77.6598     15.6003
  1432.2000      7.9841      2.5985      0.0844      3.1187     79.4425     15.8149
  1432.3000      7.9705      2.6301      0.0562      1.2036     82.3499     15.5881
  1432.4000      7.9705      2.6601      0.1196     -0.6104     86.4221     14.8656
  1432.5000      7.9648      2.6666      0.1651     -1.0081     88.9265     14.7837
  1432.6000      7.9648      2.6252      0.0859      1.5012     87.9030     16.0019
  1432.7000      7.9648      2.5519      0.0040      5.9434     84.9833     17.4576
  1432.8000      7.9689      2.4905     -0.0229      9.6677     80.4746     18.0725
  1432.9000      7.9689      2.4722     -0.0205     10.7739     76.7269     18.3266
  1433.0000      7.9655      2.5001     -0.0207      9.0832     78.1784     18.5521
  1433.1000      7.9655      2.5501      0.0773      6.0575     83.6315     18.8205
