~Version Information
VERS.                      2.0: CWLS Log ASCII Standard - VERSION 2.0
WRAP.                       NO: One line per depth step
~Well Information Block
STRT.FT               795.0000: 
STOP.FT              2279.7500: 
STEP.FT                 0.2500: 
NULL.                -999.2500: 
COMP.          Pioneer Natural Resources: COMPANY
WELL.            Wildcard 31-5: WELL
FLD.           Purgatoire River: FIELD
LOC.           624' FNL & 1852' FEL--: LOCATION
CNTY.               Las Animas: COUNTY
SRVC.                Patterson: SERVICE COMPANY
DATE.          Tue Mar 07 07:02:36 2006: LOG DATE
UWI.           05 071 08707 00: UNIQUE WELL ID
STAT.                 Colorado: STATE
~Curve Information Block
DEPT.FT            0 000 00 00: Depth
DIR.Ohm-m                     : IEL Induction Resistivity
SN.Ohm-m                      : IEL Short Normal
SP.mV                         : IEL Spontaneous Potential
GR.GAPI                       : Gamma Ray
~Parameter Information Block
~A  Depth       DIR          SN          SP          GR     
# ...
  1934.0000     12.8873     12.5233    -89.9424    108.3248
  1934.2500     13.2747     12.8608    -90.2368    103.0831
  1934.5000     13.6580     13.2259    -90.5489     96.1954
  1934.7500     14.0269     13.5995    -90.8814     92.6480
  1935.0000     14.3724     13.9594    -91.2376     88.8337
  1935.2500     14.6880     14.2825    -91.6205     86.9356
  1935.5000     14.9643     14.5487    -92.0322     84.2277
  1935.7500     15.1803     14.7471    -92.4738     82.0543
  1936.0000     15.2967     14.8841    -92.9449     77.7016
  1936.2500     15.2590     14.9835    -93.4427     74.0752
  1936.5000     15.0143     15.0777    -93.9624     68.2317
  1936.7500     14.5422     15.1967    -94.4969     64.5590
  1937.0000     13.8843     15.3613    -95.0377     59.8199
  1937.2500     13.1435     15.5810    -95.5759     57.4201
  1937.5000     12.4499     15.8523    -96.1040     56.0628
  1937.7500     11.9224     16.1549    -96.6176     57.3147
  1938.0000     11.6562     16.4553    -97.1171     62.0216
  1938.2500     11.7417     16.7183    -97.6087     65.6788
  1938.5000     12.2954     16.9271    -98.1041     69.3610
  1938.7500     13.4835     17.0984    -98.6197     70.1150
  1939.0000     15.5141     17.2777    -99.1754     69.6812
  1939.2500     18.5572     17.5120    -99.7929     68.9582
  1939.5000     22.6049     17.8165   -100.4951     66.9773
  1939.7500     27.6231     18.1614   -101.3052     64.6211
  1940.0000     34.7478     18.4890   -102.2481     59.8255
  1940.2500     49.7563     18.7477   -103.3508     56.5929
  1940.5000    107.8269     18.9195   -104.6442     52.8206
  1940.7500 100000.0000     19.0258   -106.1640     51.1066
  1941.0000 100000.0000     19.1159   -107.9518     49.6076
  1941.2500 100000.0000     19.2469   -110.0559     49.6194
  1941.5000 100000.0000     19.4621   -112.5314     51.9528
  1941.7500 100000.0000     19.7725   -115.4414     54.9748
  1942.0000    263.6708     20.1483   -118.8558     60.1023
  1942.2500     86.5861     20.5301   -122.8503     62.7064
  1942.5000     75.8413     20.8524   -127.5026     64.3916
  1942.7500    299.9880     21.0651   -132.8855     64.3505
  1943.0000 100000.0000     21.1410   -139.0570     63.8880
  1943.2500 100000.0000     21.0724   -146.0471     64.0787
  1943.5000 100000.0000     20.8640   -153.8428     65.8883
  1943.7500 100000.0000     20.5212   -162.3754     68.1348
  1944.0000 100000.0000     20.0340   -171.5118     72.3351
  1944.2500 100000.0000     19.3622   -181.0544     74.9364
  1944.5000 100000.0000     18.4293   -190.7511     77.2654
  1944.7500 100000.0000     17.1324   -200.3156     77.5068
  1945.0000 100000.0000     15.3833   -209.4555     76.6044
  1945.2500 100000.0000     13.1821   -217.9034     75.7883
  1945.5000 100000.0000     10.6840   -225.4453     74.4320
  1945.7500     33.4956      8.1902   -231.9409     72.9972
  1946.0000      5.2473      6.0316   -237.3325     69.4998
  1946.2500      3.1763      4.4142   -241.6412     66.4452
  1946.5000      2.4670      3.3465   -244.9523     61.5201
  1946.7500      1.9954      2.6997   -247.3950     58.4238
  1947.0000      1.5811      2.3271   -249.1196     54.8495
  1947.2500      1.2833      2.1517   -250.2771     53.6281
  1947.5000      1.1530      2.2050   -251.0049     53.6780
  1947.7500      1.2186      2.6620   -251.4178     54.5638
  1948.0000      1.5772      3.8819   -251.6054     56.3014
  1948.2500      2.6257      6.3827   -251.6340     57.4254
  1948.5000      6.7661     10.6512   -251.5500     58.7411
  1948.7500 100000.0000     16.8256   -251.3846     59.1154
  1949.0000 100000.0000     24.4808   -251.1591     58.4107
  1949.2500 100000.0000     32.7493   -250.8895     56.9136
  1949.5000 100000.0000     40.7186   -250.5903     53.2173
  1949.7500 100000.0000     47.7901   -250.2776     50.0916
  1950.0000 100000.0000     53.7604   -249.9711     45.2955
  1950.2500 100000.0000     58.6784   -249.6922     42.6969
  1950.5000 100000.0000     62.6688   -249.4602     40.8553
  1950.7500 100000.0000     65.8336   -249.2858     41.4218
  1951.0000 100000.0000     68.2256   -249.1634     44.6621
  1951.2500 100000.0000     69.8547   -249.0663     47.5315
  1951.5000 100000.0000     70.6953   -248.9423     50.8070
  1951.7500 100000.0000     70.6851   -248.7147     51.4320
  1952.0000 100000.0000     69.7155   -248.2857     50.0356
  1952.2500 100000.0000     67.6228   -247.5425     48.3340
  1952.5000    303.6013     64.2013   -246.3659     46.1433
  1952.7500     34.5109     59.2543   -244.6413     45.3057
  1953.0000     17.3919     52.6990   -242.2710     44.7340
  1953.2500     10.7345     44.7267   -239.1850     44.6098
  1953.5000      7.2553     35.9523   -235.3470     44.8828
  1953.7500      5.2130     27.3862   -230.7512     45.5144
  1954.0000      3.9339     20.0924   -225.4117     47.2373
  1954.2500      3.1052     14.6950   -219.3462     48.9292
  1954.5000      2.5630     11.1347   -212.5622     52.5345
  1954.7500      2.2105      8.8802   -205.0552     55.9286
  1955.0000      1.9839      7.3578   -196.8200     62.9337
  1955.2500      1.8388      6.2254   -187.8756     69.0852
  1955.5000      1.7461      5.3808   -178.2930     81.2459
  1955.7500      1.6914      4.8406   -168.2161     91.9137
  1956.0000      1.6734      4.6393   -157.8639    111.4454
  1956.2500      1.7011      4.7810   -147.5140    124.8128
  1956.5000      1.7881      5.2197   -137.4684    139.7484
  1956.7500      1.9499      5.8596   -128.0130    143.8329
  1957.0000      2.2018      6.5776   -119.3807    141.2891
  1957.2500      2.5555      7.2559   -111.7269    135.9734
  1957.5000      3.0117      7.8070   -105.1223    126.8804
  1957.7500      3.5480      8.1868    -99.5592    121.8135
  1958.0000      4.1097      8.4005    -94.9708    116.7714
  1958.2500      4.6202      8.4956    -91.2534    114.7761
  1958.5000      5.0197      8.5455    -88.2886    112.8335
  1958.7500      5.3026      8.6329    -85.9606    112.2321
  1959.0000      5.5160      8.8364    -84.1664    113.3055
  1959.2500      5.7252      9.2117    -82.8202    115.3937
  1959.5000      5.9841      9.7656    -81.8525    118.6369
  1959.7500      6.3233     10.4395    -81.2074    119.2664
  1960.0000      6.7507     11.1254    -80.8374    116.7546
  1960.2500      7.2553     11.7157    -80.6998    113.4497
  1960.5000      7.8108     12.1516    -80.7524    108.1770
  1960.7500      8.3823     12.4346    -80.9515    105.4470
  1961.0000      8.9360     12.5982    -81.2496    103.3781
  1961.2500      9.4499     12.6733    -81.5960    103.4742
  1961.5000      9.9188     12.6681    -81.9383    105.7448
  1961.7500     10.3479     12.5675    -82.2260    108.7203
  1962.0000     10.7362     12.3447    -82.4148    115.9393
  1962.2500     11.0601     11.9780    -82.4717    122.7221
  1962.5000     11.2703     11.4726    -82.3780    134.0822
  1962.7500     11.3083     10.8763    -82.1315    140.1634
  1963.0000     11.1410     10.2777    -81.7464    143.4332
  1963.2500     10.7871      9.7765    -81.2508    141.3887
  1963.5000     10.3145      9.4384    -80.6827    134.9441
  1963.7500      9.8081      9.2703    -80.0848    130.7634
  1964.0000      9.3372      9.2362    -79.4996    126.9119
  1964.2500      8.9414      9.2974    -78.9640    126.0014
  1964.5000      8.6331      9.4368    -78.5068    126.7527
  1964.7500      8.4068      9.6462    -78.1461    128.8372
  1965.0000      8.2470      9.8968    -77.8900    134.5943
  1965.2500      8.1366     10.1301    -77.7376    139.4638
  1965.5000      8.0631     10.2838    -77.6815    145.2567
  1965.7500      8.0228     10.3301    -77.7107    146.2991
  1966.0000      8.0197     10.2965    -77.8132    143.1098
  1966.2500      8.0619     10.2506    -77.9784    139.3232
  1966.5000      8.1556     10.2650    -78.1990    134.7137
  1966.7500      8.3027     10.3842    -78.4710    133.4989
  1967.0000      8.5007     10.6111    -78.7942    133.7627
  1967.2500      8.7448     10.9144    -79.1700    134.0530
