~Version Information
VERS.                      2.0: CWLS Log ASCII Standard - VERSION 2.0
WRAP.                       NO: One line per depth step
~Well Information Block
STRT.FT               860.0000: 
STOP.FT              2360.5000: 
STEP.FT                 0.1000: 
NULL.                -999.2500: 
COMP.          Pioneer Natural Resources: COMPANY
WELL.            Cayenne 23-23: WELL
FLD.           Purgatoire River: FIELD
LOC.           2555' FSL & 2386' FWL: LOCATION
PROV.                 Colorado: PROVINCE
CNTY.               Las Animas: COUNTRY
SRVC.                Patterson: SERVICE COMPANY
DATE.          Wed Aug 17 08:28:25 2005: LOG DATE
UWI.           05 071 08476 00: UNIQUE WELL ID
~Curve Information Block
DEPT.FT            0 000 00 00: Depth
DCAL.in                       : CDL Caliper
RHOB.g/cc                     : CDL Bulk Density
RHOC.g/cc                     : CDL Density Correction
DPOR.pu                       : CDL Density Porosity
GR.GAPI                       : Gamma Ray
NPOR.pu                       : Neutron Porosity
~Parameter Information Block
~A  Depth       DCAL        RHOB        RHOC        DPOR         GR         NPOR    
# ...
  2050.4000     10.0444      1.8345      0.1575     49.4247     72.8634     32.8307
  2050.5000      9.7612      1.7760      0.0660     52.9675     72.3932     32.8885
  2050.6000      9.7612      1.6912      0.0575     58.1106     73.4696     32.8954
  2050.7000      9.7612      1.5862      0.0181     64.4741     77.2531     33.1179
  2050.8000      9.2142      1.4826     -0.0164     70.7520     84.1215     34.1626
  2050.9000      9.2142      1.4106      0.0087     75.1159     88.1476     35.1636
  2051.0000      8.5237      1.3902      0.0020     76.3525     86.8346     34.7059
  2051.1000      8.5237      1.4376      0.0067     73.4781     85.9228     33.1840
  2051.2000      8.5237      1.5545      0.0463     66.3926     88.1998     31.7276
  2051.3000      8.3820      1.7058      0.1386     57.2249     90.4171     31.3105
  2051.4000      8.3820      1.8459      0.1854     48.7344     93.1166     32.3960
  2051.5000      8.3640      1.9695      0.1844     41.2446    100.0789     33.8297
  2051.6000      8.3640      2.0940      0.2404     33.6970    110.0235     34.0473
  2051.7000      8.3640      2.2051      0.2745     26.9608    117.4021     32.7235
  2051.8000      8.3018      2.2673      0.2054     23.1966    119.0016     30.8778
  2051.9000      8.3018      2.2802      0.0818     22.4108    119.0407     30.2407
  2052.0000      8.2654      2.2854      0.0687     22.0954    122.7413     30.7233
  2052.1000      8.2654      2.3099      0.0432     20.6129    127.6243     30.8792
  2052.2000      8.2654      2.3464      0.0418     18.4011    131.7348     30.9015
  2052.3000      8.1283      2.3861     -0.0061     15.9960    137.4580     31.2202
  2052.4000      8.1283      2.4256      0.0453     13.5997    141.0294     31.4385
  2052.5000      8.1061      2.4569      0.0562     11.7022    139.6376     31.2969
  2052.6000      8.1061      2.4807      0.0618     10.2608    138.4218     30.3594
  2052.7000      8.1061      2.5009      0.0883      9.0386    138.1515     29.0910
  2052.8000      8.0826      2.5122      0.0978      8.3525    133.3694     28.4835
  2052.9000      8.0826      2.5095      0.0614      8.5136    127.4021     28.3785
  2053.0000      8.0431      2.4899      0.0832      9.7001    127.1887     28.3935
  2053.1000      8.0431      2.4557      0.0063     11.7747    131.2362     28.6275
  2053.2000      8.0431      2.4312     -0.0325     13.2576    134.4147     28.4601
  2053.3000      8.0291      2.4395     -0.0126     12.7593    133.2881     28.0581
  2053.4000      8.0291      2.4630      0.0768     11.3337    129.0866     28.6787
  2053.5000      8.0096      2.4686      0.0485     10.9962    126.9711     30.0304
  2053.6000      8.0096      2.4597     -0.0079     11.5351    127.4602     30.4956
  2053.7000      8.0096      2.4673      0.0202     11.0730    125.0811     29.3907
  2053.8000      8.0049      2.5020      0.0653      8.9668    120.7316     28.0467
  2053.9000      8.0049      2.5430      0.0911      6.4878    121.3804     27.7565
  2054.0000      7.9810      2.5629      0.1333      5.2807    126.6080     28.2089
  2054.1000      7.9810      2.5493      0.0851      6.1057    130.1897     28.8990
  2054.2000      7.9810      2.5156      0.0154      8.1462    127.8380     30.1019
  2054.3000      7.9709      2.4898      0.0433      9.7062    118.7774     31.2018
  2054.4000      7.9709      2.4821      0.0865     10.1751    108.7042     30.8283
  2054.5000      7.9736      2.4813      0.0549     10.2263    102.8960     29.4524
  2054.6000      7.9736      2.4806      0.0361     10.2678    103.1950     28.7579
  2054.7000      7.9736      2.4827      0.0145     10.1384    110.2496     29.0070
  2054.8000      7.9775      2.4817      0.0670     10.2012    119.7045     29.0603
  2054.9000      7.9775      2.4695      0.0168     10.9369    123.8987     28.6915
  2055.0000      8.0031      2.4649     -0.0752     11.2165    121.5282     28.4262
  2055.1000      8.0031      2.4894      0.0225      9.7305    121.4242     28.0562
  2055.2000      8.0031      2.5262      0.0685      7.5033    126.1796     27.6453
  2055.3000      8.0094      2.5492      0.0422      6.1109    128.0582     27.7353
  2055.4000      8.0094      2.5589      0.0606      5.5200    126.1574     28.6146
  2055.5000      8.0150      2.5684      0.0504      4.9463    124.8474     29.6060
  2055.6000      8.0150      2.5831      0.0510      4.0553    124.6664     29.2532
  2055.7000      8.0150      2.5900      0.1138      3.6373    125.3870     27.6761
  2055.8000      8.0049      2.5777      0.0501      4.3808    124.8904     26.3998
  2055.9000      8.0049      2.5577      0.0374      5.5945    119.5014     25.6820
  2056.0000      8.0445      2.5381      0.0305      6.7826    110.3301     25.3932
  2056.1000      8.0445      2.5144      0.0297      8.2197    102.7793     25.6782
  2056.2000      8.0445      2.4933     -0.0260      9.4991    100.1191     26.0464
  2056.3000      8.0661      2.4925      0.0295      9.5455     98.9073     25.5022
  2056.4000      8.0661      2.5133      0.0172      8.2837     95.8196     24.2490
  2056.5000      8.0321      2.5421      0.0335      6.5411     93.1503     23.5600
  2056.6000      8.0321      2.5643      0.0740      5.1942     91.8463     23.8977
  2056.7000      8.0321      2.5693      0.1090      4.8938     91.9770     24.7724
  2056.8000      8.0359      2.5541      0.0933      5.8110     97.1582     25.4663
  2056.9000      8.0359      2.5360      0.0424      6.9065    107.5625     25.4904
  2057.0000      7.9892      2.5387      0.0647      6.7450    116.7073     25.2270
  2057.1000      7.9892      2.5642      0.0709      5.2019    119.7052     25.1533
  2057.2000      7.9892      2.5951      0.0954      3.3286    115.0112     24.9675
  2057.3000      7.9474      2.6172      0.0768      1.9853    105.7200     24.3453
  2057.4000      7.9474      2.6325      0.0501      1.0613     99.3654     24.0357
  2057.5000      7.9568      2.6445      0.0675      0.3345     99.6499     24.9904
  2057.6000      7.9568      2.6493      0.1152      0.0423    102.9384     26.3462
  2057.7000      7.9568      2.6486      0.1154      0.0838    104.0357     26.2472
  2057.8000      7.9751      2.6466      0.0784      0.2035    102.6377     24.9089
  2057.9000      7.9751      2.6320      0.1150      1.0897    103.4664     24.1280
  2058.0000      7.9527      2.5951      0.0240      3.3256    106.8513     24.4042
  2058.1000      7.9527      2.5547     -0.0235      5.7769    107.7251     24.7696
  2058.2000      7.9527      2.5234      0.0515      7.6703    104.8723     24.8051
  2058.3000      7.9489      2.4969     -0.0355      9.2816    101.0523     24.9971
  2058.4000      7.9489      2.4837     -0.0058     10.0761     97.3238     25.2927
  2058.5000      7.9630      2.4858      0.0250      9.9510     95.4359     25.3537
  2058.6000      7.9630      2.4888      0.0310      9.7710     96.5450     25.3504
  2058.7000      7.9630      2.4900      0.0057      9.7000     99.3310     25.2402
  2058.8000      7.9678      2.4968      0.0426      9.2851    104.1987     24.7116
  2058.9000      7.9678      2.5097      0.0741      8.5060    112.0298     24.2284
  2059.0000      7.9686      2.5232      0.0754      7.6873    119.5451     24.8767
  2059.1000      7.9686      2.5295      0.0924      7.3024    119.8046     26.6069
  2059.2000      7.9686      2.5244      0.0642      7.6101    112.7437     27.5981
  2059.3000      7.9715      2.5205      0.0235      7.8482    107.5460     26.9641
  2059.4000      7.9715      2.5272      0.0800      7.4407    108.7057     25.7027
  2059.5000      7.9904      2.5342      0.0284      7.0178    113.7661     24.4763
  2059.6000      7.9904      2.5354      0.0215      6.9475    120.0159     23.7322
  2059.7000      7.9904      2.5306      0.0695      7.2351    123.1773     24.0240
  2059.8000      7.9545      2.5233      0.0287      7.6766    120.8419     24.8645
  2059.9000      7.9545      2.5288      0.0203      7.3432    119.0245     25.2180
