~Version Information
VERS.                      2.0: CWLS Log ASCII Standard - VERSION 2.0
WRAP.                       NO: One line per depth step
~Well Information Block
STRT.FT                -8.7500: 
STOP.FT              1727.2500: 
STEP.FT                 0.2500: 
NULL.                -999.2500: 
COMP.          XTO Energy Inc.: COMPANY
WELL.          Apache Canyon 34-08: WELL
FLD.              Vermejo Coal: FIELD
LOC.           1668' FNL & 275' FEL: LOCATION
STAT.                       CO: State
CNTY.               Las Animas: COUNTY
CTRY. USA : Country
SECT. 34 : Section
TOWN. 33S : Township
RANG. 67W : Range
SRVC.          Patterson Wireline: SERVICE COMPANY
DATE.          Mon Jan 09 09:34:21 2006: LOG DATE
API.           05 071 08541 00: UNIQUE WELL ID
~Curve Information Block
DEPT.FT            0 000 00 00: Depth
CCL.                          : Casing Collar Locator
TT3.usec                      : CBL 3' Travel Time
AMP3.mV                       : CBL 3' Amplitude
GR.GAPI                       : Gamma Ray
~Parameter Information Block
~A  Depth       CCL         TT3         AMP3         GR     
# ...
   225.7500      0.0000    776.5422      5.0239    121.1128
   226.0000      0.0000    768.5967      5.1004    122.1891
   226.2500      0.0000    764.5310      5.2161    120.9310
   226.5000      0.0000    762.3577      5.3106    118.8893
   226.7500      0.0000    759.6056      5.3567    117.7577
   227.0000      0.0000    756.2518      5.3637    118.5425
   227.2500      0.0000    753.2084      5.3661    120.7007
   227.5000      0.0000    749.7859      5.4096    121.9798
   227.7500      0.0000    744.6876      5.5413    120.0646
   228.0000      0.0000    738.4280      5.8000    114.9021
   228.2500      0.0000    733.0999      6.2057    108.9508
   228.5000      0.0000    730.4754      6.7545    105.0576
   228.7500      0.0000    731.5510      7.4181    104.5028
   229.0000      0.0000    737.7985      8.1475    106.9055
   229.2500      0.0000    751.7145      8.8840    111.1140
   229.5000      0.0000    775.0406      9.5850    115.6978
   229.7500      0.0000    805.3943     10.2511    118.8839
   230.0000      0.0000    834.5901     10.9254    118.9192
   230.2500      0.0000    850.8607     11.6537    115.0912
   230.5000      0.0000    844.3642     12.4167    108.2606
   230.7500      0.0000    813.9582     13.0801    100.4049
   231.0000      0.0000    771.4902     13.4260     93.9791
   231.2500      0.0000    737.2609     13.2708     91.2740
   231.5000      0.0000    726.2471     12.5813     93.2818
   231.7500      0.0000    738.0759     11.4952     98.8497
   232.0000      0.0000    761.7037     10.2402    105.5701
   232.2500      0.0000    786.9244      9.0335    111.8573
   232.5000      0.0000    808.3798      8.0212    117.8279
   232.7500      0.0000    821.5646      7.2626    123.9359
   233.0000      0.0000    821.0148      6.7378    129.3400
   233.2500      0.0000    804.8890      6.3757    132.2865
   233.5000      0.0000    779.0781      6.0972    131.9702
   233.7500      0.0000    753.9395      5.8550    129.4606
   234.0000      0.0000    736.8977      5.6432    126.7026
   234.2500      0.0000    728.8278      5.4780    124.9285
   234.5000      0.0000    726.4723      5.3712    124.1805
   234.7500      0.0000    726.4173      5.3167    124.2655
   235.0000      0.0000    726.8177      5.2942    125.8136
   235.2500      0.0000    727.0782      5.2801    129.8168
   235.5000      0.0000    727.0951      5.2596    136.0126
   235.7500      0.0000    726.9061      5.2307    142.4978
   236.0000      0.0000    726.6105      5.1997    147.4710
   236.2500      0.0000    726.3259      5.1705    150.8265
   236.5000      0.0000    726.1053      5.1398    153.4630
   236.7500      0.0000    725.9032      5.1023    155.5029
   237.0000      0.0000    725.6428      5.0598    155.8500
   237.2500      0.0000    725.3074      5.0208    153.1494
   237.5000      0.0000    724.9582      4.9932    146.8638
   237.7500      0.0000    724.6766      4.9806    138.0843
   238.0000      0.0000    724.5040      4.9841    129.6622
   238.2500      0.0000    724.4300      5.0043    124.7400
   238.5000      0.0000    724.4157      5.0392    124.4152
   238.7500      0.0000    724.4178      5.0819    127.0018
   239.0000      0.0000    724.4048      5.1238    129.6530
   239.2500      0.0000    724.3742      5.1598    130.4664
   239.5000      0.0000    724.3514      5.1878    129.2765
   239.7500      0.0000    724.3575      5.2067    127.0416
   240.0000      0.0000    724.3801      5.2149    124.6268
   240.2500      0.0000    724.3893      5.2145    122.1245
   240.5000      0.0000    724.3804      5.2134    119.4035
   240.7500      0.0000    724.3887      5.2199    117.0452
   241.0000      0.0000    724.4672      5.2347    116.1200
   241.2500      0.0000    724.6494      5.2514    116.9224
   241.5000      0.0000    724.9178      5.2629    118.4707
   241.7500      0.0000    725.2064      5.2661    119.5164
   242.0000      0.0000    725.4466      5.2624    119.7207
   242.2500      0.0000    725.6222      5.2558    119.8545
   242.5000      0.0000    725.7708      5.2517    121.3128
   242.7500      0.0000    725.9310      5.2539    125.2983
   243.0000      0.0000    726.0976      5.2611    131.8339
   243.2500      0.0000    726.2305      5.2668    139.3423
   243.5000      0.0000    726.2975      5.2626    145.3525
   243.7500      0.0000    726.3054      5.2444    147.7515
   244.0000      0.0000    726.2932      5.2151    145.6854
   244.2500      0.0000    726.3057      5.1841    139.7470
   244.5000      0.0000    726.3714      5.1620    131.5444
   244.7500      0.0000    726.4929      5.1546    123.0085
   245.0000      0.0000    726.6401      5.1596    115.8461
   245.2500      0.0000    726.7565      5.1692    111.0809
   245.5000      0.0000    726.7878      5.1770    108.4980
   245.7500      0.0000    726.7156      5.1823    106.8040
   246.0000      0.0000    726.5653      5.1873    105.1851
   246.2500      0.0000    726.3895      5.1941    104.7621
   246.5000      0.0000    726.2419      5.2034    107.6046
   246.7500      0.0000    726.1562      5.2141    113.9983
   247.0000      0.0000    726.1368      5.2212    121.4692
   247.2500      0.0000    726.1661      5.2185    126.8906
   247.5000      0.0000    726.2158      5.2047    128.9821
   247.7500      0.0000    726.2522      5.1882    128.5988
   248.0000      0.0000    726.2496      5.1825    127.3776
   248.2500      0.0000    726.2198      5.1971    126.4415
   248.5000      0.0000    726.2589      5.2292    125.9120
   248.7500      0.0000    726.5645      5.2633    125.3252
   249.0000      0.0000    727.4213      5.2812    124.5209
   249.2500      0.0000    729.0969      5.2740    123.6916
   249.5000      0.0000    731.5134      5.2479    122.2666
   249.7500      0.0000    733.8790      5.2162    118.6609
   250.0000      0.0000    734.9578      5.1886    112.2147
   250.2500      0.0000    734.1030      5.1669    105.1386
   250.5000      0.0000    731.9073      5.1478    101.5329
   250.7500      0.0000    729.5921      5.1278    104.1437
   251.0000      0.0000    727.9664      5.1055    112.2446
   251.2500      0.0000    727.1193      5.0811    122.3978
   251.5000      0.0000    726.7676      5.0558    130.8197
   251.7500      0.0000    726.5963      5.0321    135.3791
   252.0000      0.0000    726.4035      5.0120    136.2905
   252.2500      0.0000    726.1553      4.9951    135.3626
   252.5000      0.0000    725.9419      4.9766    134.4335
   252.7500      0.0000    725.8407      4.9500    134.3528
   253.0000      0.0000    725.8276      4.9144    135.2366
   253.2500      0.0000    725.8101      4.8774    137.1826
   253.5000      0.0000    725.7141      4.8497    140.3472
   253.7500      0.0000    725.5191      4.8367    144.5148
   254.0000      0.0000    725.2367      4.8336    148.9213
   254.2500      0.0000    724.8851      4.8295    152.5418
   254.5000      0.0000    724.4808      4.8167    154.4624
   254.7500      0.0000    724.0389      4.7990    154.1230
   255.0000      0.0000    723.5801      4.7921    151.7575
   255.2500      0.0000    723.1378      4.8147    148.8870
   255.5000      0.0000    722.7545      4.8814    147.6575
   255.7500      0.0000    722.4683      5.0009    148.7766
   256.0000      0.0000    722.3126      5.1773    150.1756
   256.2500      0.0000    722.3278      5.4027    148.3279
   256.5000      0.0000    722.5567      5.6498    141.1566
   256.7500      0.0000    723.0634      5.8777    129.7988
   257.0000      0.0000    724.0662      6.0542    117.8509
   257.2500      0.0000    726.2299      6.1759    108.8027
   257.5000      0.0000    730.7648      6.2618    103.4725
   257.7500      0.0000    738.6945      6.3241     99.4472
   258.0000      0.0000    749.2632      6.3470     93.2665
   258.2500      0.0000    759.1248      6.2987     83.5088
   258.5000      0.0000    764.2036      6.1598     71.8377
   258.7500      0.0000    763.4865      5.9365     61.3530
   259.0000      0.0000    760.9159      5.6497     54.3328
