~Version Information
 VERS.                                  2.0 : CWLS LAS VERSION
 WRAP.                                   NO : WRAPING MODE
 SWARE .                 MController 2.5.0N : SOFTWARE VERSION
~Well Information
 WELL.                            Zed 11-23 : WELL
 COMP.    Pioneer Natural Resources USA Inc : COMPANY
 FLD.                      Purgatoire River : FIELD
 LOC.                  NWNW Sec23 T33S R65W : LOCATION
 DATE.                             02/26/06 : DATE(S) LOGGED
 SRVC.       Blanco Geological Services LLC : SERVICE COMPANY
 STAT.                             Colorado : STATE
 CNTY.                           Las Animas : COUNTY
 CTRY.                                  USA : COUNTRY
 API.                       05-071-08702-00 : API NUMBER
 STRT.FT                             441.00 : START DEPTH
 STOP.FT                             770.00 : STOP DEPTH
 STEP.FT                               1.00 : DEPTH INCREMENT
 NULL.                                -9999 : NULL VALUE
~Curve information
 DEPTH.FT                                   :
 ROP.MIN/FT                                 :
 GAS.UNITS                                  :
~ASCII Log data
# ...
       641.0         0.27        609.0 
       642.0         0.28        609.3 
       643.0         0.30        603.9 
       644.0         0.27        602.6 
       645.0         0.27        602.9 
       646.0         0.30        601.2 
       647.0         0.27        606.9 
       648.0         0.27        608.6 
       649.0         0.30        596.8 
       650.0         0.30        468.1 
       651.0         2.62       2462.3 
       652.0         0.37        970.8 
       653.0         0.40        865.0 
       654.0         0.43        754.8 
       655.0         0.55        690.2 
       656.0         0.50        647.4 
       657.0         0.43        610.3 
       658.0         0.37        598.2 
       659.0         0.33        594.1 
       660.0         0.40        589.8 
       661.0         0.30        586.7 
       662.0         0.33        586.1 
       663.0         0.33        588.1 
       664.0         0.42        588.1 
       665.0         0.33        586.7 
       666.0         0.40        593.5 
       667.0         0.33        599.5 
       668.0         0.30        595.2 
       669.0         0.27        593.1 
       670.0         0.27        590.8 
       671.0         0.27        587.7 
       672.0         0.27        583.4 
       673.0         0.27        579.3 
       674.0         0.30        578.6 
       675.0         0.32        575.9 
       676.0         0.27        576.6 
       677.0         0.27        573.9 
       678.0         0.27        575.6 
       679.0         0.30        580.0 
       680.0         0.30        538.9 
       681.0         3.45       2500.7 
       682.0         0.33        940.5 
       683.0         0.30        836.4 
       684.0         0.30        754.2 
       685.0         0.33        690.2 
       686.0         0.27        633.6 
       687.0         0.35        620.4 
       688.0         0.30        602.9 
       689.0         0.30        597.8 
       690.0         0.33        593.1 
       691.0         0.30        588.8 
       692.0         0.30        585.7 
       693.0         0.33        580.3 
       694.0         0.30        581.3 
       695.0         0.30        583.0 
       696.0         0.33        582.7 
       697.0         0.35        580.0 
       698.0         0.33        578.6 
       699.0         0.33        581.3 
       700.0         0.30        581.0 
       701.0         0.30        579.7 
       702.0         0.33        581.7 
       703.0         0.30        583.0 
       704.0         0.33        580.7 
       705.0         0.33        582.3 
       706.0         0.30        581.3 
       707.0         0.33        584.0 
       708.0         0.32        577.3 
       709.0         0.33        580.7 
       710.0         0.33        573.6 
       711.0         3.62       2840.3 
       712.0         0.53        892.6 
       713.0         0.60        753.5 
       714.0         0.57        674.3 
       715.0         0.48        632.5 
       716.0         0.47        618.1 
       717.0         0.50        601.2 
       718.0         0.33        589.4 
       719.0         0.30        586.7 
       720.0         0.37        584.4 
       721.0         0.33        583.7 
       722.0         0.30        583.0 
       723.0         0.33        582.7 
       724.0         0.35        582.3 
       725.0         0.33        583.4 
       726.0         0.37        582.7 
       727.0         0.33        582.0 
       728.0         0.33        581.3 
       729.0         0.33        583.0 
       730.0         0.37        582.3 
       731.0         0.33        583.0 
       732.0         0.30        583.4 
       733.0         0.30        583.7 
       734.0         0.30        583.7 
       735.0         0.32        584.0 
       736.0         0.30        584.7 
       737.0         0.30        582.3 
       738.0         0.37        583.4 
       739.0         0.43        588.1 
       740.0         0.37        529.1 
       741.0         3.32       2537.5 
       742.0         0.47        886.9 
       743.0         0.37        807.7 
       744.0         0.37        712.7 
       745.0         0.28        664.6 
       746.0         0.27        656.5 
       747.0         0.30        638.6 
       748.0         0.33        611.0 
       749.0         0.27        603.9 
       750.0         0.23        601.9 
       751.0         0.30        596.8 
       752.0         0.30        595.2 
       753.0         0.33        596.2 
       754.0         0.37        593.1 
       755.0         0.30        585.7 
       756.0         0.32        584.7 
       757.0         0.27        587.1 
       758.0         0.30        588.8 
       759.0         0.30        590.4 
       760.0         0.27        596.2 
       761.0         0.27        593.8 
       762.0         0.30        591.8 
       763.0         0.30        589.8 
       764.0         0.27        586.7 
       765.0         0.30        587.1 
       766.0         0.30        628.5 
       767.0         0.32        662.5 
       768.0         0.30        674.0 
       769.0         0.30        679.4 
       770.0         0.47        576.3 
