~Version Information
VERS.                      2.0: CWLS Log ASCII Standard - VERSION 2.0
WRAP.                       NO: One line per depth step
~Well Information Block
STRT.FT               335.0000: 
STOP.FT              1013.5000: 
STEP.FT                 0.1000: 
NULL.                -999.2500: 
COMP.          Pioneer Natural Resources: COMPANY
WELL.             Giggle 21-22: WELL
FLD.           Purgatoire River: FIELD
LOC.           950' FNL & 2094' FWL: LOCATION
CNTY.               Las Animas: COUNTY
SRVC.                Patterson: SERVICE COMPANY
DATE.          Thu Apr 13 09:31:38 2006: LOG DATE
UWI.           05 071 08726 00: UNIQUE WELL ID
STAT.                 Colorado: STATE
~Curve Information Block
DEPT.FT            0 000 00 00: Depth
DCAL.in                       : CDL Caliper
RHOB.g/cc                     : CDL Bulk Density
RHOC.g/cc                     : CDL Density Correction
DPOR.pu                       : CDL Density Porosity
GR.GAPI                       : Gamma Ray
NPOR.pu                       : Neutron Porosity
~Parameter Information Block
~A  Depth       DCAL        RHOB        RHOC        DPOR         GR         NPOR    
# ...
   997.4000      7.8667      2.4600      0.0111     11.5125   -999.2500     21.8129
   997.5000      7.8672      2.4509      0.0249     12.0685   -999.2500     20.7650
   997.6000      7.8672      2.4534     -0.0165     11.9142   -999.2500     20.1137
   997.7000      7.8672      2.4652      0.0448     11.1988   -999.2500     20.2616
   997.8000      7.8671      2.4738      0.0197     10.6797   -999.2500     20.6799
   997.9000      7.8671      2.4742     -0.0174     10.6574   -999.2500     20.4643
   998.0000      7.8684      2.4704     -0.0035     10.8823   -999.2500     19.5309
   998.1000      7.8684      2.4689      0.0044     10.9779   -999.2500     18.4844
   998.2000      7.8684      2.4815      0.0227     10.2130   -999.2500     17.9899
   998.3000      7.8697      2.5056      0.0544      8.7487   -999.2500     18.6501
   998.4000      7.8697      2.5208      0.0515      7.8302   -999.2500     20.2096
   998.5000      7.8656      2.5261      0.0117      7.5089   -999.2500     20.7873
   998.6000      7.8656      2.5429      0.0731      6.4936   -999.2500     19.7155
   998.7000      7.8656      2.5807      0.0803      4.1990   -999.2500     18.9260
   998.8000      7.8667      2.6321      0.0744      1.0825   -999.2500     19.2280
   998.9000      7.8667      2.6749      0.1396     -1.5068   -999.2500     19.3969
   999.0000      7.8655      2.6830      0.0804     -1.9990   -999.2500     19.0433
   999.1000      7.8655      2.6558      0.0817     -0.3486   -999.2500     18.5041
   999.2000      7.8655      2.6187      0.0623      1.8981   -999.2500     19.6606
   999.3000      7.8667      2.5948      0.0405      3.3465   -999.2500     27.1302
   999.4000      7.8667      2.5878      0.0181      3.7694   -999.2500     40.6251
   999.5000      7.8674      2.5875      0.0347      3.7905   -999.2500     50.6791
   999.6000      7.8674      2.5801      0.0182      4.2377   -999.2500     54.2667
   999.7000      7.8674      2.5639     -0.0003      5.2170   -999.2500     54.9639
   999.8000      7.8667      2.5518      0.0066      5.9535   -999.2500     55.0378
   999.9000      7.8667      2.5483      0.0089      6.1607   -999.2500     55.0419
  1000.0000      7.8649      2.5464     -0.0421      6.2779   -999.2500   -999.2500
  1000.1000      7.8649      2.5443      0.0276      6.4052   -999.2500   -999.2500
  1000.2000      7.8649      2.5418      0.0323      6.5551   -999.2500   -999.2500
  1000.3000      7.8671      2.5335      0.0395      7.0616   -999.2500   -999.2500
  1000.4000      7.8671      2.5156      0.0390      8.1447   -999.2500   -999.2500
  1000.5000      7.8660      2.4935      0.0346      9.4832   -999.2500   -999.2500
  1000.6000      7.8660      2.4768      0.0378     10.4943   -999.2500   -999.2500
  1000.7000      7.8660      2.4722      0.0170     10.7771   -999.2500   -999.2500
  1000.8000      7.8664      2.4733      0.0482     10.7073   -999.2500   -999.2500
  1000.9000      7.8664      2.4691      0.0352     10.9623   -999.2500   -999.2500
  1001.0000      7.8665      2.4628      0.0457     11.3445   -999.2500   -999.2500
  1001.1000      7.8665      2.4600      0.0388     11.5133   -999.2500   -999.2500
  1001.2000      7.8665      2.4634      0.0435     11.3095   -999.2500   -999.2500
  1001.3000      7.8670      2.4755      0.0547     10.5785   -999.2500   -999.2500
  1001.4000      7.8670      2.4906      0.0931      9.6606   -999.2500   -999.2500
  1001.5000      7.8680      2.5010      0.0591      9.0275   -999.2500   -999.2500
  1001.6000      7.8680      2.5006      0.1019      9.0529   -999.2500   -999.2500
  1001.7000      7.8680      2.4862      0.0397      9.9270   -999.2500   -999.2500
  1001.8000      7.8671      2.4722      0.0224     10.7779   -999.2500   -999.2500
  1001.9000      7.8671      2.4742      0.0277     10.6532   -999.2500   -999.2500
  1002.0000      7.8677      2.4882      0.0700      9.8035   -999.2500   -999.2500
  1002.1000      7.8677      2.4984      0.0645      9.1871   -999.2500   -999.2500
  1002.2000      7.8677      2.5014      0.0331      9.0075   -999.2500   -999.2500
  1002.3000      7.8670      2.5058      0.0356      8.7366   -999.2500   -999.2500
  1002.4000      7.8670      2.5128      0.0492      8.3141   -999.2500   -999.2500
  1002.5000      7.8668      2.5126      0.0619      8.3255   -999.2500   -999.2500
  1002.6000      7.8668      2.4980      0.0034      9.2117   -999.2500   -999.2500
  1002.7000      7.8668      2.4862     -0.0359      9.9263   -999.2500   -999.2500
  1002.8000      7.8654      2.5038      0.0296      8.8591   -999.2500   -999.2500
  1002.9000      7.8654      2.5390      0.0911      6.7301   -999.2500   -999.2500
  1003.0000      7.8588      2.5545      0.0769      5.7853   -999.2500   -999.2500
  1003.1000      7.8588      2.5459      0.0635      6.3113   -999.2500   -999.2500
  1003.2000      7.8588      2.5428      0.0436      6.4979   -999.2500   -999.2500
  1003.3000      7.8687      2.5535      0.1164      5.8512   -999.2500   -999.2500
  1003.4000      7.8687      2.5519      0.0933      5.9444   -999.2500   -999.2500
  1003.5000      7.8696      2.5297      0.0807      7.2893   -999.2500   -999.2500
  1003.6000      7.8696      2.5104      0.0487      8.4623   -999.2500   -999.2500
  1003.7000      7.8696      2.5142      0.0668      8.2298   -999.2500   -999.2500
  1003.8000      7.8680      2.5382      0.1270      6.7744   -999.2500   -999.2500
  1003.9000      7.8680      2.5680      0.0406      4.9693   -999.2500   -999.2500
  1004.0000      7.8691      2.5915      0.0922      3.5428   -999.2500   -999.2500
  1004.1000      7.8691      2.6006      0.0897      2.9923   -999.2500   -999.2500
  1004.2000      7.8691      2.5919      0.0971      3.5185   -999.2500   -999.2500
  1004.3000      7.8685      2.5699      0.0669      4.8562   -999.2500   -999.2500
  1004.4000      7.8685      2.5479      0.0909      6.1859   -999.2500   -999.2500
  1004.5000      7.8659      2.5297      0.0953      7.2887   -999.2500   -999.2500
  1004.6000      7.8659      2.5129      0.0717      8.3072   -999.2500   -999.2500
  1004.7000      7.8659      2.5060      0.0500      8.7246   -999.2500   -999.2500
  1004.8000      7.8400      2.5110      0.0826      8.4222   -999.2500   -999.2500
  1004.9000      7.8400      2.5122      0.0764      8.3543   -999.2500   -999.2500
  1005.0000      7.7968      2.5034      0.0775      8.8846   -999.2500   -999.2500
  1005.1000      7.7968      2.5053      0.0010      8.7700   -999.2500   -999.2500
  1005.2000      7.7968      2.5300      0.1159      7.2707   -999.2500   -999.2500
  1005.3000      7.7984      2.5553      0.1418      5.7393   -999.2500   -999.2500
  1005.4000      7.7984      2.5688      0.0868      4.9188   -999.2500   -999.2500
  1005.5000      7.7835      2.5907      0.0977      3.5958   -999.2500   -999.2500
  1005.6000      7.7835      2.6269      0.1354      1.4025   -999.2500   -999.2500
  1005.7000      7.7835      2.6564      0.1704     -0.3903   -999.2500   -999.2500
  1005.8000      7.7836      2.6615      0.1785     -0.6974   -999.2500   -999.2500
  1005.9000      7.7836      2.6450      0.1335      0.3016   -999.2500   -999.2500
  1006.0000      7.7676      2.6209      0.1011      1.7620   -999.2500   -999.2500
  1006.1000      7.7676      2.5920      0.1128      3.5181   -999.2500   -999.2500
  1006.2000      7.7676      2.5576      0.0306      5.5980   -999.2500   -999.2500
  1006.3000      7.7671      2.5340      0.0380      7.0321   -999.2500   -999.2500
  1006.4000      7.7671      2.5396      0.0386      6.6904   -999.2500   -999.2500
  1006.5000      7.7720      2.5643      0.1380      5.1926   -999.2500   -999.2500
  1006.6000      7.7720      2.5757      0.0856      4.5001   -999.2500   -999.2500
  1006.7000      7.7720      2.5590      0.0862      5.5137   -999.2500   -999.2500
  1006.8000      7.7758      2.5267      0.0514      7.4698   -999.2500   -999.2500
  1006.9000      7.7758      2.5052      0.0350      8.7776   -999.2500   -999.2500
