~Version Information
VERS.                      2.0: CWLS Log ASCII Standard - VERSION 2.0
WRAP.                       NO: One line per depth step
~Well Information Block
STRT.FT               -10.2500: 
STOP.FT              2437.2500: 
STEP.FT                 0.2500: 
NULL.                -999.2500: 
COMP.          Pioneer Natural Resources: COMPANY
WELL.          Hellzonfire 32-31: WELL
FLD.           Purgatorie River: FIELD
LOC.           1993' FNL & 2265' FEL------: LOCATION
STAT.                       CO: State
CNTY.               Las Animas: COUNTY
CTRY. USA : Country
SECT. 31 : Section
TOWN. 32S : Township
RANG. 66W : Range
SRVC.          Patterson Wireline: SERVICE COMPANY
DATE.          Thu Sep 08 11:10:17 2005: LOG DATE
API.           05 071 08483 00: UNIQUE WELL ID
~Curve Information Block
DEPT.FT            0 000 00 00: Depth
CCL.                          : Casing Collar Locator
TT3.usec                      : CBL 3' Travel Time
AMP3.mV                       : CBL 3' Amplitude
GR.GAPI                       : Gamma Ray
~Parameter Information Block
~A  Depth       CCL         TT3         AMP3         GR     
# ...
   458.7500      0.0000    953.8952      9.8793    129.1204
   459.0000      0.0000    976.8942      9.4017    129.0806
   459.2500      0.0000    987.3359      9.1910    128.4486
   459.5000     -2.0000    983.5673      9.1640    127.1710
   459.7500      0.0000    970.2028      9.2094    125.3306
   460.0000      0.0000    952.8979      9.3155    123.4095
   460.2500      0.0000    934.0666      9.5883    121.7937
   460.5000      0.0000    911.6942     10.1578    120.4578
   460.7500      0.0000    881.1592     11.0174    119.4684
   461.0000      0.0000    840.9146     11.9444    119.3346
   461.2500      0.0000    798.0571     12.6536    120.2915
   461.5000      0.0000    766.3680     13.0518    121.5300
   461.7500      0.0000    757.1583     13.2743    121.8079
   462.0000      0.0000    771.3000     13.4802    120.6748
   462.2500      0.0000    799.1307     13.7070    118.5575
   462.5000      0.0000    828.1841     13.9188    115.8455
   462.7500      0.0000    851.7084     14.1000    112.4979
   463.0000      0.0000    871.4563     14.2599    108.5369
   463.2500      0.0000    894.8761     14.3806    104.4670
   463.5000      0.0000    929.8821     14.3961    101.0311
   463.7500      0.0000    978.7515     14.2287     98.7351
   464.0000      0.0000   1034.4426     13.8549     97.6676
   464.2500      0.0000   1084.2878     13.3419     97.5075
   464.5000      0.0000   1118.9946     12.8168     97.4932
   464.7500      0.0000   1137.7562     12.3894     96.6420
   465.0000      0.0000   1145.6315     12.0990     94.4868
   465.2500      0.0000   1148.2002     11.9246     91.6920
   465.5000      0.0000   1148.8513     11.8265     89.5485
   465.7500      0.0000   1148.9802     11.7693     88.6255
   466.0000      0.0000   1149.0000     11.7265     88.1422
   466.2500      0.0000   1149.0000     11.6952     86.8987
   466.5000      0.0000   1149.0000     11.7169     84.6814
   466.7500      0.0000   1149.0000     11.8606     82.5321
   467.0000      0.0000   1148.9904     12.1641     81.5995
   467.2500      0.0000   1148.9369     12.5932     81.8755
   467.5000      0.0000   1148.6797     13.0621     82.2620
   467.7500      0.0000   1147.7136     13.4844     82.0056
   468.0000      0.0000   1144.9706     13.8032     81.8918
   468.2500      0.0000   1138.9928     13.9949     83.6138
   468.5000      0.0000   1128.9557     14.0683     87.8965
   468.7500      0.0000   1115.6820     14.0602     93.5901
   469.0000      0.0000   1101.2396     14.0176     98.8081
   469.2500      0.0000   1087.9563     13.9716    102.7073
   469.5000      0.0000   1078.5061     13.9245    105.8688
   469.7500      0.0000   1074.5479     13.8560    109.0510
   470.0000      0.0000   1071.1897     13.7465    112.0798
   470.2500      0.0000   1054.3966     13.5971    114.2362
   470.5000      0.0000   1011.6464     13.4299    115.3462
   470.7500      0.0000    949.6182     13.2704    115.9779
   471.0000      0.0000    896.2941     13.1297    116.5562
   471.2500      0.0000    877.5398     13.0067    116.7041
   471.5000      0.0000    892.9045     12.9012    115.7679
   471.7500      0.0000    922.0498     12.8186    113.9390
   472.0000      0.0000    951.8465     12.7577    112.4570
   472.2500      0.0000    985.7797     12.7058    112.5227
   472.5000      0.0000   1028.1688     12.6524    114.4216
   472.7500      0.0000   1072.2654     12.6081    117.9399
   473.0000      0.0000   1107.3020     12.6045    122.9128
   473.2500      0.0000   1129.0676     12.6670    128.6077
   473.5000      0.0000   1140.3153     12.7859    133.1565
   473.7500      0.0000   1145.4601     12.9174    134.6913
   474.0000      0.0000   1147.4240     13.0145    133.0859
   474.2500      0.0000   1147.4658     13.0532    130.1218
   474.5000      0.0000   1145.7334     13.0312    127.9862
   474.7500      0.0000   1141.4930     12.9588    127.4865
   475.0000      0.0000   1132.8406     12.8571    127.2633
   475.2500      0.0000   1116.2789     12.7550    124.9086
   475.5000      0.0000   1087.9265     12.6810    119.5489
   475.7500      0.0000   1047.4250     12.6570    113.3990
   476.0000      0.0000   1001.1281     12.6967    110.1806
   476.2500      0.0000    959.3868     12.7990    111.8306
   476.5000      0.0000    929.3420     12.9405    117.0213
   476.7500      0.0000    911.0286     13.0829    122.6210
   477.0000      0.0000    900.6245     13.1932    126.0576
   477.2500      0.0000    896.7652     13.2554    126.6541
   477.5000      0.0000    903.6499     13.2619    125.5399
   477.7500      0.0000    927.8186     13.2069    124.4560
   478.0000      0.0000    970.5007     13.0910    124.4566
   478.2500      0.0000   1022.2789     12.9256    125.4645
   478.5000      0.0000   1066.0686     12.7255    126.5180
   478.7500      0.0000   1086.7126     12.5048    126.3108
   479.0000      0.0000   1080.1079     12.2776    124.0531
   479.2500      0.0000   1056.7570     12.0565    120.1257
   479.5000      0.0000   1037.0023     11.8454    115.7771
   479.7500      0.0000   1037.9941     11.6391    112.2456
   480.0000      0.0000   1061.3782     11.4298    110.3195
   480.2500      0.0000   1094.2345     11.2160    110.2989
   480.5000      0.0000   1121.9500     11.0078    111.7112
   480.7500      0.0000   1138.4578     10.8263    113.1075
   481.0000      0.0000   1145.7629     10.6999    112.7115
   481.2500      0.0000   1148.2180     10.6547    109.4308
   481.5000      0.0000   1148.8517     10.7040    103.2658
   481.7500      0.0000   1148.9802     10.8391     95.2462
   482.0000      0.0000   1148.9973     11.0302     87.2330
   482.2500      0.0000   1148.9828     11.2364     81.3690
   482.5000      0.0000   1148.9126     11.4228     79.1254
   482.7500      0.0000   1148.6543     11.5785     80.4170
   483.0000      0.0000   1147.9324     11.7200     83.3162
   483.2500      0.0000   1146.4254     11.8732     84.8254
   483.5000      0.0000   1144.1219     12.0472     82.7735
   483.7500      0.0000   1141.6034     12.2201     77.5228
   484.0000      0.0000   1139.5848     12.3459     71.5855
   484.2500      0.0000   1137.7465     12.3753     67.2103
   484.5000      0.0000   1134.0930     12.2806     64.5014
   484.7500      0.0000   1125.6396     12.0730     61.9966
   485.0000      0.0000   1109.7150     11.8005     58.7643
   485.2500      0.0000   1085.8801     11.5284     55.6529
   485.5000      0.0000   1058.8491     11.3166     54.5041
   485.7500      0.0000   1039.2042     11.2038     56.2234
   486.0000      0.0000   1037.4076     11.1997     59.5865
   486.2500      0.0000   1054.9712     11.2887     62.0631
   486.5000      0.0000   1083.0607     11.4403     61.9895
   486.7500      0.0000   1110.1748     11.6229     59.9365
   487.0000      0.0000   1129.6637     11.8117     57.9029
   487.2500      0.0000   1140.8364     11.9960     57.3863
   487.5000      0.0000   1146.0347     12.1834     58.3251
   487.7500      0.0000   1147.9041     12.3912     59.7040
   488.0000      0.0000   1148.2313     12.6290     60.8938
   488.2500      0.0000   1147.8635     12.8897     62.1287
   488.5000      0.0000   1147.0056     13.1535     63.7575
   488.7500      0.0000   1145.5573     13.3901     65.6266
   489.0000      0.0000   1143.5594     13.5593     67.4139
   489.2500      0.0000   1141.6683     13.6249     68.7937
   489.5000      0.0000   1140.9644     13.5836     68.8099
   489.7500      0.0000   1142.0089     13.4801     66.0663
   490.0000      0.0000   1144.2244     13.3857     60.5039
   490.2500      0.0000   1146.4506     13.3524     54.3636
   490.5000      0.0000   1147.9385     13.3876     50.2936
   490.7500      0.0000   1148.6555     13.4641     48.7775
   491.0000      0.0000   1148.9130     13.5435     48.0968
   491.2500      0.0000   1148.9829     13.5879     46.4266
   491.5000      0.0000   1148.9973     13.5625     43.4747
   491.7500      0.0000   1149.0000     13.4417     40.5027
   492.0000      0.0000   1148.9948     13.2253     39.1902
