~Version Information
VERS.                      2.0: CWLS Log ASCII Standard - VERSION 2.0
WRAP.                       NO: One line per depth step
~Well Information Block
STRT.FT                -7.5000: 
STOP.FT              2228.7500: 
STEP.FT                 0.2500: 
NULL.                -999.2500: 
COMP.          Pioneer Natural Resources: COMPANY
WELL.          McDonald 33-31 R: WELL
FLD.           Purgatorie River: FIELD
LOC.           1386' FSL & 1926' FEL: LOCATION
STAT.                       CO: State
CNTY.               Las Animas: COUNTY
CTRY.                      USA: Country
SECT.                       31: Section
TOWN.                      32S: Township
RANG.                      66W: Range
SRVC.          Patterson Wireline: SERVICE COMPANY
DATE.          Wed Sep 28 13:29:18 2005: LOG DATE
API.           05 071 08533 00: API#
~Curve Information Block
DEPT.FT            0 000 00 00: Depth
CCL.                          : Casing Collar Locator
TT3.usec                      : CBL 3' Travel Time
AMP3.mV                       : CBL 3' Amplitude
GR.GAPI                       : Gamma Ray
~Parameter Information Block
~A  Depth       CCL         TT3         AMP3         GR     
    -7.5000   -999.2500   -999.2500   -999.2500     78.4934
    -7.2500   -999.2500   -999.2500   -999.2500     78.3609
    -7.0000   -999.2500   -999.2500   -999.2500     78.2074
    -6.7500   -999.2500   -999.2500   -999.2500     79.0705
    -6.5000   -999.2500   -999.2500   -999.2500     81.9034
    -6.2500   -999.2500   -999.2500   -999.2500     86.1322
    -6.0000   -999.2500   -999.2500   -999.2500     89.8859
    -5.7500   -999.2500   -999.2500   -999.2500     91.8211
    -5.5000   -999.2500   -999.2500   -999.2500     92.3555
    -5.2500   -999.2500   -999.2500   -999.2500     93.0107
    -5.0000   -999.2500   -999.2500   -999.2500     94.7434
    -4.7500   -999.2500   -999.2500   -999.2500     96.9520
    -4.5000   -999.2500   -999.2500   -999.2500     98.0100
    -4.2500   -999.2500   -999.2500   -999.2500     96.6794
    -4.0000   -999.2500   -999.2500   -999.2500     93.0085
    -3.7500   -999.2500   -999.2500   -999.2500     88.1580
    -3.5000   -999.2500   -999.2500   -999.2500     83.7751
    -3.2500   -999.2500   -999.2500   -999.2500     81.4766
    -3.0000   -999.2500   -999.2500   -999.2500     82.2250
    -2.7500   -999.2500   -999.2500   -999.2500     85.5077
    -2.5000   -999.2500   1155.0000      0.6687     89.1220
    -2.2500   -999.2500   1155.0000      0.6557     90.4865
    -2.0000   -999.2500   1155.0000      0.6446     88.6881
    -1.7500   -999.2500   1155.0000      0.6391     85.0114
    -1.5000   -999.2500   1155.0000      0.6404     81.3148
    -1.2500   -999.2500   1155.0000      0.6467     78.3300
    -1.0000   -999.2500   1155.0000      0.6549     75.6306
    -0.7500   -999.2500   1155.0000      0.6618     72.5565
    -0.5000   -999.2500   1155.0000      0.6650     68.6918
    -0.2500   -999.2500   1155.0000      0.6642     63.8090
     0.0000   -999.2500   1155.0000      0.6610     57.9178
     0.2500   -999.2500   1155.0000      0.6569     44.7317
     0.5000   -999.2500   1155.0000      0.6554     38.6265
     0.7500   -999.2500   1155.0000      0.6526     33.9397
     1.0000   -999.2500   1155.0000      0.6488     31.7030
     1.2500   -999.2500   1155.0000      0.6459     32.5713
     1.5000   -999.2500   1155.0000      0.6445     36.5253
     1.7500   -999.2500   1155.0000      0.6431     43.1494
     2.0000   -999.2500   1155.0000      0.6405     51.9110
     2.2500   -999.2500   1155.0000      0.6377     62.0065
     2.5000   -999.2500   1155.0000      0.6377     72.1371
     2.7500   -999.2500   1155.0000      0.6425     80.6988
     3.0000      0.0000   1155.0000      0.6515     86.4149
     3.2500      0.0000   1155.0000      0.6617     89.1071
     3.5000      0.0000   1155.0000      0.6704     89.8884
     3.7500      0.0000   1155.0000      0.6772     90.2551
     4.0000      0.0000   1155.0000      0.6826     90.8207
     4.2500      0.0000   1155.0000      0.6864     91.1666
     4.5000      0.0000   1155.0000      0.6884     90.9653
     4.7500      0.0000   1155.0000      0.6899     90.8420
     5.0000      0.0000   1155.0000      0.6932     91.7342
     5.2500      0.0000   1155.0000      0.6981     93.3900
     5.5000      0.0000   1155.0000      0.7008     93.9489
     5.7500      0.0000   1155.0000      0.6977     91.5930
     6.0000      0.0000   1155.0000      0.6895     86.6464
     6.2500      0.0000   1155.0000      0.6807     81.5031
     6.5000      0.0000   1155.0000      0.6760     78.3101
     6.7500      0.0000   1155.0000      0.6771     77.1497
     7.0000      0.0000   1155.0000      0.6826     76.6511
     7.2500      0.0000   1155.0000      0.6892     75.7725
     7.5000      0.0000   1155.0000      0.6942     74.6294
     7.7500      2.0000   1155.0000      0.6957     74.1516
     8.0000      0.0000   1154.9745      0.6942     75.3647
     8.2500      0.0000   1154.7778      0.6954     78.5050
     8.5000      0.0000   1153.7356      0.7220     82.4786
     8.7500      0.0000   1149.3933      0.8477     85.6332
     9.0000      0.0000   1135.1464      1.2623     87.3493
     9.2500      0.0000   1098.3175      2.3464     88.5073
     9.5000      0.0000   1023.2247      4.6252     90.1222
     9.7500      0.0000    902.7070      8.4308     91.8095
    10.0000      2.0000    751.6766     13.3771     92.0712
    10.2500      0.0000    607.8670     18.2171     90.2060
    10.5000      0.0000    513.7638     21.4951     87.5930
    10.7500      0.0000    492.7894     22.4892     86.7050
    11.0000      0.0000    537.7607     21.5060     88.8235
    11.2500      0.0000    617.7996     19.3903     92.9015
    11.5000      0.0000    697.4518     16.9373     96.6641
    11.7500      0.0000    754.9362     14.6797     98.5487
    12.0000      0.0000    787.4025     12.9162     98.5501
    12.2500      0.0000    802.8212     11.7339     97.6253
    12.5000      0.0000    809.3019     11.0267     96.8133
    12.7500      0.0000    810.5857     10.5911     96.9050
    13.0000      0.0000    807.5155     10.2656     98.3184
    13.2500      0.0000    800.9786     10.0075    100.6832
    13.5000      0.0000    793.8148      9.8477    102.8927
    13.7500      0.0000    791.6621      9.7798    104.1967
    14.0000      0.0000    801.5427      9.7269    104.9184
    14.2500      0.0000    826.5694      9.6359    105.4605
    14.5000      0.0000    860.4294      9.5516    105.0706
    14.7500      0.0000    889.8617      9.5538    102.3702
    15.0000      0.0000    905.2477      9.6587     97.0396
    15.2500      0.0000    908.1525      9.8131     90.6030
    15.5000      2.0000    908.0272      9.9508     85.6007
    15.7500      0.0000    912.1137     10.0313     84.0782
    16.0000      0.0000    917.1639     10.0603     86.5223
    16.2500      0.0000    909.7524     10.1068     91.5991
    16.5000      0.0000    876.2269     10.2827     96.5864
    16.7500      0.0000    814.5405     10.6623     98.5793
    17.0000      0.0000    738.5903     11.2099     96.2530
    17.2500      0.0000    672.3909     11.7925     90.8659
    17.5000      0.0000    637.0195     12.2675     85.1805
    17.7500      0.0000    637.9367     12.5634     81.1903
    18.0000      0.0000    663.1204     12.6967     79.2475
    18.2500      0.0000    694.1880     12.7303     79.1086
    18.5000      0.0000    719.6069     12.7217     80.6152
    18.7500      0.0000    738.2762     12.7059     82.9650
    19.0000      0.0000    753.5267     12.7030     84.5365
    19.2500      0.0000    766.9892     12.7251     84.2591
    19.5000      0.0000    778.1677     12.7728     82.5084
    19.7500      0.0000    786.6829     12.8347     80.2606
    20.0000      0.0000    792.9630     12.8968     78.1104
    20.2500      0.0000    797.7624     12.9517     76.4820
    20.5000      0.0000    802.0319     12.9992     76.0915
    20.7500      0.0000    806.7853     13.0393     77.5509
    21.0000      0.0000    812.5449     13.0705     80.4677
    21.2500      0.0000    819.0480     13.0949     83.1756
    21.5000      0.0000    825.5657     13.1217     83.7266
    21.7500      0.0000    831.0436     13.1628     81.4381
    22.0000      0.0000    833.7482     13.2247     77.4889
    22.2500      0.0000    830.9669     13.3043     73.9807
    22.5000      0.0000    820.0989     13.3928     72.4534
    22.7500      0.0000    801.9565     13.4813     73.0468
    23.0000      0.0000    783.7746     13.5634     74.7264
    23.2500      0.0000    776.3183     13.6308     76.2643
    23.5000      0.0000    784.9288     13.6707     77.1493
    23.7500      0.0000    804.1555     13.6700     77.6614
    24.0000      0.0000    822.8161     13.6248     78.2614
    24.2500      0.0000    832.6990     13.5447     79.0916
    24.5000      0.0000    831.7828     13.4473     79.9219
    24.7500      0.0000    822.9223     13.3452     80.3538
    25.0000      0.0000    812.4605     13.2365     80.2072
    25.2500      0.0000    807.7895     13.1085     79.8056
    25.5000      0.0000    812.4944     12.9545     79.7556
    25.7500      0.0000    823.6150     12.7863     80.3876
