~Version Information
VERS.                      2.0: CWLS Log ASCII Standard - VERSION 2.0
WRAP.                       NO: One line per depth step
~Well Information Block
STRT.FT                10.0000: 
STOP.FT              1665.0000: 
STEP.FT                 0.1000: 
NULL.                -999.2500: 
COMP.          Pioneer Natural Resources: COMPANY
WELL.          Stock Canyon 34-33: WELL
FLD.           Purgatorie River: FIELD
LOC.           980' FSL & 2191' FEL: LOCATION
PROV.                 Colorado: PROVINCE
CNTY.               Las Animas: COUNTRY
SRVC.                Patterson: SERVICE COMPANY
DATE.          Mon Dec 05 10:33:50 2005: LOG DATE
UWI.                          : UNIQUE WELL ID
~Curve Information Block
DEPT.FT            0 000 00 00: Depth
DCAL.in                       : CDL Caliper
RHOB.g/cc                     : CDL Bulk Density
RHOC.g/cc                     : CDL Density Correction
DPOR.pu                       : CDL Density Porosity
GR.GAPI                       : Gamma Ray
NPOR.pu                       : Neutron Porosity
~Parameter Information Block
~A  Depth       DCAL        RHOB        RHOC        DPOR         GR         NPOR    
# ...
   662.8000      8.0734      2.5805      0.0463      4.2093    109.2991     25.4123
   662.9000      8.0734      2.5781      0.0318      4.3581    112.1224     25.1905
   663.0000      8.0694      2.5724      0.0374      4.7024    113.1104     24.9712
   663.1000      8.0694      2.5609      0.0371      5.4030    111.7166     24.8540
   663.2000      8.0694      2.5435      0.0545      6.4534    110.0696     24.7503
   663.3000      8.0596      2.5239      0.0494      7.6405    108.9505     24.5607
   663.4000      8.0596      2.5074      0.0272      8.6411    107.6570     24.4536
   663.5000      8.0632      2.5006     -0.0230      9.0516    105.5460     24.4755
   663.6000      8.0632      2.5053     -0.0025      8.7720    104.6435     24.4611
   663.7000      8.0632      2.5117      0.0716      8.3822    105.7311     24.3581
   663.8000      8.0636      2.5087      0.0254      8.5634    106.3917     24.2496
   663.9000      8.0636      2.4971      0.0423      9.2647    105.4799     24.0200
   664.0000      8.0678      2.4884     -0.0432      9.7930    104.1252     23.6465
   664.1000      8.0678      2.4935      0.0202      9.4856    104.2475     23.4213
   664.2000      8.0678      2.5080      0.0453      8.6031    106.1226     23.5168
   664.3000      8.0630      2.5242      0.0821      7.6224    108.1876     23.7362
   664.4000      8.0630      2.5409      0.0338      6.6144    110.7205     23.7833
   664.5000      8.0669      2.5532      0.0597      5.8644    113.1940     23.8397
   664.6000      8.0669      2.5525      0.0932      5.9064    112.6262     24.2405
   664.7000      8.0669      2.5454      0.0092      6.3376    109.3584     24.8230
   664.8000      8.0652      2.5432      0.0820      6.4736    106.4168     25.0795
   664.9000      8.0652      2.5393      0.0256      6.7069    105.3966     24.8155
   665.0000      8.0714      2.5309      0.0274      7.2178    106.3866     24.4327
   665.1000      8.0714      2.5291      0.0059      7.3280    107.9599     24.1899
   665.2000      8.0714      2.5350      0.0492      6.9692    108.2721     24.0544
   665.3000      8.0865      2.5326      0.0535      7.1154    108.1078     24.1444
   665.4000      8.0865      2.5212     -0.0165      7.8051    108.0657     24.2376
   665.5000      8.1132      2.5240      0.0166      7.6336    106.3873     24.0900
   665.6000      8.1132      2.5452      0.0486      6.3497    101.7196     24.0938
   665.7000      8.1132      2.5646      0.0543      5.1758     97.3882     24.4590
   665.8000      8.0844      2.5709      0.0365      4.7932     98.1594     24.7335
   665.9000      8.0844      2.5666      0.0562      5.0550    101.9293     24.5633
   666.0000      8.0891      2.5560      0.0008      5.6945    102.9850     24.1069
   666.1000      8.0891      2.5434      0.0163      6.4635     99.5675     23.7331
   666.2000      8.0891      2.5376     -0.0427      6.8129     96.1779     23.5933
   666.3000      8.0915      2.5507     -0.0263      6.0183     97.8672     23.5146
   666.4000      8.0915      2.5699      0.0733      4.8552    103.1435     23.5135
   666.5000      8.1040      2.5708      0.0183      4.8020    106.9921     23.7388
   666.6000      8.1040      2.5602      0.0070      5.4433    107.0532     24.0025
   666.7000      8.1040      2.5471      0.0445      6.2368    104.1465     24.0524
   666.8000      8.1373      2.5276     -0.0333      7.4154    100.4125     23.9539
   666.9000      8.1373      2.5152     -0.0258      8.1710     98.2573     23.8066
   667.0000      8.1481      2.5278     -0.0538      7.4075     98.3857     23.7755
   667.1000      8.1481      2.5611      0.0248      5.3851     99.6051     24.0322
   667.2000      8.1481      2.5907      0.0442      3.5938    100.3760     24.3980
   667.3000      8.1373      2.6034      0.0238      2.8245     98.1754     24.6528
   667.4000      8.1373      2.6141     -0.0110      2.1728     92.0648     24.7197
   667.5000      8.1398      2.6450      0.0391      0.3053     86.1996     24.7034
   667.6000      8.1398      2.6905      0.1171     -2.4520     83.9244     24.9533
   667.7000      8.1398      2.7221      0.1348     -4.3678     83.9015     25.4806
   667.8000      8.1395      2.7331      0.0603     -5.0377     84.3971     25.9107
   667.9000      8.1395      2.7384      0.0425     -5.3580     84.8017     26.1691
   668.0000      8.1319      2.7328      0.0694     -5.0172     85.3182     26.3330
   668.1000      8.1319      2.7059     -0.0048     -3.3884     85.4445     26.3565
   668.2000      8.1319      2.6712      0.0122     -1.2825     83.7651     26.1906
   668.3000      8.1197      2.6392      0.0045      0.6517     81.0073     25.8280
   668.4000      8.1197      2.6085     -0.0602      2.5181     78.9183     25.2228
   668.5000      8.1115      2.5833     -0.0878      4.0446     78.7548     24.2985
   668.6000      8.1115      2.5693     -0.0498      4.8908     79.6236     23.2485
   668.7000      8.1115      2.5602     -0.0124      5.4421     78.9236     22.4535
   668.8000      8.1142      2.5452      0.0003      6.3538     77.7548     22.0081
   668.9000      8.1142      2.5276      0.0168      7.4201     78.2411     21.8074
   669.0000      8.1186      2.5184      0.0023      7.9784     80.0285     21.6483
   669.1000      8.1186      2.5192      0.0135      7.9297     81.7207     21.2156
   669.2000      8.1186      2.5249      0.0057      7.5813     81.4022     20.6267
   669.3000      8.1179      2.5297      0.0492      7.2899     79.1143     20.2678
   669.4000      8.1179      2.5302      0.0355      7.2627     77.9935     20.0823
   669.5000      8.1165      2.5308      0.0116      7.2227     78.9998     19.8587
   669.6000      8.1165      2.5355      0.0296      6.9388     80.2923     19.6571
   669.7000      8.1165      2.5376      0.0907      6.8143     81.1712     19.6206
   669.8000      8.1217      2.5364      0.0672      6.8869     81.1550     19.7549
   669.9000      8.1217      2.5460      0.0112      6.3034     80.7609     19.9125
   670.0000      8.1182      2.5657      0.0925      5.1116     81.4821     19.9269
   670.1000      8.1182      2.5774      0.0625      4.4017     83.3508     19.8236
   670.2000      8.1182      2.5747      0.0834      4.5642     85.3408     19.8667
   670.3000      8.1235      2.5611      0.0558      5.3885     85.3844     20.1310
   670.4000      8.1235      2.5460      0.0164      6.3016     82.9081     20.4319
   670.5000      8.1215      2.5362      0.0520      6.8961     80.7555     20.6418
   670.6000      8.1215      2.5305      0.0326      7.2407     81.0554     20.7281
   670.7000      8.1215      2.5295      0.0246      7.3021     83.5231     20.5841
   670.8000      8.1169      2.5331     -0.0087      7.0842     85.7922     20.2902
   670.9000      8.1169      2.5402     -0.0111      6.6535     85.8639     20.2275
   671.0000      8.1223      2.5495      0.0229      6.0924     85.3620     20.4520
   671.1000      8.1223      2.5570      0.0019      5.6356     84.4474     20.6317
   671.2000      8.1223      2.5573      0.0038      5.6166     82.6903     20.6156
   671.3000      8.1226      2.5442      0.0522      6.4103     83.5776     20.6086
   671.4000      8.1226      2.5252     -0.0127      7.5665     87.6373     20.8891
   671.5000      8.1271      2.5187     -0.0171      7.9550     90.7980     21.4069
   671.6000      8.1271      2.5261     -0.0003      7.5102     91.4336     21.6922
   671.7000      8.1271      2.5380      0.0234      6.7859     92.1656     21.4943
   671.8000      8.1302      2.5553      0.0132      5.7389     95.5406     21.1721
   671.9000      8.1302      2.5707      0.0420      4.8087    100.3522     21.1005
   672.0000      8.1272      2.5655      0.0358      5.1189    102.8137     21.1225
   672.1000      8.1272      2.5437      0.0009      6.4426    102.1329     21.0590
   672.2000      8.1272      2.5239      0.0392      7.6446    100.5412     21.0728
   672.3000      8.1333      2.5125      0.0093      8.3326     98.6490     21.1371
