~Version Information
VERS.                      2.0: CWLS Log ASCII Standard - VERSION 2.0
WRAP.                       NO: One line per depth step
~Well Information Block
STRT.FT                 0.0000: 
STOP.FT              1528.0000: 
STEP.FT                 0.1000: 
NULL.                -999.2500: 
COMP.          Pioneer Natural Resources: COMPANY
WELL.             Andrew 23-15: WELL
FLD.           Purgatorie River: FIELD
LOC.           2137' FSL & 2292' FWL: LOCATION
PROV.                 Colorado: PROVINCE
CNTY.               Las Animas: COUNTRY
SRVC.                Patterson: SERVICE COMPANY
DATE.          Sat Aug 13 12:06:57 2005: LOG DATE
UWI.                          : UNIQUE WELL ID
~Curve Information Block
DEPT.FT            0 000 00 00: Depth
DCAL.in                       : CDL Caliper
RHOB.g/cc                     : CDL Bulk Density
RHOC.g/cc                     : CDL Density Correction
DPOR.pu                       : CDL Density Porosity
GR.GAPI                       : Gamma Ray
NPOR.pu                       : Neutron Porosity
~Parameter Information Block
~A  Depth       DCAL        RHOB        RHOC        DPOR         GR         NPOR    
# ...
   604.8000      7.9265      2.4842      0.3278     10.0500    134.7475     24.8809
   604.9000      7.9265      2.5402      0.2804      6.6542    133.3186     25.5857
   605.0000      7.9289      2.5908      0.2346      3.5905    132.7137     26.3872
   605.1000      7.9289      2.6407      0.2434      0.5663    134.0859     27.0351
   605.2000      7.9289      2.6740      0.2613     -1.4534    138.0306     27.4837
   605.3000      7.9499      2.6772      0.1709     -1.6503    142.0419     27.5792
   605.4000      7.9499      2.6565      0.1647     -0.3916    143.5098     27.3137
   605.5000      7.9869      2.6284      0.1251      1.3075    142.8667     27.0848
   605.6000      7.9869      2.6035      0.1178      2.8162    140.8290     27.0815
   605.7000      7.9869      2.5779      0.0816      4.3723    138.2715     27.1275
   605.8000      7.9612      2.5597     -0.0032      5.4738    137.8239     27.0941
   605.9000      7.9612      2.5652      0.0508      5.1366    139.9215     26.9546
   606.0000      7.9835      2.5862      0.0492      3.8642    143.2633     26.7604
   606.1000      7.9835      2.6037      0.0655      2.8041    145.1119     26.7410
   606.2000      7.9835      2.6056      0.1075      2.6881    143.3215     26.9870
   606.3000      8.0192      2.5915      0.0583      3.5483    139.7055     27.3375
   606.4000      8.0192      2.5728      0.0284      4.6814    135.9610     27.4464
   606.5000      8.0142      2.5583      0.0452      5.5583    133.7893     27.1068
   606.6000      8.0142      2.5518      0.0049      5.9544    135.6736     26.4832
   606.7000      8.0142      2.5538      0.0034      5.8314    138.6461     26.1116
   606.8000      8.0170      2.5604     -0.0109      5.4296    137.7028     26.4015
   606.9000      8.0170      2.5700      0.0103      4.8490    132.6236     26.9745
   607.0000      7.9982      2.5768      0.0472      4.4385    127.1884     27.3345
   607.1000      7.9982      2.5688      0.0704      4.9240    124.6624     27.3221
   607.2000      7.9982      2.5486      0.0173      6.1434    125.0336     26.9443
   607.3000      7.9837      2.5350      0.0024      6.9699    127.6235     26.5223
   607.4000      7.9837      2.5372     -0.0086      6.8338    130.6612     26.3404
   607.5000      8.0368      2.5435      0.0402      6.4534    131.3303     26.2375
   607.6000      8.0368      2.5368      0.0021      6.8577    130.2350     25.9313
   607.7000      8.0368      2.5231      0.0076      7.6932    129.8219     25.4783
   607.8000      8.0490      2.5231     -0.0344      7.6893    130.3950     25.3574
   607.9000      8.0490      2.5351      0.0575      6.9618    131.2024     25.7260
   608.0000      8.0412      2.5347      0.0292      6.9888    133.0152     26.0801
   608.1000      8.0412      2.5235     -0.0285      7.6683    136.9606     26.0731
   608.2000      8.0412      2.5196      0.0163      7.9026    140.9262     25.9312
   608.3000      8.0080      2.5191      0.0217      7.9327    141.2625     25.8195
   608.4000      8.0080      2.5162      0.0127      8.1111    138.7749     25.6124
   608.5000      8.0096      2.5180      0.0083      7.9973    135.2379     25.2858
   608.6000      8.0096      2.5236      0.0500      7.6620    132.0890     24.8827
   608.7000      8.0096      2.5228      0.0714      7.7114    133.2562     24.4331
   608.8000      7.9777      2.5193      0.0594      7.9183    137.7678     23.9950
   608.9000      7.9777      2.5199      0.0659      7.8845    141.3894     23.7681
   609.0000      7.9520      2.5172      0.1354      8.0507    143.7180     23.8942
   609.1000      7.9520      2.5134      0.0556      8.2769    144.6478     24.2880
   609.2000      7.9520      2.5255      0.1170      7.5453    144.3487     24.8915
   609.3000      7.8898      2.5533      0.1167      5.8592    144.2568     25.7112
   609.4000      7.8898      2.5852      0.1816      3.9286    144.0023     26.5147
   609.5000      7.8967      2.6165      0.1720      2.0305    142.2194     26.8178
   609.6000      7.8967      2.6457      0.2210      0.2627    139.0165     26.6097
   609.7000      7.8967      2.6666      0.1995     -1.0062    135.3998     26.4875
   609.8000      7.9436      2.6711      0.1943     -1.2782    132.4082     26.7990
   609.9000      7.9436      2.6548      0.1372     -0.2927    131.0013     27.2673
   610.0000      7.9536      2.6292      0.0996      1.2620    129.1691     27.4119
   610.1000      7.9536      2.6116      0.0636      2.3268    124.7697     27.1385
   610.2000      7.9536      2.6029      0.0914      2.8526    120.2678     26.9181
   610.3000      7.9279      2.5885      0.0999      3.7294    117.6989     27.0133
   610.4000      7.9279      2.5633      0.0715      5.2522    117.1184     27.1716
   610.5000      7.9355      2.5470      0.0404      6.2408    119.9756     27.2146
   610.6000      7.9355      2.5626      0.0713      5.2985    126.5112     27.2166
   610.7000      7.9355      2.6082      0.0888      2.5354    131.4491     27.3631
   610.8000      7.9065      2.6616      0.0826     -0.7015    131.2383     27.7369
   610.9000      7.9065      2.7071      0.0977     -3.4600    129.2188     28.1599
   611.0000      7.9068      2.7386      0.1325     -5.3698    127.3862     28.4284
   611.1000      7.9068      2.7503      0.1497     -6.0771    124.2974     28.4083
   611.2000      7.9068      2.7412      0.1853     -5.5248    119.5703     27.9580
   611.3000      7.9193      2.7200      0.1150     -4.2452    115.4139     27.0706
   611.4000      7.9193      2.6994      0.0933     -2.9941    114.7852     26.0972
   611.5000      7.9145      2.6795      0.0632     -1.7885    117.8486     25.4911
   611.6000      7.9145      2.6579      0.0583     -0.4788    120.5887     25.3314
   611.7000      7.9145      2.6414      0.0301      0.5213    118.3248     25.4052
   611.8000      7.9836      2.6327      0.0984      1.0497    112.6688     25.4617
   611.9000      7.9836      2.6296      0.1391      1.2355    106.9248     25.4126
   612.0000      7.9563      2.6286      0.1645      1.2992    101.6340     25.2829
   612.1000      7.9563      2.6175      0.1526      1.9684     97.5795     24.9652
   612.2000      7.9563      2.5911      0.0972      3.5717     95.5069     24.5053
   612.3000      7.9267      2.5631      0.0714      5.2692     94.2123     24.0735
   612.4000      7.9267      2.5497      0.0550      6.0798     93.7913     23.5888
   612.5000      7.9350      2.5548      0.0905      5.7686     94.4355     23.1151
   612.6000      7.9350      2.5712      0.0974      4.7760     93.2165     22.8805
   612.7000      7.9350      2.5965      0.0795      3.2451     90.0861     22.8800
   612.8000      7.9531      2.6279      0.1446      1.3418     89.3951     23.0281
   612.9000      7.9531      2.6518      0.1064     -0.1096     92.1678     23.2942
   613.0000      7.9362      2.6638      0.1115     -0.8370     94.5075     23.5375
   613.1000      7.9362      2.6700      0.1291     -1.2106     93.6154     23.6869
   613.2000      7.9362      2.6749      0.1480     -1.5102     90.8640     23.8872
   613.3000      7.9424      2.6830      0.1216     -1.9997     89.3229     24.0902
   613.4000      7.9424      2.6940      0.1553     -2.6688     89.0539     24.1193
   613.5000      7.9333      2.7014      0.1558     -3.1172     87.9444     24.1465
   613.6000      7.9333      2.7039      0.1527     -3.2651     86.0174     24.3212
   613.7000      7.9333      2.6998      0.1408     -3.0174     84.1613     24.4504
   613.8000      7.9308      2.6888      0.0641     -2.3490     82.2149     24.4147
   613.9000      7.9308      2.6811      0.0524     -1.8867     79.9167     24.3387
   614.0000      7.9246      2.6815      0.0546     -1.9103     78.5742     24.1477
   614.1000      7.9246      2.6825      0.0814     -1.9697     80.6951     23.6414
   614.2000      7.9246      2.6824      0.0298     -1.9612     84.5347     22.9688
   614.3000      7.9387      2.6856      0.0906     -2.1561     87.5539     22.4066
