~Version Information
 VERS.                                  2.0 : CWLS LAS VERSION
 WRAP.                                   NO : WRAPING MODE
 SWARE .                 MController 2.5.0N : SOFTWARE VERSION
~Well Information
 WELL.                LORENCITO 10-36-33-67 : WELL
 COMP.    PIONEER NATURAL RESOURCES USA INC : COMPANY
 FLD.                      PURGATIORE RIVER : FIELD
 LOC.                NW/SE SEC 36 T33S R67W : LOCATION
 DATE.                             08/27/05 : DATE(S) LOGGED
 SRVC.       BLANCO GEOLOGICAL SERVICES LLC : SERVICE COMPANY
 STAT.                             COLORADO : STATE
 CNTY.                           LAS ANIMAS : COUNTY
 CTRY.                                  USA : COUNTRY
 API.                       05-071-08501-00 : API NUMBER
 STRT.FT                             321.00 : START DEPTH
 STOP.FT                            1570.00 : STOP DEPTH
 STEP.FT                               1.00 : DEPTH INCREMENT
 NULL.                                -9999 : NULL VALUE
~Curve information
 DEPTH.FT                                   :
 ROP.MIN/FT                                 :
 GAS.UNITS                                  :
~ASCII Log data
       321.0     -9999.00          3.3 
       322.0         0.60          2.8 
       323.0         0.20          3.1 
       324.0         0.30          3.1 
       325.0         0.22          3.7 
       326.0         0.30          3.4 
       327.0         0.20          3.7 
       328.0         0.30          3.9 
       329.0         0.20          4.0 
       330.0         0.20          4.2 
       331.0         0.20          4.3 
       332.0         0.30          4.0 
       333.0         0.30          4.0 
       334.0         0.30          4.1 
       335.0         0.20          4.2 
       336.0         0.30          4.4 
       337.0         0.20          4.6 
       338.0         0.20          4.3 
       339.0         0.22          4.3 
       340.0         0.20          4.6 
       341.0         0.20          4.4 
       342.0         0.20          4.8 
       343.0         0.20          4.5 
       344.0         0.30          4.4 
       345.0         0.30          4.6 
       346.0         0.30          4.5 
       347.0         0.20          4.4 
       348.0         0.30          4.5 
       349.0         0.20          4.8 
       350.0         0.30          4.6 
       351.0         0.40          4.6 
       352.0         1.78          4.5 
       353.0         0.40          2.7 
       354.0         0.23          3.4 
       355.0         0.20          3.0 
       356.0         0.30          3.9 
       357.0         0.20          4.1 
       358.0         0.20          4.1 
       359.0         0.22          4.1 
       360.0         0.30          4.9 
       361.0         0.30          5.0 
       362.0         0.20          4.9 
       363.0         0.20          4.3 
       364.0         0.30          5.1 
       365.0         0.30          4.8 
       366.0         0.20          4.4 
       367.0         0.20          4.8 
       368.0         0.20          4.7 
       369.0         0.20          4.9 
       370.0         0.20          5.2 
       371.0         0.20          5.0 
       372.0         0.20          5.2 
       373.0         0.22          4.6 
       374.0         0.20          5.2 
       375.0         0.20          5.2 
       376.0         0.20          4.7 
       377.0         0.20          4.8 
       378.0         0.20          4.3 
       379.0         0.20          4.3 
       380.0         0.20          5.0 
       381.0         0.20          5.1 
       382.0         1.70          5.4 
       383.0         0.62          5.2 
       384.0         0.40          4.7 
       385.0         0.30          4.8 
       386.0         0.30          4.8 
       387.0         0.30          4.4 
       388.0         0.30          4.4 
       389.0         0.30          4.6 
       390.0         0.30          4.6 
       391.0         0.32          4.8 
       392.0         0.30          4.8 
       393.0         0.30          4.8 
       394.0         0.30          4.4 
       395.0         0.30          4.5 
       396.0         0.30          5.0 
       397.0         0.30          4.9 
       398.0         0.30          5.5 
       399.0         0.30          5.2 
       400.0         0.30          5.4 
       401.0         0.32          5.7 
       402.0         0.30          5.7 
       403.0         0.30          5.6 
       404.0         0.30          5.2 
       405.0         0.30          5.1 
       406.0         0.30          5.3 
       407.0         0.30          5.1 
       408.0         0.30          5.0 
       409.0         0.30          5.1 
       410.0         0.32          5.1 
       411.0         0.30          5.4 
       412.0         9.25          5.8 
       413.0         0.40          4.9 
       414.0         0.20          4.3 
       415.0         0.20          4.7 
       416.0         0.20          4.6 
       417.0         0.30          4.4 
       418.0         0.20          3.9 
       419.0         0.20          3.9 
       420.0         0.20          4.1 
       421.0         0.30          4.1 
       422.0         0.30          4.6 
       423.0         0.30          4.4 
       424.0         0.20          3.7 
       425.0         0.22          4.2 
       426.0         0.20          4.0 
       427.0         0.30          4.3 
       428.0         0.30          4.4 
       429.0         0.20          4.5 
       430.0         0.20          4.7 
       431.0         0.20          4.4 
       432.0         0.20          7.2 
       433.0         0.30         45.1 
       434.0         0.33         76.4 
       435.0         0.27         93.7 
       436.0         0.27        100.2 
       437.0         0.30        101.2 
       438.0         0.32        101.0 
       439.0         0.30         99.8 
       440.0         0.20         98.7 
       441.0         0.20         97.9 
       442.0         2.13         96.9 
       443.0         0.22         38.7 
       444.0         0.27         35.3 
       445.0         0.27         96.4 
       446.0         0.27        219.0 
       447.0         0.27        255.1 
       448.0         0.20        241.7 
       449.0         0.20        213.2 
       450.0         0.17        188.0 
       451.0         0.27        158.1 
       452.0         0.20        132.6 
       453.0         0.17        121.1 
       454.0         0.20        118.2 
       455.0         0.20        112.8 
       456.0         0.20        106.8 
       457.0         0.15        103.1 
       458.0         0.20         97.2 
       459.0         0.23         93.1 
       460.0         0.20         90.3 
       461.0         0.20         88.8 
       462.0         0.20         91.6 
       463.0         0.20         91.0 
       464.0         0.20         89.2 
       465.0         0.20         88.5 
       466.0         0.20         85.0 
       467.0         0.20         81.7 
       468.0         0.30         85.8 
       469.0         0.30         91.4 
       470.0         0.30         92.4 
       471.0         0.20         92.0 
       472.0         2.25         91.7 
       473.0         0.20         36.9 
       474.0         0.20         36.9 
       475.0         0.20         34.7 
       476.0         0.28        108.9 
       477.0         0.27        209.1 
       478.0         0.17        224.6 
       479.0         0.30        218.3 
       480.0         0.23        196.4 
       481.0         0.27        174.6 
       482.0         2.48        153.0 
       483.0         0.30         77.9 
       484.0         0.30         89.9 
       485.0         0.27        102.5 
       486.0         0.20        106.4 
       487.0         0.30        105.3 
       488.0         0.30         96.3 
       489.0         0.20         93.5 
       490.0         0.30         95.7 
       491.0         0.20         95.7 
       492.0         0.22         97.8 
       493.0         0.30        105.5 
       494.0         0.20        113.8 
       495.0         0.27        130.0 
       496.0         0.27        139.3 
       497.0         0.30        144.0 
       498.0         0.30        150.8 
       499.0         0.30        154.5 
       500.0         0.30        153.8 
       501.0         0.30        150.1 
       502.0        29.52        143.2 
       503.0         0.37        216.8 
       504.0         0.27        218.5 
       505.0         0.27        188.4 
       506.0         0.28        144.3 
       507.0         0.27        114.5 
       508.0         0.27        101.6 
       509.0         0.30        101.2 
       510.0         0.30         99.1 
       511.0         0.27         92.4 
       512.0         0.30         86.1 
       513.0         0.33         81.5 
       514.0         0.30         76.3 
       515.0         0.27         73.8 
       516.0         0.30         72.0 
       517.0         0.22         70.6 
       518.0         0.30         69.9 
       519.0         0.30         69.3 
       520.0         0.30         69.1 
