~Version Information
VERS.                      2.0: CWLS Log ASCII Standard - VERSION 2.0
WRAP.                       NO: One line per depth step
~Well Information Block
STRT.FT               240.0000: 
STOP.FT               713.7500: 
STEP.FT                 0.2500: 
NULL.                -999.2500: 
COMP.          Pioneer Natural Resources: COMPANY
WELL.           Belvedere 14-7: WELL
FLD.           Purgatorie River: FIELD
LOC.           786' FSL & 1283' FWL: LOCATION
PROV.                 Colorado: PROVINCE
CNTY.               Las Animas: COUNTRY
SRVC.                Patterson: SERVICE COMPANY
DATE.          Sun Nov 27 03:38:28 2005: LOG DATE
UWI.           05-071-08557               : UNIQUE WELL ID
~Curve Information Block
DEPT.FT            0 000 00 00: Depth
DIR.Ohm-m                     : IEL Induction Resistivity
GR.GAPI                       : Gamma Ray
~Parameter Information Block
~A  Depth       DIR          GR     
   240.0000   -999.2500     83.3763
   240.2500   -999.2500     86.3693
   240.5000   -999.2500     91.0037
   240.7500   -999.2500     94.6538
   241.0000   -999.2500    100.7015
   241.2500   -999.2500    104.4276
   241.5000   -999.2500    108.4919
   241.7500     22.6972    109.8275
   242.0000     22.6900    109.0987
   242.2500     22.6921    106.3047
   242.5000     22.7153     98.5764
   242.7500     22.7622     91.8513
   243.0000     22.8246     81.4904
   243.2500     22.8844     75.4138
   243.5000     22.9178     68.5515
   243.7500     22.8984     65.7919
   244.0000     22.8015     64.4735
   244.2500     22.6097     65.1458
   244.5000     22.3255     67.3812
   244.7500     21.9894     69.1040
   245.0000     21.6884     71.6479
   245.2500     21.5358     73.3674
   245.5000     21.6186     75.9983
   245.7500     21.9346     77.6023
   246.0000     22.3534     79.2583
   246.2500     22.6488     79.6530
   246.5000     22.6257     79.3873
   246.7500     22.2558     79.1212
   247.0000     21.6884     79.5242
   247.2500     21.1445     80.4825
   247.5000     20.8275     82.1772
   247.7500     20.9008     82.7859
   248.0000     21.4761     82.4385
   248.2500     22.5405     81.6820
   248.5000     23.7940     80.6776
   248.7500     24.5302     80.3940
   249.0000     23.9728     80.4367
   249.2500     22.0741     80.5721
   249.5000     19.6331     80.8280
   249.7500     17.4859     81.0676
   250.0000     16.0296     81.2284
   250.2500     15.3598     80.7789
   250.5000     15.5302     78.9262
   250.7500     16.7484     77.3810
   251.0000     19.5440     76.2009
   251.2500     24.8515     76.7653
   251.5000     32.8769     79.0657
   251.7500     37.4005     80.5595
   252.0000     29.6164     81.1295
   252.2500     18.9104     80.0696
   252.5000     12.4500     77.2095
   252.7500      9.2718     75.6614
   253.0000      7.8942     76.2033
   253.2500      7.5741     79.4446
   253.5000      7.9791     88.9789
   253.7500      8.8364     97.8212
   254.0000      9.5256    112.9350
   254.2500      9.0467    123.2690
   254.5000      7.2994    138.0762
   254.7500      5.4105    146.8879
   255.0000      4.0997    157.3895
   255.2500      3.3964    162.2324
   255.5000      3.1689    166.3890
   255.7500      3.3579    167.1692
   256.0000      4.0294    165.1862
   256.2500      5.4318    161.9125
   256.5000      8.1855    155.5822
   256.7500     14.0068    151.8970
   257.0000     29.6981    149.3749
   257.2500    125.4809    149.9798
   257.5000 100000.0000    153.0175
   257.7500 100000.0000    155.5036
   258.0000 100000.0000    159.3009
   258.2500     57.1677    162.0114
   258.5000     25.2112    166.5951
   258.7500     16.7145    169.9497
   259.0000     13.5613    174.6898
   259.2500     12.4079    176.6846
   259.5000     12.1749    176.0890
   259.7500     12.3802    172.9435
   260.0000     12.7756    165.1794
   260.2500     13.2457    159.2343
   260.5000     13.7562    151.6966
   260.7500     14.3124    148.7825
   261.0000     14.9298    147.7386
   261.2500     15.6009    147.9874
   261.5000     16.2585    146.7287
   261.7500     16.7575    143.7869
   262.0000     16.9330    136.9593
   262.2500     16.7243    132.2222
   262.5000     16.2364    127.0749
   262.7500     15.6592    125.4684
   263.0000     15.1438    125.7010
   263.2500     14.7524    127.5309
   263.5000     14.4806    132.8483
   263.7500     14.3050    138.0401
   264.0000     14.2170    147.9216
   264.2500     14.2290    155.6772
   264.5000     14.3552    168.7042
   264.7500     14.5894    177.8720
   265.0000     14.8976    190.5224
   265.2500     15.2333    196.6351
   265.5000     15.5645    200.4477
   265.7500     15.8905    199.6940
   266.0000     16.2362    195.7315
   266.2500     16.6327    192.3146
   266.5000     17.0999    187.0800
   266.7500     17.6389    183.9613
   267.0000     18.2329    180.4332
   267.2500     18.8519    178.8802
   267.5000     19.4602    177.2309
   267.7500     20.0247    176.1496
   268.0000     20.5233    174.0403
   268.2500     20.9506    172.2989
   268.5000     21.3183    169.4236
   268.7500     21.6481    167.4127
   269.0000     21.9604    164.1779
   269.2500     22.2657    161.7417
   269.5000     22.5644    157.4245
   269.7500     22.8527    154.1972
   270.0000     23.1278    149.7469
   270.2500     23.3893    147.6601
   270.5000     23.6371    145.9575
   270.7500     23.8721    145.2305
   271.0000     24.0971    143.7570
   271.2500     24.3168    142.2775
   271.5000     24.5326    139.4268
   271.7500     24.7370    137.4788
   272.0000     24.9121    135.8057
   272.2500     25.0358    136.3978
   272.5000     25.0959    140.2873
   272.7500     25.1022    144.1380
   273.0000     25.0874    149.5668
   273.2500     25.0912    151.8253
   273.5000     25.1407    152.3972
   273.7500     25.2388    151.1754
   274.0000     25.3671    148.2713
   274.2500     25.5019    146.4746
   274.5000     25.6294    144.9242
   274.7500     25.7506    144.9030
   275.0000     25.8759    146.5062
   275.2500     26.0140    148.2872
   275.5000     26.1681    150.2153
   275.7500     26.3380    149.7839
   276.0000     26.5215    145.6158
   276.2500     26.7123    140.7624
   276.5000     26.8966    131.7439
   276.7500     27.0584    125.8141
   277.0000     27.1878    119.4469
   277.2500     27.2876    117.7421
   277.5000     27.3707    118.5743
   277.7500     27.4540    120.3612
   278.0000     27.5514    123.0292
   278.2500     27.6682    124.0196
   278.5000     27.8001    123.5396
   278.7500     27.9410    121.6936
   279.0000     28.0931    116.6892
   279.2500     28.2692    112.3520
   279.5000     28.4818    106.1917
   279.7500     28.7285    103.5339
   280.0000     28.9856    102.5979
   280.2500     29.2157    103.6341
   280.5000     29.3847    106.6461
   280.7500     29.4761    109.2564
   281.0000     29.4970    113.5910
   281.2500     29.4757    116.4703
   281.5000     29.4529    120.7322
   281.7500     29.4695    123.7849
   282.0000     29.5533    128.6937
   282.2500     29.7097    131.6009
   282.5000     29.9252    133.8676
   282.7500     30.1791    133.3955
   283.0000     30.4577    130.0030
   283.2500     30.7580    126.6031
   283.5000     31.0818    120.6040
   283.7500     31.4276    116.1395
   284.0000     31.7903    109.1181
   284.2500     32.1683    104.7138
   284.5000     32.5724     99.2728
   284.7500     33.0272     96.4903
   285.0000     33.5622     93.2082
   285.2500     34.1947     91.4286
   285.5000     34.9182     89.3656
   285.7500     35.7002     88.4154
   286.0000     36.4943     87.4230
   286.2500     37.2565     86.8531
   286.5000     37.9563     85.9235
   286.7500     38.5762     85.2658
   287.0000     39.1046     84.4828
   287.2500     39.5338     84.2573
   287.5000     39.8660     84.3346
   287.7500     40.1170     84.4899
   288.0000     40.3061     84.6473
   288.2500     40.4347     84.7408
   288.5000     40.4787     85.3623
   288.7500     40.4088     86.5580
   289.0000     40.2249     89.8695
   289.2500     39.9662     92.6390
   289.5000     39.6831     96.0048
   289.7500     39.4009     96.8725
   290.0000     39.1140     95.6623
   290.2500     38.8130     93.5331
   290.5000     38.5123     89.6278
   290.7500     38.2450     87.3945
   291.0000     38.0352     85.5861
   291.2500     37.8814     85.4252
   291.5000     37.7666     85.8966
   291.7500     37.6812     86.0566
   292.0000     37.6339     85.6145
   292.2500     37.6460     85.1326
   292.5000     37.7402     85.0238
   292.7500     37.9315     85.6812
   293.0000     38.2195     87.5531
   293.2500     38.5822     88.9816
   293.5000     38.9766     90.6784
   293.7500     39.3510     91.1299
   294.0000     39.6622     90.0929
   294.2500     39.8852     88.0069
   294.5000     40.0097     83.2028
   294.7500     40.0325     79.6384
   295.0000     39.9586     75.3001
   295.2500     39.8077     73.7669
   295.5000     39.6151     73.8503
