~Version Information
VERS.                      2.0: CWLS Log ASCII Standard - VERSION 2.0
WRAP.                       NO: One line per depth step
~Well Information Block
STRT.FT               597.2500: 
STOP.FT              1567.2500: 
STEP.FT                 0.2500: 
NULL.                -999.2500: 
COMP.          Pioneer Natural Resources: COMPANY
WELL.           Butch 33-10 Tr: WELL
FLD.           Purgatoire River: FIELD
LOC.           2309' FSL & 1337' FEL--: LOCATION
PROV.                 Colorado: PROVINCE
CNTY.               Las Animas: COUNTRY
SRVC.                Patterson: SERVICE COMPANY
DATE.          Sat Jan 14 05:18:29 2006: LOG DATE
UWI.           05 071 08649 00: UNIQUE WELL ID
~Curve Information Block
DEPT.FT            0 000 00 00: Depth
SN.Ohm-m                      : IEL Short Normal
SP.mV                         : IEL Spontaneous Potential
DIR.Ohm-m                     : IEL Induction Resistivity
GR.GAPI                       : Gamma Ray
~Parameter Information Block
~A  Depth        SN          SP         DIR          GR     
# ...
  1367.7500     21.4732     48.9783     17.4703     80.8215
  1368.0000     23.1125     48.5198     18.5877     80.5560
  1368.2500     24.5195     48.1517     19.5326     81.4979
  1368.5000     25.6269     47.8306     20.2776     83.4571
  1368.7500     26.4290     47.5135     20.8245     84.4804
  1369.0000     26.9704     47.1682     21.2053     85.1760
  1369.2500     27.3116     46.7796     21.4793     85.2144
  1369.5000     27.5092     46.3513     21.7206     84.8053
  1369.7500     27.6153     45.9039     22.0014     84.0349
  1370.0000     27.6752     45.4704     22.3748     81.7009
  1370.2500     27.7133     45.0899     22.8609     79.4524
  1370.5000     27.7139     44.8017     23.4369     75.9409
  1370.7500     27.6174     44.6389     24.0306     74.1216
  1371.0000     27.3429     44.6245     24.5250     72.8788
  1371.2500     26.8335     44.7684     24.7790     73.3485
  1371.5000     26.0970     45.0660     24.6704     76.3449
  1371.7500     25.2110     45.4985     24.1468     79.6495
  1372.0000     24.2833     46.0347     23.2555     85.5371
  1372.2500     23.3983     46.6330     22.1277     89.7406
  1372.5000     22.5917     47.2448     20.9264     96.8470
  1372.7500     21.8677     47.8183     19.7935    102.2393
  1373.0000     21.2320     48.3015     18.8219    110.0656
  1373.2500     20.7094     48.6473     18.0549    113.8910
  1373.5000     20.3380     48.8165     17.5025    116.4697
  1373.7500     20.1539     48.7822     17.1612    116.5187
  1374.0000     20.1766     48.5324     17.0281    115.5976
  1374.2500     20.3990     48.0723     17.1050    114.6715
  1374.5000     20.7855     47.4246     17.3940    111.7524
  1374.7500     21.2881     46.6289     17.8919    107.7748
  1375.0000     21.8800     45.7395     18.5901     98.2587
  1375.2500     22.5858     44.8214     19.4763     90.3514
  1375.5000     23.4736     43.9455     20.5329     78.3659
  1375.7500     24.5958     43.1826     21.7223     71.4381
  1376.0000     25.9050     42.5970     22.9644     64.1007
  1376.2500     27.2117     42.2413     24.1226     61.7818
  1376.5000     28.2387     42.1510     25.0195     62.2184
  1376.7500     28.7448     42.3418     25.4904     64.6461
  1377.0000     28.6312     42.8076     25.4490     70.3559
  1377.2500     27.9637     43.5215     24.9227     74.9461
  1377.5000     26.9219     44.4377     24.0361     82.3749
  1377.7500     25.7225     45.4970     22.9574     87.5565
  1378.0000     24.5523     46.6324     21.8425     95.4068
  1378.2500     23.5269     47.7759     20.7998    100.2878
  1378.5000     22.6778     48.8661     19.8830    106.3805
  1378.7500     21.9669     49.8527     19.1035    109.5750
  1379.0000     21.3242     50.7002     18.4521    113.2747
  1379.2500     20.6940     51.3889     17.9186    114.8092
  1379.5000     20.0665     51.9137     17.5017    114.8228
  1379.7500     19.4781     52.2820     17.2060    113.0527
  1380.0000     18.9872     52.5117     17.0331    108.5791
  1380.2500     18.6452     52.6284     16.9732    105.5254
  1380.5000     18.4747     52.6635     17.0012    102.9179
  1380.7500     18.4520     52.6522     17.0768    103.1603
  1381.0000     18.5038     52.6296     17.1478    106.0481
  1381.2500     18.5247     52.6280     17.1556    108.6700
  1381.5000     18.4219     52.6719     17.0477    111.8436
  1381.7500     18.1625     52.7743     16.7955    112.8434
  1382.0000     17.7923     52.9331     16.4086    112.4820
  1382.2500     17.4093     53.1297     15.9342    111.2388
  1382.5000     17.1159     53.3294     15.4411    108.9549
  1382.7500     16.9800     53.4847     14.9989    108.1790
  1383.0000     17.0194     53.5415     14.6620    109.7243
  1383.2500     17.2024     53.4475     14.4620    112.7543
  1383.5000     17.4636     53.1617     14.4073    118.8348
  1383.7500     17.7361     52.6641     14.4886    122.1390
  1384.0000     17.9908     51.9643     14.6883    122.4973
  1384.2500     18.2617     51.1056     14.9905    118.5349
  1384.5000     18.6357     50.1634     15.3857    107.4928
  1384.7500     19.1979     49.2383     15.8664     98.9108
  1385.0000     19.9539     48.4417     16.4138     87.9249
  1385.2500     20.7745     47.8786     16.9817     82.9268
  1385.5000     21.4219     47.6299     17.4854     78.8807
  1385.7500     21.6630     47.7387     17.8085     78.1323
  1386.0000     21.3928     48.2039     17.8369     79.9352
  1386.2500     20.6700     48.9816     17.5075     83.4535
  1386.5000     19.6496     49.9959     16.8427     92.5960
  1386.7500     18.4893     51.1526     15.9389    100.9340
  1387.0000     17.2986     52.3562     14.9211    115.1547
  1387.2500     16.1388     53.5229     13.8962    124.4365
  1387.5000     15.0432     54.5899     12.9321    135.7946
  1387.7500     14.0353     55.5187     12.0620    140.7292
  1388.0000     13.1391     56.2938     11.2993    143.8102
  1388.2500     12.3809     56.9176     10.6501    143.4920
  1388.5000     11.7832     57.4046     10.1165    141.0024
  1388.7500     11.3518     57.7751      9.6960    138.9989
  1389.0000     11.0691     58.0500      9.3808    137.0913
  1389.2500     10.8991     58.2480      9.1581    137.1823
  1389.5000     10.8002     58.3833      9.0131    139.2533
  1389.7500     10.7335     58.4663      8.9291    141.1622
  1390.0000     10.6671     58.5044      8.8886    143.4328
  1390.2500     10.5781     58.5042      8.8743    144.3307
  1390.5000     10.4543     58.4729      8.8699    145.3287
  1390.7500     10.2965     58.4193      8.8635    146.0534
  1391.0000     10.1209     58.3536      8.8493    146.7907
  1391.2500      9.9567     58.2867      8.8281    146.4112
  1391.5000      9.8370     58.2285      8.8065    143.9674
  1391.7500      9.7838     58.1867      8.7932    141.5662
  1392.0000      9.8001     58.1655      8.7954    138.6451
  1392.2500      9.8753     58.1653      8.8155    138.0223
  1392.5000      9.9936     58.1831      8.8504    139.0267
  1392.7500     10.1378     58.2134      8.8920    140.2639
  1393.0000     10.2887     58.2486      8.9314    141.9818
  1393.2500     10.4290     58.2805      8.9617    143.0431
  1393.5000     10.5497     58.3009      8.9820    144.8410
  1393.7500     10.6517     58.3023      8.9971    146.0212
  1394.0000     10.7414     58.2787      9.0175    147.0072
  1394.2500     10.8259     58.2262      9.0562    146.9242
  1394.5000     10.9105     58.1445      9.1255    146.1801
  1394.7500     10.9973     58.0382      9.2324    145.7455
  1395.0000     11.0824     57.9178      9.3743    145.4710
  1395.2500     11.1559     57.7998      9.5362    145.3135
  1395.5000     11.2028     57.7052      9.6925    144.6036
  1395.7500     11.2067     57.6566      9.8121    143.6798
  1396.0000     11.1559     57.6736      9.8665    141.6623
  1396.2500     11.0488     57.7680      9.8373    140.0767
  1396.5000     10.8977     57.9400      9.7208    138.2641
  1396.7500     10.7274     58.1760      9.5282    138.3129
  1397.0000     10.5669     58.4486      9.2837    141.3538
  1397.2500     10.4416     58.7198      9.0201    145.1511
  1397.5000     10.3714     58.9455      8.7736    151.8285
  1397.7500     10.3727     59.0815      8.5781    155.8641
  1398.0000     10.4555     59.0896      8.4603    160.3502
  1398.2500     10.6158     58.9446      8.4383    162.2461
  1398.5000     10.8317     58.6390      8.5225    163.2690
  1398.7500     11.0704     58.1873      8.7184    162.1169
  1399.0000     11.3029     57.6273      9.0286    155.8520
  1399.2500     11.5261     57.0180      9.4533    147.8943
  1399.5000     11.7901     56.4330      9.9902    130.9827
  1399.7500     12.2182     55.9495     10.6367    118.0960
  1400.0000     12.9912     55.6354     11.3933    100.0484
  1400.2500     14.2776     55.5362     12.2667     90.5360
  1400.5000     16.1215     55.6656     13.2654     81.3295
  1400.7500     18.3574     56.0032     14.3853     78.5061
  1401.0000     20.6454     56.4999     15.5879     78.2197
