~Version Information
 VERS.                                  2.0 : CWLS LAS VERSION
 WRAP.                                   NO : WRAPING MODE
 SWARE .                MController 2.5.0QA : SOFTWARE VERSION
~Well Information
 WELL.                          Ernie 31-06 : WELL
 COMP.     Pioneer Natural Resources USA Inc: COMPANY
 FLD.                      Purgatoire River : FIELD
 LOC.                NW/NE Sec 06 T34S R65W : LOCATION
 DATE.                           5/27-28/06 : DATE(S) LOGGED
 SRVC.       Blanco Geological Services LLC : SERVICE COMPANY
 STAT.                                   CO : STATE
 CNTY.                           Las Animas : COUNTY
 CTRY.                                  USA : COUNTRY
 API.                       05-071-08716-00 : API NUMBER
 STRT.FT                             172.00 : START DEPTH
 STOP.FT                             940.00 : STOP DEPTH
 STEP.FT                               1.00 : DEPTH INCREMENT
 NULL.                                -9999 : NULL VALUE
~Curve information
 DEPTH.FT                                   :
 ROP.MIN/FT                                 :
 GAS.UNITS                                  :
~ASCII Log data
# ...
       372.0         0.23         10.3 
       373.0         0.20          9.5 
       374.0         0.27          9.0 
       375.0         0.27          8.7 
       376.0         0.23          6.9 
       377.0         0.23          6.6 
       378.0         0.22          6.0 
       379.0         0.23          8.2 
       380.0         0.27         12.2 
       381.0         0.33         19.0 
       382.0         2.65         15.4 
       383.0         0.37         37.7 
       384.0         0.27         43.7 
       385.0         0.23         47.9 
       386.0         0.23         48.7 
       387.0         0.20         47.6 
       388.0         0.17         47.6 
       389.0         0.30         46.6 
       390.0         0.23         43.4 
       391.0         0.20         43.4 
       392.0         0.13         43.1 
       393.0         0.20         41.3 
       394.0         0.23         40.6 
       395.0         0.20         40.1 
       396.0         0.13         38.7 
       397.0         0.25         38.0 
       398.0         0.20         37.9 
       399.0         0.23         37.9 
       400.0         0.17         37.9 
       401.0         0.20         34.3 
       402.0         0.20         30.9 
       403.0         0.23         30.3 
       404.0         0.20         25.7 
       405.0         0.27         19.1 
       406.0         0.23         19.1 
       407.0         0.23         13.0 
       408.0         0.20         10.2 
       409.0         0.20          8.9 
       410.0         0.20         48.2 
       411.0         0.20         72.2 
       412.0         2.98         96.9 
       413.0         0.27         35.6 
       414.0         0.23         31.8 
       415.0         0.25         31.6 
       416.0         0.23         35.6 
       417.0         0.27         31.8 
       418.0         0.27         32.2 
       419.0         0.30         31.4 
       420.0         0.30         31.7 
       421.0         0.30         30.4 
       422.0         0.27         28.4 
       423.0         0.27         29.4 
       424.0         0.27         29.7 
       425.0         0.27         28.9 
       426.0         0.23         28.6 
       427.0         0.28         28.4 
       428.0         0.23         28.1 
       429.0         0.27         28.2 
       430.0         0.27         30.6 
       431.0         0.23         31.7 
       432.0         0.20         31.7 
       433.0         0.20         30.9 
       434.0         0.20         27.7 
       435.0         0.23         21.1 
       436.0         0.27         16.9 
       437.0         0.23         15.5 
       438.0         0.23         13.0 
       439.0         0.23         11.4 
       440.0         0.20         59.0 
       441.0         0.20        130.5 
       442.0         2.62        130.6 
       443.0         0.30         38.3 
       444.0         0.27         36.6 
       445.0         0.35         36.4 
       446.0         0.30         36.0 
       447.0         0.27         35.5 
       448.0         0.27         34.5 
       449.0         0.23         34.9 
       450.0         0.23         34.6 
       451.0         0.20         35.6 
       452.0         0.23         39.7 
       453.0         0.27         38.6 
       454.0         0.20         40.0 
       455.0         0.23         39.5 
       456.0         0.23         39.8 
       457.0         0.20         38.9 
       458.0         0.27         37.5 
       459.0         0.18         37.3 
       460.0         0.23         35.7 
       461.0         0.20         33.9 
       462.0         0.23         33.9 
       463.0         0.17         31.1 
       464.0         0.13         27.4 
       465.0         0.20         26.7 
       466.0         0.13         21.2 
       467.0         0.27         16.3 
       468.0         0.13         15.1 
       469.0         0.20         12.6 
       470.0         0.23         37.4 
       471.0         0.20        101.6 
       472.0         3.22        108.6 
       473.0         0.27         38.0 
       474.0         0.23         37.2 
       475.0         0.27         37.4 
       476.0         0.17         36.3 
       477.0         0.25         35.7 
       478.0         0.17         35.3 
       479.0         0.23         35.9 
       480.0         0.20         40.7 
       481.0         0.17         46.9 
       482.0         0.17         48.7 
       483.0         0.30         49.7 
       484.0         0.30         48.5 
       485.0         0.27         47.9 
       486.0         0.37         46.5 
       487.0         0.17         44.4 
       488.0         0.17         43.7 
       489.0         0.17         41.7 
       490.0         0.17         40.5 
       491.0         0.20         39.2 
       492.0         0.17         36.2 
       493.0         0.18         35.2 
       494.0         0.17         32.9 
       495.0         0.17         31.5 
       496.0         0.23         24.3 
       497.0         0.20         17.1 
       498.0         0.20         13.5 
       499.0         0.23         12.4 
       500.0         0.27         10.8 
       501.0         0.27          8.5 
       502.0         4.68        234.2 
       503.0         0.28         39.5 
       504.0         0.23         43.8 
       505.0         0.23         50.3 
       506.0         0.23         52.3 
       507.0         0.23         51.2 
       508.0         0.23         49.0 
       509.0         0.20         46.5 
       510.0         0.20         45.2 
       511.0         0.20         45.0 
       512.0         0.20         42.9 
       513.0         0.20         42.2 
       514.0         0.17         41.9 
       515.0         0.13         41.9 
       516.0         0.13         40.8 
       517.0         0.13         40.3 
       518.0         0.17         39.9 
       519.0         0.23         39.0 
       520.0         0.25         38.3 
       521.0         0.23         37.4 
       522.0         0.23         36.2 
       523.0         0.23         33.4 
       524.0         0.23         32.2 
       525.0         0.23         20.1 
       526.0         0.27         15.8 
       527.0         0.23         14.1 
       528.0         0.20          9.9 
       529.0         0.17         11.0 
       530.0         0.17          8.7 
       531.0         0.23         10.8 
       532.0         3.55        163.3 
       533.0         0.23         35.7 
       534.0         0.23         36.8 
       535.0         0.38         36.4 
       536.0         0.30         36.1 
       537.0         0.30         35.5 
       538.0         0.30         36.1 
       539.0         0.27         36.0 
       540.0         0.27         35.7 
       541.0         0.30         34.5 
       542.0         0.33         34.0 
       543.0         0.23         33.8 
       544.0         0.20         32.7 
       545.0         0.23         33.1 
       546.0         0.23         33.2 
       547.0         0.22         34.5 
       548.0         0.27         47.0 
       549.0         0.23         52.5 
       550.0         0.23         52.5 
       551.0         0.30         47.7 
       552.0         0.27         46.6 
       553.0         0.23         41.6 
       554.0         0.23         39.1 
       555.0         0.20         23.5 
       556.0         0.23         16.1 
       557.0         0.20         15.0 
       558.0         0.13         14.6 
       559.0         0.17         11.7 
       560.0         0.23         38.9 
       561.0         0.25        168.3 
       562.0         3.00        192.4 
       563.0         0.45        107.3 
       564.0         0.23        101.4 
       565.0         0.27         97.8 
       566.0         0.27         94.4 
       567.0         0.20         89.8 
       568.0         0.10         86.7 
       569.0         0.10         88.9 
       570.0         0.13         88.9 
       571.0         0.10         90.2 
