~Version Information
VERS.                      2.0: CWLS Log ASCII Standard - VERSION 2.0
WRAP.                       NO: One line per depth step
~Well Information Block
STRT.FT                -8.0000: 
STOP.FT              2135.0000: 
STEP.FT                 0.2500: 
NULL.                -999.2500: 
COMP.          Pioneer Natural Resources: COMPANY
WELL.             AMX 13-13 Tr: WELL
FLD.           Purgatorie River: FIELD
LOC.           2401' FSL & 895' FWL--: LOCATION
PROV.                       CO: PROVINCE
CNTY.               Las Animas: COUNTRY
SRVC.          Patterson Wireline: SERVICE COMPANY
DATE.          Thu Jan 05 10:37:28 2006: LOG DATE
UWI.           05 071 08631 00: UNIQUE WELL ID
~Curve Information Block
DEPT.FT            0 000 00 00: Depth
CCL.                          : Casing Collar Locator
TT3.usec                      : CBL 3' Travel Time
AMP3.mV                       : CBL 3' Amplitude
GR.GAPI                       : Gamma Ray
~Parameter Information Block
~A  Depth       CCL         TT3         AMP3         GR     
    -8.0000   -999.2500   -999.2500   -999.2500     74.5978
    -7.7500   -999.2500   -999.2500   -999.2500     74.8458
    -7.5000   -999.2500   -999.2500   -999.2500     76.2082
    -7.2500   -999.2500   -999.2500   -999.2500     78.0307
    -7.0000   -999.2500   -999.2500   -999.2500     79.5907
    -6.7500   -999.2500   -999.2500   -999.2500     81.2215
    -6.5000   -999.2500   -999.2500   -999.2500     83.8495
    -6.2500   -999.2500   -999.2500   -999.2500     87.4788
    -6.0000   -999.2500   -999.2500   -999.2500     90.8249
    -5.7500   -999.2500   -999.2500   -999.2500     92.6289
    -5.5000   -999.2500   -999.2500   -999.2500     92.7219
    -5.2500   -999.2500   -999.2500   -999.2500     91.5312
    -5.0000   -999.2500   -999.2500   -999.2500     89.2407
    -4.7500   -999.2500   -999.2500   -999.2500     86.0033
    -4.5000   -999.2500   -999.2500   -999.2500     82.5931
    -4.2500   -999.2500   -999.2500   -999.2500     80.1479
    -4.0000   -999.2500   -999.2500   -999.2500     79.1098
    -3.7500   -999.2500   -999.2500   -999.2500     78.7608
    -3.5000   -999.2500   -999.2500   -999.2500     78.1949
    -3.2500   -999.2500   1167.0000      1.0703     77.6017
    -3.0000   -999.2500   1167.0000      1.0683     78.0979
    -2.7500   -999.2500   1167.0000      1.0663     80.3463
    -2.5000   -999.2500   1167.0000      1.0664     83.7632
    -2.2500   -999.2500   1167.0000      1.0695     86.9367
    -2.0000   -999.2500   1167.0000      1.0734     88.3980
    -1.7500   -999.2500   1167.0000      1.0739     87.1448
    -1.5000   -999.2500   1167.0000      1.0674     82.9133
    -1.2500   -999.2500   1167.0000      1.0531     76.2143
    -1.0000   -999.2500   1167.0000      1.0337     68.1993
    -0.7500   -999.2500   1167.0000      1.0147     60.4265
    -0.5000   -999.2500   1167.0000      1.0029     54.3337
    -0.2500   -999.2500   1167.0000      1.0038     50.5238
     0.0000   -999.2500   1167.0000      1.0184     48.6125
     0.2500   -999.2500   1167.0000      1.0433     47.7309
     0.5000   -999.2500   1167.0000      1.0989     44.6245
     0.7500   -999.2500   1167.0000      1.1148     40.2808
     1.0000   -999.2500   1167.0000      1.1165     34.2917
     1.2500   -999.2500   1167.0000      1.1068     28.5878
     1.5000   -999.2500   1167.0000      1.0933     25.3016
     1.7500   -999.2500   1167.0000      1.0823     25.5309
     2.0000      0.0000   1167.0000      1.0758     29.1566
     2.2500      0.0000   1167.0000      1.0722     35.2958
     2.5000      0.0000   1167.0000      1.0688     42.5071
     2.7500      0.0000   1167.0000      1.0630     48.9370
     3.0000      0.0000   1167.0000      1.0541     53.0512
     3.2500      0.0000   1167.0000      1.0451     54.5737
     3.5000      0.0000   1167.0000      1.0428     54.5599
     3.7500      0.0000   1167.0000      1.0527     54.3582
     4.0000      0.0000   1167.0000      1.0731     54.5228
     4.2500      0.0000   1167.0000      1.0947     54.8291
     4.5000      0.0000   1167.0000      1.1086     55.0798
     4.7500      0.0000   1167.0000      1.1128     55.4117
     5.0000      0.0000   1167.0000      1.1114     55.9561
     5.2500      0.0000   1167.0000      1.1090     56.7747
     5.5000      0.0000   1167.0000      1.1074     58.1851
     5.7500      0.0000   1167.0000      1.1060     60.6966
     6.0000      0.0000   1167.0000      1.1038     64.4027
     6.2500      0.0000   1167.0000      1.0992     68.4555
     6.5000      0.0000   1167.0000      1.0916     71.2784
     6.7500      0.0000   1167.0000      1.0824     71.6173
     7.0000      0.0000   1167.0000      1.0753     69.5178
     7.2500      0.0000   1167.0000      1.0736     66.3141
     7.5000      0.0000   1167.0000      1.0781     63.9018
     7.7500      0.0000   1167.0000      1.0853     63.8843
     8.0000      0.0000   1167.0000      1.0913     66.6522
     8.2500      0.0000   1167.0000      1.0950     70.8139
     8.5000      0.0000   1166.9998      1.0977     73.9059
     8.7500      0.0000   1166.9982      1.1003     74.2075
     9.0000      0.0000   1166.9675      1.1047     71.9414
     9.2500      0.0000   1166.7860      1.1146     68.5912
     9.5000      0.0000   1165.8881      1.1380     65.2998
     9.7500      0.0000   1162.3735      1.1975     62.2249
    10.0000      0.0000   1151.2832      1.4012     59.2718
    10.2500      0.0000   1123.0309      2.1212     56.8261
    10.5000      0.0000   1064.6042      4.2596     55.4170
    10.7500      0.0000    965.7209      9.3017     54.9090
    11.0000      0.0000    827.7380     18.6290     54.3912
    11.2500      0.0000    668.4464     32.1241     52.8915
    11.5000      0.0000    516.7175     47.3787     50.2188
    11.7500      0.0000    398.4243     60.8470     47.2472
    12.0000      0.0000    323.7435     70.1437     45.2915
    12.2500      0.0000    285.9688     75.1777     44.9811
    12.5000      0.0000    270.7950     77.3349     45.6814
    12.7500      0.0000    265.9850     78.0789     45.9832
    13.0000      0.0000    264.7831     78.2842     44.7956
    13.2500      0.0000    264.5437     78.3146     42.1591
    13.5000      0.0000    264.4989     78.2924     39.1862
    13.7500      0.0000    264.4920     78.2573     37.1943
    14.0000      0.0000    264.4894     78.2219     36.7701
    14.2500      0.0000    264.4899     78.1839     37.5507
    14.5000      0.0000    264.4919     78.1369     38.8466
    14.7500      0.0000    264.4943     78.0756     40.3839
    15.0000      0.0000    264.4963     77.9999     42.3485
    15.2500      0.0000    264.4966     77.9213     44.9206
    15.5000      0.0000    264.4933     77.8650     48.0348
    15.7500      0.0000    264.4861     77.8575     51.4444
    16.0000      0.0000    264.4765     77.9072     54.8054
    16.2500      0.0000    264.4673     77.9962     57.8710
    16.5000      0.0000    264.4608     78.0961     60.6862
    16.7500      0.0000    264.4577     78.1860     63.3683
    17.0000      0.0000    264.4575     78.2573     65.6639
    17.2500      0.0000    264.4595     78.3107     66.9983
    17.5000      0.0000    264.4629     78.3535     67.1253
    17.7500      0.0000    264.4662     78.3957     66.5812
    18.0000      0.0000    264.4673     78.4422     66.2989
    18.2500      0.0000    264.4639     78.4910     66.7620
    18.5000      0.0000    264.4550     78.5377     67.6882
    18.7500      0.0000    264.4419     78.5773     68.5373
    19.0000      0.0000    264.4270     78.6000     68.9791
    19.2500      0.0000    264.4133     78.5940     68.8177
    19.5000      0.0000    264.4023     78.5579     67.8889
    19.7500      0.0000    264.3944     78.5067     66.3217
    20.0000      0.0000    264.3890     78.4630     64.6881
    20.2500      0.0000    264.3858     78.4422     63.5714
    20.5000      0.0000    264.3851     78.4462     62.8887
    20.7500      0.0000    264.3877     78.4666     61.8026
    21.0000      0.0000    264.3937     78.4902     59.5113
    21.2500      0.0000    264.4020     78.5066     56.1612
    21.5000      0.0000    264.4108     78.5154     52.8629
    21.7500      0.0000    264.4175     78.5264     50.7016
    22.0000      0.0000    264.4200     78.5509     49.7877
    22.2500      0.0000    264.4169     78.5924     49.3015
    22.5000      0.0000    264.4085     78.6429     48.3731
    22.7500      0.0000    264.3969     78.6856     46.8868
    23.0000      0.0000    264.3842     78.7058     45.5259
    23.2500      0.0000    264.3729     78.7026     45.2598
    23.5000      0.0000    264.3641     78.6872     46.8220
    23.7500      0.0000    264.3591     78.6694     50.3703
    24.0000      0.0000    264.3590     78.6482     55.1538
    24.2500      0.0000    264.3643     78.6193     59.5349
    24.5000      0.0000    264.3741     78.5852     61.8635
    24.7500      0.0000    264.3867     78.5520     61.6333
    25.0000      0.0000    264.4004     78.5205     59.6673
    25.2500      0.0000    264.4141     78.4853     57.0602
