~Version Information
VERS.                      2.0: CWLS Log ASCII Standard - VERSION 2.0
WRAP.                       NO: One line per depth step
~Well Information Block
STRT.FT               580.0000: 
STOP.FT              1179.0000: 
STEP.FT                 0.1000: 
NULL.                -999.2500: 
COMP.          Pioneer Natural Resources: COMPANY
WELL.          Tin Barn 14-20 TR: WELL
FLD.           Purgatorie River: FIELD
LOC.           925 FSL & 1151 FWL: LOCATION
PROV.                 Colorado: PROVINCE
CNTY.               Las Animas: COUNTRY
SRVC.                Patterson: SERVICE COMPANY
DATE.          Thu Jan 12 12:02:37 2006: LOG DATE
UWI.                          : UNIQUE WELL ID
~Curve Information Block
DEPT.FT            0 000 00 00: Depth
DCAL.in                       : CDL Caliper
RHOB.g/cc                     : CDL Bulk Density
RHOC.g/cc                     : CDL Density Correction
DPOR.pu                       : CDL Density Porosity
GR.GAPI                       : Gamma Ray
~Parameter Information Block
~A  Depth       DCAL        RHOB        RHOC        DPOR         GR     
# ...
  1050.4000      7.9063      2.4423      0.0388     12.5886     57.9696
  1050.5000      7.9262      2.4353      0.0267     13.0151     60.4796
  1050.6000      7.9262      2.4212      0.0302     13.8643     62.2275
  1050.7000      7.9262      2.4069      0.0044     14.7309     63.7709
  1050.8000      7.9250      2.4059     -0.0150     14.7944     64.1868
  1050.9000      7.9250      2.4214      0.0622     13.8533     62.6003
  1051.0000      7.8996      2.4370      0.0646     12.9068     61.7155
  1051.1000      7.8996      2.4426      0.0156     12.5717     65.1821
  1051.2000      7.8996      2.4397      0.0933     12.7425     72.5347
  1051.3000      7.9071      2.4305      0.0517     13.3019     79.5603
  1051.4000      7.9071      2.4237      0.0456     13.7142     83.8903
  1051.5000      7.9072      2.4297      0.0366     13.3491     84.3553
  1051.6000      7.9072      2.4429      0.0416     12.5532     81.2028
  1051.7000      7.9072      2.4515      0.0465     12.0305     78.7033
  1051.8000      7.9109      2.4607      0.0697     11.4756     81.4045
  1051.9000      7.9109      2.4752      0.0489     10.5954     90.3041
  1052.0000      7.9017      2.4919      0.0561      9.5831    100.5466
  1052.1000      7.9017      2.5165      0.0186      8.0885    105.2862
  1052.2000      7.9017      2.5457      0.1004      6.3185    103.1964
  1052.3000      7.8980      2.5616      0.0468      5.3547     98.5366
  1052.4000      7.8980      2.5577      0.0907      5.5967     96.2732
  1052.5000      7.9103      2.5384      0.0353      6.7656     95.7143
  1052.6000      7.9103      2.5170      0.0246      8.0590     93.2996
  1052.7000      7.9103      2.5039      0.0346      8.8567     89.7067
  1052.8000      7.9174      2.5026      0.0248      8.9343     87.4117
  1052.9000      7.9174      2.5141     -0.0032      8.2368     88.1640
  1053.0000      7.9359      2.5264      0.0272      7.4921     91.5390
  1053.1000      7.9359      2.5265      0.0191      7.4866     93.3759
  1053.2000      7.9359      2.5160      0.0379      8.1228     91.6444
  1053.3000      7.9418      2.5007      0.0373      9.0498     89.7383
  1053.4000      7.9418      2.4906     -0.0183      9.6630     90.7009
  1053.5000      7.9461      2.4963     -0.0030      9.3177     92.7500
  1053.6000      7.9461      2.5118     -0.0195      8.3784     93.2239
  1053.7000      7.9461      2.5233     -0.0292      7.6789     91.7915
  1053.8000      7.9530      2.5235     -0.0135      7.6669     88.3490
  1053.9000      7.9530      2.5089     -0.0099      8.5491     84.4892
  1054.0000      7.9547      2.4845     -0.0065     10.0328     82.8524
  1054.1000      7.9547      2.4683     -0.0238     11.0113     82.7928
  1054.2000      7.9547      2.4758      0.0026     10.5553     81.2742
  1054.3000      7.9427      2.4990      0.0077      9.1508     78.5007
  1054.4000      7.9427      2.5149      0.0048      8.1884     77.3390
  1054.5000      7.9189      2.5150      0.0157      8.1808     78.6144
  1054.6000      7.9189      2.5086      0.0206      8.5668     82.8506
  1054.7000      7.9189      2.5051      0.0252      8.7822     88.5811
  1054.8000      7.9097      2.5120      0.0164      8.3613     91.8092
  1054.9000      7.9097      2.5247      0.0667      7.5965     91.4041
  1055.0000      7.9090      2.5259      0.0384      7.5225     89.4189
  1055.1000      7.9090      2.5155      0.0449      8.1541     89.1639
  1055.2000      7.9090      2.5101     -0.0028      8.4776     93.6626
  1055.3000      7.9112      2.5216      0.0028      7.7837    102.1506
  1055.4000      7.9112      2.5392      0.0084      6.7140    110.8893
  1055.5000      7.9200      2.5433      0.0346      6.4639    118.4030
  1055.6000      7.9200      2.5333      0.0282      7.0748    124.4918
  1055.7000      7.9200      2.5210      0.0301      7.8184    128.9698
  1055.8000      7.9214      2.5187     -0.0158      7.9596    132.6490
  1055.9000      7.9214      2.5321     -0.0110      7.1484    133.9691
  1056.0000      7.8995      2.5472      0.0531      6.2318    132.6484
  1056.1000      7.8995      2.5467      0.0482      6.2601    130.7776
  1056.2000      7.8995      2.5364      0.0313      6.8829    129.0559
  1056.3000      7.8830      2.5345      0.0201      7.0007    128.3242
  1056.4000      7.8830      2.5456      0.0474      6.3258    128.9576
  1056.5000      7.8729      2.5578      0.0498      5.5852    128.0768
  1056.6000      7.8729      2.5606      0.0454      5.4179    122.1513
  1056.7000      7.8729      2.5572      0.0684      5.6243    115.2430
  1056.8000      7.8791      2.5624      0.0225      5.3099    112.5697
  1056.9000      7.8791      2.5858      0.0395      3.8902    112.2175
  1057.0000      7.8913      2.6124      0.0922      2.2789    112.3291
  1057.1000      7.8913      2.6229      0.0696      1.6402    113.4947
  1057.2000      7.8913      2.6229      0.0331      1.6443    114.2491
  1057.3000      7.9074      2.6300      0.0114      1.2151    113.7706
  1057.4000      7.9074      2.6481      0.0724      0.1170    112.4490
  1057.5000      7.9028      2.6668      0.0592     -1.0177    107.9022
  1057.6000      7.9028      2.6819      0.0688     -1.9345     99.6314
  1057.7000      7.9028      2.6917      0.0678     -2.5243     92.8967
  1057.8000      7.8875      2.6879      0.0884     -2.2942     90.8869
  1057.9000      7.8875      2.6731      0.0184     -1.3989     92.3919
  1058.0000      7.8631      2.6581      0.0744     -0.4900     95.3506
  1058.1000      7.8631      2.6438      0.0009      0.3747     97.2746
  1058.2000      7.8631      2.6315      0.0117      1.1214     98.4984
  1058.3000      7.8666      2.6206      0.0299      1.7843    100.2636
  1058.4000      7.8666      2.6052      0.0074      2.7132    104.8220
  1058.5000      7.8638      2.5862      0.0124      3.8656    114.4004
  1058.6000      7.8638      2.5721      0.0100      4.7239    126.6986
  1058.7000      7.8638      2.5646      0.0100      5.1766    136.9543
  1058.8000      7.8670      2.5523      0.0359      5.9190    142.5706
  1058.9000      7.8670      2.5343      0.0219      7.0099    146.2606
  1059.0000      7.8700      2.5279     -0.0089      7.3971    151.5569
  1059.1000      7.8700      2.5381      0.0414      6.7844    157.6853
  1059.2000      7.8700      2.5472      0.0302      6.2324    161.9573
  1059.3000      7.8604      2.5497      0.0319      6.0777    164.6174
  1059.4000      7.8604      2.5532      0.0596      5.8685    166.0343
  1059.5000      7.8699      2.5530      0.0585      5.8816    164.1091
  1059.6000      7.8699      2.5467     -0.0137      6.2582    159.7834
  1059.7000      7.8699      2.5512      0.0012      5.9898    156.5612
  1059.8000      7.8842      2.5786      0.0323      4.3251    156.5049
  1059.9000      7.8842      2.6207      0.1058      1.7739    159.4223
  1060.0000      7.8888      2.6534      0.1486     -0.2085    159.4944
  1060.1000      7.8888      2.6531      0.1496     -0.1855    155.3695
  1060.2000      7.8888      2.6243      0.0571      1.5599    154.8353
  1060.3000      7.8727      2.5976      0.0466      3.1757    158.6061
  1060.4000      7.8727      2.5893      0.0393      3.6818    158.7872
  1060.5000      7.8715      2.5942      0.0152      3.3841    154.6585
  1060.6000      7.8715      2.5989      0.0737      3.0990    152.0298
  1060.7000      7.8715      2.5919      0.0530      3.5196    152.4507
  1060.8000      7.8973      2.5784      0.0525      4.3389    154.5059
  1060.9000      7.8973      2.5651      0.0673      5.1433    156.5190
  1061.0000      7.9265      2.5511      0.0253      5.9926    155.4763
  1061.1000      7.9265      2.5454      0.0065      6.3390    150.8691
  1061.2000      7.9265      2.5552      0.0632      5.7438    147.1140
  1061.3000      7.9376      2.5652      0.0839      5.1403    148.3940
  1061.4000      7.9376      2.5678      0.0498      4.9822    152.8992
  1061.5000      7.9237      2.5830      0.0436      4.0627    156.7297
