~Version Information
VERS.                      2.0: CWLS Log ASCII Standard - VERSION 2.0
WRAP.                       NO: One line per depth step
~Well Information Block
STRT.FT                -8.5000: 
STOP.FT              1214.7500: 
STEP.FT                 0.2500: 
NULL.                -999.2500: 
COMP.          Pioneer Natural Resources: COMPANY
WELL.          Rock Island 44-24 Tr: WELL
FLD.           Purgatorie River: FIELD
LOC.           814' FSL & 761' FEL--: LOCATION
CNTY.               Las Animas: COUNTY
SRVC.          Patterson Wireline: SERVICE COMPANY
DATE.          Fri Apr 28 10:23:18 2006: LOG DATE
UWI.           05 071 08680 00: UNIQUE WELL ID
STAT.                       CO: STATE
~Curve Information Block
DEPT.FT            0 000 00 00: Depth
CCL.                          : Casing Collar Locator
TT3.usec                      : CBL 3' Travel Time
AMP3.mV                       : CBL 3' Amplitude
GR.GAPI                       : Gamma Ray
~Parameter Information Block
~A  Depth       CCL         TT3         AMP3         GR     
# ...
    58.5000      0.0000    818.0984      8.4511     50.5185
    58.7500      0.0000    799.8019      8.6437     50.8246
    59.0000      0.0000    782.5998      8.7484     51.8822
    59.2500      0.0000    761.4560      8.7959     53.1158
    59.5000      0.0000    738.3508      8.7975     53.6991
    59.7500      0.0000    719.4240      8.7553     53.2054
    60.0000      0.0000    707.9860      8.6734     51.9258
    60.2500      0.0000    702.8035      8.5612     50.3805
    60.5000      0.0000    701.1176      8.4328     48.6881
    60.7500      0.0000    701.3093      8.3057     46.7201
    61.0000      0.0000    703.3864      8.1972     44.7563
    61.2500      0.0000    708.1075      8.1214     43.5917
    61.5000      0.0000    715.4813      8.0868     43.8234
    61.7500      0.0000    723.4683      8.0963     45.1900
    62.0000      0.0000    728.5349      8.1459     46.7572
    62.2500      0.0000    728.2747      8.2224     47.7480
    62.5000      0.0000    723.5597      8.3053     48.1014
    62.7500      0.0000    717.8140      8.3764     48.2073
    63.0000      0.0000    714.3480      8.4269     48.2973
    63.2500      0.0000    714.2855      8.4568     48.2752
    63.5000      0.0000    716.4470      8.4712     48.0553
    63.7500      0.0000    718.7429      8.4769     47.7920
    64.0000      0.0000    719.6124      8.4790     47.6412
    64.2500      0.0000    718.5177      8.4777     47.4407
    64.5000      0.0000    715.8527      8.4707     46.9432
    64.7500      0.0000    712.7369      8.4551     46.4123
    65.0000      0.0000    710.3949      8.4258     46.6276
    65.2500      0.0000    709.1007      8.3731     48.0742
    65.5000      0.0000    707.9708      8.2885     50.2835
    65.7500      0.0000    706.1929      8.1753     52.1605
    66.0000      0.0000    704.2115      8.0516     52.9605
    66.2500      0.0000    703.2903      7.9406     52.9150
    66.5000      0.0000    704.0380      7.8581     52.8237
    66.7500      0.0000    705.5799      7.8082     53.1508
    67.0000      0.0000    706.2383      7.7853     53.8278
    67.2500      0.0000    705.0445      7.7784     54.7882
    67.5000      0.0000    702.5338      7.7746     56.1422
    67.7500      0.0000    700.0239      7.7623     57.8549
    68.0000      0.0000    698.3835      7.7334     59.8299
    68.2500      0.0000    697.6166      7.6854     62.3785
    68.5000      0.0000    697.3002      7.6238     66.1251
    68.7500      0.0000    697.0945      7.5606     71.2516
    69.0000      0.0000    696.9235      7.5092     77.0917
    69.2500      0.0000    696.9500      7.4767     82.6657
    69.5000      0.0000    697.5774      7.4607     87.4383
    69.7500      0.0000    699.5878      7.4530     91.3359
    70.0000      0.0000    704.1628      7.4454     94.2490
    70.2500      0.0000    712.1746      7.4313     96.0451
    70.5000      0.0000    722.6848      7.4050     97.0730
    70.7500      0.0000    732.1199      7.3629     98.1009
    71.0000      0.0000    735.9429      7.3076     99.5344
    71.2500      0.0000    732.1445      7.2512    100.9506
    71.5000      0.0000    723.2264      7.2116    101.4413
    71.7500      0.0000    714.6288      7.2012    100.2626
    72.0000      0.0000    711.3201      7.2186     97.3313
    72.2500      0.0000    715.4618      7.2482     93.3767
    72.5000      0.0000    725.9594      7.2675     89.6490
    72.7500      0.0000    739.3130      7.2568     87.4170
    73.0000      0.0000    751.4648      7.2072     87.4870
    73.2500      0.0000    759.8238      7.1276     89.6796
    73.5000      0.0000    763.8892      7.0426     92.6938
    73.7500      0.0000    764.1086      6.9807     95.0205
    74.0000      0.0000    760.5414      6.9606     96.0791
    74.2500      0.0000    753.0076      6.9869     96.1315
    74.5000      0.0000    742.6229      7.0522     95.3916
    74.7500      0.0000    732.6971      7.1398     93.8866
    75.0000      0.0000    726.9749      7.2300     91.9820
    75.2500      0.0000    726.2924      7.3119     90.2252
    75.5000      0.0000    727.5428      7.3880     88.5730
    75.7500      0.0000    726.9244      7.4661     86.4430
    76.0000      0.0000    724.0234      7.5513     83.6921
    76.2500      0.0000    721.9318      7.6467     80.9594
    76.5000      0.0000    723.6926      7.7569     78.8705
    76.7500      0.0000    729.6404      7.8846     77.3900
    77.0000      0.0000    737.8003      8.0280     75.9709
    77.2500      0.0000    745.3125      8.1829     73.9618
    77.5000      0.0000    749.1905      8.3473     71.0833
    77.7500      0.0000    747.2839      8.5196     67.9117
    78.0000      0.0000    739.6973      8.6914     65.7174
    78.2500      0.0000    729.2231      8.8444     65.4634
    78.5000      0.0000    720.2155      8.9539     66.8772
    78.7500      0.0000    717.1151      8.9970     68.6151
    79.0000      0.0000    722.9402      8.9591     69.4330
    79.2500      0.0000    737.2532      8.8435     69.1933
    79.5000      0.0000    755.3590      8.6770     68.6499
    79.7500      0.0000    771.0390      8.5020     68.4429
    80.0000      0.0000    780.7921      8.3547     68.5677
    80.2500      0.0000    785.6737      8.2467     68.6654
    80.5000      0.0000    790.0283      8.1643     68.3917
    80.7500      0.0000    798.7271      8.0825     67.3576
    81.0000      0.0000    814.2498      7.9819     65.0065
    81.2500      0.0000    835.2029      7.8616     61.0118
    81.5000      0.0000    857.2133      7.7419     55.9658
    81.7500      0.0000    875.0541      7.6503     51.4694
    82.0000      0.0000    884.5481      7.5993     49.1302
    82.2500      0.0000    884.6200      7.5777     49.2077
    82.5000      0.0000    878.2454      7.5660     50.3686
    82.7500      0.0000    869.8017      7.5557     50.9904
    83.0000      0.0000    860.9473      7.5489     50.5755
    83.2500      0.0000    851.1780      7.5433     49.7827
    83.5000      0.0000    843.0451      7.5269     49.5070
    83.7500      0.0000    843.7340      7.4886     50.3461
    84.0000      0.0000    858.9316      7.4308     52.6810
    84.2500      0.0000    886.8015      7.3676     56.6726
    84.5000      0.0000    920.5750      7.3138     61.9421
    84.7500      0.0000    955.9639      7.2737     67.4246
    85.0000      0.0000    992.8663      7.2408     71.9145
    85.2500      0.0000   1028.9961      7.2063     75.0711
    85.5000      0.0000   1054.1865      7.1703     77.8652
    85.7500      0.0000   1054.1844      7.1429     81.7501
    86.0000      0.0000   1022.3847      7.1341     87.1923
    86.2500      0.0000    968.6035      7.1442     92.9661
    86.5000      0.0000    914.7770      7.1658     97.0092
    86.7500      0.0000    879.6738      7.1920     98.2314
    87.0000      0.0000    867.0342      7.2185     97.4117
    87.2500      0.0000    868.3605      7.2387     96.1187
    87.5000      0.0000    874.3871      7.2441     95.1410
    87.7500      0.0000    880.9664      7.2318     94.5389
    88.0000      0.0000    885.8234      7.2098     94.8015
    88.2500      0.0000    884.7250      7.1935     96.9780
    88.5000      0.0000    873.6670      7.1955    101.4555
    88.7500      0.0000    853.6474      7.2200    107.0530
    89.0000      0.0000    830.9900      7.2617    111.5278
    89.2500      0.0000    812.6672      7.3081    112.9894
    89.5000      0.0000    802.1742      7.3435    111.1961
    89.7500      0.0000    799.1691      7.3519    107.7406
    90.0000      0.0000    800.9706      7.3216    104.6582
    90.2500      0.0000    803.8964      7.2498    102.6065
    90.5000      0.0000    804.7921      7.1462    100.5502
    90.7500      0.0000    802.3467      7.0330     97.1183
    91.0000      0.0000    796.7701      6.9379     91.9792
    91.2500      0.0000    788.4435      6.8822     86.1331
    91.5000      0.0000    777.5494      6.8686     81.3777
    91.7500      0.0000    764.7864      6.8804     79.4146
