~Version Information
 VERS.                                  2.0 : CWLS LAS VERSION
 WRAP.                                   NO : WRAPING MODE
 SWARE .                 MController 2.5.0N : SOFTWARE VERSION
~Well Information
 WELL.                          Julie 11-30 : WELL
 COMP.       Pioneer Natural Resources, USA : COMPANY
 FLD.                       Purgatory River : FIELD
 LOC.                 NW/NW Sec30 T33S R65W : LOCATION
 DATE.                              4/13/06 : DATE(S) LOGGED
 SRVC.      Blanco Geological Services, LLC : SERVICE COMPANY
 STAT.                             Colorado : STATE
 CNTY.                           Las Animas : COUNTY
 CTRY.                                  USA : COUNTRY
 API.                       05-071-08724-00 : API NUMBER
 STRT.FT                             178.00 : START DEPTH
 STOP.FT                            1270.00 : STOP DEPTH
 STEP.FT                               1.00 : DEPTH INCREMENT
 NULL.                                -9999 : NULL VALUE
~Curve information
 DEPTH.FT                                   :
 ROP.MIN/FT                                 :
 GAS.UNITS                                  :
~ASCII Log data
# ...
       978.0         0.30        148.7 
       979.0         0.30        135.2 
       980.0         0.33        111.6 
       981.0         0.33        108.0 
       982.0         3.12        292.1 
       983.0         0.40        291.1 
       984.0         0.32        251.0 
       985.0         0.37        218.0 
       986.0         0.37        217.9 
       987.0         0.27        200.6 
       988.0         0.27        214.7 
       989.0         0.33        231.2 
       990.0         0.27        231.0 
       991.0         0.33        206.7 
       992.0         0.30        185.7 
       993.0         0.27        155.6 
       994.0         0.27        134.9 
       995.0         0.32        116.6 
       996.0         0.37        125.9 
       997.0         0.33        165.2 
       998.0         0.33        188.1 
       999.0         0.37        186.2 
      1000.0         0.33        166.0 
      1001.0         0.30        148.3 
      1002.0         0.30        139.6 
      1003.0         0.33        131.7 
      1004.0         0.33         30.7 
      1005.0         0.35          3.8 
      1006.0         0.30          0.2 
      1007.0         0.33         -1.0 
      1008.0         0.33         -0.9 
      1009.0         0.27          8.6 
      1010.0         0.27         87.2 
      1011.0         0.23        115.2 
      1012.0         3.45       3210.6 
      1013.0         0.23       3002.1 
      1014.0         0.30       2837.0 
      1015.0         0.43       2590.0 
      1016.0         0.62       2666.2 
      1017.0         0.50       2807.3 
      1018.0         0.43       2802.6 
      1019.0         0.37       2552.3 
      1020.0         0.40       2354.2 
      1021.0         0.37       2111.3 
      1022.0         0.40       1847.1 
      1023.0         0.37       1720.1 
      1024.0         0.42       1714.7 
      1025.0         0.33       1690.8 
      1026.0         0.37       1690.5 
      1027.0         0.30       1690.1 
      1028.0         0.40       1695.2 
      1029.0         0.40       1808.7 
      1030.0         0.33       1970.8 
      1031.0         0.33       1997.7 
      1032.0         0.33       1971.1 
      1033.0         0.27       1827.9 
      1034.0         0.32       1817.5 
      1035.0         0.30       1820.5 
      1036.0         0.30       1817.1 
      1037.0         0.27       1775.7 
      1038.0         0.30       1751.4 
      1039.0         0.37       1636.6 
      1040.0         0.33       1565.8 
      1041.0         0.30       1614.0 
      1042.0         3.78       3013.5 
      1043.0         0.20       2356.9 
      1044.0         0.23       2302.3 
      1045.0         0.48       2406.4 
      1046.0         0.37       2672.6 
      1047.0         0.33       2910.1 
      1048.0         0.33       2998.4 
      1049.0         0.40       2982.5 
      1050.0         0.33       2660.8 
      1051.0         0.37       2478.5 
      1052.0         0.23       2286.5 
      1053.0         0.27       2170.9 
      1054.0         0.23       1976.2 
      1055.0         0.22       1856.9 
      1056.0         0.20       1775.7 
      1057.0         0.23       1727.9 
      1058.0         0.23       1707.0 
      1059.0         0.27       1836.3 
      1060.0         0.27       2011.5 
      1061.0         0.27       2121.4 
      1062.0         0.30       2145.0 
      1063.0         0.30       2123.7 
      1064.0         0.30       2077.9 
      1065.0         0.37       2016.3 
      1066.0         0.33       2007.5 
      1067.0         0.35       2126.1 
      1068.0         0.30       2146.0 
      1069.0         0.30       2090.7 
      1070.0         0.33       2025.4 
      1071.0         0.33       2029.7 
      1072.0         4.62       4631.7 
      1073.0         0.60       2730.5 
      1074.0         0.52       3416.8 
      1075.0         0.43       3578.5 
      1076.0         0.37       3522.3 
      1077.0         0.37       3267.2 
      1078.0         0.33       2972.8 
      1079.0         0.40       2752.1 
      1080.0         0.33       2504.4 
      1081.0         0.33       2444.8 
      1082.0         0.23       2371.0 
      1083.0         0.28       2266.6 
      1084.0         0.27       2114.6 
      1085.0         0.23       1928.0 
      1086.0         0.27       1845.1 
      1087.0         0.23       1799.3 
      1088.0         0.20       1798.6 
      1089.0         0.20       1812.4 
      1090.0         0.20       1830.6 
      1091.0         0.30       1835.7 
      1092.0         0.30       1849.5 
      1093.0         0.23       1989.3 
      1094.0         0.30       2325.2 
      1095.0         0.37       2376.8 
      1096.0         0.35       2324.9 
      1097.0         0.30       2330.9 
      1098.0         0.23       2343.4 
      1099.0         0.23       2336.3 
      1100.0         0.23       2280.1 
      1101.0         0.20       2202.2 
      1102.0         4.15       4718.6 
      1103.0         0.53       3858.5 
      1104.0         0.30       2846.4 
      1105.0         0.42       3053.6 
      1106.0         0.27       3174.6 
      1107.0         0.23       3295.9 
      1108.0         0.33       3326.5 
      1109.0         0.33       3203.9 
      1110.0         0.30       2927.9 
      1111.0         0.30       2808.7 
      1112.0         0.30       2790.8 
      1113.0         0.27       2709.0 
      1114.0         0.30       2577.9 
      1115.0         0.27       2298.6 
      1116.0         0.32       2167.9 
      1117.0         0.27       2066.1 
      1118.0         0.30       2030.7 
      1119.0         0.30       2006.1 
      1120.0         0.27       1996.0 
      1121.0         0.33       1989.3 
      1122.0         0.30       1982.9 
      1123.0         0.30       1975.8 
      1124.0         0.30       1975.8 
      1125.0         0.33       1974.8 
      1126.0         0.30       1974.1 
      1127.0         0.32       1976.5 
      1128.0         0.30       1976.2 
      1129.0         0.30       1976.8 
      1130.0         0.33       1973.5 
      1131.0         0.30       1967.1 
      1132.0         4.28       4317.0 
      1133.0         0.37       3152.3 
      1134.0         0.37       2937.7 
      1135.0         0.42       3026.0 
      1136.0         0.33       3090.3 
      1137.0         0.37       3206.9 
      1138.0         0.27       3211.0 
      1139.0         0.30       3197.5 
      1140.0         0.27       3066.1 
      1141.0         0.27       2896.3 
      1142.0         0.27       2791.5 
      1143.0         0.27       2597.8 
      1144.0         0.27       2510.8 
      1145.0         0.30       2390.9 
      1146.0         0.27       2228.8 
      1147.0         0.28       2136.2 
      1148.0         0.27       2060.7 
      1149.0         0.30       2022.7 
      1150.0         0.27       1952.2 
      1151.0         0.27       1921.6 
      1152.0         0.27       1899.7 
      1153.0         0.27       1872.7 
      1154.0         0.27       1830.6 
      1155.0         0.27       1758.9 
      1156.0         0.30       1667.5 
      1157.0         0.30       1566.8 
      1158.0         0.30       1681.0 
      1159.0         0.28       1727.5 
      1160.0         0.30       1733.6 
      1161.0         0.30       1707.3 
      1162.0         3.98       4521.5 
      1163.0         0.43       3713.3 
      1164.0         0.37       2903.7 
      1165.0         0.37       2943.8 
      1166.0         0.37       2943.8 
      1167.0         0.40       2869.0 
      1168.0         0.35       2810.7 
      1169.0         0.33       2898.3 
      1170.0         0.30       2906.7 
      1171.0         0.30       2860.9 
      1172.0         0.27       2726.5 
      1173.0         0.27       2603.2 
      1174.0         0.30       2441.4 
      1175.0         0.27       2339.4 
      1176.0         0.30       2242.7 
      1177.0         0.30       2163.5 
