~Version Information
VERS.                      2.0: CWLS Log ASCII Standard - VERSION 2.0
WRAP.                       NO: One line per depth step
~Well Information Block
STRT.FT               687.7500: 
STOP.FT              1252.7500: 
STEP.FT                 0.2500: 
NULL.                -999.2500: 
COMP.          Pioneer Natural Resources: COMPANY
WELL.          Rock Island 44-24 Tr: WELL
FLD.           Purgatoire River: FIELD
LOC.           814' FSL & 761' FEL--: LOCATION
CNTY.               Las Animas: COUNTY
SRVC.                Patterson: SERVICE COMPANY
DATE.          Wed Apr 19 21:31:44 2006: LOG DATE
UWI.           05 071 08680 00: UNIQUE WELL ID
STAT.                 Colorado: STATE
~Curve Information Block
DEPT.FT            0 000 00 00: Depth
DIR.Ohm-m                     : IEL Induction Resistivity
GR.GAPI                       : Gamma Ray
~Parameter Information Block
~A  Depth       DIR          GR     
   687.7500   -999.2500   -999.2500
   688.0000   -999.2500     59.4004
   688.2500   -999.2500     58.8468
   688.5000   -999.2500     59.6618
   688.7500   -999.2500     61.1768
   689.0000   -999.2500     64.0809
   689.2500   -999.2500     65.8104
   689.5000   -999.2500     67.1880
   689.7500   -999.2500     67.0778
   690.0000   -999.2500     65.7847
   690.2500   -999.2500     64.8318
   690.5000   -999.2500     64.6861
   690.7500   -999.2500     66.0597
   691.0000   -999.2500     70.2831
   691.2500   -999.2500     73.7776
   691.5000   -999.2500     78.2441
   691.7500   -999.2500     80.0169
   692.0000   -999.2500     80.9042
   692.2500   -999.2500     80.8249
   692.5000   -999.2500     80.4935
   692.7500   -999.2500     80.2304
   693.0000   -999.2500     79.4800
   693.2500   -999.2500     78.5429
   693.5000   -999.2500     76.2751
   693.7500   -999.2500     74.1983
   694.0000   -999.2500     70.7541
   694.2500   -999.2500     68.8300
   694.5000   -999.2500     67.3943
   694.7500   -999.2500     67.5280
   695.0000   -999.2500     69.0249
   695.2500   -999.2500     70.6242
   695.5000   -999.2500     73.4937
   695.7500   -999.2500     75.4756
   696.0000   -999.2500     78.3174
   696.2500   -999.2500     80.0882
   696.5000   -999.2500     82.2488
   696.7500   -999.2500     83.0022
   697.0000   -999.2500     82.8892
   697.2500   -999.2500     82.3532
   697.5000   -999.2500     81.7137
   697.7500   -999.2500     81.5652
   698.0000   -999.2500     81.5717
   698.2500   -999.2500     81.6480
   698.5000   -999.2500     81.7915
   698.7500   -999.2500     81.7257
   699.0000   -999.2500     81.0022
   699.2500   -999.2500     80.1063
   699.5000   -999.2500     78.5602
   699.7500   -999.2500     77.6831
   700.0000   -999.2500     77.0520
   700.2500   -999.2500     77.3582
   700.5000   -999.2500     78.9903
   700.7500   -999.2500     80.4465
   701.0000   -999.2500     82.1335
   701.2500   -999.2500     82.6344
   701.5000   -999.2500     82.6484
   701.7500   -999.2500     82.2765
   702.0000   -999.2500     80.9295
   702.2500   -999.2500     79.4380
   702.5000   -999.2500     76.8926
   702.7500   -999.2500     75.5658
   703.0000   -999.2500     74.5867
   703.2500   -999.2500     74.3147
   703.5000   -999.2500     73.5207
   703.7500   -999.2500     72.3625
   704.0000   -999.2500     69.7757
   704.2500   -999.2500     67.9120
   704.5000   -999.2500     65.9643
   704.7500   -999.2500     65.7864
   705.0000   -999.2500     67.4388
   705.2500   -999.2500     69.3485
   705.5000   -999.2500     71.9193
   705.7500   -999.2500     72.6355
   706.0000   -999.2500     71.8023
   706.2500   -999.2500     70.4518
   706.5000   -999.2500     68.8583
   706.7500   -999.2500     68.9696
   707.0000   -999.2500     71.2541
   707.2500   -999.2500     73.5436
   707.5000   -999.2500     76.3310
   707.7500   -999.2500     76.9893
   708.0000   -999.2500     76.0071
   708.2500   -999.2500     74.4289
   708.5000   -999.2500     71.3986
   708.7500   -999.2500     69.1377
   709.0000   -999.2500     65.4373
   709.2500   -999.2500     62.7602
   709.5000   -999.2500     58.4130
   709.7500   -999.2500     55.2471
   710.0000   -999.2500     50.1174
   710.2500   -999.2500     46.6728
   710.5000   -999.2500     42.1992
   710.7500   -999.2500     40.0729
   711.0000   -999.2500     38.5860
   711.2500   -999.2500     38.9363
   711.5000   -999.2500     41.7839
   711.7500   -999.2500     45.1470
   712.0000   -999.2500     51.4626
   712.2500   -999.2500     55.6372
   712.5000   -999.2500     60.4101
   712.7500   -999.2500     62.2314
   713.0000   -999.2500     63.3336
   713.2500      1.3888     63.4707
   713.5000      1.3947     63.2304
   713.7500      1.4019     62.8104
   714.0000      1.4109     61.9931
   714.2500      1.4215     61.5743
   714.5000      1.4341     61.3050
   714.7500      1.4486     61.1624
   715.0000      1.4644     60.5874
   715.2500      1.4808     60.0026
   715.5000      1.4967     59.2662
   715.7500      1.5116     59.0364
   716.0000      1.5250     59.0450
   716.2500      1.5368     59.2323
   716.5000      1.5473     59.7887
   716.7500      1.5571     60.3371
   717.0000      1.5670     61.3659
   717.2500      1.5778     62.2064
   717.5000      1.5891     63.8478
   717.7500      1.5990     65.2194
   718.0000      1.6046     67.4106
   718.2500      1.6034     68.7066
   718.5000      1.5954     70.2028
   718.7500      1.5834     71.0254
   719.0000      1.5720     72.5538
   719.2500      1.5659     74.1067
   719.5000      1.5690     77.2589
   719.7500      1.5854     79.4689
   720.0000      1.6200     81.8948
   720.2500      1.6766     82.5202
   720.5000      1.7553     81.9961
   720.7500      1.8482     81.0564
   721.0000      1.9382     79.6940
   721.2500      2.0032     79.1997
   721.5000      2.0280     79.0349
   721.7500      2.0130     78.9458
   722.0000      1.9718     78.2329
   722.2500      1.9198     77.3731
   722.5000      1.8664     76.3504
   722.7500      1.8152     76.5327
   723.0000      1.7681     78.5284
   723.2500      1.7279     80.4906
   723.5000      1.6977     82.7726
   723.7500      1.6804     83.1362
   724.0000      1.6820     81.9119
   724.2500      1.7186     80.5645
   724.5000      1.8260     79.0374
   724.7500      2.0722     78.5668
   725.0000      2.5889     78.0020
   725.2500      3.6616     77.3089
   725.5000      5.9823     75.9909
   725.7500     11.2687     75.4741
   726.0000     22.5588     76.3119
   726.2500     36.0070     78.5043
   726.5000     33.6391     84.8912
   726.7500     21.0858     91.1646
   727.0000     11.2763    102.5528
   727.2500      6.0089    110.4485
   727.5000      3.5238    120.7329
   727.7500      2.3920    125.4887
   728.0000      1.9217    128.7006
   728.2500      1.8450    128.7283
   728.5000      2.1303    127.5822
   728.7500      3.0045    127.0741
   729.0000      5.4949    127.2060
   729.2500     17.3718    127.4056
   729.5000 100000.0000    126.5465
   729.7500 100000.0000    124.7622
   730.0000 100000.0000    120.7968
   730.2500 100000.0000    118.1916
   730.5000     54.0671    115.8343
   730.7500     16.5737    115.6463
   731.0000     10.6880    117.1759
   731.2500      8.7329    119.1415
   731.5000      8.0348    123.2272
   731.7500      7.8810    126.4002
   732.0000      7.9859    130.6764
   732.2500      8.2009    132.4165
   732.5000      8.4288    132.7509
   732.7500      8.6028    131.7859
   733.0000      8.7086    129.9309
   733.2500      8.8121    129.2510
   733.5000      9.0450    129.6539
   733.7500      9.5594    130.4524
   734.0000     10.4797    130.5931
   734.2500     11.8371    128.6597
   734.5000     13.4491    120.9359
   734.7500     14.8443    112.2981
   735.0000     15.5067     95.7452
   735.2500     15.3457     84.3890
   735.5000     14.7213     70.6222
   735.7500     14.0396     64.8190
   736.0000     13.5193     61.1418
   736.2500     13.2069     61.6126
   736.5000     13.0438     66.7591
   736.7500     12.9144     73.4807
   737.0000     12.6941     87.8964
   737.2500     12.3048     98.8701
   737.5000     11.7480    113.7995
   737.7500     11.0892    121.0679
   738.0000     10.4150    126.8439
   738.2500      9.7993    127.6736
   738.5000      9.2906    126.4413
   738.7500      8.9140    125.5280
   739.0000      8.6765    126.0103
   739.2500      8.5704    127.7361
   739.5000      8.5775    131.0883
   739.7500      8.6733    132.6857
   740.0000      8.8335    132.4781
   740.2500      9.0412    130.0574
   740.5000      9.2923    123.2487
   740.7500      9.5961    117.6637
   741.0000      9.9707    110.5227
   741.2500     10.4346    107.8432
   741.5000     10.9942    106.8789
   741.7500     11.6302    106.8708
   742.0000     12.2903    104.6351
   742.2500     12.8967    100.6521
   742.5000     13.3713     92.1014
   742.7500     13.6678     86.6311
   743.0000     13.7868     82.0335
   743.2500     13.7648     82.3068
