~Version Information
VERS.                      2.0: CWLS Log ASCII Standard - VERSION 2.0
WRAP.                       NO: One line per depth step
~Well Information Block
STRT.FT                10.0000: 
STOP.FT               715.0000: 
STEP.FT                 0.1000: 
NULL.                -999.2500: 
COMP.          Pioneer Natural Resources: COMPANY
WELL.           Belvedere 14-7: WELL
FLD.           Purgatorie River: FIELD
LOC.           786' FSL & 1283' FWL: LOCATION
PROV.                 Colorado: PROVINCE
CNTY.               Las Animas: COUNTRY
SRVC.                Patterson: SERVICE COMPANY
DATE.          Mon Nov 28 07:30:54 2005: LOG DATE
UWI.           05-071-08557               : UNIQUE WELL ID
~Curve Information Block
DEPT.FT            0 000 00 00: Depth
DCAL.in                       : CDL Caliper
RHOB.g/cc                     : CDL Bulk Density
RHOC.g/cc                     : CDL Density Correction
DPOR.pu                       : CDL Density Porosity
GR.GAPI                       : Gamma Ray
NPOR.pu                       : Neutron Porosity
~Parameter Information Block
~A  Depth       DCAL        RHOB        RHOC        DPOR         GR         NPOR    
# ...
   144.4000      2.7444      2.2548      2.5352     -0.0079    149.3229     26.6218
   144.5000      2.7444      2.2820      2.5589     -0.0074    147.1238     26.1878
   144.6000      2.7444      2.2982      2.5665     -0.0070    148.4505     25.8748
   144.7000      2.7444      2.3063      2.5798     -0.0069    148.1301     25.8400
   144.8000      2.7444      2.3020      2.5894     -0.0070    142.0814     25.6214
   144.9000      2.7444      2.2859      2.5761     -0.0073    134.2848     25.1986
   145.0000      2.7444      2.2744      2.5429     -0.0075    132.3515     24.8130
   145.1000      2.7444      2.2809      2.5741     -0.0074    138.0393     24.3420
   145.2000      2.7444      2.2947      2.6081     -0.0071    145.5009     23.6971
   145.3000      2.7444      2.2980      2.5798     -0.0070    149.3142     23.1108
   145.4000      2.7444      2.2938      2.5723     -0.0071    152.0083     22.8135
   145.5000      2.7444      2.2925      2.5885     -0.0072    158.9069     22.6036
   145.6000      2.7444      2.2939      2.5935     -0.0071    165.5000     22.1050
   145.7000      2.7444      2.2988      2.5691     -0.0070    163.5824     21.4493
   145.8000      2.7444      2.3092      2.5930     -0.0068    156.4387     20.9935
   145.9000      2.7444      2.3189      2.6135     -0.0066    153.0867     20.8857
   146.0000      2.7444      2.3203      2.6086     -0.0066    155.6548     21.2919
   146.1000      2.7444      2.3144      2.6102     -0.0067    160.9220     22.0614
   146.2000      2.7444      2.3029      2.5878     -0.0069    165.1703     22.5276
   146.3000      2.7444      2.2861      2.5801     -0.0073    164.1755     22.3594
   146.4000      2.7444      2.2744      2.5673     -0.0075    156.9972     22.1002
   146.5000      2.7444      2.2773      2.5597     -0.0075    149.6833     22.3570
   146.6000      2.7444      2.2849      2.5854     -0.0073    148.2547     22.7659
   146.7000      2.7444      2.2804      2.5698     -0.0074    151.4404     22.8391
   146.8000      2.7444      2.2705      2.5655     -0.0076    153.7034     22.9180
   146.9000      2.7444      2.2743      2.5626     -0.0075    151.5480     23.0401
   147.0000      2.7444      2.2870      2.6050     -0.0073    148.2414     22.7990
   147.1000      2.7444      2.2863      2.5953     -0.0073    147.5000     22.2088
   147.2000      2.7444      2.2690      2.5861     -0.0076    147.1929     21.6218
   147.3000      2.7444      2.2537      2.5590     -0.0079    146.2200     21.2194
   147.4000      2.7444      2.2565      2.5453     -0.0079    147.2182     20.9075
   147.5000      2.7444      2.2757      2.5908     -0.0075    148.8617     20.7135
   147.6000      2.7444      2.2980      2.5991     -0.0070    148.0022     20.7790
   147.7000      2.7444      2.3179      2.6142     -0.0066    146.0640     20.9436
   147.8000      2.7444      2.3341      2.6199     -0.0063    144.6455     20.9622
   147.9000      2.7444      2.3380      2.6360     -0.0062    142.9883     20.8698
   148.0000      2.7444      2.3285      2.5999     -0.0064    140.6418     20.8146
   148.1000      2.7444      2.3266      2.5794     -0.0065    139.9170     20.8933
   148.2000      2.7444      2.3465      2.6185     -0.0061    142.3812     21.0086
   148.3000      2.7444      2.3724      2.6239     -0.0056    146.2986     21.1847
   148.4000      2.7444      2.3861      2.6406     -0.0053    151.9925     21.6247
   148.5000      2.7444      2.3889      2.6370     -0.0052    159.5209     22.2398
   148.6000      2.7444      2.3885      2.6389     -0.0052    164.9901     22.7990
   148.7000      2.7444      2.3868      2.6467     -0.0053    167.6234     23.1385
   148.8000      2.7444      2.3864      2.6264     -0.0053    170.9902     23.4269
   148.9000      2.7444      2.3865      2.6227     -0.0053    173.7347     23.9294
   149.0000      2.7444      2.3806      2.6158     -0.0054    171.6368     24.3097
   149.1000      2.7444      2.3688      2.6260     -0.0056    164.6856     24.1699
   149.2000      2.7444      2.3575      2.6280     -0.0059    156.8217     23.6406
   149.3000      2.7444      2.3474      2.6186     -0.0061    150.2254     23.0422
   149.4000      2.7444      2.3344      2.6273     -0.0063    143.9482     22.6504
   149.5000      2.7444      2.3173      2.6200     -0.0067    139.9712     22.5305
   149.6000      2.7444      2.2998      2.5901     -0.0070    141.3138     22.5157
   149.7000      2.7444      2.2857      2.6006     -0.0073    145.0184     22.3977
   149.8000      2.7444      2.2748      2.6191     -0.0075    144.3866     22.1055
   149.9000      2.7444      2.2669      2.6034     -0.0077    140.2068     21.7154
   150.0000      2.7444      2.2546      2.6438     -0.0079    139.1391     21.3093
   150.1000      2.7444      2.2269      2.6307     -0.0085    140.7566     20.8881
   150.2000      2.7444      2.1935      2.5731     -0.0091    140.5804     20.4614
   150.3000      2.7444      2.1731      2.5847     -0.0095    139.8300     20.0941
   150.4000      2.7444      2.1667      2.6046     -0.0097    142.0477     19.8522
   150.5000      2.7444      2.1656      2.6098     -0.0097    145.9585     19.8578
   150.6000      2.7444      2.1628      2.5938     -0.0097    146.8949     19.9868
   150.7000      2.7444      2.1542      2.6032     -0.0099    144.7179     20.0315
   150.8000      2.7444      2.1399      2.5807     -0.0102    143.2352     20.1421
   150.9000      2.7444      2.1281      2.5859     -0.0104    142.6318     20.3987
   151.0000      2.7444      2.1272      2.5822     -0.0105    140.9477     20.6867
   151.1000      2.7444      2.1352      2.5884     -0.0103    138.6015     20.9408
   151.2000      2.7444      2.1440      2.6194     -0.0101    137.7272     21.0292
   151.3000      2.7444      2.1479      2.5932     -0.0100    140.5451     20.8660
   151.4000      2.7444      2.1515      2.5872     -0.0100    146.8313     20.6687
   151.5000      2.7444      2.1659      2.5855     -0.0097    152.3975     20.5974
   151.6000      2.7444      2.1914      2.6049     -0.0092    154.6249     20.4987
   151.7000      2.7444      2.2134      2.6459     -0.0087    154.4098     20.2299
   151.8000      2.7444      2.2192      2.6205     -0.0086    153.5440     20.0793
   151.9000      2.7444      2.2145      2.6180     -0.0087    153.4674     20.4307
   152.0000      2.7444      2.2125      2.6074     -0.0088    154.5887     21.0092
   152.1000      2.7444      2.2194      2.6307     -0.0086    156.0884     21.3158
   152.2000      2.7444      2.2317      2.6073     -0.0084    156.8117     21.3464
   152.3000      2.7444      2.2444      2.6254     -0.0081    156.3196     21.1254
   152.4000      2.7444      2.2558      2.6221     -0.0079    154.8959     20.7351
   152.5000      2.7444      2.2675      2.6151     -0.0077    154.9818     20.4566
   152.6000      2.7444      2.2731      2.6437     -0.0075    158.2454     20.3927
   152.7000      2.7444      2.2618      2.6393     -0.0078    162.7823     20.6444
   152.8000      2.7444      2.2405      2.6201     -0.0082    164.0097     21.1665
   152.9000      2.7444      2.2258      2.5939     -0.0085    160.7993     21.7043
   153.0000      2.7444      2.2206      2.6005     -0.0086    156.9599     22.1758
   153.1000      2.7444      2.2162      2.5924     -0.0087    156.4284     22.4923
   153.2000      2.7444      2.2087      2.5946     -0.0088    159.8362     22.6469
   153.3000      2.7444      2.1976      2.6172     -0.0091    164.5847     22.8202
   153.4000      2.7444      2.1808      2.6076     -0.0094    167.2472     23.0152
   153.5000      2.7444      2.1607      2.5788     -0.0098    167.3253     23.2673
   153.6000      2.7444      2.1398      2.5958     -0.0102    169.8036     23.6579
   153.7000      2.7444      2.1198      2.5609     -0.0106    175.5605     23.9254
   153.8000      2.7444      2.1059      2.5717     -0.0109    178.7852     23.8801
   153.9000      2.7444      2.0970      2.5954     -0.0111    179.1121     23.8663
