~Version Information
 VERS.                                  2.0 : CWLS LAS VERSION
 WRAP.                                   NO : WRAPING MODE
 SWARE .                 MController 2.5.0N : SOFTWARE VERSION
~Well Information
 WELL.                      Pioneer 34-27TR : WELL
 COMP.  Pioneer Natural Resources USA, Inc. : COMPANY
 FLD.                      Purgatoire River : FIELD
 LOC.               SW/SE Sec 27 T32S  R67W : LOCATION
 DATE.                            10/5-6/05 : DATE(S) LOGGED
 SRVC.       BLANCO Geological Services LLC : SERVICE COMPANY
 STAT.                                   CO : STATE
 CNTY.                           Las Animas : COUNTY
 CTRY.                                  USA : COUNTRY
 API.                       05-071-08548-00 : API NUMBER
 STRT.FT                             486.00 : START DEPTH
 STOP.FT                            1560.00 : STOP DEPTH
 STEP.FT                               1.00 : DEPTH INCREMENT
 NULL.                                -9999 : NULL VALUE
~Curve information
 DEPTH.FT                                   :
 ROP.MIN/FT                                 :
 GAS.UNITS                                  :
~ASCII Log data
       486.0        10.27         25.6 
       487.0         0.13          1.6 
       488.0         0.20          1.9 
       489.0         0.22          1.9 
       490.0         0.22          1.8 
       491.0         0.25          1.4 
       492.0         0.17          0.7 
       493.0         0.20          1.2 
       494.0         0.17          1.2 
       495.0         0.20          0.7 
       496.0         0.20          0.9 
       497.0         0.27          0.4 
       498.0         0.20          0.7 
       499.0         0.17          0.5 
       500.0         0.20          0.4 
       501.0         0.17          0.0 
       502.0         0.18          0.0 
       503.0         0.23          0.1 
       504.0         0.20          1.7 
       505.0         0.23          1.9 
       506.0         1.95          2.2 
       507.0         0.23          1.8 
       508.0         0.20          2.0 
       509.0         0.20          2.0 
       510.0         0.20          2.0 
       511.0         0.20          2.0 
       512.0         0.27          2.2 
       513.0         0.30          2.0 
       514.0         0.17          2.0 
       515.0         0.17          2.1 
       516.0         0.20          1.6 
       517.0         0.17          1.5 
       518.0         0.17          1.8 
       519.0         0.18          1.5 
       520.0         0.20          1.6 
       521.0         0.17          1.1 
       522.0         0.20          1.5 
       523.0         0.27          1.4 
       524.0         0.23          1.0 
       525.0         0.23          0.9 
       526.0         0.23          1.2 
       527.0         0.23          0.8 
       528.0         0.27          1.0 
       529.0         0.23          0.9 
       530.0         0.23          0.9 
       531.0         0.20          0.7 
       532.0         0.23          0.8 
       533.0         0.25          0.7 
       534.0         0.30          0.7 
       535.0         0.30          1.0 
       536.0         2.03          1.2 
       537.0         0.27          1.1 
       538.0         0.28          1.0 
       539.0         0.23          0.7 
       540.0         0.20          1.6 
       541.0         0.20          1.9 
       542.0         0.20          1.6 
       543.0         0.20          1.8 
       544.0         0.20          1.7 
       545.0         0.23          1.4 
       546.0         0.20          1.7 
       547.0         0.23          1.6 
       548.0         0.23          1.6 
       549.0         0.27          1.6 
       550.0         0.23          1.3 
       551.0         0.27          1.3 
       552.0         0.20          1.3 
       553.0         0.22          1.3 
       554.0         0.17          1.4 
       555.0         0.20          1.2 
       556.0         0.20          1.0 
       557.0         0.23          1.2 
       558.0         0.17          1.4 
       559.0         0.20          1.4 
       560.0         0.17          1.3 
       561.0         0.17          1.2 
       562.0         0.20          0.8 
       563.0         0.20          1.2 
       564.0         0.23          1.1 
       565.0         0.20          1.2 
       566.0         2.45         61.3 
       567.0         0.30          1.5 
       568.0         0.27          1.7 
       569.0         0.23          1.5 
       570.0         0.23          0.4 
       571.0         0.23          0.7 
       572.0         0.23          0.7 
       573.0         0.23          0.6 
       574.0         0.28          0.7 
       575.0         0.30          0.8 
       576.0         0.20          0.9 
       577.0         0.20          0.8 
       578.0         0.20          0.5 
       579.0         0.17          0.9 
       580.0         0.20          0.8 
       581.0         0.20          1.0 
       582.0         0.23          1.1 
       583.0         0.20          1.3 
       584.0         0.17          1.2 
       585.0         0.23          1.4 
       586.0         0.30          1.3 
       587.0         0.23          1.5 
       588.0         0.32          1.5 
       589.0         0.20          1.2 
       590.0         0.30          1.2 
       591.0         0.33          1.1 
       592.0         0.17          0.8 
       593.0         0.20          1.0 
       594.0         0.20          1.1 
       595.0         0.20          1.0 
       596.0         1.98          1.6 
       597.0         0.30          1.5 
       598.0         0.23          1.3 
       599.0         0.23          1.1 
       600.0         0.20          1.6 
       601.0         0.23          1.6 
       602.0         0.27          1.5 
       603.0         0.23          1.5 
       604.0         0.23          1.3 
       605.0         0.23          1.5 
       606.0         0.20          1.0 
       607.0         0.23          1.5 
       608.0         0.22          1.4 
       609.0         0.23          1.6 
       610.0         0.20          1.2 
       611.0         0.20          1.2 
       612.0         0.17          1.1 
       613.0         0.17          0.6 
       614.0         0.20          1.2 
       615.0         0.17          0.9 
       616.0         0.17          0.8 
       617.0         0.17          0.7 
       618.0         0.20          1.0 
       619.0         0.17          0.8 
       620.0         0.17          0.7 
       621.0         0.17          0.6 
       622.0         0.20          0.6 
       623.0         0.20          0.6 
       624.0         0.20          0.5 
       625.0         0.20          0.2 
       626.0         1.98          0.3 
       627.0         0.37          1.4 
       628.0         0.30          1.2 
       629.0         0.27          1.4 
       630.0         0.23          1.1 
       631.0         0.25          1.2 
       632.0         0.20          1.2 
       633.0         0.20          1.1 
       634.0         0.17          1.0 
       635.0         0.20          1.1 
       636.0         0.23          1.1 
       637.0         0.20          1.0 
       638.0         0.20          1.3 
       639.0         0.30          1.3 
       640.0         0.33          1.3 
       641.0         0.23          1.4 
       642.0         0.23          1.3 
       643.0         0.27          1.3 
       644.0         0.45          1.6 
       645.0         0.27          1.5 
       646.0         0.17          1.5 
       647.0         0.17          1.5 
       648.0         0.20          1.5 
       649.0         0.20          1.6 
       650.0         0.33          1.7 
       651.0         0.30          1.5 
       652.0         0.30          1.5 
       653.0         0.27          1.0 
       654.0         0.27          1.4 
       655.0         0.27          1.6 
       656.0         1.95          1.5 
       657.0         0.47          1.5 
       658.0         0.37          1.5 
       659.0         0.43          1.3 
       660.0         0.35          1.3 
       661.0         0.30          1.3 
       662.0         0.27          1.4 
       663.0         0.23          1.3 
       664.0         0.27          1.1 
       665.0         0.27          1.0 
       666.0         0.30          1.1 
       667.0         0.23          1.0 
       668.0         0.20          1.2 
       669.0         0.20          1.2 
       670.0         0.20          1.2 
       671.0         0.20          1.2 
       672.0         0.25          0.8 
       673.0         0.20          0.9 
       674.0         0.33          0.9 
       675.0         0.30          0.8 
       676.0         0.30          1.0 
       677.0         0.27          0.7 
       678.0         0.23          1.0 
       679.0         0.23          0.9 
       680.0         0.20          0.7 
       681.0         0.23          0.7 
       682.0         0.27          0.8 
       683.0         0.30          2.0 
       684.0         0.27          2.1 
       685.0         0.28          2.0 
