~Version Information
VERS.                      2.0: CWLS Log ASCII Standard - VERSION 2.0
WRAP.                       NO: One line per depth step
~Well Information Block
STRT.FT                 0.0000: 
STOP.FT              1528.0000: 
STEP.FT                 0.1000: 
NULL.                -999.2500: 
COMP.          Pioneer Natural Resources: COMPANY
WELL.             Andrew 23-15: WELL
FLD.           Purgatorie River: FIELD
LOC.           2137' FSL & 2292' FWL: LOCATION
PROV.                 Colorado: PROVINCE
CNTY.               Las Animas: COUNTRY
SRVC.                Patterson: SERVICE COMPANY
DATE.          Sat Aug 13 12:06:57 2005: LOG DATE
UWI.                          : UNIQUE WELL ID
~Curve Information Block
DEPT.FT            0 000 00 00: Depth
DCAL.in                       : CDL Caliper
RHOB.g/cc                     : CDL Bulk Density
RHOC.g/cc                     : CDL Density Correction
DPOR.pu                       : CDL Density Porosity
GR.GAPI                       : Gamma Ray
NPOR.pu                       : Neutron Porosity
~Parameter Information Block
~A  Depth       DCAL        RHOB        RHOC        DPOR         GR         NPOR    
# ...
   508.8000      8.2950      2.4465      0.1223     12.3350    170.3714     23.8737
   508.9000      8.2950      2.4069      0.1421     14.7338    167.7988     23.7972
   509.0000      8.3956      2.3761      0.1527     16.6014    168.3648     23.9645
   509.1000      8.3956      2.3491      0.1390     18.2369    173.0594     24.2979
   509.2000      8.3956      2.3241      0.1503     19.7486    178.9730     24.5689
   509.3000      8.5452      2.3137      0.1157     20.3830    182.1171     24.6153
   509.4000      8.5452      2.3408      0.1028     18.7390    179.5788     24.4415
   509.5000      8.5035      2.4160      0.2305     14.1809    173.2340     24.1375
   509.6000      8.5035      2.5213      0.2951      7.8006    170.6163     23.9421
   509.7000      8.5035      2.6216      0.4042      1.7216    175.5140     24.0527
   509.8000      8.4919      2.6845      0.4350     -2.0890    180.3460     24.3003
   509.9000      8.4919      2.6972      0.4022     -2.8596    177.5535     24.5054
   510.0000      8.4745      2.6715      0.3121     -1.3006    169.6051     24.7837
   510.1000      8.4745      2.6325      0.2686      1.0611    162.2837     25.1968
   510.2000      8.4745      2.5976      0.2454      3.1773    158.6865     25.5928
   510.3000      8.4469      2.5776      0.1509      4.3898    156.8972     25.8996
   510.4000      8.4469      2.5825      0.1001      4.0910    154.6011     26.0523
   510.5000      8.4004      2.6045      0.1187      2.7569    151.8170     26.0424
   510.6000      8.4004      2.6258      0.1081      1.4642    147.8536     25.9827
   510.7000      8.4004      2.6305      0.1619      1.1788    145.3278     25.8104
   510.8000      8.3332      2.6041      0.1076      2.7838    146.4305     25.5609
   510.9000      8.3332      2.5619      0.0626      5.3386    147.8255     25.5209
   511.0000      8.4009      2.5437      0.0985      6.4426    146.1353     25.7164
   511.1000      8.4009      2.5580      0.1329      5.5775    141.0625     25.7940
   511.2000      8.4009      2.5773      0.1266      4.4032    134.3933     25.5788
   511.3000      8.5061      2.5879      0.1028      3.7631    130.4468     25.2309
   511.4000      8.5061      2.6049      0.0976      2.7348    131.8833     24.9774
   511.5000      8.3110      2.6428      0.1600      0.4336    135.1111     24.9652
   511.6000      8.3110      2.6885      0.2622     -2.3359    136.4097     25.1165
   511.7000      8.3110      2.7097      0.2703     -3.6196    134.9641     25.3067
   511.8000      8.2873      2.6957      0.2513     -2.7678    133.0213     25.5111
   511.9000      8.2873      2.6643      0.2058     -0.8668    133.9448     25.6095
   512.0000      8.3155      2.6330      0.1725      1.0278    136.6326     25.5114
   512.1000      8.3155      2.6068      0.1519      2.6176    137.7388     25.4193
   512.2000      8.3155      2.5865      0.1079      3.8481    136.5114     25.5437
   512.3000      8.3197      2.5776      0.0293      4.3851    134.3098     25.7774
   512.4000      8.3197      2.5843      0.0595      3.9839    132.0169     25.8934
   512.5000      8.2964      2.5974      0.0497      3.1892    130.8617     25.6685
   512.6000      8.2964      2.6035      0.0732      2.8196    132.3438     25.0461
   512.7000      8.2964      2.5982      0.0660      3.1414    136.1061     24.4038
   512.8000      8.3006      2.5889      0.1116      3.7026    138.5453     24.0589
   512.9000      8.3006      2.5834      0.1256      4.0379    137.0760     23.9413
   513.0000      8.3038      2.5852      0.0947      3.9299    134.1451     23.8624
   513.1000      8.3038      2.5927      0.1413      3.4752    132.1852     23.7996
   513.2000      8.3038      2.5952      0.1437      3.3209    130.5750     23.7820
   513.3000      8.3435      2.5826      0.1356      4.0864    130.0201     23.6998
   513.4000      8.3435      2.5536      0.1463      5.8420    131.8179     23.5189
   513.5000      8.3960      2.5156      0.1052      8.1480    134.1453     23.3033
   513.6000      8.3960      2.4803      0.0905     10.2863    135.8588     23.2769
   513.7000      8.3960      2.4568      0.0602     11.7092    137.6105     23.5905
   513.8000      8.4896      2.4515      0.0540     12.0312    138.4777     23.9002
   513.9000      8.4896      2.4643      0.0968     11.2537    136.9410     23.9440
   514.0000      8.4271      2.4796      0.1305     10.3283    133.5630     24.0075
   514.1000      8.4271      2.4799      0.1429     10.3100    129.8461     24.2923
   514.2000      8.4271      2.4741      0.1094     10.6629    127.0133     24.5667
   514.3000      8.5091      2.4859      0.1875      9.9432    127.1355     24.5618
   514.4000      8.5091      2.5227      0.2055      7.7155    130.8695     24.2323
   514.5000      8.4972      2.5708      0.2042      4.8012    134.9929     23.7702
   514.6000      8.4972      2.6069      0.2855      2.6139    136.9229     23.5405
   514.7000      8.4972      2.6144      0.2317      2.1563    138.3496     23.6832
   514.8000      8.3778      2.5993      0.1797      3.0728    140.6547     23.8662
   514.9000      8.3778      2.5795      0.2147      4.2709    143.4734     23.8808
   515.0000      8.2230      2.5644      0.1977      5.1871    143.8598     23.8108
   515.1000      8.2230      2.5501      0.1685      6.0563    140.1307     23.8260
   515.2000      8.2230      2.5260      0.1810      7.5176    139.0676     24.1050
   515.3000      8.3692      2.4928      0.1309      9.5283    143.9144     24.4655
   515.4000      8.3692      2.4734      0.0724     10.7054    148.1684     24.6563
   515.5000      8.4269      2.4848      0.0851     10.0105    148.6738     24.8202
   515.6000      8.4269      2.5128      0.1085      8.3128    149.3041     25.0622
   515.7000      8.4269      2.5396      0.1168      6.6909    151.2857     25.2603
   515.8000      8.3698      2.5675      0.1514      5.0008    152.0483     25.2962
   515.9000      8.3698      2.5935      0.2470      3.4231    150.6851     25.2601
   516.0000      8.3035      2.6032      0.2273      2.8369    148.0446     25.4019
   516.1000      8.3035      2.5957      0.2293      3.2913    145.9428     25.7810
   516.2000      8.3035      2.5797      0.1883      4.2608    145.9282     26.1223
   516.3000      8.3004      2.5607      0.1676      5.4107    147.6661     26.2791
   516.4000      8.3004      2.5443      0.0949      6.4081    147.0834     26.2800
   516.5000      8.3293      2.5368      0.0459      6.8594    144.8302     26.1069
   516.6000      8.3293      2.5350      0.0698      6.9712    145.9974     25.9022
   516.7000      8.3293      2.5308      0.0408      7.2233    148.2549     25.6802
   516.8000      8.3551      2.5276      0.0710      7.4188    148.7713     25.3180
   516.9000      8.3551      2.5244      0.0965      7.6147    150.0931     24.9371
   517.0000      8.3888      2.5184      0.0699      7.9784    152.9624     24.6343
   517.1000      8.3888      2.5176      0.1357      8.0255    154.5689     24.3667
   517.2000      8.3888      2.5151      0.1967      8.1751    154.5427     24.1568
   517.3000      8.4131      2.4959      0.1378      9.3369    154.3976     23.9612
   517.4000      8.4131      2.4690      0.0807     10.9677    154.5101     23.8146
   517.5000      8.4490      2.4471      0.1157     12.2977    155.7968     23.7211
   517.6000      8.4490      2.4302      0.0849     13.3223    157.1349     23.4898
   517.7000      8.4490      2.4239      0.0753     13.7038    156.7945     23.2085
   517.8000      8.5227      2.4263      0.1554     13.5593    155.8837     23.0292
   517.9000      8.5227      2.4227      0.1258     13.7779    155.2290     22.8870
   518.0000      8.5776      2.4155      0.0610     14.2107    154.1296     22.8593
   518.1000      8.5776      2.4212      0.1170     13.8676    152.4145     22.9569
   518.2000      8.5776      2.4420      0.1760     12.6031    149.7193     22.8965
   518.3000      8.5989      2.4674      0.1716     11.0645    147.5350     22.5373
