~Version Information
VERS.                      2.0: CWLS Log ASCII Standard - VERSION 2.0
WRAP.                       NO: One line per depth step
~Well Information Block
STRT.FT                -2.0000: 
STOP.FT              2017.5000: 
STEP.FT                 0.2500: 
NULL.                -999.2500: 
COMP.          Pioneer Natural Resources: COMPANY
WELL.            Zink 44-10 Tr: WELL
FLD.           Purgatoire River: FIELD
LOC.           486' FSL & 554' FEL--: LOCATION
PROV.                 Colorado: PROVINCE
CNTY.               Las Animas: COUNTRY
SRVC.                Patterson: SERVICE COMPANY
DATE.          Mon Aug 01 14:01:23 2005: LOG DATE
UWI.           05 071 08446 00: UNIQUE WELL ID
~Curve Information Block
DEPT.FT            0 000 00 00: Depth
CCL.                          : Casing Collar Locator
TT3.usec                      : CBL 3' Travel Time
AMP3.mV                       : CBL 3' Amplitude
GR.GAPI                       : Gamma Ray
~Parameter Information Block
~A  Depth       CCL         TT3         AMP3         GR     
# ...
  1036.5000      0.0000    759.4924      9.2380    139.6458
  1036.7500      0.0000    753.7889      8.9055    140.6673
  1037.0000      0.0000    759.4305      8.5260    137.0988
  1037.2500      0.0000    783.3399      8.1716    129.5433
  1037.5000      0.0000    825.3251      7.9211    120.7915
  1037.7500      0.0000    876.5335      7.8059    114.2161
  1038.0000     -2.0000    924.1895      7.7921    111.5692
  1038.2500      2.0000    958.2664      7.8238    112.3668
  1038.5000     -2.0000    975.9858      7.8629    115.5049
  1038.7500     -2.0000    981.3384      7.8889    120.9365
  1039.0000      0.0000    978.8065      7.8909    129.0397
  1039.2500      0.0000    967.8284      7.8821    138.5003
  1039.5000      0.0000    945.6714      7.9133    145.6888
  1039.7500      0.0000    914.3103      8.0567    146.6867
  1040.0000      0.0000    880.5291      8.3746    139.9246
  1040.2500      0.0000    849.0536      8.8760    127.1365
  1040.5000      0.0000    818.5643      9.4802    112.2704
  1040.7500      0.0000    785.9126     10.0410     99.3409
  1041.0000      0.0000    752.4350     10.4410     90.2350
  1041.2500      0.0000    724.4587     10.6576     83.8711
  1041.5000      0.0000    708.6617     10.7399     77.7867
  1041.7500      0.0000    708.5741     10.7463     70.8941
  1042.0000      0.0000    724.2261     10.7098     64.4586
  1042.2500      0.0000    752.0653     10.6394     60.3961
  1042.5000      0.0000    784.7672     10.5325     59.1938
  1042.7500      0.0000    813.7206     10.3902     59.7518
  1043.0000      0.0000    833.4990     10.2295     60.6887
  1043.2500      0.0000    843.9319     10.0839     61.2243
  1043.5000      0.0000    848.1146      9.9861     61.0948
  1043.7500      0.0000    849.2980      9.9461     60.3582
  1044.0000      0.0000    849.4153      9.9449     59.4468
  1044.2500      0.0000    849.2377      9.9495     59.0299
  1044.5000      0.0000    848.9273      9.9349     59.6110
  1044.7500      0.0000    848.3157      9.8947     61.1957
  1045.0000      0.0000    846.8952      9.8337     63.1917
  1045.2500      0.0000    843.8108      9.7567     64.6028
  1045.5000      0.0000    838.2665      9.6663     64.5536
  1045.7500      0.0000    830.3683      9.5676     62.9520
  1046.0000      0.0000    821.6913      9.4720     60.7459
  1046.2500      0.0000    814.7672      9.3941     59.3400
  1046.5000      0.0000    811.7628      9.3450     59.5723
  1046.7500      0.0000    813.3546      9.3253     61.3250
  1047.0000      0.0000    818.4220      9.3231     64.1242
  1047.2500      0.0000    824.7504      9.3207     67.7297
  1047.5000      0.0000    830.5380      9.3053     72.1912
  1047.7500      0.0000    835.4348      9.2761     78.0258
  1048.0000      0.0000    839.9322      9.2433     86.4343
  1048.2500      0.0000    844.0731      9.2194     98.5755
  1048.5000      0.0000    847.1538      9.2105    114.0741
  1048.7500      0.0000    848.2690      9.2176    130.4235
  1049.0000      0.0000    846.5512      9.2431    144.2569
  1049.2500      0.0000    841.4471      9.2919    153.4432
  1049.5000      0.0000    834.1135      9.3626    158.1120
  1049.7500      0.0000    828.6930      9.4420    159.9030
  1050.0000      0.0000    830.1917      9.5108    160.3388
  1050.2500      0.0000    839.3974      9.5541    159.7318
  1050.5000      0.0000    851.1448      9.5694    157.5468
  1050.7500      0.0000    859.2996      9.5658    153.8013
  1051.0000      0.0000    862.3353      9.5575    149.8182
  1051.2500      0.0000    862.7658      9.5556    147.3265
  1051.5000      0.0000    862.7641      9.5606    147.0843
  1051.7500      0.0000    862.2136      9.5638    148.5687
  1052.0000      0.0000    860.3306      9.5564    150.5037
  1052.2500      0.0000    857.4254      9.5393    151.4762
  1052.5000      0.0000    854.6271      9.5238    150.5544
  1052.7500      0.0000    852.7118      9.5235    147.7153
  1053.0000      0.0000    851.6901      9.5454    143.6688
  1053.2500      0.0000    851.2229      9.5858    139.4155
  1053.5000      0.0000    851.0396      9.6325    135.7065
  1053.7500      0.0000    851.0086      9.6721    132.3887
  1054.0000      0.0000    851.0648      9.6966    128.7624
  1054.2500      0.0000    851.1690      9.7055    125.4213
  1054.5000      0.0000    851.2963      9.7035    125.1902
  1054.7500      0.0000    851.4327      9.6994    130.9001
  1055.0000      0.0000    851.5698      9.7057    141.9341
  1055.2500      0.0000    851.7023      9.7340    153.6357
  1055.5000      0.0000    851.8143      9.7864    160.7369
  1055.7500      0.0000    851.8737      9.8515    161.6034
  1056.0000      0.0000    851.8557      9.9094    159.1411
  1056.2500      0.0000    851.7762      9.9441    157.6622
  1056.5000      0.0000    851.6908      9.9513    159.2007
  1056.7500      0.0000    851.6946      9.9350    162.5949
  1057.0000      0.0000    851.9655      9.8981    165.1370
  1057.2500      0.0000    852.8267      9.8420    164.8589
  1057.5000      0.0000    854.6360      9.7765    161.8484
  1057.7500      0.0000    857.3247      9.7277    157.7584
  1058.0000      0.0000    859.9009      9.7261    154.0265
  1058.2500      0.0000    860.7432      9.7811    150.6311
  1058.5000      0.0000    858.7819      9.8657    146.6577
  1058.7500      0.0000    854.3405      9.9297    141.6675
  1059.0000      0.0000    848.7904      9.9320    136.1989
  1059.2500      0.0000    843.6664      9.8622    131.3603
  1059.5000      0.0000    840.0349      9.7396    128.2776
  1059.7500      0.0000    838.2286      9.5967    127.3166
  1060.0000      0.0000    838.0875      9.4646    127.5251
  1060.2500      0.0000    839.4570      9.3661    127.4891
  1060.5000      0.0000    842.1316      9.3145    126.7992
  1060.7500      0.0000    845.4161      9.3172    125.7327
  1061.0000      0.0000    848.3065      9.3774    123.6158
  1061.2500      0.0000    850.1949      9.4928    118.8808
  1061.5000      0.0000    851.1265      9.6496    111.3475
  1061.7500      0.0000    851.4601      9.8213    103.7079
  1062.0000      0.0000    851.4648      9.9802     99.8843
  1062.2500      0.0000    851.1473     10.1092    101.7800
  1062.5000      0.0000    850.2062     10.2025    107.9286
  1062.7500      0.0000    848.1552     10.2574    115.2048
  1063.0000      0.0000    844.7500     10.2735    121.2643
  1063.2500      0.0000    840.5421     10.2604    125.3861
  1063.5000      0.0000    836.9596     10.2407    128.0329
  1063.7500      0.0000    835.5690     10.2387    130.1495
  1064.0000      0.0000    837.0425     10.2639    132.3801
  1064.2500      0.0000    840.6893     10.3033    134.7213
  1064.5000      0.0000    844.9282     10.3296    136.9616
  1064.7500      0.0000    848.3281     10.3183    138.7867
  1065.0000      0.0000    850.3416     10.2618    139.2441
  1065.2500      0.0000    851.2178     10.1744    137.1542
  1065.5000      0.0000    851.4595     10.0859    132.7533
  1065.7500      0.0000    851.4113     10.0268    128.3990
  1066.0000      0.0000    851.1198     10.0126    127.0602
  1066.2500      0.0000    850.3401     10.0389    130.0500
  1066.5000      0.0000    848.7200     10.0868    136.0135
  1066.7500      0.0000    846.2993     10.1351    141.7810
  1067.0000      0.0000    843.9656     10.1706    144.3105
  1067.2500      0.0000    843.1003     10.1920    142.3697
  1067.5000      0.0000    844.3926     10.2051    136.9993
  1067.7500      0.0000    847.1393     10.2142    130.7816
  1068.0000      0.0000    849.9446     10.2188    126.4932
  1068.2500      0.0000    851.8871     10.2157    125.7971
  1068.5000      0.0000    852.8708     10.2048    128.6442
  1068.7500      0.0000    853.1649     10.1929    133.6202
  1069.0000      0.0000    852.9118     10.1908    138.7614
  1069.2500      0.0000    851.9468     10.2080    142.3284
  1069.5000      0.0000    850.0555     10.2489    143.5815
  1069.7500      0.0000    847.6473     10.3120    143.1710
