~Version Information
 VERS.                                  2.0 : CWLS LAS VERSION
 WRAP.                                   NO : WRAPING MODE
 SWARE .                 MController 2.5.0N : SOFTWARE VERSION
~Well Information
 WELL.                     Irish Eyes 33-21 : WELL
 COMP.    Pioneer Natural Resources USA Inc : COMPANY
 FLD.                      Purgatoire River : FIELD
 LOC.                  NWSE Sec21 T34S R65W : LOCATION
 DATE.                             01/15/06 : DATE(S) LOGGED
 SRVC.       Blanco Geological Services LLC : SERVICE COMPANY
 STAT.                             Colorado : STATE
 CNTY.                           Las Animas : COUNTY
 CTRY.                                  USA : COUNTRY
 API.                       05-071-08658-00 : API NUMBER
 STRT.FT                             296.00 : START DEPTH
 STOP.FT                            1285.00 : STOP DEPTH
 STEP.FT                               1.00 : DEPTH INCREMENT
 NULL.                                -9999 : NULL VALUE
~Curve information
 DEPTH.FT                                   :
 ROP.MIN/FT                                 :
 GAS.UNITS                                  :
~ASCII Log data
# ...
      1096.0         0.27        696.5 
      1097.0         0.27        897.7 
      1098.0         0.27       1035.1 
      1099.0         0.25       1140.8 
      1100.0         0.27       1149.1 
      1101.0         0.33       1167.5 
      1102.0         0.37       1090.7 
      1103.0         0.30       1027.5 
      1104.0         0.30        919.6 
      1105.0         0.33        810.7 
      1106.0         2.95       1961.6 
      1107.0         0.30       1520.4 
      1108.0         0.30       1426.2 
      1109.0         0.30       1372.8 
      1110.0         0.30       1301.1 
      1111.0         0.33       1253.8 
      1112.0         0.32       1123.4 
      1113.0         0.33       1071.6 
      1114.0         0.33        980.2 
      1115.0         0.23        945.3 
      1116.0         0.27        944.0 
      1117.0         0.30        957.7 
      1118.0         0.27        956.1 
      1119.0         0.40        941.2 
      1120.0         0.30        919.6 
      1121.0         0.30        914.8 
      1122.0         0.33        909.5 
      1123.0         0.38        897.4 
      1124.0         0.33        893.3 
      1125.0         0.37        889.8 
      1126.0         0.37        893.9 
      1127.0         0.33        892.6 
      1128.0         0.40        890.4 
      1129.0         0.37        884.4 
      1130.0         0.37        876.8 
      1131.0         0.33        882.2 
      1132.0         0.38        882.2 
      1133.0         0.40        882.5 
      1134.0         0.40        893.6 
      1135.0         0.40        809.5 
      1136.0         3.28       2003.5 
      1137.0         0.60       1377.3 
      1138.0         0.47       1317.3 
      1139.0         0.40       1177.6 
      1140.0         0.43       1043.7 
      1141.0         0.48        979.3 
      1142.0         0.50        929.1 
      1143.0         0.50        888.8 
      1144.0         0.47        877.4 
      1145.0         0.47        876.4 
      1146.0         0.53        872.3 
      1147.0         0.50        868.2 
      1148.0         0.55        865.3 
      1149.0         0.50        858.7 
      1150.0         0.50        858.7 
      1151.0         0.50        861.5 
      1152.0         0.53        860.9 
      1153.0         0.47        860.9 
      1154.0         0.52        860.3 
      1155.0         0.53        859.0 
      1156.0         0.50        874.2 
      1157.0         0.40        873.3 
      1158.0         0.40        862.8 
      1159.0         0.40        859.9 
      1160.0         0.37        855.8 
      1161.0         0.40        852.0 
      1162.0         0.42        846.9 
      1163.0         0.40        843.1 
      1164.0         0.40        855.5 
      1165.0         0.40        755.2 
      1166.0         3.62       1986.3 
      1167.0         0.47       1396.0 
      1168.0         0.40       1302.4 
      1169.0         0.33       1214.8 
      1170.0         0.33       1071.3 
      1171.0         0.38       1052.6 
      1172.0         0.33        966.3 
      1173.0         0.37        903.1 
      1174.0         0.33        892.6 
      1175.0         0.37        873.0 
      1176.0         0.33        873.3 
      1177.0         0.40        871.7 
      1178.0         0.37        850.4 
      1179.0         0.37        835.8 
      1180.0         0.35        836.8 
      1181.0         0.37        835.8 
      1182.0         0.37        836.5 
      1183.0         0.37        834.2 
      1184.0         0.37        826.9 
      1185.0         0.37        825.3 
      1186.0         0.37        824.7 
      1187.0         0.40        816.8 
      1188.0         0.37        814.2 
      1189.0         0.38        817.7 
      1190.0         0.40        822.2 
      1191.0         0.37        822.2 
      1192.0         0.40        826.3 
      1193.0         0.40        853.0 
      1194.0         0.47        861.5 
      1195.0         0.53        774.6 
      1196.0         3.38       2021.6 
      1197.0         0.53       1362.0 
      1198.0         0.45       1247.1 
      1199.0         0.37       1160.5 
      1200.0         0.37       1015.1 
      1201.0         0.37        953.3 
      1202.0         0.40        896.1 
      1203.0         0.37        861.5 
      1204.0         0.43        841.2 
      1205.0         0.40        835.2 
      1206.0         0.42        830.1 
      1207.0         0.40        822.8 
      1208.0         0.40        820.0 
      1209.0         0.40        816.5 
      1210.0         0.40        811.4 
      1211.0         0.43        809.2 
      1212.0         0.43        812.7 
      1213.0         0.40        812.3 
      1214.0         0.45        810.4 
      1215.0         0.43        808.2 
      1216.0         0.47        806.6 
      1217.0         0.43        806.6 
      1218.0         0.47        804.1 
      1219.0         0.43        803.8 
      1220.0         0.47        800.3 
      1221.0         0.50        798.4 
      1222.0         0.48        797.7 
      1223.0         0.47        797.1 
      1224.0         0.47        801.2 
      1225.0         0.47        741.9 
      1226.0         3.82       1959.4 
      1227.0         0.43       1297.9 
      1228.0         0.42       1244.6 
      1229.0         0.40       1152.3 
      1230.0         0.33       1042.8 
      1231.0         0.37        940.2 
      1232.0         0.37        835.8 
      1233.0         0.40        826.9 
      1234.0         0.37        800.0 
      1235.0         0.40        790.4 
      1236.0         0.37        796.1 
      1237.0         0.42        795.2 
      1238.0         0.33        789.8 
      1239.0         0.37        790.8 
      1240.0         0.37        808.5 
      1241.0         0.33        817.7 
      1242.0         0.37        807.3 
      1243.0         0.37        796.1 
      1244.0         0.37        806.9 
      1245.0         0.37        796.8 
      1246.0         0.35        780.3 
      1247.0         0.30        782.2 
      1248.0         0.33        812.7 
      1249.0         0.37        842.8 
      1250.0         0.50        822.2 
      1251.0         0.20        804.4 
      1252.0         0.27        774.2 
      1253.0         0.23        739.0 
      1254.0         0.23        649.2 
      1255.0         0.43        624.1 
      1256.0         1.02        569.5 
      1257.0         1.80       1772.4 
      1258.0         0.20       1165.3 
      1259.0         0.53       1241.8 
      1260.0         0.42       1207.8 
      1261.0         0.37       1164.6 
      1262.0         0.33       1093.9 
      1263.0         0.30       1011.3 
      1264.0         0.33        980.2 
      1265.0         0.33        881.8 
      1266.0         0.33        839.6 
      1267.0         0.33        820.9 
      1268.0         0.37        815.2 
      1269.0         0.30        795.2 
      1270.0         0.38        784.1 
      1271.0         0.37        779.6 
      1272.0         0.33        782.5 
      1273.0         0.33        786.3 
      1274.0         0.37        785.7 
      1275.0         0.37        768.5 
      1276.0         0.37        773.9 
      1277.0         0.37        809.2 
      1278.0         0.40        817.1 
      1279.0         0.62        811.1 
      1280.0         0.53        791.4 
      1281.0         0.57        742.8 
      1282.0         0.40        715.2 
      1283.0         0.40        701.9 
      1284.0         0.37        720.9 
      1285.0         0.40        664.1 
