~Version Information
VERS.                      2.0: CWLS Log ASCII Standard - VERSION 2.0
WRAP.                       NO: One line per depth step
~Well Information Block
STRT.FT               350.0000: 
STOP.FT              2803.2000: 
STEP.FT                 0.1000: 
NULL.                -999.2500: 
COMP.          Pioneer Natural Resources: COMPANY
WELL.          Grey Goose 33-30: WELL
FLD.           Purgatoire River: FIELD
LOC.           2136' FSL & 2065' FEL--: LOCATION
STAT.                 Colorado: State
CNTY.               Las Animas: COUNTY
CTRY. USA : Country
SECT. 30 : Section
TOWN. 32S : Township
RANG. 67W : Range
SRVC.                Patterson: SERVICE COMPANY
DATE.          Fri Nov 04 09:27:53 2005: LOG DATE
API.           05 071 08546 00: UNIQUE WELL ID
~Curve Information Block
DEPT.FT            0 000 00 00: Depth
DCAL.in                       : CDL Caliper
DPOR.pu                       : CDL Density Porosity
NPOR.pu                       : Neutron Porosity
RHOB.g/cc                     : CDL Bulk Density
RHOC.g/cc                     : CDL Density Correction
GR.GAPI                       : Gamma Ray
~Parameter Information Block
~A  Depth       DCAL        DPOR        NPOR        RHOB        RHOC         GR     
# ...
  1818.8000      8.1346      7.5680     27.6390      2.5251      0.0288     94.9573
  1818.9000      8.1346      8.1102     27.3335      2.5162      0.0203     93.7500
  1819.0000      8.1343      8.5921     27.2920      2.5082      0.0007     95.4574
  1819.1000      8.1343      8.9486     27.7206      2.5023     -0.0001     99.4598
  1819.2000      8.1343      9.1932     28.6560      2.4983      0.0194    107.1351
  1819.3000      8.1262      8.8017     29.3726      2.5048      0.0204    115.4570
  1819.4000      8.1262      7.5286     29.4278      2.5258      0.0235    118.2619
  1819.5000      8.1211      6.2338     29.1203      2.5471      0.1020    116.6602
  1819.6000      8.1211      5.8299     28.7397      2.5538      0.0707    116.9495
  1819.7000      8.1211      6.1114     28.3006      2.5492      0.0357    119.7379
  1819.8000      8.1204      6.7363     27.8660      2.5389      0.0285    120.1683
  1819.9000      8.1204      7.5456     27.7653      2.5255      0.0313    118.4300
  1820.0000      8.1200      7.7818     27.9933      2.5216      0.0049    118.3252
  1820.1000      8.1200      7.3923     28.1996      2.5280      0.0791    118.4675
  1820.2000      8.1200      7.4930     28.1600      2.5264      0.0658    115.5577
  1820.3000      8.1186      7.9132     27.8454      2.5194      0.0221    113.5111
  1820.4000      8.1186      7.3076     27.4618      2.5294     -0.0102    115.8244
  1820.5000      8.1166      6.0509     27.4106      2.5502      0.0775    117.0651
  1820.6000      8.1166      5.7113     27.8603      2.5558      0.0813    112.0808
  1820.7000      8.1166      6.2925     28.4869      2.5462      0.0198    105.3033
  1820.8000      8.1144      6.9231     28.7540      2.5358      0.0275    103.3296
  1820.9000      8.1144      7.7063     28.3490      2.5228      0.0717    106.4213
  1821.0000      8.1075      8.5871     27.6491      2.5083     -0.0114    109.5454
  1821.1000      8.1075      8.1944     27.3343      2.5148     -0.0394    108.4354
  1821.2000      8.1075      6.3352     27.6104      2.5455      0.0520    105.7336
  1821.3000      8.0958      4.9597     28.2818      2.5682      0.0512    107.6511
  1821.4000      8.0958      4.9989     28.8798      2.5675      0.0557    116.0723
  1821.5000      8.0896      5.6231     28.9585      2.5572      0.0209    126.7205
  1821.6000      8.0896      6.1343     28.7194      2.5488      0.0470    133.6446
  1821.7000      8.0896      6.5050     28.6031      2.5427     -0.0058    132.9977
  1821.8000      8.0882      7.1609     28.7049      2.5318      0.0775    124.6863
  1821.9000      8.0882      8.9558     28.9055      2.5022      0.0409    111.8769
  1822.0000      8.0802     11.5269     28.8572      2.4598     -0.0042    100.4107
  1822.1000      8.0802     13.4504     28.6454      2.4281     -0.0094     97.0901
  1822.2000      8.0802     14.3876     28.6938      2.4126     -0.0070     99.6136
  1822.3000      8.0671     14.9544     28.8212      2.4033      0.0047     97.9776
  1822.4000      8.0671     15.0170     28.8698      2.4022     -0.0414     91.8140
  1822.5000      8.0606     13.9731     29.1047      2.4194      0.0024     91.1161
  1822.6000      8.0606     12.4152     29.3518      2.4451      0.0525    100.5238
  1822.7000      8.0606     11.2391     29.2190      2.4646      0.0436    112.0233
  1822.8000      8.0587     10.6645     28.7540      2.4740      0.0961    116.5341
  1822.9000      8.0587     10.6510     28.1772      2.4743      0.0897    112.7002
  1823.0000      8.0572     10.5246     27.6456      2.4763      0.0534    107.7299
  1823.1000      8.0572      9.9009     27.1652      2.4866      0.1012    106.4513
  1823.2000      8.0572      9.6213     26.8003      2.4912      0.0646    106.1665
  1823.3000      8.0583      9.9972     26.6085      2.4850      0.0485    104.6673
  1823.4000      8.0583     10.1114     26.3350      2.4832      0.0125    101.8137
  1823.5000      8.0608      9.7278     25.9891      2.4895      0.0734     98.1090
  1823.6000      8.0608      9.4913     25.7129      2.4934      0.0266     93.0557
  1823.7000      8.0608      9.4239     25.2860      2.4945      0.0577     89.9481
  1823.8000      8.0600      9.3288     24.7461      2.4961      0.0492     92.6705
  1823.9000      8.0600      8.9854     24.6881      2.5017      0.0000     97.7211
  1824.0000      8.0589      8.5243     25.2209      2.5094      0.0868    100.7516
  1824.1000      8.0589      8.6238     26.0078      2.5077      0.0560     99.3170
  1824.2000      8.0589      9.0555     26.8284      2.5006      0.0272     93.4947
  1824.3000      8.0598      9.2229     27.4183      2.4978      0.0327     88.6213
  1824.4000      8.0598      9.2734     27.3883      2.4970      0.0461     89.5344
  1824.5000      8.0619      9.4843     26.8057      2.4935      0.0410     95.1965
  1824.6000      8.0619     10.2789     26.4051      2.4804      0.0462     99.1198
  1824.7000      8.0619     11.6615     26.4994      2.4576      0.0017     95.4213
  1824.8000      8.0633     12.8533     26.3459      2.4379      0.0155     88.4013
  1824.9000      8.0633     13.3208     25.6228      2.4302      0.0107     87.2372
  1825.0000      8.0633     12.6830     24.9601      2.4407      0.0138     93.5832
  1825.1000      8.0633     10.9450     24.7234      2.4694      0.0365    101.1303
  1825.2000      8.0633      9.2409     24.8222      2.4975      0.0777    105.8330
  1825.3000      8.0640      8.7827     24.9438      2.5051      0.0862    106.3721
  1825.4000      8.0640      9.4049     24.8849      2.4948      0.0485    103.3420
  1825.5000      8.0637     10.4487     24.7748      2.4776      0.0707     98.7376
  1825.6000      8.0637     11.6369     24.9364      2.4580      0.0435     92.0064
  1825.7000      8.0637     12.4552     25.4574      2.4445      0.0119     86.7947
  1825.8000      8.0617     12.9509     25.9397      2.4363      0.0486     89.0350
  1825.9000      8.0617     13.6711     26.5231      2.4244      0.0144     96.3348
  1826.0000      8.0599     14.1715     27.5221      2.4162      0.0079    102.7882
  1826.1000      8.0599     13.8598     28.1533      2.4213      0.0291    107.0139
  1826.2000      8.0599     13.2128     27.9634      2.4320      0.0618    109.1405
  1826.3000      8.0595     13.0137     27.7855      2.4353      0.0549    106.8589
  1826.4000      8.0595     13.2520     27.9952      2.4313      0.0574    100.4920
  1826.5000      8.0585     13.2993     27.8924      2.4306      0.0575     97.0471
  1826.6000      8.0585     12.9020     27.1511      2.4371      0.0968     98.1414
  1826.7000      8.0585     12.2559     26.2950      2.4478      0.0721     98.1943
  1826.8000      8.0566     11.3299     25.9778      2.4631      0.0850     96.1712
  1826.9000      8.0566      9.8092     26.0484      2.4881      0.0595     97.2016
  1827.0000      8.0572      7.8960     25.9272      2.5197      0.1097    103.4043
  1827.1000      8.0572      6.6089     25.7781      2.5410      0.0926    110.0076
  1827.2000      8.0572      6.2662     25.7144      2.5466      0.0671    111.1989
  1827.3000      8.0603      6.2151     25.4051      2.5475      0.0599    111.5734
  1827.4000      8.0603      5.7031     24.9663      2.5559      0.0302    115.8023
  1827.5000      8.0637      4.5453     24.5016      2.5750      0.0636    118.8902
  1827.6000      8.0637      3.4763     24.0909      2.5926      0.0561    118.2514
  1827.7000      8.0637      2.9482     24.0051      2.6014      0.0789    119.4392
  1827.8000      8.0660      2.6501     24.1703      2.6063      0.0397    126.2904
  1827.9000      8.0660      2.5817     24.5813      2.6074      0.0762    134.6839
  1828.0000      8.0666      3.1318     25.1508      2.5983      0.0591    138.6611
  1828.1000      8.0666      4.2751     25.5944      2.5795      0.0599    137.0289
  1828.2000      8.0666      5.8150     26.0415      2.5541      0.0188    133.1550
  1828.3000      8.0651      7.1517     26.3976      2.5320      0.0075    130.3667
