~Version Information
VERS.                      2.0: CWLS Log ASCII Standard - VERSION 2.0
WRAP.                       NO: One line per depth step
~Well Information Block
STRT.FT                 7.7500: 
STOP.FT              2101.0000: 
STEP.FT                 0.2500: 
NULL.                -999.2500: 
COMP.          Pioneer Natural Resources: COMPANY
WELL.          Gunslinger 13-24: WELL
FLD.           Purgatoire River: FIELD
LOC.           1968' FSL & 633' FWL: LOCATION
PROV.                 Colorado: PROVINCE
CNTY.               Las Animas: COUNTRY
SRVC.                Patterson: SERVICE COMPANY
DATE.          Mon Aug 15 11:00:02 2005: LOG DATE
UWI.           05 071 08442 00: UNIQUE WELL ID
~Curve Information Block
DEPT.FT            0 000 00 00: Depth
GR.GAPI                       : Gamma Ray
CCL.                          : Casing Collar Locator
TT3.usec                      : CBL 3' Travel Time
AMP3.mV                       : CBL 3' Amplitude
~Parameter Information Block
~A  Depth        GR         CCL         TT3         AMP3    
# ...
  1515.2500    159.0731      0.0000    632.2172     26.2157
  1515.5000    156.7782      0.0000    630.5493     25.8197
  1515.7500    156.6033      0.0000    629.7619     25.2889
  1516.0000    158.7003      0.0000    629.3655     24.6785
  1516.2500    161.7597      0.0000    629.1521     24.0434
  1516.5000    164.3166      0.0000    629.0164     23.4325
  1516.7500    165.5280      0.0000    628.6644     22.8867
  1517.0000    164.7394      0.0000    627.1795     22.4301
  1517.2500    161.3500      0.0000    622.6724     22.0641
  1517.5000    155.8386      0.0000    613.0424     21.7714
  1517.7500    150.3000      0.0000    598.6194     21.5270
  1518.0000    147.0191      0.0000    584.6508     21.3121
  1518.2500    146.5480      0.0000    579.2535     21.1275
  1518.5000    147.5079      0.0000    586.8033     20.9989
  1518.7500    148.0370      0.0000    603.9883     20.9711
  1519.0000    147.2348      0.0000    623.2476     21.0941
  1519.2500    145.4953      0.0000    638.5217     21.3958
  1519.5000    143.7406      0.0000    647.1422     21.8510
  1519.7500    142.4062      0.0000    648.9402     22.3773
  1520.0000    141.2829      0.0000    645.6671     22.8696
  1520.2500    140.2865      0.0000    640.3289     23.2477
  1520.5000    139.8381      0.0000    635.6021     23.4791
  1520.7500    140.2353      0.0000    632.6487     23.5726
  1521.0000    141.1429      0.0000    631.4625     23.5595
  1521.2500    142.0057      0.0000    631.9243     23.4735
  1521.5000    142.7301      0.0000    634.3558     23.3363
  1521.7500    143.8891      0.0000    638.8292     23.1511
  1522.0000    146.4217      0.0000    643.4022     22.9071
  1522.2500    150.9359      0.0000    642.5025     22.5935
  1522.5000    156.9538      0.0000    627.8781     22.2202
  1522.7500    162.9343      0.0000    593.8881     21.8181
  1523.0000    167.3369      0.0000    545.2178     21.3774
  1523.2500    169.7359      0.0000    500.0673     20.7527
  1523.5000    170.8299      0.0000    481.9749     19.6875
  1523.7500    171.5406      0.0000    503.4177     18.0623
  1524.0000    172.2271      0.0000    555.5587     16.1463
  1524.2500    172.5858      0.0000    615.0921     14.4798
  1524.5000    172.1560      0.0000    661.6506     13.4466
  1524.7500    171.0750      0.0000    689.0042     13.0241
  1525.0000    170.3167      0.0000    702.5337     12.9390
  1525.2500    170.9382      1.9460    709.9640     12.9490
  1525.5000    173.0549      0.0000    714.9215     12.9823
  1525.7500    175.5756      0.0000    716.2595     13.1392
  1526.0000    176.8212      0.0000    710.6872     13.6076
  1526.2500    175.5098      0.0000    695.2760     14.4866
  1526.5000    171.4563      0.0000    669.2891     15.6452
  1526.7500    165.4001      0.0000    636.2305     16.8167
  1527.0000    158.1877      0.0000    604.8816     17.8202
  1527.2500    150.2573      0.0000    585.9667     18.6163
  1527.5000    141.8660      0.0000    584.8811     19.2022
  1527.7500    133.4246      0.0000    597.6646     19.5786
  1528.0000    125.2248      0.0000    615.1819     19.8047
  1528.2500    117.0858      0.0000    630.2750     20.0031
  1528.5000    108.7470      0.0000    640.4969     20.2964
  1528.7500    100.5476      0.0000    646.5249     20.7537
  1529.0000     93.3780      0.0000    649.8208     21.3751
  1529.2500     88.1983      0.0000    650.9014     22.1003
  1529.5000     85.9376      0.0000    648.3820     22.8403
  1529.7500     87.4706      0.0000    639.0221     23.5212
  1530.0000     93.0048      0.0000    618.8812     24.1130
  1530.2500    101.4499      0.0000    586.6735     24.6220
  1530.5000    110.8971      0.0000    549.0894     25.0591
  1530.7500    119.9354      0.0000    521.5044     25.4127
  1531.0000    128.2110      0.0000    518.0944     25.6493
  1531.2500    135.6474      0.0000    539.2219     25.7391
  1531.5000    141.9159      0.0000    571.2039     25.6866
  1531.7500    147.1762      0.0000    598.7813     25.5397
  1532.0000    152.4893      0.0000    615.4280     25.3630
  1532.2500    158.5062      0.0000    622.9221     25.1979
  1532.5000    164.2930      0.0000    625.5345     25.0446
  1532.7500    168.3595      0.0000    626.2779     24.8801
  1533.0000    170.4617      0.0000    626.4641     24.6890
  1533.2500    171.7073      0.0000    626.4952     24.4753
  1533.5000    173.1469      0.0000    626.4857     24.2479
  1533.7500    174.6057      0.0000    626.5272     24.0030
  1534.0000    174.7249      0.0000    626.7966     23.7212
  1534.2500    172.1628      0.0000    627.6445     23.3784
  1534.5000    166.9185      0.0000    629.4768     22.9645
  1534.7500    160.2686      0.0000    632.2632     22.4930
  1535.0000    153.3346      0.0000    635.0457     21.9955
  1535.2500    146.2585      0.0000    636.3668     21.5037
  1535.5000    139.0354      0.0000    635.6932     21.0362
  1535.7500    132.5553      0.0000    634.3700     20.6024
  1536.0000    128.4216      0.0000    634.8893     20.2204
  1536.2500    127.9123      0.0000    639.1309     19.9214
  1536.5000    131.0045      0.0000    647.0419     19.7301
  1536.7500    136.0229      0.0000    656.5965     19.6399
  1537.0000    140.5280      0.0000    665.0815     19.6158
  1537.2500    143.1285      0.0000    670.7916     19.6292
  1537.5000    144.4483      0.0000    673.7184     19.6909
  1537.7500    146.1310      0.0000    674.8840     19.8414
  1538.0000    149.1392      0.0000    675.3148     20.1101
  1538.2500    153.1461      0.0000    675.6411     20.4985
  1538.5000    157.2058      0.0000    676.2856     21.0109
  1538.7500    160.7482      0.0000    677.8024     21.6853
  1539.0000    164.0295      0.0000    680.6406     22.5706
  1539.2500    167.5588      0.0000    683.7618     23.6713
  1539.5000    171.0082      0.0000    682.6083     24.9251
  1539.7500    173.1829      0.0000    668.9318     26.2360
  1540.0000    173.5609      0.0000    635.4823     27.5189
  1540.2500    173.3254      0.0000    583.5647     28.7144
  1540.5000    174.1176      0.0000    524.8984     29.7787
  1540.7500    176.0453      0.0000    472.7878     30.6749
  1541.0000    177.7485      0.0000    432.1354     31.3732
  1541.2500    178.3305      0.0000    400.9299     31.8453
  1541.5000    178.3349      0.0000    379.2095     32.0616
  1541.7500    178.4736      0.0000    371.3467     32.0045
  1542.0000    178.2138      0.0000    379.4118     31.6905
  1542.2500    176.5253      0.0000    397.9113     31.1771
  1542.5000    173.7449      0.0000    417.6948     30.5447
  1542.7500    171.7806      0.0000    435.5311     29.8703
  1543.0000    172.2691      0.0000    457.5493     29.2075
  1543.2500    174.9501      0.0000    490.8378     28.5781
  1543.5000    178.0638      0.0000    533.1993     27.9731
  1543.7500    180.0616      0.0000    574.0111     27.3606
  1544.0000    180.4328      0.0000    604.0583     26.6993
  1544.2500    179.0097      0.0000    621.8242     25.9619
  1544.5000    175.4150      0.0000    631.1450     25.1605
  1544.7500    169.5917      0.0000    635.7921     24.3508
  1545.0000    162.2037      0.0000    637.2399     23.6066
  1545.2500    154.1219      0.0000    635.9788     22.9766
  1545.5000    146.0262      0.0000    633.1473     22.4599
  1545.7500    138.7360      0.0000    630.3177     22.0201
  1546.0000    133.3221      0.0000    628.4151     21.6235
  1546.2500    130.4414      0.0000    627.3913     21.2634
  1546.5000    129.7960      0.0000    626.7930     20.9535
  1546.7500    130.4131      0.0000    626.3141     20.7074
  1547.0000    131.2523      0.0000    625.9078     20.5299
  1547.2500    131.5983      0.0000    625.6235     20.4287
  1547.5000    131.2677      0.0000    625.4630     20.4325
  1547.7500    130.5391      0.0000    625.1542     20.5911
  1548.0000    129.7464      0.0000    623.5803     20.9521
  1548.2500    129.0009      0.0000    617.6273     21.5362
  1548.5000    128.2509      0.0000    601.4183     22.3323
