~Version Information
 VERS.                                  2.0 : CWLS LAS VERSION
 WRAP.                                   NO : WRAPING MODE
 SWARE .                 MController 2.5.0J : SOFTWARE VERSION
~Well Information
 WELL.                          Rolls 14-14 : WELL
 COMP.    Pioneer Natural Resources USA Inc : COMPANY
 FLD.                      Purgatoire River : FIELD
 LOC.                SW/SW Sec 14 T32S R66W : LOCATION
 DATE.                       07/31-08/01/05 : DATE(S) LOGGED
 SRVC.       BLANCO Geological Services LLC : SERVICE COMPANY
 STAT.                                   CO : STATE
 CNTY.                           Las Animas : COUNTY
 CTRY.                                  USA : COUNTRY
 API.                       05-071-08455-00 : API NUMBER
 STRT.FT                             831.00 : START DEPTH
 STOP.FT                            2365.00 : STOP DEPTH
 STEP.FT                               1.00 : DEPTH INCREMENT
 NULL.                                -9999 : NULL VALUE
~Curve information
 DEPTH.FT                                   :
 ROP.MIN/FT                                 :
 GAS.UNITS                                  :
~ASCII Log data
       831.0     -9999.00          0.7 
       832.0         0.17          1.2 
       833.0         0.20          1.3 
       834.0         0.53          1.3 
       835.0         0.40          1.2 
       836.0         0.30          1.2 
       837.0         0.47          3.9 
       838.0         0.15          6.0 
       839.0         0.10          6.7 
       840.0         0.17          7.6 
       841.0         0.10          8.9 
       842.0         0.10          9.6 
       843.0         0.10         10.2 
       844.0         0.10          9.9 
       845.0         0.10         10.5 
       846.0         0.10         11.0 
       847.0         0.10         11.6 
       848.0         0.10         11.1 
       849.0         0.13         11.9 
       850.0         0.43         12.9 
       851.0         0.13         13.5 
       852.0         0.10         12.9 
       853.0         0.10         13.3 
       854.0         0.13         13.3 
       855.0         0.07         13.3 
       856.0         0.07         13.1 
       857.0         0.10         13.9 
       858.0         0.13         12.9 
       859.0         0.10         14.3 
       860.0         0.10         13.3 
       861.0         0.13         14.1 
       862.0         0.07         13.6 
       863.0         0.13         14.6 
       864.0         0.07         14.9 
       865.0         0.28         14.4 
       866.0         3.85         16.3 
       867.0         0.27         15.6 
       868.0         0.30         16.5 
       869.0         0.27         16.7 
       870.0         0.33         16.3 
       871.0         0.33         16.6 
       872.0         0.37         17.1 
       873.0         0.47         16.5 
       874.0         0.32         16.9 
       875.0         0.23         16.3 
       876.0         0.10         16.4 
       877.0         0.20         16.4 
       878.0         0.23         17.7 
       879.0         0.17         16.6 
       880.0         0.20         17.6 
       881.0         0.20         17.7 
       882.0         0.33         17.8 
       883.0         0.27         17.1 
       884.0         0.50         18.1 
       885.0         0.20         17.5 
       886.0         0.13         17.9 
       887.0         0.10         17.3 
       888.0         0.35         17.9 
       889.0         0.20         17.5 
       890.0         0.13         18.1 
       891.0         0.20         18.0 
       892.0         0.27         28.7 
       893.0         0.20         34.4 
       894.0         0.27         35.5 
       895.0         0.27         33.8 
       896.0         6.03        140.4 
       897.0         0.37         34.0 
       898.0         0.43         33.5 
       899.0         0.37         28.5 
       900.0         0.40         29.0 
       901.0         0.30         29.5 
       902.0         0.38         29.9 
       903.0         0.30         31.3 
       904.0         0.30         31.8 
       905.0         0.40         30.5 
       906.0         0.60         30.4 
       907.0         0.67         30.9 
       908.0         0.50         41.8 
       909.0         0.48         46.9 
       910.0         0.37         44.3 
       911.0         0.30         43.9 
       912.0         0.37         41.0 
       913.0         0.17         38.1 
       914.0         0.17         37.9 
       915.0         0.27         37.2 
       916.0         0.23         36.1 
       917.0         0.27         33.8 
       918.0         0.30         33.6 
       919.0         0.33         33.3 
       920.0         0.37         33.2 
       921.0         0.35         32.3 
       922.0         0.27         32.8 
       923.0         0.23         32.8 
       924.0         0.30         34.1 
       925.0         0.30         33.6 
       926.0        12.90         67.4 
       927.0         0.40         29.6 
       928.0         0.40         30.0 
       929.0         0.23         30.2 
       930.0         0.15         29.2 
       931.0         0.13         29.3 
       932.0         0.30         28.3 
       933.0         0.13         28.6 
       934.0         0.13         27.9 
       935.0         0.23         29.3 
       936.0         0.20         29.7 
       937.0         0.20         29.4 
       938.0         0.17         29.0 
       939.0         0.17         29.0 
       940.0         0.17         28.6 
       941.0         0.23         28.3 
       942.0         0.22         28.0 
       943.0         0.20         27.7 
       944.0         0.20         27.1 
       945.0         0.23         27.1 
       946.0         0.20         27.0 
       947.0         0.20         27.2 
       948.0         0.20         26.2 
       949.0         0.20         26.9 
       950.0         0.20         26.9 
       951.0         0.20         26.6 
       952.0         0.13         26.3 
       953.0         0.13         26.6 
       954.0         0.17         26.6 
       955.0         0.13         25.9 
       956.0         1.58         35.0 
       957.0         0.40         44.5 
       958.0         0.30         58.3 
       959.0         0.20         71.6 
       960.0         0.13         75.3 
       961.0         0.27         74.1 
       962.0         0.23         60.9 
       963.0         0.25         51.9 
       964.0         0.27         41.1 
       965.0         0.23         35.9 
       966.0         0.20         32.1 
       967.0         0.27         30.4 
       968.0         0.17         29.4 
       969.0         0.23         28.0 
       970.0         0.30         28.8 
       971.0         0.27         27.6 
       972.0         0.27         26.6 
       973.0         0.20         26.4 
       974.0         0.20         26.5 
       975.0         0.22         27.1 
       976.0         0.17         27.2 
       977.0         0.13         26.7 
       978.0         0.17         27.3 
       979.0         0.13         27.7 
       980.0         0.17         27.9 
       981.0         0.20         27.1 
       982.0         0.13         28.0 
       983.0         0.13         26.6 
       984.0         0.13         27.1 
       985.0         0.10         26.7 
       986.0         1.52         25.8 
       987.0         0.30         22.7 
       988.0         0.27         22.6 
       989.0         0.20         21.6 
       990.0         0.17         22.5 
       991.0         0.13         22.2 
       992.0         0.20         22.2 
       993.0         0.17         22.3 
       994.0         0.20         22.5 
       995.0         0.17         22.0 
       996.0         0.20         21.8 
       997.0         0.17         22.3 
       998.0         0.17         22.1 
       999.0         0.17         21.9 
      1000.0         0.13         22.8 
      1001.0         0.17         21.8 
      1002.0         0.20         22.0 
      1003.0         0.20         22.1 
      1004.0         0.22         22.5 
      1005.0         0.20         23.0 
      1006.0         0.17         22.3 
      1007.0         0.20         23.3 
      1008.0         0.20         23.4 
      1009.0         0.20         22.8 
      1010.0         0.17         23.0 
      1011.0         0.23         23.1 
      1012.0         0.17         22.2 
      1013.0         0.20         22.6 
      1014.0         0.17         22.8 
      1015.0         0.13         21.9 
      1016.0         1.82         23.3 
      1017.0         0.37         23.3 
      1018.0         0.23         23.0 
      1019.0         0.30         23.0 
      1020.0         0.40         22.5 
      1021.0         0.30         23.4 
      1022.0         0.23         23.8 
      1023.0         0.17         23.6 
      1024.0         0.20         23.1 
      1025.0         0.20         24.4 
      1026.0         0.20         23.8 
      1027.0         0.25         24.7 
      1028.0         0.20         25.0 
      1029.0         0.20         25.2 
      1030.0         0.17         24.1 
