~Version Information
VERS.                      2.0: CWLS Log ASCII Standard - VERSION 2.0
WRAP.                       NO: One line per depth step
~Well Information Block
STRT.FT               460.0000: 
STOP.FT              1498.0000: 
STEP.FT                 0.1000: 
NULL.                -999.2500: 
COMP.          Pioneer Natural Resources: COMPANY
WELL.           Amore 32-09 Tr: WELL
FLD.           Purgatoire River: FIELD
LOC.           1941' FNL & 2297' FEL: LOCATION
PROV.                 Colorado: PROVINCE
CNTY.               Las Animas: COUNTRY
SRVC.                Patterson: SERVICE COMPANY
DATE.          Mon Nov 14 13:24:57 2005: LOG DATE
UWI.           05 071 08584 00: UNIQUE WELL ID
~Curve Information Block
DEPT.FT            0 000 00 00: Depth
DCAL.in                       : CDL Caliper
RHOB.g/cc                     : CDL Bulk Density
RHOC.g/cc                     : CDL Density Correction
DPOR.pu                       : CDL Density Porosity
GR.GAPI                       : Gamma Ray
NPOR.pu                       : Neutron Porosity
~Parameter Information Block
~A  Depth       DCAL        RHOB        RHOC        DPOR         GR         NPOR    
# ...
   594.4000      8.0122      2.5086      0.0221      8.5704    139.5884     23.6082
   594.5000      8.0121      2.5093      0.0382      8.5266    150.8165     24.2365
   594.6000      8.0121      2.5122      0.0259      8.3544    151.8894     24.7855
   594.7000      8.0121      2.5174      0.0264      8.0391    139.9203     25.2666
   594.8000      8.0121      2.5261      0.0429      7.5115    123.4799     26.0166
   594.9000      8.0121      2.5379      0.0417      6.7928    113.0059     27.0782
   595.0000      8.0124      2.5590      0.0919      5.5153    106.4091     27.7400
   595.1000      8.0124      2.5929      0.0953      3.4631     97.7047     27.3268
   595.2000      8.0124      2.6291      0.1263      1.2677     89.3533     26.4462
   595.3000      8.0130      2.6477      0.1651      0.1395     84.5988     26.0095
   595.4000      8.0130      2.6440      0.1342      0.3629     82.3309     25.5932
   595.5000      8.0131      2.6312      0.1522      1.1418     80.9164     24.6307
   595.6000      8.0131      2.6170      0.0926      2.0008     80.1205     23.7831
   595.7000      8.0131      2.6043      0.1063      2.7719     79.1965     23.6098
   595.8000      8.0133      2.5954      0.0677      3.3071     78.8186     23.6924
   595.9000      8.0133      2.5928      0.0531      3.4681     80.9971     23.5287
   596.0000      8.0141      2.5967      0.0183      3.2291     83.4828     22.8792
   596.1000      8.0141      2.6062      0.0479      2.6540     85.3923     21.7565
   596.2000      8.0141      2.6165      0.0741      2.0320     90.9526     20.7524
   596.3000      8.0140      2.6237      0.0377      1.5960     97.6829     20.2348
   596.4000      8.0140      2.6266      0.0828      1.4167     97.7560     20.0630
   596.5000      8.0128      2.6181      0.0909      1.9321     91.9338     20.1764
   596.6000      8.0128      2.5938      0.0267      3.4071     84.4200     20.3140
   596.7000      8.0128      2.5618      0.0345      5.3437     78.3944     19.9333
   596.8000      8.0122      2.5317      0.0103      7.1704     79.3191     19.0876
   596.9000      8.0122      2.5115     -0.0117      8.3910     85.0131     18.4360
   597.0000      8.0126      2.5057     -0.0157      8.7433     87.7541     18.4434
   597.1000      8.0126      2.5089     -0.0242      8.5503     85.7499     18.8729
   597.2000      8.0126      2.5128     -0.0038      8.3158     81.7121     18.9462
   597.3000      8.0129      2.5152      0.0009      8.1707     78.0873     18.5210
   597.4000      8.0129      2.5175      0.0339      8.0292     76.1243     18.2045
   597.5000      8.0127      2.5151      0.0424      8.1728     76.9993     18.2883
   597.6000      8.0127      2.5040      0.0004      8.8462     78.5774     18.5430
   597.7000      8.0127      2.4868     -0.0014      9.8885     81.3346     18.7499
   597.8000      8.0123      2.4686     -0.0087     10.9942     90.8936     19.0234
   597.9000      8.0123      2.4608     -0.0158     11.4675    104.4039     19.4887
   598.0000      8.0120      2.4709      0.0022     10.8552    115.7536     19.8649
   598.1000      8.0120      2.4870      0.0213      9.8816    125.0543     19.9593
   598.2000      8.0120      2.4967      0.0208      9.2932    132.1811     20.1952
   598.3000      8.0128      2.5053      0.0224      8.7701    137.7310     20.8001
   598.4000      8.0128      2.5160      0.0341      8.1187    143.1814     21.2558
   598.5000      8.0136      2.5230      0.0332      7.6962    146.0999     21.5623
   598.6000      8.0136      2.5297      0.0243      7.2920    145.3593     22.2914
   598.7000      8.0136      2.5402      0.0384      6.6558    147.0609     23.3332
   598.8000      8.0133      2.5472      0.0417      6.2283    151.7459     24.1832
   598.9000      8.0133      2.5468      0.0257      6.2561    148.3300     24.7971
   599.0000      8.0127      2.5442      0.0495      6.4109    135.3844     25.5476
   599.1000      8.0127      2.5448      0.0228      6.3756    125.5817     26.5200
   599.2000      8.0127      2.5512      0.0462      5.9895    124.0242     27.3279
   599.3000      8.0127      2.5615      0.0365      5.3662    124.5928     27.6956
   599.4000      8.0127      2.5711      0.0450      4.7814    120.5216     27.5664
   599.5000      8.0131      2.5789      0.0334      4.3092    112.6752     27.0501
   599.6000      8.0131      2.5818      0.0707      4.1344    104.1311     26.3064
   599.7000      8.0131      2.5761      0.0416      4.4809     97.3161     25.4673
   599.8000      8.0141      2.5651      0.0386      5.1450     94.2219     24.5079
   599.9000      8.0141      2.5519      0.0277      5.9428     93.0153     23.4197
   600.0000      8.0148      2.5384      0.0291      6.7617     92.4914     22.5820
   600.1000      8.0148      2.5308      0.0204      7.2272     92.6190     22.0933
   600.2000      8.0148      2.5280      0.0686      7.3917     92.9927     21.4942
   600.3000      8.0140      2.5236      0.0385      7.6616     94.3940     20.6595
   600.4000      8.0140      2.5207      0.0417      7.8336     94.5312     19.7652
   600.5000      8.0132      2.5223      0.0750      7.7364     88.7067     19.0440
   600.6000      8.0132      2.5203      0.0719      7.8604     78.1593     18.8603
   600.7000      8.0132      2.5110      0.0636      8.4269     72.7881     18.9514
   600.8000      8.0129      2.5048      0.0380      8.7977     78.4755     18.6780
   600.9000      8.0129      2.5100      0.1039      8.4864     88.8005     18.2340
   601.0000      8.0129      2.5224      0.0705      7.7320     95.6889     18.2189
   601.1000      8.0129      2.5407      0.0730      6.6271     96.1729     18.6596
   601.2000      8.0129      2.5589      0.0901      5.5192     91.6626     18.9787
   601.3000      8.0135      2.5619      0.0900      5.3372     86.5686     18.6713
   601.4000      8.0135      2.5500      0.0768      6.0630     82.5574     18.2502
   601.5000      8.0145      2.5413      0.0730      6.5901     78.0979     18.4017
   601.6000      8.0145      2.5449      0.0596      6.3718     73.5158     18.7096
   601.7000      8.0145      2.5532      0.0741      5.8679     71.4855     18.5347
   601.8000      8.0149      2.5592      0.0635      5.5029     71.8584     17.5893
   601.9000      8.0149      2.5601      0.1007      5.4511     70.9505     16.2358
   602.0000      8.0140      2.5448      0.0867      6.3747     69.8638     15.5811
   602.1000      8.0140      2.5173      0.0333      8.0447     71.2646     15.6958
   602.2000      8.0140      2.4969      0.0517      9.2799     70.9531     15.6314
   602.3000      8.0129      2.4849      0.0780     10.0056     66.3039     15.1743
   602.4000      8.0129      2.4694      0.0755     10.9483     60.6969     14.5518
   602.5000      8.0125      2.4495      0.0711     12.1521     56.4121     13.8661
   602.6000      8.0125      2.4309      0.0323     13.2816     54.8486     13.7324
   602.7000      8.0125      2.4119      0.0249     14.4292     57.6339     14.6181
   602.8000      8.0127      2.3916      0.0190     15.6604     62.5439     15.8063
   602.9000      8.0127      2.3765     -0.0301     16.5731     64.5661     16.2434
   603.0000      8.0130      2.3717      0.0162     16.8659     62.8808     15.8904
   603.1000      8.0130      2.3771      0.0367     16.5378     62.8330     15.3759
   603.2000      8.0130      2.3952      0.0660     15.4414     64.2345     15.2756
   603.3000      8.0133      2.4220      0.1095     13.8190     61.7685     15.9066
   603.4000      8.0133      2.4488      0.0731     12.1910     56.3054     17.1961
   603.5000      8.0129      2.4790      0.0918     10.3662     51.8088     18.5506
   603.6000      8.0129      2.5157      0.1299      8.1396     49.3002     19.2311
   603.7000      8.0129      2.5515      0.1379      5.9702     51.2711     19.3417
   603.8000      8.0117      2.5749      0.1849      4.5541     57.9434     19.1688
   603.9000      8.0117      2.5764      0.1590      4.4596     61.9634     18.7487
