~Version Information
VERS.                      2.0: CWLS Log ASCII Standard - VERSION 2.0
WRAP.                       NO: One line per depth step
~Well Information Block
STRT.FT               575.0000: 
STOP.FT              1558.5000: 
STEP.FT                 0.2500: 
NULL.                -999.2500: 
COMP.          Pioneer Natural Resources: COMPANY
WELL.          McClaren 13-34 Tr: WELL
FLD.           Purgatoire River: FIELD
LOC.           1934' FSL & 826' FWL: LOCATION
PROV.                 Colorado: PROVINCE
CNTY.               Las Animas: COUNTRY
SRVC.                Patterson: SERVICE COMPANY
DATE.          Mon Jul 11 20:01:13 2005: LOG DATE
UWI.           05 071 08437 00: UNIQUE WELL ID
~Curve Information Block
DEPT.FT            0 000 00 00: Depth
SN.Ohm-m                      : IEL Short Normal
SP.mV                         : IEL Spontaneous Potential
DIR.Ohm-m                     : IEL Induction Resistivity
GR.GAPI                       : Gamma Ray
~Parameter Information Block
~A  Depth        SN          SP         DIR          GR     
# ...
   709.0000   2000.0000   2000.0000     16.1217    130.4977
   709.2500   2000.0000   2000.0000     15.8458    129.4689
   709.5000   2000.0000   2000.0000     15.4860    127.3618
   709.7500   2000.0000   2000.0000     15.0762    126.9339
   710.0000   2000.0000   2000.0000     14.6509    129.1571
   710.2500   2000.0000   2000.0000     14.2442    132.3669
   710.5000   2000.0000   2000.0000     13.8846    138.3296
   710.7500   2000.0000   2000.0000     13.5879    142.2816
   711.0000   2000.0000   2000.0000     13.3526    147.6791
   711.2500   2000.0000   2000.0000     13.1584    151.0339
   711.5000   2000.0000   2000.0000     12.9746    155.8125
   711.7500   2000.0000   2000.0000     12.7767    158.4272
   712.0000   2000.0000   2000.0000     12.5608    159.9155
   712.2500   2000.0000   2000.0000     12.3430    158.3873
   712.5000   2000.0000   2000.0000     12.1431    152.2376
   712.7500   2000.0000   2000.0000     11.9680    146.6508
   713.0000   2000.0000   2000.0000     11.8097    138.7881
   713.2500   2000.0000   2000.0000     11.6563    135.1265
   713.5000   2000.0000   2000.0000     11.5052    132.7970
   713.7500   2000.0000   2000.0000     11.3679    133.2615
   714.0000   2000.0000   2000.0000     11.2630    136.3393
   714.2500   2000.0000   2000.0000     11.2042    139.3144
   714.5000   2000.0000   2000.0000     11.1904    143.5916
   714.7500   2000.0000   2000.0000     11.2057    145.4434
   715.0000   2000.0000   2000.0000     11.2273    146.0122
   715.2500   2000.0000   2000.0000     11.2368    145.1405
   715.5000   2000.0000   2000.0000     11.2284    143.0473
   715.7500   2000.0000   2000.0000     11.2074    141.7837
   716.0000   2000.0000   2000.0000     11.1859    140.6183
   716.2500   2000.0000   2000.0000     11.1768    140.0972
   716.5000   2000.0000   2000.0000     11.1929    138.4424
   716.7500   2000.0000   2000.0000     11.2470    135.9488
   717.0000   2000.0000   2000.0000     11.3526    129.7609
   717.2500   2000.0000   2000.0000     11.5222    124.6786
   717.5000   2000.0000   2000.0000     11.7649    117.6140
   717.7500   2000.0000   2000.0000     12.0863    114.1980
   718.0000   2000.0000   2000.0000     12.4906    111.1850
   718.2500   2000.0000   2000.0000     12.9849    109.8781
   718.5000   2000.0000   2000.0000     13.5777    107.3703
   718.7500   2000.0000   2000.0000     14.2697    104.7764
   719.0000   2000.0000   2000.0000     15.0428     99.5332
   719.2500   2000.0000   2000.0000     15.8576     95.4835
   719.5000   2000.0000   2000.0000     16.6613     89.2129
   719.7500   2000.0000   2000.0000     17.3989     85.1896
   720.0000   2000.0000   2000.0000     18.0183     79.8173
   720.2500   2000.0000   2000.0000     18.4713     76.9766
   720.5000   2000.0000   2000.0000     18.7245     74.5405
   720.7500   2000.0000   2000.0000     18.7786     74.5974
   721.0000   2000.0000   2000.0000     18.6761     77.7801
   721.2500   2000.0000   2000.0000     18.4846     82.0729
   721.5000   2000.0000   2000.0000     18.2661     91.4898
   721.7500   2000.0000   2000.0000     18.0551     99.2001
   722.0000   2000.0000   2000.0000     17.8571    111.2607
   722.2500   2000.0000   2000.0000     17.6637    118.5865
   722.5000   2000.0000   2000.0000     17.4685    127.4085
   722.7500   2000.0000   2000.0000     17.2725    131.6763
   723.0000   2000.0000   2000.0000     17.0805    135.6476
   723.2500   2000.0000   2000.0000     16.8946    136.6425
   723.5000   2000.0000   2000.0000     16.7123    135.7070
   723.7500   2000.0000   2000.0000     16.5302    133.7186
   724.0000   2000.0000   2000.0000     16.3496    129.4390
   724.2500   2000.0000   2000.0000     16.1778    126.1498
   724.5000   2000.0000   2000.0000     16.0248    121.0727
   724.7500   2000.0000   2000.0000     15.8990    117.8273
   725.0000   2000.0000   2000.0000     15.8090    113.5932
   725.2500   2000.0000   2000.0000     15.7673    111.4635
   725.5000   2000.0000   2000.0000     15.7907    109.7133
   725.7500   2000.0000   2000.0000     15.8924    109.5530
   726.0000   2000.0000   2000.0000     16.0726    110.2279
   726.2500   2000.0000   2000.0000     16.3163    110.6813
   726.5000   2000.0000   2000.0000     16.5988    110.6845
   726.7500   2000.0000   2000.0000     16.8932    110.3589
   727.0000   2000.0000   2000.0000     17.1726    110.2224
   727.2500   2000.0000   2000.0000     17.4083    110.7218
   727.5000   2000.0000   2000.0000     17.5705    112.0859
   727.7500   2000.0000   2000.0000     17.6388    112.9362
   728.0000   2000.0000   2000.0000     17.6163    113.7460
   728.2500   2000.0000   2000.0000     17.5342    114.1536
   728.5000   2000.0000   2000.0000     17.4404    114.8537
   728.7500   2000.0000   2000.0000     17.3771    115.2359
   729.0000   2000.0000   2000.0000     17.3643    115.2578
   729.2500   2000.0000   2000.0000     17.3942    114.9088
   729.5000   2000.0000   2000.0000     17.4397    114.4433
   729.7500   2000.0000   2000.0000     17.4667    114.5970
   730.0000   2000.0000   2000.0000     17.4494    115.6774
   730.2500   2000.0000   2000.0000     17.3804    116.6424
   730.5000   2000.0000   2000.0000     17.2699    117.8274
   730.7500   2000.0000   2000.0000     17.1350    118.3420
   731.0000   2000.0000   2000.0000     16.9841    118.9060
   731.2500   2000.0000   2000.0000     16.8116    119.3896
   731.5000   2000.0000   2000.0000     16.6065    120.8019
   731.7500   2000.0000   2000.0000     16.3700    122.2913
   732.0000   2000.0000   2000.0000     16.1232    124.5092
   732.2500   2000.0000   2000.0000     15.9003    125.1002
   732.5000   2000.0000   2000.0000     15.7336    123.7796
   732.7500   2000.0000   2000.0000     15.6412    121.8029
   733.0000   2000.0000   2000.0000     15.6236    119.0241
   733.2500   2000.0000   2000.0000     15.6683    118.3491
   733.5000   2000.0000   2000.0000     15.7607    119.7367
   733.7500   2000.0000   2000.0000     15.8920    121.9020
   734.0000   2000.0000   2000.0000     16.0592    125.8780
   734.2500   2000.0000   2000.0000     16.2565    128.3042
   734.5000   2000.0000   2000.0000     16.4669    130.1075
   734.7500   2000.0000   2000.0000     16.6672    129.1351
   735.0000   2000.0000   2000.0000     16.8443    123.8273
   735.2500   2000.0000   2000.0000     17.0110    118.5110
   735.5000   2000.0000   2000.0000     17.2052    110.4435
   735.7500   2000.0000   2000.0000     17.4673    106.3006
   736.0000   2000.0000   2000.0000     17.8097    102.9661
   736.2500   2000.0000   2000.0000     18.2004    102.6650
   736.5000   2000.0000   2000.0000     18.5728    104.2434
   736.7500   2000.0000   2000.0000     18.8600    105.7109
   737.0000   2000.0000   2000.0000     19.0323    106.9670
   737.2500   2000.0000   2000.0000     19.1077    106.8931
   737.5000   2000.0000   2000.0000     19.1296    106.2702
   737.7500   2000.0000   2000.0000     19.1313    106.2761
   738.0000   2000.0000   2000.0000     19.1154    107.4211
   738.2500   2000.0000   2000.0000     19.0609    108.5664
   738.5000   2000.0000   2000.0000     18.9473    109.9125
   738.7500   2000.0000   2000.0000     18.7700    110.4334
   739.0000   2000.0000   2000.0000     18.5387    111.3299
   739.2500   2000.0000   2000.0000     18.2671    112.5241
   739.5000   2000.0000   2000.0000     17.9720    115.5275
   739.7500   2000.0000   2000.0000     17.6755    118.0885
   740.0000   2000.0000   2000.0000     17.4010    122.0383
   740.2500   2000.0000   2000.0000     17.1592    124.4278
   740.5000   2000.0000   2000.0000     16.9354    127.2390
   740.7500   2000.0000   2000.0000     16.6916    128.2249
   741.0000   2000.0000   2000.0000     16.3871    127.7413
   741.2500   2000.0000   2000.0000     16.0052    126.2467
   741.5000   2000.0000   2000.0000     15.5664    123.6687
   741.7500   2000.0000   2000.0000     15.1183    122.6868
   742.0000   2000.0000   2000.0000     14.7128    122.8402
   742.2500   2000.0000   2000.0000     14.3887    123.5344
