~Version Information
VERS.                      2.0: CWLS Log ASCII Standard - VERSION 2.0
WRAP.                       NO: One line per depth step
~Well Information Block
STRT.FT                -9.2500: 
STOP.FT              1854.7500: 
STEP.FT                 0.2500: 
NULL.                -999.2500: 
COMP.          Pioneer Natural Resources: COMPANY
WELL.          State Wildlife 32-16 Tr: WELL
FLD.           Purgatoire River: FIELD
LOC.           1838' FNL & 1850' FEL--: LOCATION
STAT.                       CO: State
CNTY.               Las Animas: COUNTY
CTRY. USA : Country
SECT. 16 : Section
TOWN. 32S : Township
RANG. 66W : Range
SRVC.          Patterson Wireline: SERVICE COMPANY
DATE.          Tue Nov 22 10:17:13 2005: LOG DATE
API.           05 071 08568 00: UNIQUE WELL ID
~Curve Information Block
DEPT.FT            0 000 00 00: Depth
CCL.                          : Casing Collar Locator
TT3.usec                      : CBL 3' Travel Time
AMP3.mV                       : CBL 3' Amplitude
GR.GAPI                       : Gamma Ray
~Parameter Information Block
~A  Depth       CCL         TT3         AMP3         GR     
    -9.2500   -999.2500   -999.2500   -999.2500     79.5429
    -9.0000   -999.2500   -999.2500   -999.2500     82.0700
    -8.7500   -999.2500   -999.2500   -999.2500     84.9875
    -8.5000   -999.2500   -999.2500   -999.2500     89.0215
    -8.2500   -999.2500   -999.2500   -999.2500     94.7072
    -8.0000   -999.2500   -999.2500   -999.2500    100.8285
    -7.7500   -999.2500   -999.2500   -999.2500    104.7254
    -7.5000   -999.2500   -999.2500   -999.2500    104.0675
    -7.2500   -999.2500   -999.2500   -999.2500     98.4264
    -7.0000   -999.2500   -999.2500   -999.2500     89.8788
    -6.7500   -999.2500   -999.2500   -999.2500     82.1082
    -6.5000   -999.2500   -999.2500   -999.2500     78.0148
    -6.2500   -999.2500   -999.2500   -999.2500     77.7570
    -6.0000   -999.2500   -999.2500   -999.2500     79.2466
    -5.7500   -999.2500   -999.2500   -999.2500     80.3116
    -5.5000   -999.2500   -999.2500   -999.2500     80.1938
    -5.2500   -999.2500   -999.2500   -999.2500     79.5342
    -5.0000   -999.2500   -999.2500   -999.2500     79.5784
    -4.7500   -999.2500   -999.2500   -999.2500     81.1939
    -4.5000   -999.2500   -999.2500   -999.2500     84.0651
    -4.2500   -999.2500   1158.0000     -0.3377     86.6973
    -4.0000   -999.2500   1158.0000     -0.3487     87.4090
    -3.7500   -999.2500   1158.0000     -0.3578     85.2899
    -3.5000   -999.2500   1158.0000     -0.3668     80.2842
    -3.2500   -999.2500   1158.0000     -0.3762     72.9094
    -3.0000   -999.2500   1158.0000     -0.3826     64.3636
    -2.7500   -999.2500   1158.0000     -0.3819     56.5049
    -2.5000   -999.2500   1158.0000     -0.3744     50.9508
    -2.2500   -999.2500   1158.0000     -0.3655     48.0285
    -2.0000   -999.2500   1158.0000     -0.3610     46.7596
    -1.7500   -999.2500   1158.0000     -0.3621     45.7091
    -1.5000   -999.2500   1158.0000     -0.3641     43.8222
    -1.2500   -999.2500   1158.0000     -0.3619     40.7836
    -1.0000   -999.2500   1158.0000     -0.3537     37.0200
    -0.7500   -999.2500   1158.0000     -0.3429     33.6618
    -0.5000   -999.2500   1158.0000     -0.3352     32.3016
    -0.2500   -999.2500   1158.0000     -0.3346     34.0087
     0.0000   -999.2500   1158.0000     -0.3416     38.0888
     0.2500   -999.2500   1158.0000     -0.3672     43.4037
     0.5000   -999.2500   1158.0000     -0.3795     41.4954
     0.7500   -999.2500   1158.0000     -0.3877     37.8525
     1.0000   -999.2500   1158.0000     -0.3890     34.5339
     1.2500      0.0000   1158.0000     -0.3829     32.6830
     1.5000      0.0000   1158.0000     -0.3702     32.5333
     1.7500      0.0000   1158.0000     -0.3526     34.1175
     2.0000      0.0000   1158.0000     -0.3332     37.3614
     2.2500      0.0000   1158.0000     -0.3167     41.6889
     2.5000      0.0000   1158.0000     -0.3080     46.1701
     2.7500      0.0000   1158.0000     -0.3091     50.3259
     3.0000      0.0000   1158.0000     -0.3185     54.4588
     3.2500      2.0000   1158.0000     -0.3318     59.0232
     3.5000      0.0000   1158.0000     -0.3440     63.9289
     3.7500      0.0000   1158.0000     -0.3521     68.6665
     4.0000      0.0000   1158.0000     -0.3551     72.9079
     4.2500      0.0000   1158.0000     -0.3533     76.7271
     4.5000      2.0000   1158.0000     -0.3480     80.2254
     4.7500      0.0000   1158.0000     -0.3418     83.0982
     5.0000      0.0000   1158.0000     -0.3381     84.6900
     5.2500      0.0000   1158.0000     -0.3399     84.5346
     5.5000      0.0000   1158.0000     -0.3478     82.8447
     5.7500      0.0000   1158.0000     -0.3603     80.4058
     6.0000      0.0000   1158.0000     -0.3750     77.9645
     6.2500      0.0000   1158.0000     -0.3868     75.8658
     6.5000      0.0000   1158.0000     -0.3898     74.4344
     6.7500      0.0000   1158.0000     -0.3802     74.4176
     7.0000      0.0000   1157.9414     -0.3539     76.4412
     7.2500      0.0000   1157.5593     -0.2863     79.9594
     7.5000      0.0000   1155.6193     -0.0501     83.2677
     7.7500      0.0000   1147.9458      0.7693     84.9011
     8.0000      0.0000   1124.3102      3.1348     84.8534
     8.2500      0.0000   1067.6111      8.5849     84.3015
     8.5000      0.0000    961.6853     18.4983     84.2886
     8.7500      0.0000    807.5734     32.6632     84.8314
     9.0000      0.0000    632.9705     48.5107     85.3470
     9.2500      0.0000    478.9448     62.3648     85.8438
     9.5000      0.0000    373.1723     71.8205     87.3224
     9.7500      0.0000    316.6304     76.8668     90.5679
    10.0000      0.0000    293.0638     78.9867     94.6643
    10.2500      0.0000    285.3269     79.6761     97.5428
    10.5000      0.0000    283.2423     79.7177     98.4921
    10.7500      0.0000    282.7513     79.2038     99.4601
    11.0000      0.0000    282.7511     77.8324    103.0344
    11.2500      0.0000    283.1197     75.2910    109.1693
    11.5000      0.0000    283.9330     71.6593    114.4217
    11.7500      0.0000    285.2133     67.5648    114.7076
    12.0000      0.0000    286.7643     63.9182    108.7237
    12.2500      0.0000    288.2288     61.4105     98.6928
    12.5000      0.0000    289.3073     60.1727     88.2133
    12.7500      0.0000    289.9265     59.8382     79.6532
    13.0000      0.0000    290.2057     59.9001     73.2168
    13.2500     -2.0000    290.3053     60.0195     67.8599
    13.5000      2.0000    290.3197     60.0969     62.8557
    13.7500      0.0000    290.2585     60.2284     58.7095
    14.0000      0.0000    290.0645     60.6762     56.7758
    14.2500      0.0000    289.6402     61.7755     57.9615
    14.5000      0.0000    288.8952     63.7369     61.6883
    14.7500      0.0000    287.8148     66.5079     66.1200
    15.0000      0.0000    286.5090     69.8247     69.4967
    15.2500      0.0000    285.1895     73.2959     71.3110
    15.5000      0.0000    284.0724     76.4267     72.0839
    15.7500      0.0000    283.2808     78.7548     72.0588
    16.0000      0.0000    282.8145     80.1119     70.6789
    16.2500      0.0000    282.5907     80.6996     67.6436
    16.5000      0.0000    282.5080     80.8756     63.8973
    16.7500      0.0000    282.4903     80.9116     60.9863
    17.0000      0.0000    282.4953     80.9255     59.6509
    17.2500      0.0000    282.5031     80.9402     59.3573
    17.5000      0.0000    282.5058     80.9465     59.1086
    17.7500      0.0000    282.5022     80.9353     58.5347
    18.0000      0.0000    282.4951     80.9073     58.1330
    18.2500      0.0000    282.4879     80.8757     58.4979
    18.5000      0.0000    282.4813     80.8616     59.6569
    18.7500      0.0000    282.4742     80.8791     61.2601
    19.0000      0.0000    282.4660     80.9247     62.9287
    19.2500      0.0000    282.4575     80.9805     64.1929
    19.5000      0.0000    282.4505     81.0277     64.5843
    19.7500      0.0000    282.4471     81.0552     64.1879
    20.0000      0.0000    282.4488     81.0605     63.8310
    20.2500      0.0000    282.4566     81.0483     64.2526
    20.5000      0.0000    282.4701     81.0250     65.1353
    20.7500      0.0000    282.4862     80.9936     65.3401
    21.0000      0.0000    282.4999     80.9558     64.0482
    21.2500      0.0000    282.5066     80.9199     61.3133
    21.5000      0.0000    282.5049     80.8999     57.6426
    21.7500      0.0000    282.4969     80.9058     53.5374
    22.0000      0.0000    282.4856     80.9364     49.5396
    22.2500      0.0000    282.4740     80.9817     46.3803
    22.5000      0.0000    282.4649     81.0291     44.8267
    22.7500      0.0000    282.4603     81.0679     45.3012
    23.0000      0.0000    282.4603     81.0908     47.6079
    23.2500      0.0000    282.4641     81.0930     50.8830
    23.5000      0.0000    282.4705     81.0744     53.7439
    23.7500      0.0000    282.4784     81.0418     54.8246
    24.0000      0.0000    282.4872     81.0067     53.6714
