~Version Information
VERS.                      2.0: CWLS Log ASCII Standard - VERSION 2.0
WRAP.                       NO: One line per depth step
~Well Information Block
STRT.FT                 0.0000: 
STOP.FT              1674.7500: 
STEP.FT                 0.2500: 
NULL.                -999.2500: 
COMP.          Pioneer Natural Resources: COMPANY
WELL.          Culver 14-12 Tr: WELL
FLD.           Purgatorie River: FIELD
LOC.           915' FSL & 1048' FWL: LOCATION
STAT.                 Colorado: Colorado
CNTY.               Las Animas: COUNTY
CTRY. USA : Country
SECT. 12 : Section
TOWN. 32S : Township
RANG. 66W : Range
SRVC.                Patterson: SERVICE COMPANY
DATE.          Mon Oct 03 12:52:29 2005: LOG DATE
API. 05-071-08520                         : UNIQUE WELL ID
~Curve Information Block
DEPT.FT            0 000 00 00: Depth
CCL.                          : Casing Collar Locator
TT3.usec                      : CBL 3' Travel Time
AMP3.mV                       : CBL 3' Amplitude
GR.GAPI                       : Gamma Ray
~Parameter Information Block
~A  Depth       CCL         TT3         AMP3         GR     
# ...
   670.0000      0.0000    819.2037      9.9230     72.0375
   670.2500      0.0000    808.6484      9.8951     68.7887
   670.5000      0.0000    810.9277      9.8893     67.9290
   670.7500      0.0000    822.3500      9.8730     70.0655
   671.0000      0.0000    831.9550      9.8366     74.3511
   671.2500      0.0000    834.6493      9.8024     78.3997
   671.5000      0.0000    832.1298      9.7853     79.7600
   671.7500      0.0000    826.0078      9.7760     77.8612
   672.0000      0.0000    816.6553      9.7639     74.1390
   672.2500      0.0000    804.7383      9.7506     70.2771
   672.5000      0.0000    792.5233      9.7499     66.8832
   672.7500      0.0000    783.4858      9.7929     63.9350
   673.0000      0.0000    779.0323      9.9043     61.7891
   673.2500      0.0000    777.9951     10.0571     61.0215
   673.5000      0.0000    779.7709     10.1907     61.3551
   673.7500      0.0000    786.0924     10.2915     61.4348
   674.0000      0.0000    799.3220     10.4089     60.0601
   674.2500      0.0000    818.1921     10.5863     57.3686
   674.5000      0.0000    836.6321     10.8283     54.5344
   674.7500      0.0000    849.5963     11.1259     52.5608
   675.0000      0.0000    857.7624     11.4617     51.8039
   675.2500      0.0000    863.5214     11.8068     52.5038
   675.5000      0.0000    865.8477     12.1335     55.0666
   675.7500      0.0000    863.3805     12.4110     59.4999
   676.0000      0.0000    858.7579     12.5871     65.0246
   676.2500      0.0000    855.4379     12.6009     70.5355
   676.5000      0.0000    854.0272     12.4389     75.0528
   676.7500      0.0000    853.5640     12.1871     77.6508
   677.0000      0.0000    853.3810     11.9961     77.7019
   677.2500      0.0000    853.3441     11.9635     75.5995
   677.5000      0.0000    853.4789     12.0689     72.8591
   677.7500      0.0000    853.6890     12.2191     71.2142
   678.0000      0.0000    853.8627     12.3147     71.5777
   678.2500      0.0000    853.9986     12.2993     73.6253
   678.5000      0.0000    854.0688     12.1931     76.1071
   678.7500      0.0000    854.0029     12.0941     77.6124
   679.0000      0.0000    853.8610     12.1196     77.3732
   679.2500      0.0000    853.7897     12.3080     75.9021
   679.5000      0.0000    853.8571     12.5985     75.0738
   679.7500      0.0000    854.0773     12.9261     76.8689
   680.0000      0.0000    854.4464     13.2793     81.2037
   680.2500      0.0000    854.8265     13.6412     85.3597
   680.5000      0.0000    854.9402     13.9558     86.2949
   680.7500      0.0000    854.6572     14.1715     83.3244
   681.0000      0.0000    854.1948     14.2574     78.3279
   681.2500      0.0000    853.8675     14.2156     74.0475
   681.5000      0.0000    853.7472     14.0865     72.4448
   681.7500      0.0000    853.6306     13.9173     73.7410
   682.0000      0.0000    853.3271     13.7584     76.3938
   682.2500      0.0000    853.0300     13.6558     78.4170
   682.5000      0.0000    853.0984     13.6054     79.0478
   682.7500      0.0000    853.5082     13.5410     78.9821
   683.0000      0.0000    854.0369     13.3955     79.3191
   683.2500      0.0000    854.6713     13.1860     81.0149
   683.5000      0.0000    855.3501     12.9972     85.1638
   683.7500      0.0000    855.9426     12.8414     92.7041
   684.0000      0.0000    856.9060     12.5807    103.1940
   684.2500      0.0000    858.9233     12.0300    114.3013
   684.5000      0.0000    861.0675     11.1849    123.1116
   684.7500      0.0000    862.7650     10.3797    127.9905
   685.0000      0.0000    871.1022      9.9414    129.1066
   685.2500      0.0000    897.2081      9.6289    127.3746
   685.5000      0.0000    935.0624      9.0248    123.2696
   685.7500      0.0000    957.6219      8.2831    116.9529
   686.0000      0.0000    952.4742      7.7738    109.3897
   686.2500      0.0000    939.5610      7.5190    102.7058
   686.5000      0.0000    934.5098      7.3641     99.1894
   686.7500     -2.0000    934.4634      7.2281    100.1041
   687.0000      2.0000    944.6458      7.0733    105.0090
   687.2500      0.0000    968.2464      6.8811    111.3856
   687.5000      0.0000    981.5164      6.8096    115.4154
   687.7500      0.0000    960.9469      7.1434    114.6219
   688.0000      0.0000    917.4586      7.8351    110.1751
   688.2500      0.0000    879.1713      8.5834    105.8816
   688.5000      0.0000    859.3935      9.3778    104.7059
   688.7500      0.0000    852.4569     10.2635    106.5664
   689.0000      0.0000    847.5305     11.0348    109.0972
   689.2500      0.0000    839.7068     11.5902    109.8785
   689.5000      0.0000    832.5190     12.0767    108.0201
   689.7500      0.0000    832.2587     12.6319    104.2147
   690.0000      0.0000    839.0613     13.2765     99.7835
   690.2500      0.0000    846.7927     13.9846     95.8289
   690.5000      0.0000    851.0322     14.7059     93.0003
   690.7500      0.0000    852.0717     15.3668     91.4943
   691.0000      0.0000    851.7535     15.9208     90.9766
   691.2500      0.0000    851.2084     16.3715     90.7050
   691.5000      0.0000    850.8028     16.7349     90.1178
   691.7500      0.0000    850.5225     17.0274     89.4904
   692.0000      0.0000    850.3132     17.2958     90.0047
   692.2500      0.0000    850.2499     17.6001     92.9498
   692.5000      0.0000    850.3469     17.9328     98.6688
   692.7500      0.0000    850.2329     18.2167    106.1699
   693.0000      0.0000    848.7233     18.4118    113.6082
   693.2500      0.0000    843.6816     18.5310    119.0473
   693.5000      0.0000    833.9809     18.5654    120.9824
   693.7500      0.0000    822.7701     18.5138    118.8492
   694.0000      0.0000    815.9938     18.4474    113.7051
   694.2500      0.0000    815.3177     18.4668    108.1635
   694.5000      0.0000    815.6509     18.6158    104.6854
   694.7500      0.0000    812.4271     18.8445    103.6334
   695.0000      0.0000    807.4914     19.0420    103.4621
   695.2500      0.0000    805.1783     19.1099    102.5921
   695.5000      0.0000    807.2510     19.0126    100.3393
   695.7500      0.0000    811.9517     18.7869     96.4703
   696.0000      0.0000    814.7306     18.5197     91.2312
   696.2500      0.0000    812.6388     18.2892     85.8278
   696.5000      0.0000    807.9954     18.1128     81.6861
   696.7500      0.0000    804.5300     17.9793     78.9602
   697.0000      0.0000    803.1343     17.9143     76.5208
   697.2500      0.0000    802.9326     17.9398     73.4601
   697.5000      0.0000    803.1752     17.9958     69.9592
   697.7500      0.0000    803.4593     17.9939     66.6385
   698.0000      0.0000    803.5370     17.9272     63.7348
   698.2500      0.0000    803.3887     17.8555     61.2820
   698.5000      0.0000    803.2275     17.8197     59.8475
   698.7500      0.0000    803.1670     17.8377     60.6486
   699.0000      0.0000    802.7920     17.9291     64.4976
   699.2500      0.0000    799.6787     18.0949     70.3884
   699.5000      0.0000    785.0110     18.3116     75.4679
   699.7500      0.0000    742.3056     18.5412     76.9874
   700.0000      0.0000    668.0010     18.7094     74.3833
   700.2500      0.0000    602.1884     18.7019     69.2834
   700.5000      0.0000    602.0407     18.4258     63.8361
   700.7500      0.0000    667.5393     17.9048     59.4385
   701.0000      0.0000    741.5330     17.2884     56.6481
   701.2500      0.0000    783.9934     16.7042     55.4726
   701.5000      0.0000    798.4839     16.1424     55.5521
   701.7500      0.0000    801.4398     15.5431     56.3978
   702.0000      0.0000    801.3339     14.9254     57.5616
   702.2500      0.0000    799.0015     14.3625     58.6126
   702.5000      0.0000    791.5033     13.8689     59.2293
   702.7500      0.0000    776.5007     13.3905     59.4935
   703.0000      0.0000    757.4463     12.9091     59.9150
   703.2500      0.0000    741.9382     12.4853     60.9821
