~Version Information
 VERS.                                  2.0 : CWLS LAS VERSION
 WRAP.                                   NO : WRAPING MODE
 SWARE .                 MController 2.5.0J : SOFTWARE VERSION
~Well Information
 WELL.                  Lorencito 8-1-34-67 : WELL
 COMP.                              Pioneer : COMPANY
 FLD.                      Purgatoire River : FIELD
 LOC.                    1567 FNL & 500 FEL : LOCATION
 DATE.                                  N/A : DATE(S) LOGGED
 SRVC.                                  N/A : SERVICE COMPANY
 STAT.                             Colorado : STATE
 CNTY.                           Las Animas : COUNTY
 CTRY.                                 USA  : COUNTRY
 API.                           05-071-08506 : API NUMBER
 STRT.FT                             201.00 : START DEPTH
 STOP.FT                            1673.00 : STOP DEPTH
 STEP.FT                               1.00 : DEPTH INCREMENT
 NULL.                                -9999 : NULL VALUE
~Curve information
 DEPTH.FT                                   :
 ROP.MIN/FT                                 :
 GAS.UNITS                                  :
~ASCII Log data
# ...
      1201.0         0.17         89.6 
      1202.0         0.22         91.7 
      1203.0         0.33         93.9 
      1204.0         0.23        109.5 
      1205.0         0.20        115.4 
      1206.0         0.27        114.7 
      1207.0         0.20        107.1 
      1208.0         0.20        100.4 
      1209.0         0.13         93.0 
      1210.0         0.13         89.0 
      1211.0         0.17         86.3 
      1212.0         0.07         82.1 
      1213.0         0.13         80.9 
      1214.0         0.20         78.8 
      1215.0         0.17         77.3 
      1216.0         0.20         76.7 
      1217.0         0.20         77.4 
      1218.0         0.23         85.6 
      1219.0         0.22        101.1 
      1220.0         0.20        112.7 
      1221.0         0.23        120.7 
      1222.0         6.20        420.2 
      1223.0         0.30        428.6 
      1224.0         0.57        346.1 
      1225.0         0.33        192.3 
      1226.0         0.23        175.2 
      1227.0         0.27        166.2 
      1228.0         0.27        145.6 
      1229.0         0.23        127.0 
      1230.0         0.23        129.0 
      1231.0         0.20        129.1 
      1232.0         0.10        128.1 
      1233.0         0.17        126.9 
      1234.0         0.13        123.5 
      1235.0         0.13        120.9 
      1236.0         0.22        118.3 
      1237.0         0.20        114.7 
      1238.0         0.27        112.5 
      1239.0         0.23        114.5 
      1240.0         0.17        114.8 
      1241.0         0.17        114.8 
      1242.0         0.13        113.6 
      1243.0         0.17        112.7 
      1244.0         0.20        109.9 
      1245.0         0.27        107.4 
      1246.0         0.30        104.9 
      1247.0         0.23        103.1 
      1248.0         0.20        101.7 
      1249.0         0.33        102.2 
      1250.0         0.20        102.3 
      1251.0         0.20        100.6 
      1252.0         5.03        425.2 
      1253.0         0.43        232.0 
      1254.0         0.57        161.2 
      1255.0         0.37        183.2 
      1256.0         0.68        182.1 
      1257.0         0.43        146.9 
      1258.0         0.30        136.3 
      1259.0         0.37        124.7 
      1260.0         0.30        121.2 
      1261.0         0.30        123.8 
      1262.0         0.30        124.1 
      1263.0         0.30        121.9 
      1264.0         0.27        116.1 
      1265.0         0.23        117.3 
      1266.0         0.25        118.3 
      1267.0         0.40        118.3 
      1268.0         0.33        116.1 
      1269.0         0.27        113.9 
      1270.0         0.37        112.1 
      1271.0         0.37        108.0 
      1272.0         0.23        104.7 
      1273.0         0.23        104.9 
      1274.0         0.23        105.1 
      1275.0         0.20        105.3 
      1276.0         0.20        105.9 
      1277.0         0.23        107.5 
      1278.0         0.22        108.6 
      1279.0         0.27        109.2 
      1280.0         0.17        109.5 
      1281.0         0.20        109.4 
      1282.0         4.78       1300.2 
      1283.0         0.37        911.0 
      1284.0         0.30        695.5 
      1285.0         0.27        588.9 
      1286.0         0.25        546.7 
      1287.0         0.30        575.6 
      1288.0         0.30        593.0 
      1289.0         0.30        593.3 
      1290.0         0.27        575.9 
      1291.0         0.30        560.7 
      1292.0         0.30        541.9 
      1293.0         0.27        526.7 
      1294.0         0.27        510.8 
      1295.0         0.30        502.3 
      1296.0         0.27        495.3 
      1297.0         0.23        487.3 
      1298.0         0.22        481.6 
      1299.0         0.23        479.7 
      1300.0         0.30        481.0 
      1301.0         0.27        475.9 
      1302.0         0.27        478.8 
      1303.0         0.27        504.5 
      1304.0         0.23        513.4 
      1305.0         0.43        514.3 
      1306.0         0.50        503.5 
      1307.0         0.47        495.3 
      1308.0         0.42        487.7 
      1309.0         0.40        473.4 
      1310.0         0.37        469.9 
      1311.0         0.33        468.9 
      1312.0        12.13       1461.4 
      1313.0         0.63        877.7 
      1314.0         0.53        629.2 
      1315.0         0.37        574.0 
      1316.0         0.37        533.4 
      1317.0         0.33        500.7 
      1318.0         0.37        482.3 
      1319.0         0.35        479.4 
      1320.0         0.30        474.6 
      1321.0         0.33        467.7 
      1322.0         0.23        456.2 
      1323.0         0.20        451.2 
      1324.0         0.20        448.0 
      1325.0         0.17        444.2 
      1326.0         0.17        446.1 
      1327.0         0.20        447.7 
      1328.0         0.17        449.6 
      1329.0         0.25        453.1 
      1330.0         0.27        470.5 
      1331.0         0.30        490.2 
      1332.0         0.27        498.1 
      1333.0         0.30        503.2 
      1334.0         0.33        502.6 
      1335.0         0.37        486.1 
      1336.0         0.40        468.3 
      1337.0         0.37        459.4 
      1338.0         0.37        444.2 
      1339.0         0.32        440.0 
      1340.0         0.33        106.5 
      1341.0         0.40        106.0 
      1342.0         4.95       1177.3 
      1343.0         0.50        762.5 
      1344.0         0.35        546.7 
      1345.0         0.30        490.8 
      1346.0         0.33        521.0 
      1347.0         0.23        536.2 
      1348.0         0.13        537.8 
      1349.0         0.27        536.5 
      1350.0         0.30        524.2 
      1351.0         0.23        505.4 
      1352.0         0.27        490.8 
      1353.0         0.30        483.2 
      1354.0         0.27        476.5 
      1355.0         0.32        468.3 
      1356.0         0.30        462.6 
      1357.0         0.30        457.2 
      1358.0         0.27        449.6 
      1359.0         0.13        445.4 
      1360.0         0.20        441.9 
      1361.0         0.27        440.0 
      1362.0         0.13        114.8 
      1363.0         0.13        115.2 
      1364.0         0.17        115.2 
      1365.0         0.20        114.9 
      1366.0         0.27        115.9 
      1367.0         0.17        115.9 
      1368.0         0.20        112.7 
      1369.0         0.20        111.4 
      1370.0         0.23        117.2 
      1371.0         0.22        121.1 
      1372.0         6.50       1403.6 
      1373.0         0.37       1014.8 
      1374.0         0.40        723.5 
      1375.0         0.33        594.3 
      1376.0         0.33        536.8 
      1377.0         0.33        529.5 
      1378.0         0.33        516.5 
      1379.0         0.27        502.6 
      1380.0         0.37        492.1 
      1381.0         0.33        476.2 
      1382.0         0.35        463.2 
      1383.0         0.33        455.0 
      1384.0         0.37        440.0 
      1385.0         0.33        119.6 
      1386.0         0.27        117.4 
      1387.0         0.27        115.5 
      1388.0         0.33        113.7 
      1389.0         0.37        111.5 
      1390.0         0.30        109.6 
      1391.0         0.17        109.0 
      1392.0         0.17        108.6 
      1393.0         0.23        108.2 
      1394.0         0.25        108.1 
      1395.0         0.27        107.9 
      1396.0         0.23        106.2 
      1397.0         0.20        104.8 
      1398.0         0.27        108.3 
      1399.0         0.30        110.4 
      1400.0         0.33        110.5 
