~Version Information
VERS.                      2.0: CWLS Log ASCII Standard - VERSION 2.0
WRAP.                       NO: One line per depth step
~Well Information Block
STRT.FT               340.0000: 
STOP.FT              2342.7000: 
STEP.FT                 0.1000: 
NULL.                -999.2500: 
COMP.          Pioneer Natural Resources: COMPANY
WELL.          Pinkerton 41-12: WELL
FLD.           Purgatoire River: FIELD
LOC.           1222' FNL & 670' FEL--: LOCATION
CNTY.               Las Animas: COUNTY
SRVC.                Patterson: SERVICE COMPANY
DATE.          Thu Mar 16 06:39:17 2006: LOG DATE
UWI.           05 071 08500 00: UNIQUE WELL ID
STAT.                 Colorado: STATE
~Curve Information Block
DEPT.FT            0 000 00 00: Depth
DCAL.in                       : CDL Caliper
RHOB.g/cc                     : CDL Bulk Density
RHOC.g/cc                     : CDL Density Correction
DPOR.pu                       : CDL Density Porosity
NPOR.pu                       : Neutron Porosity
GR.GAPI                       : Gamma Ray
~Parameter Information Block
~A  Depth       DCAL        RHOB        RHOC        DPOR        NPOR         GR     
# ...
  1261.6000      7.9125      2.5737      0.0397      4.6221     24.0390    125.5176
  1261.7000      7.9125      2.6029      0.0572      2.8556     23.7700    126.6899
  1261.8000      7.9084      2.6212      0.0780      1.7457     23.5958    127.3000
  1261.9000      7.9084      2.6182      0.0760      1.9259     23.5361    129.4088
  1262.0000      7.9046      2.5917      0.0698      3.5355     23.7307    131.8411
  1262.1000      7.9046      2.5624     -0.0282      5.3117     24.1012    132.1519
  1262.2000      7.9046      2.5544      0.0101      5.7917     24.3047    129.8792
  1262.3000      7.9045      2.5618      0.0198      5.3440     24.4187    125.9888
  1262.4000      7.9045      2.5754      0.0016      4.5216     24.8994    123.0757
  1262.5000      7.9123      2.5960      0.0440      3.2711     25.6251    123.0345
  1262.6000      7.9123      2.6090      0.0727      2.4874     25.9715    125.9112
  1262.7000      7.9123      2.6032      0.0119      2.8344     25.6883    131.9976
  1262.8000      7.9246      2.5943      0.0475      3.3755     25.1327    137.1066
  1262.9000      7.9246      2.5918      0.0338      3.5261     24.7958    137.6767
  1263.0000      7.9298      2.5872      0.0291      3.8074     24.9067    137.8782
  1263.1000      7.9298      2.5777      0.0216      4.3837     25.4829    140.7042
  1263.2000      7.9298      2.5762     -0.0362      4.4740     26.1119    142.8991
  1263.3000      7.9294      2.5850      0.0586      3.9418     26.2112    139.4475
  1263.4000      7.9294      2.5861      0.0446      3.8722     25.9711    133.9360
  1263.5000      7.9286      2.5785     -0.0014      4.3320     25.9365    132.5053
  1263.6000      7.9286      2.5734      0.0321      4.6422     26.1764    130.2471
  1263.7000      7.9286      2.5638      0.0259      5.2218     26.4892    123.8038
  1263.8000      7.9264      2.5406     -0.0208      6.6309     26.6847    119.6466
  1263.9000      7.9264      2.5115     -0.0043      8.3965     26.6750    120.3816
  1264.0000      7.9236      2.4886     -0.0739      9.7836     26.5338    123.0687
  1264.1000      7.9236      2.4806     -0.0176     10.2693     26.3104    126.8783
  1264.2000      7.9236      2.4917     -0.0169      9.5940     25.8140    133.2702
  1264.3000      7.9220      2.5196      0.0201      7.9021     25.0526    140.3154
  1264.4000      7.9220      2.5465      0.0713      6.2700     24.2739    141.5849
  1264.5000      7.9190      2.5512      0.0737      5.9863     23.5476    136.9546
  1264.6000      7.9190      2.5374      0.0477      6.8244     22.9988    132.7863
  1264.7000      7.9190      2.5167      0.0319      8.0764     22.7930    130.8866
  1264.8000      7.9109      2.4736      0.0237     10.6900     22.7953    128.3820
  1264.9000      7.9109      2.3837      0.0117     16.1368     22.8080    125.3443
  1265.0000      7.8997      2.2598     -0.0706     23.6510     22.6569    123.4828
  1265.1000      7.8997      2.1370     -0.1092     31.0901     21.9749    121.0661
  1265.2000      7.8997      2.0121     -0.0761     38.6634     20.4262    115.8568
  1265.3000      7.8894      1.8649     -0.1641     47.5798     18.1206    109.0698
  1265.4000      7.8894      1.7230     -0.2213     56.1809     15.4897    102.5471
  1265.5000      7.8890      1.6230     -0.1886     62.2452     12.9500     95.4572
  1265.6000      7.8890      1.5597     -0.1451     66.0785     10.7718     87.5139
  1265.7000      7.8890      1.5181     -0.0935     68.5985      8.8087     79.7386
  1265.8000      7.9035      1.5009     -0.1023     69.6420      6.8168     74.6118
  1265.9000      7.9035      1.5045      0.0577     69.4256      5.1416     73.2686
  1266.0000      7.9344      1.5088      0.0968     69.1639      4.1267     71.2580
  1266.1000      7.9344      1.5045      0.1057     69.4246      3.4120     65.8848
  1266.2000      7.9344      1.4978      0.1002     69.8315      2.6149     60.9374
  1266.3000      7.9744      1.4996      0.0897     69.7213      1.8701     59.8697
  1266.4000      7.9744      1.5152      0.1055     68.7753      1.2395     61.2823
  1266.5000      7.9925      1.5320      0.1246     67.7598      0.7674     62.2628
  1266.6000      7.9925      1.5339      0.0501     67.6407      0.6767     63.0453
  1266.7000      7.9925      1.5355     -0.0387     67.5427      0.8340     62.9512
  1266.8000      7.9795      1.5778     -0.0153     64.9830      0.9620     58.9269
  1266.9000      7.9795      1.6735      0.1463     59.1824      1.2665     53.7240
  1267.0000      7.9724      1.7830      0.2190     52.5430      1.9686     52.5818
  1267.1000      7.9724      1.8594      0.2488     47.9136      2.8392     55.1279
  1267.2000      7.9724      1.8900      0.2198     46.0595      3.8004     57.3278
  1267.3000      7.9806      1.8987      0.1778     45.5314      4.9018     57.4217
  1267.4000      7.9806      1.9215      0.1480     44.1536      5.9388     54.9092
  1267.5000      7.9606      1.9716      0.1939     41.1163      6.7387     50.1941
  1267.6000      7.9606      2.0428      0.1001     36.8004      7.3265     46.5320
  1267.7000      7.9606      2.1284      0.1194     31.6100      7.8276     46.5921
  1267.8000      7.9031      2.2093      0.1684     26.7090      8.3345     49.8162
  1267.9000      7.9031      2.2572      0.1301     23.8059      8.7708     54.0499
  1268.0000      7.8572      2.2620      0.1520     23.5171      9.0592     56.8507
  1268.1000      7.8572      2.2397      0.1430     24.8652      9.3133     56.2574
  1268.2000      7.8572      2.2133      0.1484     26.4680      9.6691     52.7160
  1268.3000      7.8430      2.1941      0.0651     27.6303     10.0096     47.6697
  1268.4000      7.8430      2.1822      0.0291     28.3491      9.9699     44.6186
  1268.5000      7.8476      2.1644      0.0079     29.4281      9.5002     47.9984
  1268.6000      7.8476      2.1297      0.0033     31.5353      9.0757     54.2595
  1268.7000      7.8476      2.0972     -0.0528     33.5026      9.0060     58.6609
  1268.8000      7.8606      2.1029     -0.0260     33.1568      9.2985     63.8301
  1268.9000      7.8606      2.1543      0.1087     30.0400      9.8678     69.5276
  1269.0000      7.8713      2.2312      0.1496     25.3813     10.6395     72.0199
  1269.1000      7.8713      2.3160      0.2015     20.2439     11.5789     73.2022
  1269.2000      7.8713      2.3949      0.1838     15.4628     12.7061     75.8758
  1269.3000      7.8822      2.4558      0.1716     11.7687     13.9832     78.9823
  1269.4000      7.8822      2.4910      0.1351      9.6351     15.1688     81.1150
  1269.5000      7.8967      2.4976      0.0817      9.2341     16.0784     82.7725
  1269.6000      7.8967      2.4868      0.0088      9.8931     16.7473     84.4660
  1269.7000      7.8967      2.4792     -0.0013     10.3493     17.4232     84.9077
  1269.8000      7.9105      2.4799      0.0365     10.3073     18.2631     86.3412
  1269.9000      7.9105      2.4840      0.0059     10.0599     19.0399     93.0863
  1270.0000      7.9196      2.4902      0.0369      9.6826     19.4574     99.5710
  1270.1000      7.9196      2.4900      0.0590      9.6998     19.5621     99.4255
  1270.2000      7.9196      2.4783      0.0253     10.4047     19.5516     97.0699
  1270.3000      7.9209      2.4611      0.0270     11.4467     19.3062     98.2129
  1270.4000      7.9209      2.4440      0.0309     12.4840     18.8749    102.9352
  1270.5000      7.9200      2.4333      0.0037     13.1328     18.8357    105.6187
  1270.6000      7.9200      2.4322      0.0513     13.2010     19.3236    105.0163
  1270.7000      7.9200      2.4399      0.0088     12.7308     19.7272    104.8904
  1270.8000      7.9362      2.4592      0.0467     11.5649     19.6383    105.1419
  1270.9000      7.9362      2.4795      0.1103     10.3342     19.2997    105.9597
  1271.0000      7.9625      2.4855      0.0915      9.9694     19.0504    107.3850
  1271.1000      7.9625      2.4841      0.0717     10.0539     19.1345    106.7980
