~Version Information
VERS.                      2.0: CWLS Log ASCII Standard - VERSION 2.0
WRAP.                       NO: One line per depth step
~Well Information Block
STRT.FT                -9.5000: 
STOP.FT              2305.7500: 
STEP.FT                 0.2500: 
NULL.                -999.2500: 
COMP.          Pioneer Natural Resources: COMPANY
WELL.          Fittipaldi 21-12: WELL
FLD.           Purgatorie River: FIELD
LOC.           207' FNL & 2110' FWL--: LOCATION
CNTY.               Las Animas: COUNTY
SRVC.          Patterson Wireline: SERVICE COMPANY
DATE.          Wed Apr 12 10:38:25 2006: LOG DATE
UWI.           05 071 08492 00: UNIQUE WELL ID
STAT.                       CO: STATE
~Curve Information Block
DEPT.FT            0 000 00 00: Depth
CCL.                          : Casing Collar Locator
TT3.usec                      : CBL 3' Travel Time
AMP3.mV                       : CBL 3' Amplitude
GR.GAPI                       : Gamma Ray
~Parameter Information Block
~A  Depth       CCL         TT3         AMP3         GR     
# ...
  1498.0000      0.0000    481.4198      2.5838    136.9547
  1498.2500      0.0000    494.4355      2.5450    137.2169
  1498.5000      0.0000    500.7477      2.4987    138.7929
  1498.7500      0.0000    500.1612      2.4582    142.1474
  1499.0000      0.0000    495.5941      2.4384    147.2012
  1499.2500      0.0000    490.2233      2.4420    152.9138
  1499.5000      0.0000    485.6194      2.4596    157.3904
  1499.7500      0.0000    482.4478      2.4798    158.4299
  1500.0000      0.0000    482.0357      2.4976    154.5475
  1500.2500      0.0000    486.2663      2.5129    146.0768
  1500.5000      0.0000    495.5483      2.5270    135.4373
  1500.7500      0.0000    506.8707      2.5410    126.0742
  1501.0000      0.0000    514.1605      2.5573    120.7347
  1501.2500      0.0000    511.6582      2.5805    120.3657
  1501.5000      0.0000    498.3340      2.6151    124.0045
  1501.7500      0.0000    479.3799      2.6637    129.1836
  1502.0000      0.0000    463.3697      2.7255    132.8633
  1502.2500      0.0000    457.7251      2.7944    132.9271
  1502.5000      0.0000    465.5806      2.8595    129.3677
  1502.7500      0.0000    484.8720      2.9099    124.1803
  1503.0000      0.0000    509.4932      2.9436    119.9070
  1503.2500      0.0000    531.9468      2.9701    117.8916
  1503.5000      0.0000    546.0101      3.0035    117.6800
  1503.7500      0.0000    548.4838      3.0516    117.8138
  1504.0000      0.0000    539.8562      3.1120    116.9644
  1504.2500      0.0000    523.8343      3.1766    114.6032
  1504.5000      0.0000    505.9833      3.2404    111.0784
  1504.7500      0.0000    491.7638      3.3051    107.1334
  1505.0000      0.0000    484.2201      3.3747    103.2617
  1505.2500      0.0000    482.9062      3.4479     99.5946
  1505.5000      0.0000    485.1845      3.5169     96.3518
  1505.7500      0.0000    488.3047      3.5712     94.0506
  1506.0000      0.0000    490.3535      3.6032     93.0870
  1506.2500      0.0000    490.3375      3.6101     93.1708
  1506.5000      0.0000    488.7353      3.5933     93.2971
  1506.7500      0.0000    488.6537      3.5570     92.3959
  1507.0000      0.0000    496.1119      3.5056     90.1831
  1507.2500      0.0000    517.4284      3.4425     87.5203
  1507.5000      0.0000    554.0021      3.3706     85.8752
  1507.7500      0.0000    599.1069      3.2938     86.2416
  1508.0000      0.0000    641.1359      3.2160     88.4873
  1508.2500      0.0000    670.9025      3.1418     91.7940
  1508.5000      0.0000    685.7072      3.0790     95.8667
  1508.7500      0.0000    687.5852      3.0403    101.8043
  1509.0000      0.0000    680.2110      3.0313    111.3547
  1509.2500      0.0000    668.4653      3.0349    124.5212
  1509.5000      0.0000    658.7056      3.0191    138.1197
  1509.7500      0.0000    656.0987      2.9735    147.7911
  1510.0000      0.0000    660.6045      2.9291    151.5598
  1510.2500      0.0000    667.0167      2.9274    150.7061
  1510.5000      0.0000    670.0358      2.9799    147.6790
  1510.7500     -2.0000    668.4921      3.0640    144.2643
  1511.0000      2.0000    663.8282      3.1488    141.2447
  1511.2500      0.0000    655.5256      3.2195    138.4099
  1511.5000      0.0000    639.9265      3.2797    134.8120
  1511.7500      0.0000    614.1541      3.3306    129.7810
  1512.0000      0.0000    580.2266      3.3494    123.8439
  1512.2500      0.0000    544.5093      3.3056    118.6770
  1512.5000      0.0000    513.5363      3.2068    116.4309
  1512.7500      0.0000    490.8015      3.1043    118.6097
  1513.0000      0.0000    476.7484      3.0393    124.5761
  1513.2500      0.0000    470.3950      3.0076    131.0341
  1513.5000      0.0000    470.4860      2.9840    134.0024
  1513.7500      0.0000    475.9386      2.9599    131.9297
  1514.0000      0.0000    486.4829      2.9466    126.5892
  1514.2500      0.0000    503.3039      2.9548    120.9432
  1514.5000      0.0000    527.9884      2.9810    116.7128
  1514.7500      0.0000    559.3665      3.0096    113.8682
  1515.0000      0.0000    591.2098      3.0232    111.5654
  1515.2500      0.0000    614.2050      3.0123    109.2110
  1515.5000      0.0000    621.7524      2.9771    106.9896
  1515.7500      0.0000    614.5219      2.9255    105.6920
  1516.0000      0.0000    598.7386      2.8696    106.0980
  1516.2500      0.0000    579.8990      2.8205    108.4666
  1516.5000      0.0000    560.5616      2.7835    112.3312
  1516.7500      0.0000    544.8394      2.7548    116.5856
  1517.0000      0.0000    539.3560      2.7295    120.1273
  1517.2500      0.0000    544.7668      2.7107    122.9482
  1517.5000      0.0000    549.7192      2.7091    126.3713
  1517.7500      0.0000    539.2653      2.7316    131.4331
  1518.0000      0.0000    509.3817      2.7734    137.1300
  1518.2500      0.0000    470.0366      2.8233    141.2426
  1518.5000      0.0000    434.8744      2.8730    142.7576
  1518.7500      0.0000    411.0317      2.9219    142.4082
  1519.0000      0.0000    397.8974      2.9771    141.0943
  1519.2500      0.0000    391.5327      3.0472    139.0294
  1519.5000      0.0000    388.4773      3.1314    136.5092
  1519.7500      0.0000    386.8537      3.2159    134.6820
  1520.0000      0.0000    385.9277      3.2837    135.2600
  1520.2500      0.0000    385.4275      3.3257    139.4541
  1520.5000      0.0000    385.1747      3.3420    146.8437
  1520.7500      0.0000    385.0029      3.3365    155.1468
  1521.0000      0.0000    384.7692      3.3114    161.4268
  1521.2500      0.0000    384.3945      3.2686    163.9263
  1521.5000      0.0000    383.8724      3.2139    162.9161
  1521.7500      0.0000    383.2369      3.1578    159.8945
  1522.0000      0.0000    382.5155      3.1120    156.1972
  1522.2500      0.0000    381.7148      3.0842    152.4442
  1522.5000      0.0000    380.8554      3.0765    148.8487
  1522.7500      0.0000    380.0367      3.0857    145.6187
  1523.0000      0.0000    379.5149      3.1073    143.1079
  1523.2500      0.0000    379.7974      3.1383    141.8413
  1523.5000      0.0000    381.6452      3.1787    142.3100
  1523.7500      0.0000    385.7390      3.2278    144.3749
  1524.0000      0.0000    392.0076      3.2830    146.9255
  1524.2500      0.0000    399.2532      3.3408    148.6054
  1524.5000      0.0000    405.7011      3.3986    148.9077
  1524.7500      0.0000    410.0398      3.4549    148.3676
  1525.0000      0.0000    411.8199      3.5070    147.8659
  1525.2500      0.0000    410.9741      3.5520    147.9897
  1525.5000      0.0000    407.4373      3.5883    148.8708
  1525.7500      0.0000    401.5520      3.6154    150.1938
  1526.0000      0.0000    394.5990      3.6321    151.1711
  1526.2500      0.0000    388.4027      3.6365    150.7487
  1526.5000      0.0000    384.2026      3.6291    148.4472
  1526.7500      0.0000    382.0291      3.6141    145.2430
  1527.0000      0.0000    381.1215      3.5986    143.2168
  1527.2500      0.0000    380.7523      3.5885    144.0894
  1527.5000      0.0000    380.7238      3.5855    148.1874
  1527.7500      0.0000    381.4799      3.5847    154.5220
  1528.0000      0.0000    384.0074      3.5777    161.2392
  1528.2500      0.0000    389.4836      3.5579    165.8445
  1528.5000      0.0000    398.5852      3.5257    165.6952
  1528.7500      0.0000    410.8232      3.4873    159.3342
  1529.0000      0.0000    424.5336      3.4508    147.9065
  1529.2500      0.0000    437.7073      3.4232    135.0296
  1529.5000      0.0000    449.0550      3.4082    124.6892
  1529.7500      0.0000    458.3003      3.4058    119.0059
  1530.0000      0.0000    465.3656      3.4115    117.6267
  1530.2500      0.0000    469.5536      3.4185    118.4912
  1530.5000      0.0000    470.1154      3.4207    119.1339
  1530.7500      0.0000    467.6613      3.4142    117.9718
  1531.0000      0.0000    464.5225      3.3987    114.9165
  1531.2500      0.0000    463.6828      3.3775    110.9805
