~Version Information
VERS.                      2.0: CWLS Log ASCII Standard - VERSION 2.0
WRAP.                       NO: One line per depth step
~Well Information Block
STRT.FT                -4.7500: 
STOP.FT              2723.2500: 
STEP.FT                 0.2500: 
NULL.                -999.2500: 
COMP.          Pioneer Natural Resources: COMPANY
WELL.           Dolzanie 34-12: WELL
FLD.           Purgatorie River: FIELD
LOC.           1001' FSL & 1750' FEL: LOCATION
PROV.                 Colorado: PROVINCE
CNTY.               Las Animas: COUNTRY
SRVC.                Patterson: SERVICE COMPANY
DATE.          Wed Jul 27 14:23:29 2005: LOG DATE
UWI.                          : UNIQUE WELL ID
~Curve Information Block
DEPT.FT            0 000 00 00: Depth
GR.GAPI                       : Gamma Ray
CCL.                          : Casing Collar Locator
TT3.usec                      : CBL 3' Travel Time
AMP3.mV                       : CBL 3' Amplitude
~Parameter Information Block
~A  Depth        GR         CCL         TT3         AMP3    
# ...
  2139.2500     84.9650      0.0000    690.1138      6.0288
  2139.5000     80.7444      0.0000    692.3610      6.0328
  2139.7500     76.3217      0.0000    696.6730      6.0587
  2140.0000     73.0527      0.0000    699.8380      6.0719
  2140.2500     72.3123      0.0000    701.6302      6.0887
  2140.5000     75.0231      0.0000    704.4887      6.1403
  2140.7500     81.2984      0.0000    711.2539      6.2169
  2141.0000     90.0036      0.0000    720.7961      6.2799
  2141.2500     98.7628      0.0000    725.8347      6.3169
  2141.5000    104.8597      0.0000    721.4527      6.3523
  2141.7500    106.5307      0.0000    712.4368      6.3948
  2142.0000    103.7780      0.0000    704.2477      6.4237
  2142.2500     98.2941      0.0000    691.6407      6.4380
  2142.5000     92.5179      0.0000    660.5870      6.4577
  2142.7500     88.3022      0.0000    607.3132      6.4659
  2143.0000     86.1031      0.0000    560.9561      6.4028
  2143.2500     85.2442      0.0000    563.2073      6.2338
  2143.5000     84.8185      0.0000    611.5233      5.9921
  2143.7500     84.3195      0.0000    655.8434      5.7413
  2144.0000     83.6387      0.0000    657.9278      5.5228
  2144.2500     82.7930      0.0000    627.9402      5.3481
  2144.5000     81.9358      0.0000    606.1926      5.2178
  2144.7500     81.4982      0.0000    616.0429      5.1425
  2145.0000     81.9473      0.0000    641.8983      5.1472
  2145.2500     83.2760      0.0000    661.2869      5.2398
  2145.5000     84.8788      0.0000    672.3582      5.3887
  2145.7500     86.0430      0.0000    681.1683      5.5373
  2146.0000     86.5430      0.0000    689.8585      5.6360
  2146.2500     86.7023      0.0000    702.4055      5.6716
  2146.5000     86.9659      0.0000    721.9736      5.6626
  2146.7500     87.5486      0.0000    742.5168      5.6265
  2147.0000     88.3512      0.0000    755.4839      5.5663
  2147.2500     89.0173      0.0000    761.0937      5.4836
  2147.5000     89.1805      0.0000    766.3480      5.3875
  2147.7500     88.7662      0.0000    774.4026      5.2905
  2148.0000     87.9064      0.0000    781.6370      5.2018
  2148.2500     86.5573      0.0000    782.9319      5.1297
  2148.5000     84.4333      0.0000    770.6788      5.0883
  2148.7500     81.4349      0.0000    729.9301      5.0927
  2149.0000     78.0502      0.0000    650.9296      5.1458
  2149.2500     75.2081      0.0000    552.8021      5.2329
  2149.5000     73.7166      0.0000    472.8400      5.3367
  2149.7500     73.6838      0.0000    427.9443      5.4527
  2150.0000     74.2388      0.0000    408.9877      5.5706
  2150.2500     73.9355      0.0000    404.2905      5.6577
  2150.5000     71.9119      0.0000    411.9955      5.6838
  2150.7500     68.8149      0.0000    435.1077      5.6482
  2151.0000     66.3494      0.0000    465.2883      5.5759
  2151.2500     65.8644      0.0000    477.3618      5.5051
  2151.5000     67.4530      0.0000    457.8168      5.4752
  2151.7500     70.1166      0.0000    425.1164      5.5143
  2152.0000     72.4413      0.0000    402.4016      5.6258
  2152.2500     73.3544      0.0000    393.0004      5.7830
  2152.5000     72.6615      0.0000    390.0515      5.9348
  2152.7500     70.9449      0.0000    389.1331      6.0254
  2153.0000     68.9113      0.0000    389.3467      6.0237
  2153.2500     66.9303      0.0000    392.2226      5.9320
  2153.5000     65.1731      0.0000    403.8575      5.7720
  2153.7500     64.0780      0.0000    435.9815      5.6034
  2154.0000     64.6266      0.0000    494.7513      5.5024
  2154.2500     67.9650      0.0000    565.4244      5.4043
  2154.5000     74.4560      0.0000    624.3043      5.1167
  2154.7500     83.1366      0.0000    664.6230      4.6619
  2155.0000     92.3447      0.0000    693.0292      4.3536
  2155.2500    100.8788      0.0000    711.8044      4.3789
  2155.5000    108.3727      0.0000    717.6272      4.5938
  2155.7500    114.6917      0.0000    708.8906      4.7983
  2156.0000    119.5155      2.0000    691.7997      4.9252
  2156.2500    122.9721      2.0000    681.6634      4.9468
  2156.5000    126.3690      0.0000    688.3010      4.8122
  2156.7500    131.4169      0.0000    702.7142      4.5417
  2157.0000    138.3977      0.0000    708.6031      4.2919
  2157.2500    145.5698      0.0000    701.6985      4.2701
  2157.5000    150.6378      0.0000    690.3706      4.6070
  2157.7500    152.4457      0.0000    680.1042      5.2732
  2158.0000    151.2144      0.0000    665.3896      6.0765
  2158.2500    147.7988      0.0000    644.6165      6.8240
  2158.5000    143.1992      0.0000    634.6716      7.4734
  2158.7500    138.6406      0.0000    649.3989      8.0504
  2159.0000    135.5247      0.0000    675.7759      8.5213
  2159.2500    134.7290      0.0000    694.0419      8.8400
  2159.5000    135.9103      0.0000    700.8236      9.0306
  2159.7500    137.7930      0.0000    702.1297      9.1394
  2160.0000    139.1630      0.0000    702.0630      9.1390
  2160.2500    139.4894      0.0000    701.6550      8.9402
  2160.5000    138.7352      0.0000    700.9373      8.5057
  2160.7500    137.0064      0.0000    700.2089      7.9196
  2161.0000    134.5774      0.0000    700.0846      7.3295
  2161.2500    131.9655      0.0000    698.4896      6.8372
  2161.5000    129.6707      0.0000    685.0536      6.4498
  2161.7500    127.7753      0.0000    647.8543      6.1329
  2162.0000    125.8357      0.0000    599.0379      5.8964
  2162.2500    123.1537      0.0000    577.2524      5.7870
  2162.5000    119.1667      0.0000    604.0594      5.8042
  2162.7500    113.7816      0.0000    657.0549      5.8785
  2163.0000    107.7074      0.0000    700.9938      5.9332
  2163.2500    102.6039      0.0000    725.2676      5.9422
  2163.5000    100.5358      0.0000    740.5309      5.9391
  2163.7500    102.8307      0.0000    754.7056      5.9649
  2164.0000    109.2837      0.0000    762.1762      6.0028
  2164.2500    118.2550      0.0000    755.8113      5.9882
  2164.5000    127.3250      0.0000    739.8738      5.8847
  2164.7500    134.2156      0.0000    723.6869      5.7379
  2165.0000    137.8203      0.0000    711.4872      5.6355
  2165.2500    138.6745      0.0000    703.7217      5.6250
  2165.5000    138.4149      0.0000    699.9629      5.7009
  2165.7500    138.5961      0.0000    698.5941      5.8300
  2166.0000    139.6382      0.0000    697.8637      5.9636
  2166.2500    140.6952      0.0000    697.1569      6.0649
  2166.5000    140.7513      0.0000    696.6091      6.1236
  2166.7500    140.0029      0.0000    696.5684      6.1460
  2167.0000    139.8758      0.0000    697.9936      6.1483
  2167.2500    141.4711      0.0000    702.7078      6.1430
  2167.5000    144.1894      0.0000    711.3089      6.1308
  2167.7500    146.1122      0.0000    719.4434      6.1032
  2168.0000    145.7356      0.0000    718.6265      6.0470
  2168.2500    143.3464      0.0000    704.8337      5.9639
  2168.5000    140.7894      0.0000    685.5411      5.8727
  2168.7500    139.9086      0.0000    673.1011      5.7836
  2169.0000    141.1199      0.0000    670.4686      5.6957
  2169.2500    143.2560      0.0000    668.9534      5.6178
  2169.5000    144.6763      0.0000    662.4923      5.5676
  2169.7500    144.6373      0.0000    657.6412      5.5504
  2170.0000    143.7580      0.0000    663.0511      5.5633
  2170.2500    143.0552      0.0000    676.5195      5.6058
  2170.5000    142.5712      0.0000    688.9678      5.6591
  2170.7500    141.3645      0.0000    695.2504      5.6766
  2171.0000    139.0648      0.0000    695.7885      5.6288
  2171.2500    137.0822      0.0000    691.9297      5.5431
  2171.5000    137.6780      0.0000    685.8093      5.4779
  2171.7500    141.6948      0.0000    682.6408      5.4707
  2172.0000    147.4248      0.0000    686.4207      5.5330
  2172.2500    151.7214      0.0000    695.3309      5.6701
  2172.5000    152.1423      0.0000    705.7114      5.8665
