~Version Information
 VERS.                                  2.0 : CWLS LAS VERSION
 WRAP.                                   NO : WRAPING MODE
 SWARE .                 MController 2.5.0N : SOFTWARE VERSION
~Well Information
 WELL.                     CORTINA 23-25 TR : WELL
 COMP.    PIONEER NATURAL RESOURCES USA INC : COMPANY
 FLD.                      PURGATOIRE RIVER : FIELD
 LOC.                NE/SW SEC 25 T32S R67W : LOCATION
 DATE.                             09/24/05 : DATE(S) LOGGED
 SRVC.       BLANCO GEOLOGICAL SERVICES LLC : SERVICE COMPANY
 STAT.                             COLORADO : STATE
 CNTY.                           LAS ANIMAS : COUNTY
 CTRY.                                  USA : COUNTRY
 API.                       05-071-08534-00 : API NUMBER
 STRT.FT                             388.00 : START DEPTH
 STOP.FT                            1890.00 : STOP DEPTH
 STEP.FT                               1.00 : DEPTH INCREMENT
 NULL.                                -9999 : NULL VALUE
~Curve information
 DEPTH.FT                                   :
 ROP.MIN/FT                                 :
 GAS.UNITS                                  :
~ASCII Log data
# ...
       788.0         0.30          2.5 
       789.0         0.23          2.2 
       790.0         0.33          2.0 
       791.0         0.23          2.1 
       792.0         0.20          2.6 
       793.0         0.20          2.6 
       794.0         0.20          2.6 
       795.0         0.20          2.6 
       796.0         0.23          2.2 
       797.0         1.25          2.8 
       798.0         5.18          2.6 
       799.0         0.43          2.1 
       800.0         0.20          2.6 
       801.0         0.20          2.1 
       802.0         0.20          2.5 
       803.0         0.22          1.7 
       804.0         0.27          2.2 
       805.0         0.27          1.9 
       806.0         0.07          1.7 
       807.0         0.23          2.2 
       808.0         0.27          2.1 
       809.0         0.23          1.9 
       810.0         0.23          1.3 
       811.0         0.20          1.8 
       812.0         0.17          1.4 
       813.0         0.17          1.5 
       814.0         0.17          2.0 
       815.0         0.17          1.4 
       816.0         0.20          1.8 
       817.0         0.17          1.8 
       818.0         0.20          1.8 
       819.0         0.17          1.7 
       820.0         0.25          1.7 
       821.0         0.20          2.3 
       822.0         0.27          1.8 
       823.0         0.17          1.3 
       824.0         0.13          1.3 
       825.0         0.53          2.1 
       826.0         0.27          1.4 
       827.0         1.27          2.3 
       828.0         2.22          2.4 
       829.0         0.20          2.0 
       830.0         0.20          1.5 
       831.0         0.20          1.4 
       832.0         0.20          1.4 
       833.0         0.20          1.4 
       834.0         0.23          1.8 
       835.0         0.22          1.8 
       836.0         0.27          1.9 
       837.0         0.17          1.5 
       838.0         0.20          1.5 
       839.0         0.20          1.9 
       840.0         0.20          1.9 
       841.0         0.20          1.7 
       842.0         0.23          2.2 
       843.0         0.20          2.2 
       844.0         0.23          2.3 
       845.0         0.17          1.3 
       846.0         0.13          1.3 
       847.0         0.10          2.0 
       848.0         0.43          1.5 
       849.0         0.27          2.1 
       850.0         0.30          2.2 
       851.0         0.28          1.9 
       852.0         0.27          1.6 
       853.0         0.27          1.2 
       854.0         0.27          1.6 
       855.0         0.53          2.4 
       856.0         0.53          2.3 
       857.0         1.07          2.4 
       858.0         2.28          2.6 
       859.0         0.37          1.7 
       860.0         0.33          1.7 
       861.0         0.30          2.0 
       862.0         0.20          2.0 
       863.0         0.12          1.9 
       864.0         0.17          1.2 
       865.0         0.17          1.2 
       866.0         0.17          2.0 
       867.0         0.20          1.1 
       868.0         0.23          2.1 
       869.0         0.20          1.6 
       870.0         0.17          1.6 
       871.0         0.23          1.4 
       872.0         0.30          1.0 
       873.0         0.20          1.6 
       874.0         0.20          0.8 
       875.0         0.20          1.5 
       876.0         0.20          0.8 
       877.0         0.20          0.8 
       878.0         0.17          1.2 
       879.0         0.20          1.2 
       880.0         0.18          0.8 
       881.0         0.20          1.3 
       882.0         0.23          0.9 
       883.0         0.23          1.2 
       884.0         0.43          1.2 
       885.0         0.37          1.4 
       886.0         0.47          1.4 
       887.0         1.18          1.5 
       888.0         2.23          1.3 
       889.0         0.27          0.8 
       890.0         0.17          0.5 
       891.0         0.23          0.7 
       892.0         0.17          0.7 
       893.0         0.17          0.3 
       894.0         0.12          0.3 
       895.0         0.13          0.9 
       896.0         0.13          0.9 
       897.0         0.13          1.3 
       898.0         0.13          1.3 
       899.0         0.20          1.0 
       900.0         0.17          0.9 
       901.0         0.17          1.7 
       902.0         0.13          1.1 
       903.0         0.57          1.9 
       904.0         0.50          1.7 
       905.0         0.33          1.7 
       906.0         0.33          1.1 
       907.0         0.42          1.4 
       908.0         0.23          0.4 
       909.0         0.23          1.2 
       910.0         0.20          1.2 
       911.0         0.23          0.7 
       912.0         0.13          0.7 
       913.0         0.17          1.0 
       914.0         0.13          1.0 
       915.0         0.13          1.4 
       916.0         0.13          1.6 
       917.0         1.37          1.8 
       918.0         3.87          1.8 
       919.0         0.53          1.6 
       920.0         0.27          1.6 
       921.0         0.53          1.7 
       922.0         0.27          0.7 
       923.0         0.27          1.1 
       924.0         0.17          1.5 
       925.0         0.20          1.5 
       926.0         0.17          1.4 
       927.0         0.30          1.7 
       928.0         0.27          1.2 
       929.0         0.25          1.7 
       930.0         0.30          1.2 
       931.0         0.23          1.2 
       932.0         0.30          1.5 
       933.0         0.20          1.5 
       934.0         0.30          1.6 
       935.0         0.37          1.6 
       936.0         0.30          1.3 
       937.0         0.33          1.6 
       938.0         0.33          1.3 
       939.0         0.27          1.3 
       940.0         0.27          0.7 
       941.0         0.25          0.3 
       942.0         0.27          0.6 
       943.0         0.33          0.4 
       944.0         0.33          0.0 
       945.0         0.27          0.3 
       946.0         0.27          0.2 
       947.0         1.20          0.8 
       948.0         2.62          1.2 
       949.0         0.83          1.2 
       950.0         0.38          1.3 
       951.0         0.23          0.3 
       952.0         0.37          1.0 
       953.0         0.23          0.6 
       954.0         0.23          1.3 
       955.0         0.40          1.3 
       956.0         0.13          1.3 
       957.0         0.10          1.1 
       958.0         0.13          0.4 
       959.0         0.30         15.2 
       960.0         0.20         67.3 
       961.0         0.20         52.4 
       962.0         0.23         12.9 
       963.0         0.23          5.1 
       964.0         0.22          0.3 
       965.0         0.13          0.3 
       966.0         0.23          1.2 
       967.0         0.27          1.3 
       968.0         0.30          1.1 
       969.0         0.27          1.1 
       970.0         0.30          1.9 
       971.0         0.27          2.4 
       972.0         0.27          1.6 
       973.0         0.27          0.1 
       974.0         0.67          2.5 
       975.0         0.27          2.6 
       976.0         0.28          2.5 
       977.0         1.57          3.8 
       978.0         2.12          4.0 
       979.0         0.23          3.9 
       980.0         0.27          3.3 
       981.0         0.27          3.7 
       982.0         0.27          3.9 
       983.0         0.23          4.0 
       984.0         0.27          3.4 
       985.0         0.27          3.9 
       986.0         0.23          3.8 
       987.0         0.23          3.6 
