~Version Information
VERS.                      2.0: CWLS Log ASCII Standard - VERSION 2.0
WRAP.                       NO: One line per depth step
~Well Information Block
STRT.FT               400.0000: 
STOP.FT              2232.0000: 
STEP.FT                 0.2500: 
NULL.                -999.2500: 
COMP.          Evergreen Operating Corporation: COMPANY
WELL.                Croc 42-9: WELL
FLD.           Purgatorie River: FIELD
LOC.           2262' FNL & 238' FEL: LOCATION
STAT.                 Colorado: State
CNTY.               Las Animas: COUNTY
CTRY. USA : Country
SECT. 9 : Section
TOWN. 32S : Township
RANG. 66W : Range
SRVC.                Patterson: SERVICE COMPANY
DATE.          Wed Jul 21 23:25:54 2004: LOG DATE
API.           05 071 08106 00: UNIQUE WELL ID
~Curve Information Block
DEPT.FT            0 000 00 00: Depth
SN.Ohm-m                      : IEL Short Normal
SP.mV                         : IEL Spontaneous Potential
DIR.Ohm-m                     : IEL Induction Resistivity
GR.GAPI                       : Gamma Ray
~Parameter Information Block
~A  Depth        SN          SP         DIR          GR     
# ...
  2209.0000     32.1797    151.5034     29.7825   -999.2500
  2209.2500     32.4437    151.4000     30.7687   -999.2500
  2209.5000     32.7318    151.2686     31.5850   -999.2500
  2209.7500     33.0501    151.1086     32.1944   -999.2500
  2210.0000     33.3958    150.9171     32.5926   -999.2500
  2210.2500     33.7443    150.6885     32.8070   -999.2500
  2210.5000     34.0597    150.4193     32.8972   -999.2500
  2210.7500     34.3296    150.1128     32.9421   -999.2500
  2211.0000     34.5572    149.7787     33.0126   -999.2500
  2211.2500     34.7344    149.4275     33.1423   -999.2500
  2211.5000     34.8601    149.0652     33.3206   -999.2500
  2211.7500     34.9445    148.6949     33.5087   -999.2500
  2212.0000     34.9794    148.3228     33.6651   -999.2500
  2212.2500     34.9415    147.9602     33.7630   -999.2500
  2212.5000     34.8208    147.6234     33.7869   -999.2500
  2212.7500     34.6188    147.3319     33.7198   -999.2500
  2213.0000     34.3365    147.1019     33.5263   -999.2500
  2213.2500     34.0016    146.9370     33.1505   -999.2500
  2213.5000     33.6792    146.8250     32.5447   -999.2500
  2213.7500     33.4099    146.7443     31.7278   -999.2500
  2214.0000     33.1816    146.6775     30.8235   -999.2500
  2214.2500     32.9787    146.6169     30.0267   -999.2500
  2214.5000     32.8017    146.5601     29.5111   -999.2500
  2214.7500     32.6696    146.5014     29.3477   -999.2500
  2215.0000     32.5968    146.4300     29.4762   -999.2500
  2215.2500     32.5359    146.3344     29.7342   -999.2500
  2215.5000     32.4293    146.2097     29.9186   -999.2500
  2215.7500     32.3008    146.0608     29.8569   -999.2500
  2216.0000     32.2059    145.9001     29.4672   -999.2500
  2216.2500     32.1586    145.7360     28.7918   -999.2500
  2216.5000     32.1461    145.5616     27.9847   -999.2500
  2216.7500     32.1568    145.3548     27.2434   -999.2500
  2217.0000     32.1747    145.0956     26.7194   -999.2500
  2217.2500     32.1747    144.7858     26.4644   -999.2500
  2217.5000     32.1558    144.4584     26.4338   -999.2500
  2217.7500     32.1341    144.1662     26.5372   -999.2500
  2218.0000     32.0988    143.9594     26.6973   -999.2500
  2218.2500     32.0370    143.8674     26.8862   -999.2500
  2218.5000     31.9515    143.8956     27.1199   -999.2500
  2218.7500     31.8502    144.0306     27.4286   -999.2500
  2219.0000     31.7653    144.2405     28.6269   -999.2500
  2219.2500     31.7344    144.4649     29.1283   -999.2500
  2219.5000     31.7581    144.6135     29.6630   -999.2500
  2219.7500     31.8478    144.5983     30.1629   -999.2500
  2220.0000     32.0728    144.3929     30.5432   -999.2500
  2220.2500     32.4776    144.0698     30.7046   -999.2500
  2220.5000     32.9946    143.7711     30.5452   -999.2500
  2220.7500     33.4894    143.6272     30.0005   -999.2500
  2221.0000     33.8357    143.6868     29.1145   -999.2500
  2221.2500     33.9369    143.9085     28.0873   -999.2500
  2221.5000     33.7165    144.2099     27.2691   -999.2500
  2221.7500     33.0859    144.5320     27.1346   -999.2500
  2222.0000     31.9690    144.8750     28.3438   -999.2500
  2222.2500     30.4473    145.2864     32.0545   -999.2500
  2222.5000     28.8443    145.8199     39.1347   -999.2500
  2222.7500     27.4905    146.4921     60.3229   -999.2500
  2223.0000     26.4490    147.2603    145.5442   -999.2500
  2223.2500     25.6494    148.0279 100000.0000   -999.2500
  2223.5000     25.1234    148.6787 100000.0000   -999.2500
  2223.7500     24.9468    149.1232 100000.0000   -999.2500
  2224.0000     25.1363    149.3295 100000.0000   -999.2500
  2224.2500     25.7046    149.3239 100000.0000   -999.2500
  2224.5000     26.6908    149.1683 100000.0000   -999.2500
  2224.7500     28.1007    148.9331 100000.0000   -999.2500
  2225.0000     29.8453    148.6698 100000.0000   -999.2500
  2225.2500     31.7165    148.3895 100000.0000   -999.2500
  2225.5000     33.4410    148.0609 100000.0000   -999.2500
  2225.7500     34.8062    147.6399 100000.0000   -999.2500
  2226.0000     35.7667    147.1159 100000.0000   -999.2500
  2226.2500     36.4347    146.5346 100000.0000   -999.2500
  2226.5000     36.9263    145.9744 100000.0000   -999.2500
  2226.7500     37.1755    145.4980 100000.0000   -999.2500
  2227.0000     36.9684    145.1132 100000.0000   -999.2500
  2227.2500     36.1919    144.6534 100000.0000   -999.2500
  2227.5000     34.9368    143.4473 100000.0000   -999.2500
  2227.7500     33.3169    139.7731 100000.0000   -999.2500
  2228.0000     31.2947    130.6944 100000.0000   -999.2500
  2228.2500     28.7020    113.3768 100000.0000   -999.2500
  2228.5000     25.1958     87.8717 100000.0000   -999.2500
  2228.7500     20.1369     58.7662 100000.0000   -999.2500
  2229.0000     13.2697     32.9727 100000.0000   -999.2500
  2229.2500      5.9718     15.1991 100000.0000   -999.2500
  2229.5000      0.5506      5.6699 100000.0000   -999.2500
  2229.7500     -2.1293      1.6931   9182.3115   -999.2500
  2230.0000     -2.9935      0.4011   2178.4131   -999.2500
  2230.2500     -3.1737      0.0743   1440.4399   -999.2500
  2230.5000     -3.1979      0.0099   1206.7501   -999.2500
  2230.7500   -999.2500   -999.2500   1118.4205   -999.2500
  2231.0000   -999.2500   -999.2500   1085.4683   -999.2500
  2231.2500   -999.2500   -999.2500   1074.2794   -999.2500
  2231.5000   -999.2500   -999.2500   1070.9586   -999.2500
  2231.7500   -999.2500   -999.2500   1070.1088   -999.2500
  2232.0000   -999.2500   -999.2500 100000.0000   -999.2500
