~Version Information
VERS.                      2.0: CWLS Log ASCII Standard - VERSION 2.0
WRAP.                       NO: One line per depth step
~Well Information Block
STRT.FT               305.0000: 
STOP.FT              1376.5000: 
STEP.FT                 0.1000: 
NULL.                -999.2500: 
COMP.          Pioneer Natural Resources: COMPANY
WELL.               LPGC 32-32: WELL
FLD.           Purgatoire River: FIELD
LOC.           1937' FNL & 1661' FEL: LOCATION
PROV.                 Colorado: PROVINCE
CNTY.               Las Animas: COUNTRY
SRVC.                Patterson: SERVICE COMPANY
DATE.          Mon Jan 30 07:33:36 2006: LOG DATE
UWI.           05 071 08641 00: UNIQUE WELL ID
~Curve Information Block
DEPT.FT            0 000 00 00: Depth
DCAL.in                       : CDL Caliper
RHOB.g/cc                     : CDL Bulk Density
RHOC.g/cc                     : CDL Density Correction
DPOR.pu                       : CDL Density Porosity
GR.GAPI                       : Gamma Ray
NPOR.pu                       : Neutron Porosity
~Parameter Information Block
~A  Depth       DCAL        RHOB        RHOC        DPOR         GR         NPOR    
# ...
  1217.0000      7.8849      2.2470     -0.0288     24.4240     91.7034     31.3855
  1217.1000      7.8849      2.1188      0.0031     32.1939     87.4147     31.8397
  1217.2000      7.8849      1.9527     -0.0445     42.2614     88.2491     32.8269
  1217.3000      7.9007      1.7668     -0.1581     53.5300     92.0985     33.2751
  1217.4000      7.9007      1.6149     -0.1973     62.7357     91.3894     32.8483
  1217.5000      7.9120      1.5032     -0.1396     69.5051     81.2409     32.4139
  1217.6000      7.9120      1.4082     -0.1283     75.2590     64.7557     32.3923
  1217.7000      7.9120      1.3394     -0.1339     79.4315     50.8442     32.4270
  1217.8000      7.9293      1.3149     -0.0995     80.9160     42.0376     32.4450
  1217.9000      7.9293      1.3211      0.0304     80.5402     35.9447     32.7242
  1218.0000      8.0158      1.3292      0.0675     80.0489     32.5657     33.3408
  1218.1000      8.0158      1.3275      0.0585     80.1509     32.9900     34.0491
  1218.2000      8.0158      1.3218      0.0470     80.4978     36.9701     34.3434
  1218.3000      8.0856      1.3264      0.0606     80.2153     39.6008     34.1400
  1218.4000      8.0856      1.3691      0.0034     77.6296     37.6093     33.8428
  1218.5000      8.0282      1.4697      0.0735     71.5338     35.0469     33.7905
  1218.6000      8.0282      1.6035      0.1445     63.4246     35.1720     34.2102
  1218.7000      8.0282      1.7325      0.1828     55.6083     36.9930     34.6869
  1218.8000      7.9834      1.8527      0.1783     48.3200     39.9861     34.7192
  1218.9000      7.9834      1.9749      0.2276     40.9129     44.4897     34.1787
  1219.0000      8.0092      2.0975      0.2406     33.4836     50.8326     33.3084
  1219.1000      8.0092      2.2122      0.2904     26.5336     58.4351     32.7154
  1219.2000      8.0092      2.3130      0.2459     20.4241     65.0191     32.5213
  1219.3000      8.0196      2.3986      0.2249     15.2365     69.3197     32.1020
  1219.4000      8.0196      2.4584      0.1884     11.6122     73.9004     31.3641
  1219.5000      8.0382      2.4802      0.0900     10.2916     79.9611     30.8885
  1219.6000      8.0382      2.4736      0.0978     10.6909     84.9893     30.5986
  1219.7000      8.0382      2.4625      0.0469     11.3635     89.5376     30.0780
  1219.8000      7.9504      2.4681      0.0090     11.0217     92.4765     29.7208
  1219.9000      7.9504      2.4881      0.0806      9.8151     92.7707     30.1103
  1220.0000      7.9068      2.4941      0.1086      9.4459     92.1259     30.4435
  1220.1000      7.9068      2.4790      0.0363     10.3662     91.3156     29.6986
  1220.2000      7.9068      2.4687      0.0526     10.9863     90.5140     28.4646
  1220.3000      7.8979      2.4779      0.0696     10.4284     89.0634     27.7561
  1220.4000      7.8979      2.5006      0.0360      9.0539     86.7170     27.6082
  1220.5000      7.9009      2.5237      0.1095      7.6560     84.3932     27.7621
  1220.6000      7.9009      2.5294      0.0676      7.3069     85.6471     28.0922
  1220.7000      7.9009      2.5137      0.0149      8.2587     92.6098     28.3660
  1220.8000      7.8961      2.4861      0.0350      9.9340    101.3939     28.5349
  1220.9000      7.8961      2.4612      0.0182     11.4432    107.2103     28.8390
  1221.0000      7.8952      2.4550      0.0127     11.8190    109.8142     29.4896
  1221.1000      7.8952      2.4694      0.0704     10.9437    111.4966     30.1504
  1221.2000      7.8952      2.4882      0.0568      9.8036    113.7089     30.3755
  1221.3000      7.9007      2.4894      0.1000      9.7307    114.2868     30.4964
  1221.4000      7.9007      2.4637      0.0148     11.2930    116.7190     31.0816
  1221.5000      7.9010      2.4292     -0.0272     13.3805    128.3939     32.0114
  1221.6000      7.9010      2.4116     -0.0089     14.4461    140.7809     32.6437
  1221.7000      7.9010      2.4150      0.0178     14.2432    138.5488     32.4266
  1221.8000      7.9073      2.4286      0.0226     13.4209    124.7526     31.4119
  1221.9000      7.9073      2.4423      0.0245     12.5904    113.7368     30.5636
  1222.0000      7.9103      2.4468      0.0497     12.3149    108.1265     30.5731
  1222.1000      7.9103      2.4403      0.0258     12.7088    101.9518     30.9947
  1222.2000      7.9103      2.4176      0.0562     14.0824     95.2516     31.3461
  1222.3000      7.9093      2.3504      0.0840     18.1548     91.0220     31.5976
  1222.4000      7.9093      2.2225      0.0210     25.9099     87.5541     31.7880
  1222.5000      7.9067      2.0691     -0.0721     35.2069     83.4632     31.8685
  1222.6000      7.9067      1.9286     -0.0722     43.7191     78.1306     31.8358
  1222.7000      7.9067      1.8067     -0.1242     51.1117     74.0081     31.5432
  1222.8000      7.9361      1.7060     -0.1664     57.2113     75.2526     30.8147
  1222.9000      7.9361      1.6301     -0.1283     61.8137     77.2212     30.2799
  1223.0000      7.9402      1.5805     -0.0832     64.8184     73.3930     30.5390
  1223.1000      7.9402      1.5755     -0.0332     65.1182     66.5832     31.3795
  1223.2000      7.9402      1.6354      0.0194     61.4923     64.0674     32.1326
  1223.3000      7.9767      1.7494      0.1475     54.5806     65.2472     32.0802
  1223.4000      7.9767      1.8802      0.2012     46.6563     65.0931     31.4019
  1223.5000      8.1768      2.0037      0.2060     39.1680     63.6119     30.8409
  1223.6000      8.1768      2.1233      0.2164     31.9189     63.7150     30.7988
  1223.7000      8.1768      2.2402      0.2275     24.8367     65.0112     30.8022
  1223.8000      8.3451      2.3496      0.2058     18.2085     65.2962     30.3361
  1223.9000      8.3451      2.4458      0.1600     12.3776     67.0019     30.0718
  1224.0000      8.3451      2.5138      0.1268      8.2555     73.1563     30.1312
  1224.1000      8.3451      2.5518      0.0813      5.9530     79.6626     29.5230
  1224.2000      8.3451      2.5739      0.1042      4.6097     79.6154     28.2481
  1224.3000      8.0553      2.5839      0.0616      4.0058     72.9704     26.8817
  1224.4000      8.0553      2.5811      0.0607      4.1754     64.2917     25.4671
  1224.5000      7.9187      2.5732      0.0199      4.6541     57.3663     24.5514
  1224.6000      7.9187      2.5674      0.0593      5.0060     53.9589     24.8706
  1224.7000      7.9187      2.5665      0.0167      5.0611     54.7195     26.0042
  1224.8000      7.9153      2.5713      0.0507      4.7670     58.7328     26.9910
  1224.9000      7.9153      2.5654      0.0636      5.1303     62.4731     27.5661
  1225.0000      7.9018      2.5336      0.0399      7.0516     65.1580     27.8259
  1225.1000      7.9018      2.5021     -0.0466      8.9651     70.2678     27.6428
  1225.2000      7.9018      2.5025      0.0533      8.9406     76.8078     27.2091
  1225.3000      7.9022      2.5243      0.0702      7.6198     82.6092     27.0491
  1225.4000      7.9022      2.5439      0.0827      6.4297     88.6846     27.4226
  1225.5000      7.9038      2.5526      0.1140      5.9031     93.2629     28.1058
  1225.6000      7.9038      2.5533      0.0882      5.8631     96.1534     28.5933
  1225.7000      7.9038      2.5601      0.1128      5.4493     99.1816     28.8072
  1225.8000      7.8927      2.5797      0.1324      4.2601    101.5230     29.3576
  1225.9000      7.8927      2.5950      0.1689      3.3348    103.5457     30.4263
  1226.0000      7.8559      2.5933      0.1118      3.4369    107.9027     31.2109
  1226.1000      7.8559      2.5920      0.0943      3.5136    112.8146     30.9647
  1226.2000      7.8559      2.6102      0.1267      2.4111    112.9937     29.8831
  1226.3000      7.8478      2.6445      0.0598      0.3311    107.5669     29.4063
  1226.4000      7.8478      2.6722      0.0547     -1.3461     99.9644     30.3914
  1226.5000      7.8480      2.6602      0.0892     -0.6171     93.3220     31.6357
