~Version Information
VERS.                      2.0: CWLS Log ASCII Standard - VERSION 2.0
WRAP.                       NO: One line per depth step
~Well Information Block
STRT.FT                -0.5000: 
STOP.FT              1417.0000: 
STEP.FT                 0.2500: 
NULL.                -999.2500: 
COMP.          Pioneer Natural Resources: COMPANY
WELL.              Darren 11-7: WELL
FLD.           Purgatoire River: FIELD
LOC.           230' FNL & 596' FWL: LOCATION
CNTY.               Las Animas: COUNTY
SRVC.                Patterson: SERVICE COMPANY
DATE.          Thu Mar 30 10:43:52 2006: LOG DATE
UWI.           05 071 08720 00: UNIQUE WELL ID
STAT.                 Colorado: STATE
~Curve Information Block
DEPT.FT            0 000 00 00: Depth
GR.GAPI                       : Gamma Ray
CCL.                          : Casing Collar Locator
TT3.usec                      : CBL 3' Travel Time
AMP3.mV                       : CBL 3' Amplitude
~Parameter Information Block
~A  Depth        GR         CCL         TT3         AMP3    
# ...
  1004.5000    115.4680      0.0000    715.1808      5.0668
  1004.7500    118.0687      0.0000    709.9841      4.9834
  1005.0000    119.9851      0.0000    696.6245      4.8820
  1005.2500    120.7491      0.0000    671.1768      4.7848
  1005.5000    119.9732      0.0000    634.6699      4.7095
  1005.7500    117.9074      0.0000    595.1097      4.6623
  1006.0000    115.5454      0.0000    563.8176      4.6354
  1006.2500    113.9961      0.0000    549.1766      4.6121
  1006.5000    113.7556      0.0000    553.3070      4.5803
  1006.7500    114.3842      0.0000    573.2466      4.5387
  1007.0000    114.7595      0.0000    603.6625      4.4912
  1007.2500    113.9685      0.0000    638.2567      4.4376
  1007.5000    112.2286      0.0000    670.1734      4.3731
  1007.7500    110.7617      0.0000    693.3880      4.2966
  1008.0000    110.6340      0.0000    705.0491      4.2160
  1008.2500    111.8550      0.0000    706.1985      4.1470
  1008.5000    113.5426      0.0000    699.9861      4.1040
  1008.7500    114.6345      0.0000    689.7138      4.0902
  1009.0000    114.4150      0.0000    678.3571      4.0950
  1009.2500    112.7061      0.0000    668.4473      4.1033
  1009.5000    109.8588      0.0000    661.3713      4.1062
  1009.7500    106.6871      0.0000    656.9066      4.1032
  1010.0000    104.3133      0.0000    653.6180      4.0974
  1010.2500    103.6746      0.0000    649.6690      4.0916
  1010.5000    104.8296      0.0000    643.7061      4.0891
  1010.7500    106.8434      0.0000    635.8506      4.0950
  1011.0000    108.6153      0.0000    628.0626      4.1148
  1011.2500    109.7302      0.0000    622.9024      4.1516
  1011.5000    110.3558      0.0000    621.3564      4.2036
  1011.7500    110.5320      0.0000    621.9354      4.2639
  1012.0000    109.9127      0.0000    621.9437      4.3238
  1012.2500    108.3366      0.0000    619.4179      4.3778
  1012.5000    106.4572      0.0000    613.9228      4.4240
  1012.7500    105.3469      0.0000    605.9831      4.4577
  1013.0000    105.2752      0.0000    596.2313      4.4655
  1013.2500    105.3279      0.0000    585.4113      4.4299
  1013.5000    104.6215      0.0000    574.9889      4.3492
  1013.7500    103.5184      0.0000    567.0267      4.2590
  1014.0000    103.2058      0.0000    562.7639      4.2236
  1014.2500    104.4181      0.0000    561.0645      4.2844
  1014.5000    106.9098      0.0000    558.4463      4.4142
  1014.7500    109.7774      0.0000    551.6071      4.5425
  1015.0000    111.9697      0.0000    540.9503      4.6211
  1015.2500    112.6765      0.0000    531.7533      4.6467
  1015.5000    111.4597      0.0000    531.5238      4.6347
  1015.7500    108.2774      3.0000    545.7008      4.6005
  1016.0000    103.6470      0.0000    574.4464      4.5631
  1016.2500     98.4942      0.0000    612.1423      4.5509
  1016.5000     93.4739      0.0000    650.2913      4.5939
  1016.7500     88.6483      0.0000    681.8765      4.7016
  1017.0000     83.9200      0.0000    703.5334      4.8358
  1017.2500     79.3990      0.0000    714.8188      4.9184
  1017.5000     75.3771      0.0000    716.8344      4.8924
  1017.7500     72.2637      0.0000    711.5463      4.7716
  1018.0000     70.2660      0.0000    701.4634      4.6180
  1018.2500     68.7861      0.0000    689.4797      4.4823
  1018.5000     66.5085      0.0000    678.8549      4.3781
  1018.7500     62.4836      0.0000    672.6225      4.2950
  1019.0000     56.9628      0.0000    672.0457      4.2205
  1019.2500     51.0927      0.0000    675.4009      4.1534
  1019.5000     46.0701      0.0000    678.8390      4.1043
  1019.7500     42.6598      0.0000    679.1461      4.0885
  1020.0000     41.1690      0.0000    676.0782      4.1149
  1020.2500     41.4867      0.0000    672.4930      4.1767
  1020.5000     43.2205      0.0000    672.6306      4.2519
  1020.7500     46.2952      0.0000    679.6147      4.3160
  1021.0000     51.5569      0.0000    693.1480      4.3572
  1021.2500     60.2559      0.0000    708.9974      4.3828
  1021.5000     72.5520      0.0000    721.3394      4.4099
  1021.7500     86.7229      0.0000    726.2578      4.4513
  1022.0000    100.0498      0.0000    723.2308      4.5055
  1022.2500    110.4799      0.0000    714.2352      4.5562
  1022.5000    117.4949      0.0000    702.7542      4.5837
  1022.7500    121.6455      0.0000    693.2602      4.5793
  1023.0000    123.5849      0.0000    689.7469      4.5496
  1023.2500    123.6773      0.0000    693.4659      4.5081
  1023.5000    122.2095      0.0000    701.9821      4.4646
  1023.7500    119.4902      0.0000    710.6959      4.4229
  1024.0000    115.6807      0.0000    715.8425      4.3868
  1024.2500    110.8562      0.0000    716.5240      4.3623
  1024.5000    105.3622      0.0000    713.9581      4.3530
  1024.7500     99.9608      0.0000    709.4009      4.3552
  1025.0000     95.5674      0.0000    703.3986      4.3612
  1025.2500     92.8012      0.0000    696.0482      4.3654
  1025.5000     91.6700      0.0000    686.8836      4.3678
  1025.7500     91.7278      0.0000    674.9063      4.3717
  1026.0000     92.6589      0.0000    659.0581      4.3804
  1026.2500     94.5859      0.0000    638.8229      4.3932
  1026.5000     97.5900      0.0000    615.9870      4.4060
  1026.7500    101.0553      0.0000    596.8215      4.4158
  1027.0000    103.8414      0.0000    589.9744      4.4250
  1027.2500    105.0255      0.0000    599.5241      4.4395
  1027.5000    104.2145      0.0000    620.6841      4.4638
  1027.7500    101.4043      0.0000    643.3046      4.4959
  1028.0000     96.9603      0.0000    659.3599      4.5265
  1028.2500     91.6675      0.0000    667.6147      4.5462
  1028.5000     86.5637      0.0000    672.5656      4.5524
  1028.7500     82.6271      0.0000    679.7537      4.5502
  1029.0000     80.3837      0.0000    691.6212      4.5462
  1029.2500     79.6105      0.0000    706.2665      4.5444
  1029.5000     79.5483      0.0000    719.1235      4.5465
  1029.7500     79.5271      0.0000    726.5609      4.5508
  1030.0000     79.3850      0.0000    728.9395      4.5517
  1030.2500     79.4933      0.0000    729.9762      4.5442
  1030.5000     80.5326      0.0000    732.8238      4.5302
  1030.7500     83.0303      0.0000    737.1847      4.5187
  1031.0000     86.7807      0.0000    740.2672      4.5200
  1031.2500     90.7102      0.0000    739.8771      4.5411
  1031.5000     93.6550      0.0000    736.0408      4.5839
  1031.7500     95.3734      0.0000    729.2780      4.6443
  1032.0000     96.5622      0.0000    717.5774      4.7140
  1032.2500     98.0080      0.0000    696.7227      4.7838
  1032.5000    100.1520      0.0000    665.5352      4.8453
  1032.7500    103.2452      0.0000    630.0824      4.8926
  1033.0000    107.2111      0.0000    600.0341      4.9236
  1033.2500    111.3698      0.0000    580.3139      4.9408
  1033.5000    114.8112      0.0000    568.4333      4.9479
  1033.7500    117.0710      0.0000    560.4865      4.9467
  1034.0000    118.3039      0.0000    557.3463      4.9360
  1034.2500    119.0500      0.0000    563.7342      4.9142
  1034.5000    120.0668      0.0000    582.7941      4.8816
  1034.7500    122.0879      0.0000    612.6336      4.8405
  1035.0000    125.1848      0.0000    646.8640      4.7951
  1035.2500    128.2429      0.0000    677.0060      4.7491
  1035.5000    129.4720      0.0000    695.3739      4.7046
  1035.7500    127.8028      0.0000    698.5016      4.6650
  1036.0000    123.8520      0.0000    689.1726      4.6370
  1036.2500    119.5632      0.0000    673.9082      4.6270
  1036.5000    116.9262      0.0000    657.4129      4.6355
  1036.7500    116.8049      0.0000    639.8480      4.6570
  1037.0000    118.5936      0.0000    619.7947      4.6848
  1037.2500    120.9357      0.0000    599.5946      4.7123
  1037.5000    123.0558      0.0000    587.1881      4.7324
  1037.7500    125.4117      0.0000    591.4888      4.7417
