~Version Information
VERS.                      2.0: CWLS Log ASCII Standard - VERSION 2.0
WRAP.                       NO: One line per depth step
~Well Information Block
STRT.FT               245.0000: 
STOP.FT              1208.2500: 
STEP.FT                 0.2500: 
NULL.                -999.2500: 
COMP.          Pioneer Natural Resources: COMPANY
WELL.              Davida 34-8: WELL
FLD.           Purgatoire River: FIELD
LOC.           418' FSL & 1923' FEL--: LOCATION
CNTY.               Las Animas: COUNTY
SRVC.                Patterson: SERVICE COMPANY
DATE.          Sat Mar 18 07:00:13 2006: LOG DATE
UWI.           05 071 08722 00: UNIQUE WELL ID
STAT.                 Colorado: STATE
~Curve Information Block
DEPT.FT            0 000 00 00: Depth
GR.GAPI                       : Gamma Ray
DIR.Ohm-m                     : IEL Induction Resistivity
~Parameter Information Block
~A  Depth        GR         DIR     
# ...
   858.2500     94.9424     24.0832
   858.5000    101.6861     24.1170
   858.7500    107.9812     23.8968
   859.0000    116.9854     23.4561
   859.2500    121.5914     22.8539
   859.5000    126.3428     22.1548
   859.7500    128.5567     21.4082
   860.0000    130.9315     20.6340
   860.2500    131.7238     19.8190
   860.5000    131.3274     18.9332
   860.7500    130.2392     17.9566
   861.0000    128.5490     16.9021
   861.2500    128.0084     15.8158
   861.5000    128.6853     14.7558
   861.7500    130.4707     13.7685
   862.0000    135.6682     12.8762
   862.2500    140.4789     12.0801
   862.5000    147.4824     11.3718
   862.7500    150.4953     10.7431
   863.0000    151.7327     10.1907
   863.2500    151.1478      9.7135
   863.5000    149.8120      9.3093
   863.7500    148.9118      8.9726
   864.0000    147.2040      8.6953
   864.2500    145.6563      8.4684
   864.5000    142.6916      8.2826
   864.7500    140.3893      8.1292
   865.0000    137.2014      8.0011
   865.2500    136.0618      7.8932
   865.5000    136.8317      7.8020
   865.7500    138.7289      7.7250
   866.0000    141.9206      7.6589
   866.2500    143.3647      7.6007
   866.5000    144.2475      7.5483
   866.7500    144.3537      7.5035
   867.0000    144.1322      7.4733
   867.2500    143.6178      7.4702
   867.5000    142.2274      7.5091
   867.7500    141.2088      7.6022
   868.0000    140.5559      7.7550
   868.2500    141.2378      7.9635
   868.5000    143.9159      8.2149
   868.7500    146.0705      8.4922
   869.0000    148.3368      8.7822
   869.2500    148.9865      9.0816
   869.5000    149.6533      9.3981
   869.7500    150.4910      9.7468
   870.0000    152.0755     10.1449
   870.2500    152.5368     10.6109
   870.5000    150.9861     11.1640
   870.7500    148.1490     11.8244
   871.0000    141.3988     12.6079
   871.2500    135.5252     13.5157
   871.5000    125.2795     14.5212
   871.7500    118.0642     15.5593
   872.0000    108.1280     16.5249
   872.2500    102.9217     17.2875
   872.5000     97.9322     17.7247
   872.7500     96.5653     17.7666
   873.0000     97.7535     17.4256
   873.2500    101.0018     16.7872
   873.5000    109.3903     15.9703
   873.7500    116.4242     15.0885
   874.0000    126.6696     14.2329
   874.2500    132.0873     13.4704
   874.5000    137.4424     12.8447
   874.7500    139.4586     12.3739
   875.0000    140.9530     12.0473
   875.2500    141.3903     11.8294
   875.5000    142.1636     11.6752
   875.7500    143.2626     11.5541
   876.0000    145.8114     11.4646
   876.2500    147.6241     11.4272
   876.5000    149.8626     11.4626
   876.7500    151.0974     11.5744
   877.0000    152.7584     11.7478
   877.2500    153.5224     11.9596
   877.5000    153.6679     12.1904
   877.7500    153.1749     12.4313
   878.0000    152.2153     12.6845
   878.2500    151.7659     12.9599
   878.5000    151.5660     13.2722
   878.7500    151.6095     13.6370
   879.0000    151.1286     14.0652
   879.2500    149.8182     14.5555
   879.5000    146.1847     15.0894
   879.7500    143.4128     15.6321
   880.0000    140.4226     16.1417
   880.2500    139.5680     16.5845
   880.5000    139.2650     16.9465
   880.7500    138.8996     17.2344
   881.0000    136.6573     17.4666
   881.2500    133.4869     17.6640
   881.5000    126.6407     17.8457
   881.7500    121.8237     18.0263
   882.0000    116.6041     18.2120
   882.2500    115.2806     18.3961
   882.5000    116.3268     18.5584
   882.7500    118.2220     18.6732
   883.0000    121.1329     18.7205
   883.2500    122.3909     18.6966
   883.5000    122.9764     18.6182
   883.7500    122.7975     18.5193
   884.0000    122.3818     18.4436
   884.2500    122.2577     18.4376
   884.5000    122.2128     18.5445
   884.7500    121.8876     18.7977
   885.0000    119.9284     19.2122
   885.2500    117.0816     19.7738
   885.5000    110.0248     20.4326
   885.7500    103.5896     21.1111
   886.0000     92.4425     21.7285
   886.2500     85.2342     22.2322
   886.5000     77.2462     22.6144
   886.7500     74.8145     22.9004
   887.0000     75.6030     23.1188
   887.2500     78.3654     23.2722
   887.5000     84.3304     23.3293
   887.7500     88.9025     23.2473
   888.0000     96.1510     23.0140
   888.2500    100.9769     22.6755
   888.5000    107.3267     22.3222
   888.7500    110.3809     22.0460
   889.0000    112.8090     21.9046
   889.2500    113.2341     21.9137
   889.5000    112.7137     22.0601
   889.7500    111.8563     22.3169
   890.0000    110.4351     22.6510
   890.2500    110.0507     23.0247
   890.5000    111.1655     23.4019
   890.7500    112.7354     23.7558
   891.0000    114.6941     24.0757
   891.2500    115.0416     24.3659
   891.5000    114.3228     24.6442
   891.7500    113.4305     24.9351
   892.0000    111.3727     25.2498
   892.2500    109.0976     25.5548
   892.5000    104.2530     25.7576
   892.7500    100.7106     25.7473
   893.0000     96.4173     25.4765
   893.2500     94.6925     25.0099
   893.5000     93.4574     24.4782
   893.7500     92.9806     23.9853
   894.0000     92.2169     23.5578
   894.2500     91.8647     23.1651
   894.5000     92.5110     22.7745
   894.7500     94.0680     22.3919
   895.0000     97.3644     22.0623
   895.2500     99.0654     21.8387
   895.5000     99.0567     21.7459
   895.7500     97.0963     21.7609
   896.0000     92.2586     21.8224
   896.2500     88.6737     21.8633
   896.5000     83.9281     21.8499
   896.7500     81.5407     21.7937
   897.0000     79.3997     21.7314
   897.2500     79.0393     21.6941
   897.5000     80.1791     21.6916
   897.7500     81.8488     21.7160
   898.0000     84.7102     21.7511
   898.2500     86.1630     21.7766
   898.5000     87.1540     21.7681
   898.7500     87.3280     21.7025
   899.0000     87.9248     21.5715
   899.2500     88.9602     21.3923
   899.5000     91.1571     21.2039
   899.7500     92.4035     21.0461
   900.0000     93.0965     20.9405
   900.2500     92.9574     20.8843
   900.5000     93.1390     20.8590
   900.7500     94.0873     20.8414
   901.0000     96.1263     20.8124
   901.2500     96.7394     20.7606
   901.5000     94.8527     20.6899
   901.7500     91.7708     20.6215
   902.0000     86.4578     20.5860
   902.2500     84.0388     20.6072
   902.5000     83.4151     20.6885
   902.7500     84.3999     20.8111
   903.0000     85.6668     20.9424
   903.2500     85.4919     21.0503
   903.5000     84.0864     21.1148
   903.7500     83.1856     21.1305
   904.0000     82.6149     21.1019
   904.2500     82.5896     21.0370
   904.5000     82.6261     20.9474
   904.7500     82.7354     20.8522
   905.0000     83.4442     20.7780
   905.2500     84.3529     20.7507
   905.5000     85.8777     20.7860
   905.7500     86.6363     20.8854
   906.0000     87.3693     21.0399
   906.2500     87.9287     21.2394
   906.5000     89.2646     21.4764
   906.7500     90.2289     21.7407
   907.0000     90.6712     22.0113
   907.2500     89.7550     22.2592
   907.5000     86.7202     22.4667
   907.7500     84.3017     22.6506
   908.0000     81.4637     22.8653
   908.2500     80.5452     23.1790
   908.5000     80.6170     23.6349
   908.7500     81.3212     24.2229
   909.0000     82.5984     24.8828
   909.2500     83.1398     25.5442
   909.5000     82.9239     26.1776
   909.7500     82.0442     26.7962
   910.0000     80.1874     27.3868
   910.2500     79.2097     27.8262
   910.5000     79.1346     27.8901
   910.7500     80.1965     27.3930
   911.0000     82.7668     26.3474
   911.2500     84.5280     24.9638
   911.5000     87.3380     23.4992
   911.7500     90.3658     22.1279
   912.0000     98.5172     20.9197
   912.2500    106.2435     19.8818
   912.5000    118.6479     19.0012
   912.7500    125.6300     18.2642
   913.0000    132.7993     17.6597
   913.2500    135.7974     17.1769
   913.5000    138.8874     16.8061
   913.7500    140.1824     16.5381
