~Version Information
VERS.                      2.0: CWLS Log ASCII Standard - VERSION 2.0
WRAP.                       NO: One line per depth step
~Well Information Block
STRT.FT               370.0000: 
STOP.FT              2832.5000: 
STEP.FT                 0.1000: 
NULL.                -999.2500: 
COMP.          Pioneer Natural Resources: COMPANY
WELL.          Black Cat 13-32: WELL
FLD.           Purgatoire River: FIELD
LOC.           1865' FSL & 1120' FWL--: LOCATION
PROV.                 Colorado: PROVINCE
CNTY.               Las Animas: COUNTRY
SRVC.                Patterson: SERVICE COMPANY
DATE.          Sun Jul 31 08:38:44 2005: LOG DATE
UWI.           05 071 08450 00: UNIQUE WELL ID
~Curve Information Block
DEPT.FT            0 000 00 00: Depth
DCAL.in                       : CDL Caliper
DPOR.pu                       : CDL Density Porosity
NPOR.pu                       : Neutron Porosity
RHOB.g/cc                     : CDL Bulk Density
RHOC.g/cc                     : CDL Density Correction
GR.GAPI                       : Gamma Ray
~Parameter Information Block
~A  Depth       DCAL        DPOR        NPOR        RHOB        RHOC         GR     
# ...
   830.8000      8.1183     30.0635     32.8439      2.1540     -0.0944    128.5103
   830.9000      8.1183     33.6707     33.6165      2.0944     -0.0217    127.7467
   831.0000      8.1293     41.3014     34.1112      1.9685     -0.0774    129.0325
   831.1000      8.1293     51.7581     33.9460      1.7960     -0.1287    129.4435
   831.2000      8.1293     59.6341     33.6580      1.6660     -0.1508    124.9471
   831.3000      8.1374     58.6645     33.6859      1.6820     -0.1078    119.9233
   831.4000      8.1374     47.3271     33.8538      1.8691      0.1546    119.1491
   831.5000      8.1447     30.7715     33.6937      2.1423      0.3727    120.9182
   831.6000      8.1447     15.9111     33.0649      2.3875      0.5571    123.1713
   831.7000      8.1447      6.3045     32.5150      2.5460      0.6174    128.4196
   831.8000      8.1441      1.6431     32.5834      2.6229      0.6452    135.5591
   831.9000      8.1441     -0.0447     32.9202      2.6507      0.5576    137.8735
   832.0000      8.1381     -0.4723     32.7228      2.6578      0.5045    137.1511
   832.1000      8.1381     -0.2497     31.8379      2.6541      0.4133    139.3532
   832.2000      8.1381      0.5220     30.8642      2.6414      0.2691    142.9962
   832.3000      8.1586      1.8298     30.3094      2.6198      0.2109    143.3426
   832.4000      8.1586      3.5863     30.0357      2.5908      0.1067    140.7991
   832.5000      8.1901      5.1496     29.6789      2.5650      0.0862    139.3365
   832.6000      8.1901      6.2834     29.5630      2.5463      0.1050    137.6391
   832.7000      8.1901      7.5575     29.7348      2.5253      0.0649    131.9777
   832.8000      8.1789      8.7629     29.6509      2.5054      0.0317    125.5020
   832.9000      8.1789      8.6922     29.5114      2.5066      0.0074    125.6361
   833.0000      8.1284      6.8887     29.5959      2.5363      0.0320    134.1289
   833.1000      8.1284      4.5107     29.5506      2.5756      0.0865    142.1541
   833.2000      8.1284      3.0867     29.2716      2.5991      0.0663    139.7313
   833.3000      8.0915      3.1270     28.7840      2.5984      0.0883    130.6761
   833.4000      8.0915      4.1765     28.3969      2.5811      0.0658    127.9700
   833.5000      8.0812      5.3047     28.4472      2.5625      0.0465    133.3541
   833.6000      8.0812      5.5986     28.3819      2.5576      0.0252    136.8552
   833.7000      8.0812      5.0514     28.0802      2.5667      0.0554    134.9229
   833.8000      8.0805      4.6478     27.9419      2.5733      0.0679    132.1454
   833.9000      8.0805      4.7353     27.8322      2.5719      0.0349    131.8963
   834.0000      8.0808      4.5788     27.7885      2.5745      0.0400    135.3299
   834.1000      8.0808      4.1186     27.9591      2.5820      0.0431    142.3947
   834.2000      8.0808      4.3306     27.9131      2.5785      0.0401    152.1229
   834.3000      8.0804      5.5908     27.2598      2.5578      0.0379    160.2430
   834.4000      8.0804      7.0588     26.3786      2.5335     -0.0166    161.8932
   834.5000      8.0798      7.9600     26.0301      2.5187      0.0193    158.6807
   834.6000      8.0798      8.1307     26.2762      2.5158     -0.0137    157.3972
   834.7000      8.0798      7.4882     26.5616      2.5264      0.0035    154.3952
   834.8000      8.0798      6.8191     26.5976      2.5375      0.0532    139.9599
   834.9000      8.0798      6.8065     26.4464      2.5377      0.0136    124.6171
   835.0000      8.0772      6.5348     26.0439      2.5422      0.0385    124.3806
   835.1000      8.0772      5.4738     25.6454      2.5597      0.0830    133.4471
   835.2000      8.0772      4.4995     26.2310      2.5758      0.0678    138.6811
   835.3000      8.0680      4.1469     27.9160      2.5816      0.0587    138.4151
   835.4000      8.0680      4.1112     29.1926      2.5822      0.0481    137.1982
   835.5000      8.0581      4.1070     29.1010      2.5822      0.0852    135.9924
   835.6000      8.0581      4.2849     28.3959      2.5793      0.0741    132.5892
   835.7000      8.0581      4.7852     28.1888      2.5710      0.0738    128.7052
   835.8000      8.0567      5.2901     28.6135      2.5627      0.0881    129.1514
   835.9000      8.0567      5.5865     29.0247      2.5578      0.0950    132.9648
   836.0000      8.0619      5.7392     29.0117      2.5553      0.0853    137.2843
   836.1000      8.0619      5.3059     28.7003      2.5625      0.0244    140.5050
   836.2000      8.0619      3.9136     28.4458      2.5854      0.0389    140.3158
   836.3000      8.0633      2.6748     28.6346      2.6059      0.0854    138.1538
   836.4000      8.0633      2.9618     29.1936      2.6011      0.0579    136.0542
   836.5000      8.0584      4.4454     29.6250      2.5767      0.0627    132.6154
   836.6000      8.0584      5.6034     29.7791      2.5575      0.0245    131.6897
   836.7000      8.0584      5.3055     29.9282      2.5625      0.0392    135.3298
   836.8000      8.0548      4.3332     30.1636      2.5785      0.0995    135.9777
   836.9000      8.0548      4.1378     30.0534      2.5817      0.0713    131.2146
   837.0000      8.0568      4.4131     29.5312      2.5772      0.0479    129.1107
   837.1000      8.0568      4.0811     28.9908      2.5827      0.0568    132.8230
   837.2000      8.0568      3.2726     28.3955      2.5960      0.0830    134.9509
   837.3000      8.0630      2.5610     27.6860      2.6077      0.0806    130.9822
   837.4000      8.0630      1.8355     27.3182      2.6197      0.0724    122.7141
   837.5000      8.0701      1.0138     27.5245      2.6333      0.0819    114.9442
   837.6000      8.0701      0.4235     27.8392      2.6430      0.1255    112.0402
   837.7000      8.0701      0.1862     27.7303      2.6469      0.1177    112.7923
   837.8000      8.0757     -0.0663     27.3462      2.6511      0.0945    115.9898
   837.9000      8.0757     -0.5243     26.9555      2.6587      0.1009    122.6501
   838.0000      8.0776     -0.5366     26.5387      2.6589      0.1375    128.1786
   838.1000      8.0776      0.2525     26.1566      2.6458      0.1081    127.6545
   838.2000      8.0776      0.8277     26.0578      2.6363      0.0801    126.1503
   838.3000      8.0775      0.6360     26.2923      2.6395      0.0741    126.5148
   838.4000      8.0775      0.5165     26.5893      2.6415      0.0461    123.8400
   838.5000      8.0745      1.0567     26.8665      2.6326      0.0785    117.5004
   838.6000      8.0745      1.6932     27.0063      2.6221      0.0703    114.9186
   838.7000      8.0745      1.4194     26.7593      2.6266      0.0464    120.2326
   838.8000      8.0672      0.6495     26.3473      2.6393      0.0914    126.8040
   838.9000      8.0672      0.8827     25.9489      2.6354      0.0576    128.6063
   839.0000      8.0578      2.2404     25.4747      2.6130      0.0591    127.3623
   839.1000      8.0578      3.5527     25.3319      2.5914      0.0190    124.8317
   839.2000      8.0578      4.1591     25.8029      2.5814      0.0457    121.6208
   839.3000      8.0520      4.6075     26.5511      2.5740      0.0665    121.3389
   839.4000      8.0520      5.3501     27.1653      2.5617      0.0457    123.8399
   839.5000      8.0525      5.7398     27.2461      2.5553      0.0275    125.2008
   839.6000      8.0525      5.3725     26.6670      2.5614      0.0709    123.8582
   839.7000      8.0525      4.8167     26.0849      2.5705      0.0462    120.0884
   839.8000      8.0543      4.6923     26.0470      2.5726      0.0762    113.5818
   839.9000      8.0543      5.1367     26.3290      2.5652      0.0579    107.0576
   840.0000      8.0544      5.2804     26.5378      2.5629     -0.0035    103.1137
   840.1000      8.0544      4.5790     26.7728      2.5744      0.0205    102.4234
   840.2000      8.0544      3.8442     27.1197      2.5866      0.0158    104.6697
   840.3000      8.0530      3.5133     26.8969      2.5920      0.0233    105.9998
