~Version Information
VERS.                      2.0: CWLS Log ASCII Standard - VERSION 2.0
WRAP.                       NO: One line per depth step
~Well Information Block
STRT.FT               525.0000: 
STOP.FT              2377.2000: 
STEP.FT                 0.1000: 
NULL.                -999.2500: 
COMP.          Pioneer Natural Resources: COMPANY
WELL.          Sparrowhawk 22-12: WELL
FLD.           Purgatoire River: FIELD
LOC.           2049' FNL & 2060' FWL--: LOCATION
CNTY.               Las Animas: COUNTY
SRVC.                Patterson: SERVICE COMPANY
DATE.          Thu Mar 23 13:24:48 2006: LOG DATE
UWI.           05 071 08484 00: UNIQUE WELL ID
STAT.                 Colorado: STATE
~Curve Information Block
DEPT.FT            0 000 00 00: Depth
DCAL.in                       : CDL Caliper
RHOB.g/cc                     : CDL Bulk Density
RHOC.g/cc                     : CDL Density Correction
DPOR.pu                       : CDL Density Porosity
NPOR.pu                       : Neutron Porosity
GR.GAPI                       : Gamma Ray
~Parameter Information Block
~A  Depth       DCAL        RHOB        RHOC        DPOR        NPOR         GR     
# ...
  1859.4000      8.1000      2.4918      0.0620      9.5858     28.6093    128.3754
  1859.5000      8.0931      2.5029      0.0687      8.9156     28.9535    122.4310
  1859.6000      8.0931      2.5073      0.0524      8.6476     29.0418    123.6720
  1859.7000      8.0931      2.5063      0.0693      8.7106     28.8105    129.2169
  1859.8000      8.1037      2.4996      0.0688      9.1139     28.4281    130.6860
  1859.9000      8.1037      2.4884      0.0475      9.7943     28.2083    127.5210
  1860.0000      8.1254      2.4803      0.0658     10.2866     28.4009    127.5935
  1860.1000      8.1254      2.4740      0.0830     10.6644     28.8219    128.5695
  1860.2000      8.1254      2.4622      0.1135     11.3803     29.0703    124.6736
  1860.3000      8.1302      2.4410      0.0710     12.6677     29.0559    117.0791
  1860.4000      8.1302      2.4155      0.0149     14.2150     28.9739    110.8280
  1860.5000      8.0992      2.3984      0.0126     15.2495     28.9471    111.3882
  1860.6000      8.0992      2.3978      0.0025     15.2877     28.9594    119.4086
  1860.7000      8.0992      2.4110      0.0464     14.4834     28.9916    130.1172
  1860.8000      8.0695      2.4221      0.0690     13.8132     29.1379    137.3715
  1860.9000      8.0695      2.4209      0.0548     13.8819     29.5797    136.7135
  1861.0000      8.0677      2.4247     -0.0081     13.6527     30.2381    127.9316
  1861.1000      8.0677      2.4442      0.0808     12.4709     30.5544    117.1704
  1861.2000      8.0677      2.4568      0.1112     11.7083     30.4709    112.7424
  1861.3000      8.0819      2.4484      0.0732     12.2198     30.4583    114.2757
  1861.4000      8.0819      2.4317      0.0661     13.2297     30.2870    119.3722
  1861.5000      8.0992      2.4191      0.0401     13.9937     29.8981    129.4435
  1861.6000      8.0992      2.4151      0.0488     14.2380     29.8857    136.9066
  1861.7000      8.0992      2.4172      0.0540     14.1064     30.2800    133.0775
  1861.8000      8.1212      2.4137      0.0459     14.3186     30.6385    123.8945
  1861.9000      8.1212      2.3892      0.0596     15.8036     30.7570    122.4146
  1862.0000      8.1354      2.3504     -0.0011     18.1572     30.7042    131.3700
  1862.1000      8.1354      2.3294     -0.0536     19.4319     30.6935    141.6253
  1862.2000      8.1354      2.3286      0.0582     19.4797     30.8084    145.8345
  1862.3000      8.1201      2.3181      0.0157     20.1129     31.0974    144.7043
  1862.4000      8.1201      2.3026      0.0118     21.0549     31.4674    142.0895
  1862.5000      8.0945      2.3052      0.0252     20.8978     31.7443    141.4421
  1862.6000      8.0945      2.3159      0.1057     20.2497     31.8729    139.9305
  1862.7000      8.0945      2.3144      0.0821     20.3405     31.8794    133.9674
  1862.8000      8.0734      2.3072      0.0599     20.7749     31.7328    128.2171
  1862.9000      8.0734      2.3110      0.0683     20.5448     31.1977    125.5675
  1863.0000      8.0638      2.3253      0.1191     19.6773     30.5966    123.8566
  1863.1000      8.0638      2.3332      0.1305     19.1993     30.8453    124.3858
  1863.2000      8.0638      2.3226      0.1119     19.8419     31.7125    127.3766
  1863.3000      8.0830      2.3022      0.0826     21.0800     32.0900    128.1016
  1863.4000      8.0830      2.2896      0.0848     21.8420     31.8051    124.7010
  1863.5000      8.1166      2.2926      0.0954     21.6577     31.3872    120.4808
  1863.6000      8.1166      2.3106      0.1144     20.5689     31.1399    117.9518
  1863.7000      8.1166      2.3399      0.1551     18.7955     31.0882    117.4086
  1863.8000      8.1614      2.3740      0.1881     16.7248     30.9548    116.8808
  1863.9000      8.1614      2.4056      0.2439     14.8122     30.6450    115.5248
  1864.0000      8.3021      2.4241      0.2766     13.6902     30.4545    115.4080
  1864.1000      8.3021      2.4337      0.2243     13.1088     30.4479    120.2132
  1864.2000      8.3021      2.4537      0.2263     11.8987     30.3053    126.3825
  1864.3000      8.5254      2.4746      0.2269     10.6321     29.9745    125.4446
  1864.4000      8.5254      2.4699      0.1140     10.9148     29.7789    119.4352
  1864.5000      8.6638      2.4523      0.0296     11.9806     29.7886    117.2442
  1864.6000      8.6638      2.4527      0.0774     11.9571     29.6550    120.8917
  1864.7000      8.6638      2.4681      0.1119     11.0238     29.2274    125.1527
  1864.8000      8.5864      2.4738      0.1005     10.6784     29.0489    127.7803
  1864.9000      8.5864      2.4660      0.0805     11.1523     29.4445    126.0665
  1865.0000      8.3532      2.4597      0.0838     11.5357     29.9402    119.8797
  1865.1000      8.3532      2.4576      0.1176     11.6635     30.0750    116.6885
  1865.2000      8.3532      2.4516      0.1200     12.0247     29.8653    122.7047
  1865.3000      8.1635      2.4413      0.0939     12.6472     29.6832    134.0552
  1865.4000      8.1635      2.4318      0.0775     13.2243     29.8430    140.0173
  1865.5000      8.0665      2.4319      0.0547     13.2205     30.1003    137.9924
  1865.6000      8.0665      2.4503      0.0737     12.1042     29.9769    136.7364
  1865.7000      8.0665      2.4843      0.1008     10.0433     29.5498    142.2126
  1865.8000      8.0260      2.5207      0.1257      7.8336     29.0100    149.1853
  1865.9000      8.0260      2.5448      0.1520      6.3748     28.3948    149.1622
  1866.0000      8.0105      2.5502      0.1391      6.0499     27.9201    143.4840
  1866.1000      8.0105      2.5423      0.1752      6.5279     27.8084    141.0356
  1866.2000      8.0105      2.5320      0.1219      7.1509     27.9557    143.5047
  1866.3000      8.0043      2.5346      0.0895      6.9948     28.0853    144.5099
  1866.4000      8.0043      2.5552      0.1545      5.7466     28.0521    143.7463
  1866.5000      8.0028      2.5758      0.1548      4.4970     27.8085    146.8138
  1866.6000      8.0028      2.5834      0.0814      4.0348     27.3919    151.4560
  1866.7000      8.0028      2.5859      0.1102      3.8823     26.8879    150.2538
  1866.8000      8.0020      2.5914      0.1454      3.5503     26.2539    143.3071
  1866.9000      8.0020      2.6010      0.1400      2.9667     25.4710    139.0182
  1867.0000      8.0000      2.6129      0.1257      2.2491     24.8276    141.0212
  1867.1000      8.0000      2.6206      0.1128      1.7822     24.5837    143.0538
  1867.2000      8.0000      2.6209      0.0892      1.7640     24.6811    136.1769
  1867.3000      7.9935      2.6264      0.0970      1.4324     24.8664    120.3557
  1867.4000      7.9935      2.6415      0.1121      0.5131     24.8006    104.9291
  1867.5000      7.9743      2.6463      0.1173      0.2220     24.5560     97.6670
  1867.6000      7.9743      2.6303      0.0872      1.1937     24.3878     98.7044
  1867.7000      7.9743      2.6038      0.0968      2.8016     24.1883    100.6508
  1867.8000      7.9439      2.5817      0.0537      4.1422     23.9149     97.3246
  1867.9000      7.9439      2.5835      0.0551      4.0287     23.7902     91.9866
  1868.0000      7.9177      2.6163      0.0842      2.0414     24.1199     91.6600
  1868.1000      7.9177      2.6568      0.1539     -0.4095     24.7839     98.3339
  1868.2000      7.9177      2.6759      0.1558     -1.5710     25.1886    104.6403
  1868.3000      7.9004      2.6674      0.1227     -1.0568     25.1396    104.7325
  1868.4000      7.9004      2.6401      0.0996      0.5996     24.9288     99.5309
  1868.5000      7.8974      2.6120      0.0555      2.3018     24.7581     90.8005
  1868.6000      7.8974      2.6043      0.0263      2.7712     24.7163     84.4214
  1868.7000      7.8974      2.6137      0.0468      2.1979     24.7899     86.9660
  1868.8000      7.9006      2.6205      0.0348      1.7882     24.8671     95.2239
  1868.9000      7.9006      2.6194      0.0403      1.8557     24.7569     99.6389
