~Version Information
VERS.                      2.0: CWLS Log ASCII Standard - VERSION 2.0
WRAP.                       NO: One line per depth step
~Well Information Block
STRT.FT                -3.2500: 
STOP.FT               989.2500: 
STEP.FT                 0.2500: 
NULL.                -999.2500: 
COMP.          Pioneer Natural Resources: COMPANY
WELL.                Doc 34-30: WELL
FLD.           Purgatoire River: FIELD
LOC.           454' FSL & 1386' FEL: LOCATION
CNTY.               Las Animas: COUNTY
SRVC.                         : SERVICE COMPANY
DATE.          Wed Mar 08 14:28:55 2006: LOG DATE
UWI.           05 071 08694 00: UNIQUE WELL ID
STAT.                       CO: STATE
~Curve Information Block
DEPT.FT            0 000 00 00: Depth
GR.GAPI                       : Gamma Ray
CCL.                          : Casing Collar Locator
TT3.usec                      : CBL 3' Travel Time
AMP3.mV                       : CBL 3' Amplitude
~Parameter Information Block
~A  Depth        GR         CCL         TT3         AMP3    
# ...
    63.7500     81.4163      0.0000    584.4903      3.4162
    64.0000     84.8194      0.0000    603.4698      3.3153
    64.2500     89.0150      0.0000    623.4514      3.2217
    64.5000     92.9363      0.0000    638.6495      3.1567
    64.7500     95.1896      0.0000    643.8351      3.1259
    65.0000     94.9459      0.0000    638.6898      3.1205
    65.2500     92.6474      0.0000    629.2498      3.1289
    65.5000     89.7304      0.0000    624.0352      3.1462
    65.7500     87.7486      0.0000    627.8965      3.1728
    66.0000     87.5645      0.0000    639.0278      3.2060
    66.2500     88.9632      0.0000    651.4153      3.2323
    66.5000     90.9312      0.0000    659.6583      3.2296
    66.7500     92.4293      0.0000    661.6661      3.1812
    67.0000     92.8867      0.0000    658.2563      3.0938
    67.2500     92.1580      0.0000    651.9078      3.0026
    67.5000     90.4562      0.0000    646.0388      2.9532
    67.7500     88.4317      0.0000    643.9465      2.9720
    68.0000     86.8941      0.0000    647.1223      3.0537
    68.2500     86.2255      0.0000    654.5376      3.1695
    68.5000     86.2346      0.0000    663.9894      3.2804
    68.7500     86.5104      0.0000    673.9561      3.3477
    69.0000     86.6757      0.0000    683.8272      3.3436
    69.2500     86.5713      0.0000    692.8054      3.2628
    69.5000     86.5468      0.0000    699.4303      3.1232
    69.7500     87.2093      0.0000    702.3040      2.9526
    70.0000     88.5881      0.0000    700.8234      2.7720
    70.2500     89.9940      0.0000    694.8874      2.5875
    70.5000     90.8947      0.0000    683.9094      2.3983
    70.7500     91.5245      0.0000    666.4669      2.2111
    71.0000     92.3837      0.0000    642.0269      2.0463
    71.2500     93.3402      0.0000    614.1075      1.9287
    71.5000     93.5062      0.0000    591.0024      1.8742
    71.7500     92.2204      0.0000    580.7911      1.8820
    72.0000     90.0394      0.0000    583.9930      1.9397
    72.2500     88.4751      0.0000    592.4995      2.0359
    72.5000     88.7413      0.0000    597.3735      2.1675
    72.7500     90.9274      0.0000    597.0010      2.3359
    73.0000     94.0945      0.0000    596.8745      2.5356
    73.2500     96.7600      0.0000    602.7142      2.7499
    73.5000     97.6552      0.0000    614.7479      2.9603
    73.7500     96.7095      0.0000    627.7018      3.1615
    74.0000     95.2758      0.0000    635.3528      3.3635
    74.2500     94.9165      0.0000    635.3272      3.5763
    74.5000     95.9897      0.0000    630.0046      3.7923
    74.7500     97.6256      0.0000    623.1140      3.9870
    75.0000     98.7294      0.0000    616.3242      4.1377
    75.2500     98.6515      0.0000    609.4985      4.2391
    75.5000     97.1877      0.0000    602.9028      4.3005
    75.7500     94.4727      0.0000    597.6775      4.3319
    76.0000     91.0135      0.0000    594.5325      4.3379
    76.2500     87.6455      0.0000    593.0490      4.3249
    76.5000     85.1323      0.0000    592.2603      4.3054
    76.7500     83.5502      0.0000    591.4991      4.2916
    77.0000     82.1206      0.0000    590.7737      4.2873
    77.2500     79.9408      0.0000    590.7268      4.2852
    77.5000     77.0567      0.0000    592.3335      4.2736
    77.7500     74.8031      0.0000    596.3342      4.2477
    78.0000     74.9075      0.0000    602.5592      4.2129
    78.2500     78.0403      0.0000    609.6963      4.1777
    78.5000     83.3536      0.0000    615.9888      4.1459
    78.7500     89.4295      0.0000    620.3441      4.1171
    79.0000     95.2478      0.0000    622.7800      4.0927
    79.2500    100.1437      0.0000    623.9541      4.0782
    79.5000    103.5219      0.0000    624.4987      4.0766
    79.7500    105.0811      0.0000    624.7640      4.0828
    80.0000    105.0578      0.0000    624.8979      4.0852
    80.2500    103.9473      0.0000    624.9653      4.0707
    80.5000    102.0260      0.0000    624.9920      4.0277
    80.7500     99.2645      0.0000    624.9598      3.9493
    81.0000     95.6356      0.0000    624.7448      3.8407
    81.2500     91.3448      0.0000    623.9767      3.7234
    81.5000     86.8166      0.0000    621.9611      3.6289
    81.7500     82.6238      0.0000    617.9808      3.5854
    82.0000     79.3016      0.0000    612.0217      3.6047
    82.2500     76.9277      0.0000    605.3042      3.6736
    82.5000     74.8608      0.0000    599.9355      3.7560
    82.7500     72.1479      0.0000    597.8931      3.8070
    83.0000     68.4170      0.0000    600.1824      3.7952
    83.2500     64.2617      0.0000    606.6262      3.7181
    83.5000     60.5562      0.0000    616.2000      3.5969
    83.7500     57.6078      0.0000    627.5902      3.4546
    84.0000     55.3771      0.0000    639.4383      3.3018
    84.2500     54.3035      0.0000    650.1823      3.1404
    84.5000     55.2337      0.0000    658.2144      2.9740
    84.7500     58.3788      0.0000    662.7616      2.8130
    85.0000     62.6136      0.0000    664.6362      2.6728
    85.2500     65.9587      0.0000    665.7761      2.5667
    85.5000     66.8603      0.0000    667.6797      2.5000
    85.7500     65.2480      0.0000    670.2301      2.4694
    86.0000     62.5675      0.0000    672.3309      2.4679
    86.2500     60.8325      0.0000    673.6338      2.4908
    86.5000     61.3863      0.0000    675.1287      2.5375
    86.7500     64.1879      0.0000    677.8323      2.6103
    87.0000     68.1121      0.0000    681.1363      2.7104
    87.2500     71.9766      0.0000    682.6608      2.8357
    87.5000     75.3982      0.0000    680.0019      2.9792
    87.7500     78.7554      0.0000    672.8387      3.1296
    88.0000     82.3358      0.0000    663.3158      3.2706
    88.2500     85.5527      0.0000    654.5430      3.3809
    88.5000     87.1572      0.0000    649.0756      3.4419
    88.7500     86.3692      0.0000    648.4516      3.4504
    89.0000     83.8075      0.0000    652.8442      3.4226
    89.2500     81.2902      0.0000    660.4669      3.3816
    89.5000     80.5627      0.0000    668.3088      3.3407
    89.7500     82.0078      0.0000    674.5468      3.2979
    90.0000     84.5162      0.0000    679.8962      3.2408
    90.2500     86.5378      0.0000    685.9103      3.1542
    90.5000     87.1672      0.0000    692.2305      3.0274
    90.7500     86.3479      0.0000    695.8939      2.8612
    91.0000     84.4232      0.0000    693.3027      2.6731
    91.2500     81.7217      0.0000    683.5414      2.4941
    91.5000     78.5300      0.0000    671.1791      2.3561
    91.7500     75.3489      0.0000    665.3280      2.2746
    92.0000     72.9623      0.0000    672.9703      2.2444
    92.2500     71.9895      0.0000    691.8056      2.2550
    92.5000     72.3755      0.0000    711.4728      2.3114
    92.7500     73.5727      0.0000    722.6044      2.4317
    93.0000     75.2364      0.0000    722.9011      2.6155
    93.2500     77.3544      0.0000    714.8492      2.8204
    93.5000     79.5914      0.0000    701.0049      2.9809
    93.7500     81.0090      0.0000    682.3736      3.0556
    94.0000     80.8169      0.0000    659.0768      3.0520
    94.2500     79.2559      0.0000    631.9486      3.0114
    94.5000     77.5380      0.0000    604.7825      2.9785
    94.7500     76.9149      0.0000    584.5483      2.9749
    95.0000     77.7579      0.0000    577.5616      2.9861
    95.2500     79.4241      0.0000    584.8510      2.9706
    95.5000     81.0598      0.0000    602.0178      2.8925
    95.7500     82.5943      0.0000    622.9908      2.7491
    96.0000     84.7608      0.0000    642.3254      2.5699
    96.2500     88.0557      0.0000    655.1283      2.3991
    96.5000     91.8973      0.0000    658.2194      2.2827
    96.7500     94.9477      0.0000    652.0803      2.2557
    97.0000     96.0251      0.0000    640.1526      2.3326
