~Version Information
VERS.                      2.0: CWLS Log ASCII Standard - VERSION 2.0
WRAP.                       NO: One line per depth step
~Well Information Block
STRT.FT               410.0000: 
STOP.FT              1530.5000: 
STEP.FT                 0.1000: 
NULL.                -999.2500: 
COMP.          Pioneer Natural Resources: COMPANY
WELL.          Pioneer 34-27 Tr: WELL
FLD.           Purgatoire River: FIELD
LOC.           243' FSL & 1593' FEL: LOCATION
STAT.                 Colorado: State
CNTY.               Las Animas: COUNTY
CTRY. USA : Country
SECT. 27 : Section
TOWN. 32S : Township
RANG. 67W : Range 
SRVC.                Patterson: SERVICE COMPANY
DATE.          Fri Oct 07 07:11:38 2005: LOG DATE
API.           05 071 08548 00: UNIQUE WELL ID
~Curve Information Block
DEPT.FT            0 000 00 00: Depth
DCAL.in                       : CDL Caliper
RHOB.g/cc                     : CDL Bulk Density
RHOC.g/cc                     : CDL Density Correction
DPOR.pu                       : CDL Density Porosity
GR.GAPI                       : Gamma Ray
NPOR.pu                       : Neutron Porosity
~Parameter Information Block
~A  Depth       DCAL        RHOB        RHOC        DPOR         GR         NPOR    
# ...
   928.4000      8.1575      2.6238      0.0457      1.5886    150.0256     26.9271
   928.5000      8.1453      2.6088      0.0640      2.4972    149.6126     26.3265
   928.6000      8.1453      2.5859      0.0160      3.8855    149.6911     25.8651
   928.7000      8.1453      2.5610     -0.0281      5.3929    150.6043     25.9244
   928.8000      8.1586      2.5391      0.0201      6.7191    151.9817     26.1676
   928.9000      8.1586      2.5224     -0.0195      7.7334    153.3890     26.0780
   929.0000      8.1752      2.5172      0.0237      8.0464    153.2212     25.9890
   929.1000      8.1752      2.5180      0.0210      8.0001    151.6588     26.3108
   929.2000      8.1752      2.5153      0.0370      8.1649    155.9525     26.6240
   929.3000      8.1531      2.5082      0.0162      8.5917    169.1459     26.6270
   929.4000      8.1531      2.5033     -0.0156      8.8913    178.5057     26.7360
   929.5000      8.1520      2.5058      0.0443      8.7375    173.9342     27.2018
   929.6000      8.1520      2.5145      0.0434      8.2123    163.3422     27.6673
   929.7000      8.1520      2.5373      0.0507      6.8321    155.5710     27.6971
   929.8000      8.1525      2.5801      0.0946      4.2375    151.6481     27.4190
   929.9000      8.1525      2.6202      0.1142      1.8045    150.1998     27.2160
   930.0000      8.1278      2.6340      0.1000      0.9698    152.4311     27.1204
   930.1000      8.1278      2.6287      0.0733      1.2929    158.3116     27.1797
   930.2000      8.1278      2.6206      0.0999      1.7808    159.4447     27.5300
   930.3000      8.1088      2.6038      0.1284      2.8008    151.0059     27.8903
   930.4000      8.1088      2.5686      0.0428      4.9350    141.6645     27.8262
   930.5000      8.1073      2.5318     -0.0564      7.1617    137.9765     27.3766
   930.6000      8.1073      2.5083     -0.0089      8.5883    139.9621     26.7059
   930.7000      8.1073      2.4899     -0.0113      9.7035    144.7555     25.7699
   930.8000      8.1127      2.4766     -0.0291     10.5112    147.0151     24.6245
   930.9000      8.1127      2.4808     -0.0114     10.2535    147.3655     23.5688
   931.0000      8.1390      2.5038      0.0196      8.8597    149.3162     22.9714
   931.1000      8.1390      2.5322      0.0450      7.1387    151.4808     22.7337
   931.2000      8.1390      2.5425      0.1393      6.5168    153.3322     22.5781
   931.3000      8.1424      2.5127      0.1849      8.3237    154.4665     22.6124
   931.4000      8.1424      2.4501      0.1443     12.1124    154.7299     22.9132
   931.5000      8.1058      2.3842      0.0810     16.1097    157.6676     23.1580
   931.6000      8.1058      2.3266      0.0664     19.6017    163.0827     23.1467
   931.7000      8.1058      2.2718      0.0711     22.9193    165.2781     23.1382
   931.8000      8.1063      2.2310     -0.0463     25.3938    162.4323     23.2792
   931.9000      8.1063      2.2255      0.0201     25.7289    159.3496     23.5798
   932.0000      8.1172      2.2538      0.0751     24.0149    159.0389     24.1461
   932.1000      8.1172      2.2975      0.1808     21.3616    157.6072     24.9331
   932.2000      8.1172      2.3487      0.1609     18.2621    151.7003     25.7722
   932.3000      8.1395      2.4030      0.2408     14.9696    142.2740     26.6356
   932.4000      8.1395      2.4429      0.2557     12.5506    136.2675     27.6162
   932.5000      8.1470      2.4644      0.1639     11.2470    140.2313     28.4209
   932.6000      8.1470      2.4913      0.1705      9.6178    148.6459     28.6498
   932.7000      8.1470      2.5432      0.1567      6.4709    154.8869     28.5024
   932.8000      8.1501      2.6043      0.2823      2.7715    160.1041     28.4230
   932.9000      8.1501      2.6353      0.2588      0.8881    164.3305     28.4809
   933.0000      8.1397      2.6331      0.1762      1.0225    165.1909     28.4158
   933.1000      8.1397      2.6306      0.1510      1.1748    161.4574     28.2572
   933.2000      8.1397      2.6388      0.1526      0.6763    153.1562     28.3498
   933.3000      8.1264      2.6471      0.1495      0.1754    146.0336     28.7599
   933.4000      8.1264      2.6510      0.1552     -0.0600    147.1197     29.1904
   933.5000      8.1138      2.6513      0.1253     -0.0778    152.1515     29.4388
   933.6000      8.1138      2.6508      0.0822     -0.0476    153.8854     29.5003
   933.7000      8.1138      2.6485      0.1025      0.0932    152.4336     29.2067
   933.8000      8.0996      2.6370      0.1066      0.7874    148.8387     28.6551
   933.9000      8.0996      2.6265      0.0687      1.4255    145.3930     28.2435
   934.0000      8.0947      2.6392      0.0432      0.6570    145.8613     27.9978
   934.1000      8.0947      2.6692      0.1111     -1.1607    150.0877     27.9131
   934.2000      8.0947      2.6926      0.0960     -2.5843    151.5498     28.3508
   934.3000      8.0901      2.7143      0.0589     -3.8995    144.5931     29.2587
   934.4000      8.0901      2.7467      0.1184     -5.8578    132.1456     29.9083
   934.5000      8.0973      2.7747      0.1408     -7.5586    118.9655     29.8929
   934.6000      8.0973      2.7901      0.0927     -8.4885    109.0861     29.6783
   934.7000      8.0973      2.8003      0.1849     -9.1097    103.6489     29.7115
   934.8000      8.0833      2.8021      0.1351     -9.2168     99.7196     29.9619
   934.9000      8.0833      2.7908      0.0946     -8.5328     96.6287     30.2893
   935.0000      8.0726      2.7699      0.0620     -7.2697     96.2599     30.5529
   935.1000      8.0726      2.7517      0.0168     -6.1651     97.9876     30.6427
   935.2000      8.0726      2.7408      0.0318     -5.5041     97.5825     30.3843
   935.3000      8.0746      2.7256      0.0351     -4.5791     93.2877     29.8394
   935.4000      8.0746      2.7079      0.0258     -3.5099     89.6631     29.2745
   935.5000      8.0704      2.7149     -0.0568     -3.9313     88.5779     28.5471
   935.6000      8.0704      2.7572      0.0366     -6.4941     85.9608     27.6329
   935.7000      8.0704      2.7970      0.0927     -8.9081     81.5902     26.8435
   935.8000      8.1108      2.8037      0.0975     -9.3176     79.7294     26.2487
   935.9000      8.1108      2.8000      0.0925     -9.0914     80.3154     25.7217
   936.0000      8.0928      2.8090      0.1250     -9.6341     79.7658     25.2214
   936.1000      8.0928      2.8217      0.1216    -10.4065     77.7165     24.6941
   936.2000      8.0928      2.8279      0.1895    -10.7832     77.2488     24.1311
   936.3000      8.0386      2.8141      0.2043     -9.9481     79.4996     23.6117
   936.4000      8.0386      2.7714      0.0962     -7.3580     81.2018     23.4603
   936.5000      8.0295      2.7172      0.1002     -4.0715     82.0739     24.0483
   936.6000      8.0295      2.6722      0.0145     -1.3455     85.0669     24.9191
   936.7000      8.0295      2.6394      0.0259      0.6444     90.2003     25.2480
   936.8000      8.0351      2.6152     -0.0356      2.1100     97.8482     24.9740
   936.9000      8.0351      2.6052     -0.0371      2.7145    106.5893     24.4634
   937.0000      8.0498      2.6065      0.0538      2.6368    112.6518     23.9910
   937.1000      8.0498      2.6078      0.0237      2.5597    117.9058     23.8070
   937.2000      8.0498      2.6099      0.0456      2.4300    122.2533     23.8855
   937.3000      8.1406      2.6104      0.0433      2.3978    122.3868     24.1227
   937.4000      8.1406      2.5966      0.0241      3.2386    120.7485     24.6278
   937.5000      8.1636      2.5753     -0.0304      4.5273    119.8756     25.3013
   937.6000      8.1636      2.5703     -0.0237      4.8306    120.7802     25.8067
   937.7000      8.1636      2.5812      0.0390      4.1712    126.8885     26.1234
   937.8000      8.1701      2.5910      0.0235      3.5758    138.1012     26.3319
   937.9000      8.1701      2.5930      0.0597      3.4564    147.9555     26.3601
