~Version Information
VERS.                      2.0: CWLS Log ASCII Standard - VERSION 2.0
WRAP.                       NO: One line per depth step
~Well Information Block
STRT.FT               615.0000: 
STOP.FT              2815.0000: 
STEP.FT                 0.2500: 
NULL.                -999.2500: 
COMP.          Pioneer Natural Resources: COMPANY
WELL.              Loews 41-32: WELL
FLD.           Purgatoire River: FIELD
LOC.           751' FNL & 128' FEL: LOCATION
CNTY.               Las Animas: COUNTY
SRVC.                Patterson: SERVICE COMPANY
DATE.          Sun Feb 12 02:27:11 2006: LOG DATE
UWI.           05 071 08693 00: UNIQUE WELL ID
STAT.                 Colorado: STATE
~Curve Information Block
DEPT.FT            0 000 00 00: Depth
SN.Ohm-m                      : IEL Short Normal
SP.mV                         : IEL Spontaneous Potential
DIR.Ohm-m                     : IEL Induction Resistivity
GR.GAPI                       : Gamma Ray
~Parameter Information Block
~A  Depth        SN          SP         DIR          GR     
# ...
   916.5000   2000.0000   2000.0000     22.6868    129.3844
   916.7500   2000.0000   2000.0000     22.2930    126.2074
   917.0000   2000.0000   2000.0000     21.8426    119.3077
   917.2500   2000.0000   2000.0000     21.3657    114.1395
   917.5000   2000.0000   2000.0000     20.8898    107.0541
   917.7500   2000.0000   2000.0000     20.4384    103.5996
   918.0000   2000.0000   2000.0000     20.0367    101.2845
   918.2500   2000.0000   2000.0000     19.7109    101.7900
   918.5000   2000.0000   2000.0000     19.4734    105.2450
   918.7500   2000.0000   2000.0000     19.3056    109.0087
   919.0000   2000.0000   2000.0000     19.1553    116.3279
   919.2500   2000.0000   2000.0000     18.9582    122.0058
   919.5000   2000.0000   2000.0000     18.6707    130.8935
   919.7500   2000.0000   2000.0000     18.2870    136.3357
   920.0000   2000.0000   2000.0000     17.8315    142.4469
   920.2500   2000.0000   2000.0000     17.3375    144.7818
   920.5000   2000.0000   2000.0000     16.8314    146.3316
   920.7500   2000.0000   2000.0000     16.3299    146.9848
   921.0000   2000.0000   2000.0000     15.8430    148.5660
   921.2500   2000.0000   2000.0000     15.3787    149.8588
   921.5000   2000.0000   2000.0000     14.9465    150.8085
   921.7500   2000.0000   2000.0000     14.5605    150.2081
   922.0000   2000.0000   2000.0000     14.2398    147.8296
   922.2500   2000.0000   2000.0000     14.0048    146.1266
   922.5000   2000.0000   2000.0000     13.8702    145.1234
   922.7500   2000.0000   2000.0000     13.8364    146.1145
   923.0000   2000.0000   2000.0000     13.8859    149.7681
   923.2500   2000.0000   2000.0000     13.9866    152.7619
   923.5000   2000.0000   2000.0000     14.1036    156.5475
   923.7500   2000.0000   2000.0000     14.2122    158.1035
   924.0000   2000.0000   2000.0000     14.3062    158.5295
   924.2500   2000.0000   2000.0000     14.3940    157.4222
   924.5000   2000.0000   2000.0000     14.4885    154.4279
   924.7500   2000.0000   2000.0000     14.5987    152.6691
   925.0000   2000.0000   2000.0000     14.7268    152.0993
   925.2500   2000.0000   2000.0000     14.8699    153.0675
   925.5000   2000.0000   2000.0000     15.0219    154.9573
   925.7500   2000.0000   2000.0000     15.1735    155.6981
   926.0000   2000.0000   2000.0000     15.3118    155.9189
   926.2500   2000.0000   2000.0000     15.4231    155.8426
   926.5000   2000.0000   2000.0000     15.4969    155.8201
   926.7500   2000.0000   2000.0000     15.5291    155.8071
   927.0000   2000.0000   2000.0000     15.5240    155.3003
   927.2500   2000.0000   2000.0000     15.4941    154.3655
   927.5000   2000.0000   2000.0000     15.4603    152.2085
   927.7500   2000.0000   2000.0000     15.4472    150.7595
   928.0000   2000.0000   2000.0000     15.4757    149.4509
   928.2500   2000.0000   2000.0000     15.5540    149.2303
   928.5000   2000.0000   2000.0000     15.6736    148.9764
   928.7500   2000.0000   2000.0000     15.8151    147.9370
   929.0000   2000.0000   2000.0000     15.9601    143.5254
   929.2500   2000.0000   2000.0000     16.1016    138.2971
   929.5000   2000.0000   2000.0000     16.2456    128.1624
   929.7500   2000.0000   2000.0000     16.4053    121.5895
   930.0000   2000.0000   2000.0000     16.5951    115.0678
   930.2500   2000.0000   2000.0000     16.8273    113.6529
   930.5000   2000.0000   2000.0000     17.1122    114.7705
   930.7500   2000.0000   2000.0000     17.4603    116.3460
   931.0000   2000.0000   2000.0000     17.8841    118.1811
   931.2500   2000.0000   2000.0000     18.3921    118.7091
   931.5000   2000.0000   2000.0000     18.9793    118.8859
   931.7500   2000.0000   2000.0000     19.6214    119.0849
   932.0000   2000.0000   2000.0000     20.2826    119.9549
   932.2500   2000.0000   2000.0000     20.9325    120.6441
   932.5000   2000.0000   2000.0000     21.5584    120.5847
   932.7500   2000.0000   2000.0000     22.1615    119.1507
   933.0000   2000.0000   2000.0000     22.7432    114.9414
   933.2500   2000.0000   2000.0000     23.2934    111.4811
   933.5000   2000.0000   2000.0000     23.7909    106.7801
   933.7500   2000.0000   2000.0000     24.2147    104.5705
   934.0000   2000.0000   2000.0000     24.5561    103.2539
   934.2500   2000.0000   2000.0000     24.8221    103.8404
   934.5000   2000.0000   2000.0000     25.0222    106.3626
   934.7500   2000.0000   2000.0000     25.1550    108.2580
   935.0000   2000.0000   2000.0000     25.2133    109.6372
   935.2500   2000.0000   2000.0000     25.2070    109.0220
   935.5000   2000.0000   2000.0000     25.1814    106.3763
   935.7500   2000.0000   2000.0000     25.2032    104.5355
   936.0000   2000.0000   2000.0000     25.3179    103.6894
   936.2500   2000.0000   2000.0000     25.5075    105.0003
   936.5000   2000.0000   2000.0000     25.6825    108.9786
   936.7500   2000.0000   2000.0000     25.7201    111.7023
   937.0000   2000.0000   2000.0000     25.5298    114.1456
   937.2500   2000.0000   2000.0000     25.1015    114.7256
   937.5000   2000.0000   2000.0000     24.4990    115.4546
   937.7500   2000.0000   2000.0000     23.8176    116.4907
   938.0000   2000.0000   2000.0000     23.1494    118.6438
   938.2500   2000.0000   2000.0000     22.5721    119.9332
   938.5000   2000.0000   2000.0000     22.1479    121.1333
   938.7500   2000.0000   2000.0000     21.9189    121.5663
   939.0000   2000.0000   2000.0000     21.8995    122.2187
   939.2500   2000.0000   2000.0000     22.0702    122.9570
   939.5000   2000.0000   2000.0000     22.3811    124.7407
   939.7500   2000.0000   2000.0000     22.7634    126.2769
   940.0000   2000.0000   2000.0000     23.1476    128.5714
   940.2500   2000.0000   2000.0000     23.4815    129.5808
   940.5000   2000.0000   2000.0000     23.7446    129.1049
   940.7500   2000.0000   2000.0000     23.9523    126.8365
   941.0000   2000.0000   2000.0000     24.1492    120.3606
   941.2500   2000.0000   2000.0000     24.3957    114.5549
   941.5000   2000.0000   2000.0000     24.7507    105.1443
   941.7500   2000.0000   2000.0000     25.2534     99.3225
   942.0000   2000.0000   2000.0000     25.9086     92.6062
   942.2500   2000.0000   2000.0000     26.6821     89.9446
   942.5000   2000.0000   2000.0000     27.5128     88.6317
   942.7500   2000.0000   2000.0000     28.3397     89.0451
   943.0000   2000.0000   2000.0000     29.1249     90.4438
   943.2500   2000.0000   2000.0000     29.8494     91.3407
   943.5000   2000.0000   2000.0000     30.4821     91.9429
   943.7500   2000.0000   2000.0000     30.9497     91.4369
   944.0000   2000.0000   2000.0000     31.1497     88.7062
   944.2500   2000.0000   2000.0000     31.0091     85.7032
   944.5000   2000.0000   2000.0000     30.5378     80.9261
   944.7500   2000.0000   2000.0000     29.8218     78.7572
   945.0000   2000.0000   2000.0000     28.9677     78.2634
   945.2500   2000.0000   2000.0000     28.0543     79.7455
   945.5000   2000.0000   2000.0000     27.1259     84.0014
   945.7500   2000.0000   2000.0000     26.2086     87.8245
   946.0000   2000.0000   2000.0000     25.3201     94.4930
   946.2500   2000.0000   2000.0000     24.4640     99.2050
   946.5000   2000.0000   2000.0000     23.6255    106.1909
   946.7500   2000.0000   2000.0000     22.7832    110.6130
   947.0000   2000.0000   2000.0000     21.9317    116.4770
   947.2500   2000.0000   2000.0000     21.0894    119.6099
   947.5000   2000.0000   2000.0000     20.2877    123.2306
   947.7500   2000.0000   2000.0000     19.5506    125.3846
   948.0000   2000.0000   2000.0000     18.8864    129.0733
   948.2500   2000.0000   2000.0000     18.2890    131.9055
   948.5000   2000.0000   2000.0000     17.7431    136.0037
   948.7500   2000.0000   2000.0000     17.2306    138.3078
   949.0000   2000.0000   2000.0000     16.7391    141.7922
   949.2500   2000.0000   2000.0000     16.2698    144.9232
   949.5000   2000.0000   2000.0000     15.8368    151.0329
   949.7500   2000.0000   2000.0000     15.4576    155.1286
