~Version Information
VERS.                      2.0: CWLS Log ASCII Standard - VERSION 2.0
WRAP.                       NO: One line per depth step
~Well Information Block
STRT.FT               555.0000: 
STOP.FT              2322.2000: 
STEP.FT                 0.1000: 
NULL.                -999.2500: 
COMP.          Pioneer Natural Resources: COMPANY
WELL.          Fittipaldi 21-12: WELL
FLD.           Purgatoire River: FIELD
LOC.           207' FNL & 2110' FWL--: LOCATION
CNTY.               Las Animas: COUNTY
SRVC.                Patterson: SERVICE COMPANY
DATE.          Wed Mar 22 07:11:06 2006: LOG DATE
UWI.           05 071 08492 00: UNIQUE WELL ID
STAT.                 Colorado: STATE
~Curve Information Block
DEPT.FT            0 000 00 00: Depth
DCAL.in                       : CDL Caliper
RHOB.g/cc                     : CDL Bulk Density
RHOC.g/cc                     : CDL Density Correction
DPOR.pu                       : CDL Density Porosity
NPOR.pu                       : Neutron Porosity
GR.GAPI                       : Gamma Ray
~Parameter Information Block
~A  Depth       DCAL        RHOB        RHOC        DPOR        NPOR         GR     
# ...
   670.2000      8.2654      2.5406      0.0512      6.6316     23.3433    128.0637
   670.3000      8.2723      2.5537      0.1364      5.8343     23.4658    119.8136
   670.4000      8.2723      2.5542      0.0634      5.8066     23.4264    119.8329
   670.5000      8.2757      2.5454      0.1105      6.3418     23.4758    126.5893
   670.6000      8.2757      2.5302      0.0483      7.2630     23.5341    129.9596
   670.7000      8.2757      2.5272     -0.0034      7.4415     23.3228    127.9161
   670.8000      8.2739      2.5446      0.0553      6.3878     22.7685    127.0710
   670.9000      8.2739      2.5548      0.0528      5.7683     22.1526    130.9095
   671.0000      8.2697      2.5412      0.0309      6.5926     21.7631    137.6026
   671.1000      8.2697      2.5248      0.0055      7.5863     21.5921    140.2669
   671.2000      8.2697      2.5323     -0.0159      7.1306     21.4791    135.8233
   671.3000      8.2674      2.5607      0.0423      5.4142     21.4123    126.2689
   671.4000      8.2674      2.5830      0.0753      4.0632     21.2713    114.9394
   671.5000      8.2666      2.5869      0.0364      3.8246     20.8687    108.9971
   671.6000      8.2666      2.5763      0.1093      4.4658     20.5678    110.2767
   671.7000      8.2666      2.5578      0.0376      5.5882     20.7173    113.5439
   671.8000      8.2645      2.5497      0.0405      6.0812     21.1574    116.9787
   671.9000      8.2645      2.5546      0.1005      5.7838     21.5895    118.8819
   672.0000      8.2607      2.5531      0.0646      5.8718     21.7973    114.2343
   672.1000      8.2607      2.5364      0.0878      6.8850     21.7772    105.9763
   672.2000      8.2607      2.5121      0.0141      8.3553     21.7229    103.9130
   672.3000      8.2571      2.4963     -0.0039      9.3139     21.8017    110.1047
   672.4000      8.2571      2.4964      0.0480      9.3082     21.8764    117.6348
   672.5000      8.2558      2.5017      0.0620      8.9874     21.8537    119.7771
   672.6000      8.2558      2.5028      0.0244      8.9213     21.8079    117.4205
   672.7000      8.2558      2.5028      0.0204      8.9226     21.7381    114.8623
   672.8000      8.2590      2.5086      0.0386      8.5700     21.8392    112.0351
   672.9000      8.2590      2.5292      0.0120      7.3200     22.0107    108.3939
   673.0000      8.2635      2.5582      0.0469      5.5610     21.7511    106.9333
   673.1000      8.2635      2.5704      0.0835      4.8222     21.2536    108.9461
   673.2000      8.2635      2.5638      0.0187      5.2234     21.0251    111.7505
   673.3000      8.2671      2.5619      0.0476      5.3412     21.0560    112.9306
   673.4000      8.2671      2.5688      0.0580      4.9200     21.2854    113.7260
   673.5000      8.2681      2.5696      0.0553      4.8747     22.0934    115.8356
   673.6000      8.2681      2.5600      0.0435      5.4533     23.2933    116.5404
   673.7000      8.2681      2.5471      0.0286      6.2364     24.0238    114.8660
   673.8000      8.2663      2.5346      0.0682      6.9968     24.1356    113.0858
   673.9000      8.2663      2.5275      0.0020      7.4264     24.1734    111.8698
   674.0000      8.2642      2.5317      0.0051      7.1671     24.3869    111.8872
   674.1000      8.2642      2.5419     -0.0001      6.5505     24.7722    113.0391
   674.2000      8.2642      2.5473      0.0234      6.2252     25.2899    115.2290
   674.3000      8.2639      2.5467     -0.0058      6.2594     25.7561    117.1513
   674.4000      8.2639      2.5497     -0.0336      6.0768     25.9209    115.9617
   674.5000      8.2649      2.5519      0.0195      5.9450     25.7866    113.7713
   674.6000      8.2649      2.5364     -0.0091      6.8862     25.6397    113.0749
   674.7000      8.2649      2.5116     -0.0536      8.3867     25.6404    113.3616
   674.8000      8.2663      2.5043      0.0051      8.8313     25.7745    117.2156
   674.9000      8.2663      2.5155      0.0378      8.1535     25.9264    123.7277
   675.0000      8.2684      2.5320     -0.0269      7.1519     26.0378    129.0243
   675.1000      8.2684      2.5570      0.0049      5.6365     26.0978    135.9999
   675.2000      8.2684      2.5825      0.0795      4.0907     26.0586    143.5278
   675.3000      8.2706      2.5812      0.0872      4.1682     26.0541    144.3460
   675.4000      8.2706      2.5545      0.0048      5.7875     26.2705    138.3437
   675.5000      8.2736      2.5391     -0.0215      6.7229     26.7349    132.4594
   675.6000      8.2736      2.5581     -0.0211      5.5711     27.1381    131.5367
   675.7000      8.2736      2.5869      0.1067      3.8254     27.2103    134.8416
   675.8000      8.2783      2.5848      0.0453      3.9490     27.0942    137.4953
   675.9000      8.2783      2.5498      0.0064      6.0709     26.6905    137.2569
   676.0000      8.2829      2.5015     -0.0001      9.0030     25.6975    133.9942
   676.1000      8.2829      2.4558     -0.0670     11.7691     24.4527    128.2674
   676.2000      8.2829      2.4351     -0.0700     13.0252     23.5126    122.6973
   676.3000      8.2928      2.4467      0.0069     12.3222     22.9690    119.4931
   676.4000      8.2928      2.4620      0.0659     11.3936     22.6249    121.8762
   676.5000      8.3149      2.4599     -0.0043     11.5216     22.4692    129.2660
   676.6000      8.3149      2.4606     -0.0098     11.4789     22.4496    134.9653
   676.7000      8.3149      2.4778      0.0521     10.4350     22.3369    135.4445
   676.8000      8.3479      2.4830      0.0953     10.1234     22.1342    135.4595
   676.9000      8.3479      2.4503      0.0621     12.1021     21.8515    138.1812
   677.0000      8.3715      2.3969      0.0568     15.3378     21.3738    142.0668
   677.1000      8.3715      2.3544      0.0261     17.9181     20.9486    147.4114
   677.2000      8.3715      2.3354      0.0908     19.0694     20.8876    150.7535
   677.3000      8.3664      2.3374      0.0725     18.9448     20.9322    146.3777
   677.4000      8.3664      2.3617      0.0423     17.4729     20.7579    139.0424
   677.5000      8.3569      2.3945      0.1724     15.4870     20.5492    139.1993
   677.6000      8.3569      2.4032      0.1476     14.9573     20.5504    147.0318
   677.7000      8.3569      2.3880      0.0816     15.8783     20.7115    152.3301
   677.8000      8.3619      2.3802      0.1360     16.3534     20.8293    148.5759
   677.9000      8.3619      2.3857      0.2264     16.0176     20.7321    142.4950
   678.0000      8.3856      2.3879      0.2365     15.8860     20.6352    141.5153
   678.1000      8.3856      2.3849      0.2401     16.0642     20.8760    141.1891
   678.2000      8.3856      2.3822      0.2153     16.2296     21.1892    136.5905
   678.3000      8.4500      2.3810      0.1880     16.3056     21.1840    131.8577
   678.4000      8.4500      2.3964      0.1311     15.3727     20.9390    132.4997
   678.5000      8.5627      2.4537      0.1258     11.8972     20.6865    137.7756
   678.6000      8.5627      2.5507      0.1948      6.0209     20.6176    141.6132
   678.7000      8.5627      2.6499      0.2473      0.0065     20.8109    139.5303
   678.8000      8.6518      2.7136      0.3595     -3.8557     21.1154    133.1300
   678.9000      8.6518      2.7315      0.3216     -4.9414     21.3091    125.7976
   679.0000      8.6364      2.7187      0.3389     -4.1637     21.3926    121.2689
   679.1000      8.6364      2.6904      0.2888     -2.4506     21.5053    121.2979
   679.2000      8.6364      2.6593      0.2128     -0.5608     21.6457    124.8202
   679.3000      8.5450      2.6368      0.1897      0.7970     21.8912    130.0939
   679.4000      8.5450      2.6233      0.1717      1.6173     22.3486    130.9548
   679.5000      8.4280      2.6115      0.1531      2.3322     22.8955    124.0873
   679.6000      8.4280      2.5967      0.0896      3.2304     23.4547    115.1136
   679.7000      8.4280      2.5836      0.0270      4.0234     23.9622    108.4270
