~Version Information
VERS.                      2.0: CWLS Log ASCII Standard - VERSION 2.0
WRAP.                       NO: One line per depth step
~Well Information Block
STRT.FT                -2.0000: 
STOP.FT              2017.5000: 
STEP.FT                 0.2500: 
NULL.                -999.2500: 
COMP.          Pioneer Natural Resources: COMPANY
WELL.            Zink 44-10 Tr: WELL
FLD.           Purgatoire River: FIELD
LOC.           486' FSL & 554' FEL--: LOCATION
PROV.                 Colorado: PROVINCE
CNTY.               Las Animas: COUNTRY
SRVC.                Patterson: SERVICE COMPANY
DATE.          Mon Aug 01 14:01:23 2005: LOG DATE
UWI.           05 071 08446 00: UNIQUE WELL ID
~Curve Information Block
DEPT.FT            0 000 00 00: Depth
CCL.                          : Casing Collar Locator
TT3.usec                      : CBL 3' Travel Time
AMP3.mV                       : CBL 3' Amplitude
GR.GAPI                       : Gamma Ray
~Parameter Information Block
~A  Depth       CCL         TT3         AMP3         GR     
# ...
   936.0000      0.0000   1064.6072     12.0220     72.8854
   936.2500      0.0000   1062.1014     12.0775     66.5656
   936.5000      0.0000   1074.1742     12.0762     60.0697
   936.7500      0.0000   1077.1124     12.0166     54.8519
   937.0000      0.0000   1065.0334     11.9236     51.5782
   937.2500      0.0000   1051.7703     11.8326     49.9012
   937.5000      0.0000   1047.5221     11.7759     49.3577
   937.7500      0.0000   1048.9828     11.7767     49.9474
   938.0000      0.0000   1054.1897     11.8432     51.5852
   938.2500      0.0000   1075.0421     11.9639     53.4837
   938.5000      0.0000   1126.2969     12.1110     54.4717
   938.7500      0.0000   1204.3973     12.2539     53.9240
   939.0000      0.0000   1284.1041     12.3718     52.4056
   939.2500      0.0000   1336.6493     12.4584     51.5014
   939.5000      0.0000   1347.2516     12.5143     52.7623
   939.7500      0.0000   1319.3479     12.5405     56.5517
   940.0000      0.0000   1272.5813     12.5378     62.0438
   940.2500      0.0000   1236.3472     12.5096     68.5193
   940.5000      0.0000   1232.9462     12.4602     76.3204
   940.7500      0.0000   1259.3523     12.3931     86.1644
   941.0000      0.0000   1290.0460     12.3135     97.7591
   941.2500      0.0000   1302.3207     12.2332    109.4652
   941.5000      0.0000   1297.5406     12.1695    119.1701
   941.7500      0.0000   1295.9429     12.1352    125.2191
   942.0000      0.0000   1312.9792     12.1303    126.8505
   942.2500      0.0000   1344.8722     12.1449    124.5802
   942.5000      0.0000   1376.6282     12.1744    120.3777
   942.7500      0.0000   1397.8510     12.2247    116.8552
   943.0000      0.0000   1408.0818     12.2986    115.7667
   943.2500      0.0000   1411.7565     12.3813    117.4293
   943.5000      0.0000   1412.7551     12.4463    121.4053
   943.7500      0.0000   1412.9441     12.4786    126.8803
   944.0000      0.0000   1412.8622     12.4889    132.1547
   944.2500      0.0000   1412.2391     12.5026    134.7818
   944.5000      0.0000   1409.7251     12.5366    132.8947
   944.7500      0.0000   1401.7413     12.5849    126.3215
   945.0000      0.0000   1381.6136     12.6230    116.5561
   945.2500      0.0000   1340.8861     12.6209    105.8528
   945.5000      0.0000   1273.7584     12.5523     96.0237
   945.7500      0.0000   1182.0483     12.3998     87.8084
   946.0000      0.0000   1076.4741     12.1641     81.3070
   946.2500      0.0000    972.9655     11.8732     76.5812
   946.5000      0.0000    886.1833     11.5792     73.4585
   946.7500      0.0000    823.8538     11.3360     71.1265
   947.0000      0.0000    785.4417     11.1754     68.5553
   947.2500      0.0000    765.7500     11.0945     65.5283
   947.5000      0.0000    759.8685     11.0634     62.9746
   947.7500      0.0000    766.1675     11.0461     62.0494
   948.0000      0.0000    786.8705     11.0211     62.9898
   948.2500      0.0000    825.5703     10.9871     65.1080
   948.5000      0.0000    880.7054     10.9536     67.7504
   948.7500      0.0000    939.1700     10.9317     71.0927
   949.0000      0.0000    979.4244     10.9332     76.1767
   949.2500      0.0000    986.1753     10.9754     84.2805
   949.5000      0.0000    963.1435     11.0778     95.9545
   949.7500      0.0000    929.3232     11.2458    110.2128
   950.0000      0.0000    903.2691     11.4561    124.4570
   950.2500      0.0000    892.3047     11.6604    135.5024
   950.5000      0.0000    893.4008     11.8085    141.3486
   950.7500      0.0000    899.6472     11.8728    142.4398
   951.0000      0.0000    906.1534     11.8552    141.3213
   951.2500      0.0000    912.7609     11.7751    140.8518
   951.5000      0.0000    922.1255     11.6557    142.2408
   951.7500      0.0000    935.4331     11.5203    144.3752
   952.0000      0.0000    950.6108     11.3918    145.1088
   952.2500      0.0000    964.5441     11.2847    143.4306
   952.5000      0.0000    975.6513     11.2014    140.1409
   952.7500      0.0000    983.2365     11.1384    136.4818
   953.0000      0.0000    984.9615     11.0909    132.9130
   953.2500      0.0000    977.6227     11.0482    129.5477
   953.5000      0.0000    961.8929     10.9915    126.9188
   953.7500      0.0000    944.1506     10.9062    125.7791
   954.0000      0.0000    931.6933     10.7957    126.5823
   954.2500      0.0000    927.3275     10.6774    129.2492
   954.5000      0.0000    929.0676     10.5694    132.9239
   954.7500      0.0000    933.3040     10.4851    135.8164
   955.0000      0.0000    937.6071     10.4363    135.7172
   955.2500      0.0000    941.5355     10.4260    131.2012
   955.5000      0.0000    945.5293     10.4293    122.7142
   955.7500      0.0000    949.3384     10.3837    112.4946
   956.0000      0.0000    951.4560     10.2135    103.2827
   956.2500      0.0000    950.3958      9.8925     97.0013
   956.5000      0.0000    947.2224      9.4966     94.2915
   956.7500      0.0000    946.9105      9.1670     94.5773
   957.0000      0.0000    955.4932      8.9774     96.2975
   957.2500      0.0000    974.1796      8.8654     97.5536
   957.5000      0.0000    996.8439      8.7361     96.9491
   957.7500      0.0000   1014.6965      8.5880     94.0663
   958.0000      0.0000   1023.0989      8.4790     89.5705
   958.2500     -2.0000   1023.3998      8.4159     85.0091
   958.5000     -2.0000   1020.2905      8.3491     82.0407
   958.7500      2.0000   1018.6895      8.2667     81.4388
   959.0000      0.0000   1020.0662      8.2709     82.8612
   959.2500      0.0000   1019.7771      8.5414     85.4518
   959.5000      0.0000   1011.1205      9.1807     88.3390
   959.7500      0.0000    993.4371     10.0573     90.6935
   960.0000      0.0000    973.1263     10.8533     91.8175
   960.2500      0.0000    956.5757     11.3236     91.4429
   960.5000      0.0000    945.2091     11.4756     90.0579
   960.7500      0.0000    937.1722     11.4739     88.8773
   961.0000      0.0000    930.8489     11.4454     88.9812
   961.2500      0.0000    926.1956     11.4196     90.2512
   961.5000      0.0000    923.9214     11.3893     91.7138
   961.7500      0.0000    923.9232     11.3612     93.0828
   962.0000      0.0000    924.4834     11.3528     95.1640
   962.2500      0.0000    922.8655     11.3726     98.5435
   962.5000      0.0000    916.7465     11.4119    102.7374
   962.7500      0.0000    905.5165     11.4503    107.0720
   963.0000      0.0000    890.3818     11.4697    111.6800
   963.2500      0.0000    873.3292     11.4639    117.1133
   963.5000      0.0000    856.6839     11.4372    123.3434
   963.7500      0.0000    844.1425     11.3912    129.3104
   964.0000      0.0000    840.6808     11.3148    133.1101
   964.2500      0.0000    848.9836     11.1966    132.8973
   964.5000      0.0000    865.7318     11.0496    128.5239
   964.7500      0.0000    883.1349     10.9165    122.6030
   965.0000      0.0000    894.5755     10.8394    119.3189
   965.2500      0.0000    898.2111     10.8267    121.4702
   965.5000      0.0000    895.9104     10.8573    128.4131
   965.7500      0.0000    890.3890     10.9117    136.7684
   966.0000      0.0000    883.5890     10.9927    142.9504
   966.2500      0.0000    876.5747     11.1136    145.0724
   966.5000      0.0000    870.0256     11.2717    142.8831
   966.7500      0.0000    864.6502     11.4393    136.8122
   967.0000      0.0000    861.1294     11.5853    127.8221
   967.2500      0.0000    859.9260     11.6977    117.7735
   967.5000      0.0000    861.2697     11.7836    108.8120
   967.7500      0.0000    865.0244     11.8523    102.1110
   968.0000      0.0000    870.2046     11.9075     97.6276
   968.2500      0.0000    875.0546     11.9530     95.0222
   968.5000      0.0000    878.2551     11.9977     94.2656
   968.7500      0.0000    879.7929     12.0507     95.3064
   969.0000      0.0000    879.9860     12.1099     97.7546
   969.2500      0.0000    878.2695     12.1571    101.3229
