~Version Information
VERS.                      2.0: CWLS Log ASCII Standard - VERSION 2.0
WRAP.                       NO: One line per depth step
~Well Information Block
STRT.FT               615.0000: 
STOP.FT              1609.0000: 
STEP.FT                 0.2500: 
NULL.                -999.2500: 
COMP.          Pioneer Natural Resources: COMPANY
WELL.          Galloway 32-13 Tr: WELL
FLD.           Purgatoire River: FIELD
LOC.           1910' FNL & 2002' FEL: LOCATION
PROV.                 Colorado: PROVINCE
CNTY.               Las Animas: COUNTRY
SRVC.                Patterson: SERVICE COMPANY
DATE.          Sat Nov 12 20:19:28 2005: LOG DATE
UWI.           05 071 08608 00: UNIQUE WELL ID
~Curve Information Block
DEPT.FT            0 000 00 00: Depth
SN.Ohm-m                      : IEL Short Normal
SP.mV                         : IEL Spontaneous Potential
DIR.Ohm-m                     : IEL Induction Resistivity
GR.GAPI                       : Gamma Ray
~Parameter Information Block
~A  Depth        SN          SP         DIR          GR     
# ...
  1017.0000     27.6121     35.6308     28.2737     94.6649
  1017.2500     28.0977     35.5440     50.5624     94.9620
  1017.5000     28.6008     35.4662    228.0994     97.5776
  1017.7500     29.0512     35.3996 100000.0000    100.3933
  1018.0000     29.3606     35.3443 100000.0000    104.7582
  1018.2500     29.4815     35.2937 100000.0000    106.9040
  1018.5000     29.4782     35.2358 100000.0000    108.2905
  1018.7500     29.4634     35.1579 100000.0000    108.1454
  1019.0000     29.3966     35.0522 100000.0000    107.3730
  1019.2500     29.1370     34.9161 100000.0000    107.2812
  1019.5000     28.6643     34.7483 100000.0000    108.5942
  1019.7500     28.0518     34.5451 100000.0000    110.3193
  1020.0000     27.3733     34.3010 100000.0000    113.3350
  1020.2500     26.6679     34.0117 100000.0000    115.2341
  1020.5000     25.9171     33.6750 100000.0000    117.9628
  1020.7500     25.1056     33.2825 100000.0000    120.1019
  1021.0000     24.2439     32.8101 100000.0000    124.4354
  1021.2500     23.3640     32.2150 100000.0000    128.0191
  1021.5000     22.5495     31.4429 100000.0000    133.4302
  1021.7500     21.8848     30.4384 100000.0000    136.3115
  1022.0000     21.3842     29.1496 100000.0000    138.7475
  1022.2500     20.9858     27.5217 100000.0000    138.9583
  1022.5000     20.5960     25.4851 100000.0000    137.0505
  1022.7500     20.1986     22.9445 100000.0000    134.4517
  1023.0000     19.8855     19.7692 100000.0000    129.8087
  1023.2500     19.6515     15.7836 100000.0000    127.3862
  1023.5000     19.2786     10.7638     18.4562    126.2248
  1023.7500     18.5560      4.4423      3.0960    127.1179
  1024.0000     17.3629     -3.4727      1.6429    129.9971
  1024.2500     15.5136    -13.2601      1.2241    132.3045
  1024.5000     12.8680    -25.1274      1.1473    135.4220
  1024.7500      9.6203    -39.1148      1.2900    136.7248
  1025.0000      6.3375    -54.9423      1.6337    136.4943
  1025.2500      3.7009    -71.8356      2.0573    134.3899
  1025.5000      2.1072    -88.4705      2.1487    128.2349
  1025.7500      1.4624   -103.1973      1.7568    122.6892
  1026.0000      1.3654   -114.5613      1.2966    113.5083
  1026.2500      1.4031   -121.8615      0.9982    107.3077
  1026.5000      1.3467   -125.3659      0.8591     98.4593
  1026.7500      1.2497   -126.0124      0.8514     93.4032
  1027.0000      1.5411   -124.8386      0.9880     88.2752
  1027.2500      3.3067   -122.5694      1.3713     86.9112
  1027.5000      8.4507   -119.5719      2.4242     87.7463
  1027.7500     18.8127   -116.0390      7.2462     89.6577
  1028.0000     34.3110   -112.1543 100000.0000     93.2395
  1028.2500     52.3282   -108.1271 100000.0000     95.4423
  1028.5000     69.5613   -104.1511 100000.0000     97.8854
  1028.7500     84.0518   -100.3618 100000.0000     98.7478
  1029.0000     95.3894    -96.8190 100000.0000     98.3523
  1029.2500    103.9504    -93.5043 100000.0000     96.7334
  1029.5000    110.3404    -90.3159 100000.0000     92.8219
  1029.7500    115.0760    -87.0691 100000.0000     90.0050
  1030.0000    118.4301    -83.5691 100000.0000     86.4946
  1030.2500    120.4413    -79.8029 100000.0000     84.7002
  1030.5000    120.9936    -76.1137 100000.0000     82.5174
  1030.7500    119.9726    -73.0888 100000.0000     81.3714
  1031.0000    117.7823    -71.1484 100000.0000     80.3719
  1031.2500    115.9529    -70.2311 100000.0000     80.2631
  1031.5000    116.1337    -69.9186 100000.0000     80.6866
  1031.7500    118.0415    -69.8191 100000.0000     81.0035
  1032.0000    119.9112    -69.7890 100000.0000     80.7635
  1032.2500    120.7519    -69.8712 100000.0000     79.8557
  1032.5000    120.7461    -70.1449 100000.0000     77.6663
  1032.7500    120.1543    -70.6552 100000.0000     76.1607
  1033.0000    118.8406    -71.4222     72.3149     74.6084
  1033.2500    116.4873    -72.4649      3.1020     74.2332
  1033.5000    112.7750    -73.8081      1.0987     74.5506
  1033.7500    107.3933    -75.4771      0.5092     75.1317
  1034.0000    100.0034    -77.4858      0.2529     76.1608
  1034.2500     90.1662    -79.8208      0.1272     76.8203
  1034.5000     77.4360    -82.4172      0.0680     77.8729
  1034.7500     61.8402    -85.1296      0.0412     79.0080
  1035.0000     44.5032    -87.6976      0.0289     82.6598
  1035.2500     27.8572    -89.7059      0.0231     87.1066
  1035.5000     14.7716    -90.5517      0.0203     96.5254
  1035.7500      6.7486    -89.4642      0.0190    103.2861
  1036.0000      3.0384    -85.6525      0.0183    111.1949
  1036.2500      1.7655    -78.5992      0.0179    114.2016
  1036.5000      1.4777    -68.3674      0.0176    116.6641
  1036.7500      1.6510    -55.6927      0.0177    118.5898
  1037.0000      2.3990    -41.7710      0.0188    123.8322
  1037.2500      3.9672    -27.8968      0.0220    128.7727
  1037.5000      6.3472    -15.1572      0.0298    136.5749
  1037.7500      9.2045     -4.2541      0.0480    140.9143
  1038.0000     12.1007      4.5611      0.0908    144.8573
  1038.2500     14.7967     11.4488      0.1880    145.3341
  1038.5000     17.3305     16.8556      0.3895    142.6469
  1038.7500     19.8013     21.3448      0.8128    139.1047
  1039.0000     22.2677     25.4250      1.9263    132.9550
  1039.2500     24.9383     29.4129      7.1394    129.1711
  1039.5000     28.2627     33.3735 100000.0000    123.8747
  1039.7500     32.5874     37.1662 100000.0000    119.6276
  1040.0000     37.6258     40.5742 100000.0000    110.6130
  1040.2500     42.4461     43.4412 100000.0000    103.0522
  1040.5000     46.1055     45.7444 100000.0000     92.0228
  1040.7500     48.2903     47.5778 100000.0000     86.7955
  1041.0000     49.4672     49.0843 100000.0000     83.9389
  1041.2500     50.2950     50.3895 100000.0000     85.2028
  1041.5000     50.7593     51.5721 100000.0000     90.5005
  1041.7500     50.1824     52.6675 100000.0000     95.4610
  1042.0000     48.1892     53.6817 100000.0000    103.8363
  1042.2500     45.2621     54.6040 100000.0000    109.4399
  1042.5000     42.1892     55.4158 100000.0000    117.0497
  1042.7500     39.3546     56.0980 100000.0000    121.2086
  1043.0000     36.7563     56.6399 100000.0000    125.5252
  1043.2500     34.3934     57.0471 100000.0000    127.0229
  1043.5000     32.3731     57.3431 100000.0000    127.7048
  1043.7500     30.7487     57.5620 100000.0000    127.5815
  1044.0000     29.4261     57.7357 100000.0000    126.8228
  1044.2500     28.2247     57.8845 100000.0000    125.7707
  1044.5000     26.9912     58.0157 100000.0000    123.5214
  1044.7500     25.6822     58.1297 100000.0000    122.3423
  1045.0000     24.3783     58.2270    848.2484    122.7196
  1045.2500     23.2286     58.3082     27.6537    124.5953
  1045.5000     22.3202     58.3692     15.6958    128.3251
  1045.7500     21.6253     58.3980     12.0099    130.1774
  1046.0000     21.1346     58.3803     10.3895    130.6839
  1046.2500     20.8983     58.3095      9.5560    129.3998
  1046.5000     20.8879     58.1946      9.0901    125.7291
  1046.7500     20.9932     58.0581      8.8374    122.8370
  1047.0000     21.1900     57.9267      8.7478    119.0980
  1047.2500     21.5774     57.8200      8.8102    117.5250
  1047.5000     22.2147     57.7429      9.0234    116.9060
  1047.7500     23.0103     57.6852      9.3901    117.5608
  1048.0000     23.7406     57.6269      9.9358    119.5829
  1048.2500     24.1699     57.5470     10.7660    121.1858
  1048.5000     24.2989     57.4324     12.2015    123.1272
  1048.7500     24.4062     57.2813     15.1843    123.4806
  1049.0000     24.7717     57.0987     23.4123    121.2157
  1049.2500     25.5406     56.8878     80.8902    117.1199
  1049.5000     26.7953     56.6459 100000.0000    106.8067
  1049.7500     28.5844     56.3681 100000.0000     97.7551
  1050.0000     30.8878     56.0513 100000.0000     82.8697
  1050.2500     33.5484     55.6944 100000.0000     73.4226
