~Version Information
VERS.                      2.0: CWLS Log ASCII Standard - VERSION 2.0
WRAP.                       NO: One line per depth step
~Well Information Block
STRT.FT               710.0000: 
STOP.FT              1983.0000: 
STEP.FT                 0.1000: 
NULL.                -999.2500: 
COMP.          Petrogulf Corporation: COMPANY
WELL.           State 16-23R-X: WELL
FLD.           Purgatorie River: FIELD
LOC.           2381' FSL & 2072' FWL: LOCATION
PROV.                 Colorado: PROVINCE
CNTY.               Las Animas: COUNTRY
SRVC.                Patterson: SERVICE COMPANY
DATE.          Mon Aug 08 07:36:34 2005: LOG DATE
UWI.                          : UNIQUE WELL ID
~Curve Information Block
DEPT.FT            0 000 00 00: Depth
DCAL.in                       : CDL Caliper
RHOB.g/cc                     : CDL Bulk Density
RHOC.g/cc                     : CDL Density Correction
DPOR.pu                       : CDL Density Porosity
GR.GAPI                       : Gamma Ray
NPOR.pu                       : Neutron Porosity
~Parameter Information Block
~A  Depth       DCAL        RHOB        RHOC        DPOR         GR         NPOR    
# ...
  1535.6000      7.7292      2.6378      0.1307      0.7391    102.7967     24.6834
  1535.7000      7.7292      2.6170      0.1189      1.9990    102.6768     24.5863
  1535.8000      7.7274      2.6032      0.0318      2.8340    104.9825     24.5065
  1535.9000      7.7274      2.6062      0.1169      2.6550    110.7689     24.4531
  1536.0000      7.7216      2.6078      0.0870      2.5578    114.8940     24.4932
  1536.1000      7.7216      2.6007      0.0868      2.9875    113.4265     24.6106
  1536.2000      7.7216      2.5951      0.0704      3.3289    109.9622     24.7378
  1536.3000      7.7250      2.5968      0.0754      3.2267    109.3050     25.1004
  1536.4000      7.7250      2.6038      0.1030      2.8027    110.8323     25.8041
  1536.5000      7.7308      2.6120      0.0925      2.3022    111.5918     26.3780
  1536.6000      7.7308      2.6170      0.0978      2.0019    111.5418     26.5614
  1536.7000      7.7308      2.6078      0.0891      2.5569    111.8171     26.4913
  1536.8000      7.7485      2.5805      0.0575      4.2108    113.2085     26.3225
  1536.9000      7.7485      2.5542      0.0060      5.8044    115.0003     26.2724
  1537.0000      7.7343      2.5515      0.0429      5.9697    115.2976     26.3338
  1537.1000      7.7343      2.5736      0.0623      4.6291    113.3929     26.3038
  1537.2000      7.7343      2.6118      0.0786      2.3128    110.2429     26.2676
  1537.3000      7.7333      2.6607      0.1163     -0.6498    108.3113     26.5165
  1537.4000      7.7333      2.7050      0.1956     -3.3349    108.9230     26.7729
  1537.5000      7.7291      2.7204      0.2001     -4.2696    111.4055     26.5722
  1537.6000      7.7291      2.7032      0.1522     -3.2237    115.1544     26.1870
  1537.7000      7.7291      2.6705      0.1446     -1.2449    120.4693     26.0054
  1537.8000      7.6960      2.6389      0.1213      0.6747    128.1350     25.8663
  1537.9000      7.6960      2.6187      0.1042      1.8972    136.4520     25.6685
  1538.0000      7.7026      2.6102      0.0784      2.4106    142.8086     25.6304
  1538.1000      7.7026      2.6036      0.0906      2.8135    146.5732     25.8666
  1538.2000      7.7026      2.5910      0.0699      3.5771    145.9142     26.2360
  1538.3000      7.8058      2.5738      0.0805      4.6160    141.0863     26.5948
  1538.4000      7.8058      2.5572      0.0424      5.6215    140.4253     26.8612
  1538.5000      7.8345      2.5457      0.0243      6.3240    148.4616     27.0340
  1538.6000      7.8345      2.5414      0.0067      6.5825    157.7738     27.2607
  1538.7000      7.8345      2.5369      0.0477      6.8571    161.3437     27.6178
  1538.8000      7.8040      2.5231      0.0051      7.6888    159.9244     27.9480
  1538.9000      7.8040      2.5060      0.0208      8.7302    157.9990     28.0676
  1539.0000      7.8076      2.4987     -0.0178      9.1700    160.1586     28.0587
  1539.1000      7.8076      2.5064      0.0424      8.7017    165.8800     28.2267
  1539.2000      7.8076      2.5140      0.0986      8.2450    170.0155     28.5552
  1539.3000      7.8201      2.5033      0.0731      8.8917    171.1956     28.8166
  1539.4000      7.8201      2.4829      0.0692     10.1286    171.1410     28.7171
  1539.5000      7.8186      2.4776      0.0780     10.4462    170.5204     28.2393
  1539.6000      7.8186      2.4956      0.1445      9.3590    169.6424     27.8415
  1539.7000      7.8186      2.5222      0.1504      7.7484    167.4854     27.7221
  1539.8000      7.8089      2.5440      0.1724      6.4234    163.1756     27.7677
  1539.9000      7.8089      2.5572      0.1701      5.6230    158.7797     27.7558
  1540.0000      7.8337      2.5612      0.1998      5.3804    157.9080     27.4296
  1540.1000      7.8337      2.5565      0.2058      5.6688    161.9516     27.1394
  1540.2000      7.8337      2.5439      0.1717      6.4296    167.9771     27.2409
  1540.3000      7.8388      2.5292      0.1020      7.3192    173.7052     27.2725
  1540.4000      7.8388      2.5181      0.1186      7.9939    177.9674     26.8544
  1540.5000      7.8338      2.5062      0.1030      8.7146    177.5422     26.2962
  1540.6000      7.8338      2.4909      0.1269      9.6454    172.0083     25.8997
  1540.7000      7.8338      2.4779      0.1252     10.4288    166.9520     25.4729
  1540.8000      7.8528      2.4658      0.1389     11.1611    164.1381     24.6771
  1540.9000      7.8528      2.4394      0.1312     12.7636    160.2248     23.5123
  1541.0000      7.8629      2.3860      0.1029     15.9970    156.6309     22.3135
  1541.1000      7.8629      2.3025      0.1273     21.0583    156.0019     21.4296
  1541.2000      7.8629      2.1929      0.0834     27.7019    154.9646     20.8096
  1541.3000      7.8262      2.0785      0.0235     34.6362    149.6602     20.2468
  1541.4000      7.8262      1.9946     -0.0558     39.7196    142.9366     19.9000
  1541.5000      7.8348      1.9603      0.0244     41.8004    136.8762     19.9136
  1541.6000      7.8348      1.9616      0.0551     41.7222    129.9150     20.1114
  1541.7000      7.8348      1.9777      0.0901     40.7431    123.5512     20.4783
  1541.8000      7.8248      2.0068      0.0881     38.9830    119.9156     21.2692
  1541.9000      7.8248      2.0604      0.1315     35.7309    119.0032     22.6986
  1542.0000      7.8182      2.1427      0.2093     30.7465    120.7627     24.6750
  1542.1000      7.8182      2.2384      0.2386     24.9474    124.7606     26.5677
  1542.2000      7.8182      2.3255      0.1186     19.6674    128.1308     27.6397
  1542.3000      7.8008      2.3942      0.0573     15.5027    127.9898     27.9808
  1542.4000      7.8008      2.4451      0.0582     12.4184    126.0199     28.2623
  1542.5000      7.7957      2.4750      0.0513     10.6080    126.4600     28.7909
  1542.6000      7.7957      2.4802      0.0220     10.2934    129.4845     29.2347
  1542.7000      7.7957      2.4753     -0.0039     10.5869    130.5119     29.2102
  1542.8000      7.7765      2.4793      0.0467     10.3464    126.9358     28.7142
  1542.9000      7.7765      2.4892      0.0842      9.7438    122.8396     27.9598
  1543.0000      7.7825      2.5010      0.0717      9.0308    121.7891     27.3038
  1543.1000      7.7825      2.5270      0.1170      7.4540    122.7188     26.8564
  1543.2000      7.7825      2.5685      0.1864      4.9404    125.8145     26.2627
  1543.3000      7.7546      2.6110      0.1845      2.3663    128.7656     25.5742
  1543.4000      7.7546      2.6461      0.2317      0.2345    126.9364     25.2809
  1543.5000      7.7646      2.6658      0.2550     -0.9567    122.0771     25.3354
  1543.6000      7.7646      2.6591      0.2404     -0.5521    118.2993     25.3662
  1543.7000      7.7646      2.6314      0.1573      1.1278    115.9251     25.1388
  1543.8000      7.7717      2.5956      0.1607      3.2972    114.3577     24.6792
  1543.9000      7.7717      2.5551      0.1083      5.7529    113.9914     24.3831
  1544.0000      7.7469      2.5249      0.0544      7.5804    116.8200     24.4770
  1544.1000      7.7469      2.5295      0.0428      7.3042    121.6023     24.5574
  1544.2000      7.7469      2.5637      0.1177      5.2332    123.6411     24.4088
  1544.3000      7.7649      2.5939      0.1348      3.3999    122.6053     24.5160
  1544.4000      7.7649      2.6052      0.1241      2.7135    121.3820     24.9601
  1544.5000      7.7714      2.6143      0.1067      2.1640    118.5871     25.2729
  1544.6000      7.7714      2.6330      0.1875      1.0288    112.6363     25.3977
  1544.7000      7.7714      2.6481      0.1977      0.1165    107.4565     25.4620
  1544.8000      7.7524      2.6450      0.1901      0.3006    106.2772     25.3671
  1544.9000      7.7524      2.6247      0.2026      1.5305    107.7611     25.0900
  1545.0000      7.7585      2.5993      0.1388      3.0700    108.5885     24.7972
  1545.1000      7.7585      2.5861      0.0834      3.8720    106.3721     24.7108
