~Version Information
VERS.                      2.0: CWLS Log ASCII Standard - VERSION 2.0
WRAP.                       NO: One line per depth step
~Well Information Block
STRT.FT                 0.0000: 
STOP.FT              2072.7500: 
STEP.FT                 0.2500: 
NULL.                -999.2500: 
COMP.          Pioneer Natural Resources: COMPANY
WELL.          Greenwood 43-29 Tr: WELL
FLD.           Purgatorie River: FIELD
LOC.           1478' FSL & 744' FEL: LOCATION
STAT.                 Colorado: State
CNTY.               Las Animas: COUNTY
CTRY. USA : Country
SECT. 29 : Section
TOWN. 32S : Township
RANG. 67W : Range
SRVC.                Patterson: SERVICE COMPANY
DATE.          Tue Sep 06 12:54:40 2005: LOG DATE
API. 05-071-08478                          : UNIQUE WELL ID
~Curve Information Block
DEPT.FT            0 000 00 00: Depth
GR.GAPI                       : Gamma Ray
CCL.                          : Casing Collar Locator
TT3.usec                      : CBL 3' Travel Time
AMP3.mV                       : CBL 3' Amplitude
~Parameter Information Block
~A  Depth        GR         CCL         TT3         AMP3    
# ...
  1909.5000     71.8312      0.0000    784.7809      4.5228
  1909.7500     76.3538      0.0000    778.5986      4.5075
  1910.0000     82.0888      0.0000    777.5414      4.5022
  1910.2500     87.2368      0.0000    779.9722      4.5053
  1910.5000     89.9498      0.0000    781.6011      4.5124
  1910.7500     88.9703      0.0000    779.9447      4.5204
  1911.0000     84.0857      0.0000    777.3854      4.5257
  1911.2500     76.5650      0.0000    778.2712      4.5271
  1911.5000     68.9149      0.0000    784.2850      4.5279
  1911.7500     63.3878      0.0000    793.0135      4.5307
  1912.0000     60.5421      0.0000    800.5839      4.5396
  1912.2500     59.4708      0.0000    805.8730      4.5733
  1912.5000     59.2101      0.0000    810.6923      4.6756
  1912.7500     59.5529      0.0000    815.1317      4.8850
  1913.0000     60.6080      0.0000    814.6212      5.1031
  1913.2500     62.0590      0.0000    805.3628      5.0625
  1913.5000     63.1271      0.0000    791.5801      4.6695
  1913.7500     63.0860      0.0000    781.3328      4.2195
  1914.0000     61.6675      0.0000    775.4513      3.9939
  1914.2500     59.1652      0.0000    766.0092      3.9517
  1914.5000     56.3907      0.0000    749.9887      3.9576
  1914.7500     54.4319      1.0000    738.8544      3.9704
  1915.0000     54.2247      0.0000    742.7884      3.9911
  1915.2500     56.1251      0.0000    755.0825      4.0441
  1915.5000     59.5796      0.0000    764.3987      4.2262
  1915.7500     63.1463      0.0000    768.3994      4.6282
  1916.0000     65.3105      0.0000    769.6775      5.1183
  1916.2500     65.5386      0.0000    769.8725      5.3915
  1916.5000     64.3745      0.0000    769.6379      5.3358
  1916.7500     62.6161      0.0000    769.4402      5.1182
  1917.0000     60.8311      0.0000    769.4742      4.9183
  1917.2500     59.5948      0.0000    769.6995      4.7905
  1917.5000     59.5339      0.0000    769.9997      4.7272
  1917.7500     60.8418      0.0000    770.2527      4.7259
  1918.0000     63.0461      0.0000    770.4594      4.8234
  1918.2500     65.4040      0.0000    770.8896      5.0849
  1918.5000     67.4120      0.0000    772.3629      5.4775
  1918.7500     68.9670      0.0000    776.4948      5.7508
  1919.0000     70.2612      0.0000    784.4294      5.6564
  1919.2500     71.5449      0.0000    794.3855      5.2918
  1919.5000     72.7592      0.0000    802.4682      4.9601
  1919.7500     73.4002      0.0000    806.7431      4.7819
  1920.0000     72.9349      0.0000    808.2743      4.6752
  1920.2500     71.3916      0.0000    808.7525      4.5693
  1920.5000     69.5311      0.0000    809.0786      4.4782
  1920.7500     68.5597      0.0000    809.4908      4.4338
  1921.0000     69.6277      0.0000    809.9191      4.4340
  1921.2500     73.0412      0.0000    810.2618      4.4562
  1921.5000     77.4959      0.0000    810.5498      4.4831
  1921.7500     80.5975      0.0000    810.8835      4.5050
  1922.0000     80.9359      0.0000    811.2776      4.5205
  1922.2500     79.5295      0.0000    811.6338      4.5317
  1922.5000     78.7951      0.0000    811.8201      4.5316
  1922.7500     80.2738      0.0000    811.7068      4.5136
  1923.0000     83.5678      0.0000    811.2211      4.4905
  1923.2500     87.1088      0.0000    810.4897      4.4904
  1923.5000     89.6874      0.0000    809.8125      4.5175
  1923.7500     91.3593      0.0000    809.4631      4.5008
  1924.0000     92.8342      0.0000    809.5963      4.3287
  1924.2500     94.2571      0.0000    810.1535      4.0166
  1924.5000     95.1978      0.0000    810.7664      3.8063
  1924.7500     95.6531      0.0000    811.0093      3.9665
  1925.0000     96.2218      0.0000    810.8188      4.4946
  1925.2500     97.2157      0.0000    810.4924      5.1253
  1925.5000     98.2133      0.0000    810.3192      5.5501
  1925.7500     98.6830      0.0000    810.3546      5.6030
  1926.0000     98.6683      0.0000    810.4766      5.3704
  1926.2500     98.5679      0.0000    810.4453      5.1065
  1926.5000     98.4730      0.0000    809.6484      4.9904
  1926.7500     98.0355      0.0000    807.1422      4.9916
  1927.0000     96.8639      0.0000    803.3509      4.9882
  1927.2500     94.6812      0.0000    801.3140      4.9577
  1927.5000     91.2044      0.0000    803.2721      4.9569
  1927.7500     86.4188      0.0000    807.2498      5.0088
  1928.0000     81.0544      0.0000    809.9802      5.1030
  1928.2500     76.3202      0.0000    810.1222      5.2106
  1928.5000     72.9537      0.0000    807.4073      5.2587
  1928.7500     70.7896      0.0000    802.1662      5.1800
  1929.0000     69.3174      0.0000    794.4843      5.0108
  1929.2500     68.3578      0.0000    780.2125      4.8746
  1929.5000     68.0391      0.0000    755.0782      4.8654
  1929.7500     68.3033      0.0000    729.1401      4.9731
  1930.0000     68.7570      0.0000    721.7878      5.1043
  1930.2500     68.9809      0.0000    735.0938      5.1814
  1930.5000     68.7381      0.0000    749.0739      5.2807
  1930.7500     67.9734      0.0000    742.1608      5.5742
  1931.0000     67.0428      0.0000    704.8625      5.9985
  1931.2500     66.8864      0.0000    648.5780      6.1862
  1931.5000     68.3040      0.0000    609.6685      5.9857
  1931.7500     70.7711      0.0000    621.5298      5.7529
  1932.0000     72.4660      0.0000    674.9918      5.8222
  1932.2500     71.9216      0.0000    729.5751      6.0831
  1932.5000     69.5455      0.0000    761.3256      6.3346
  1932.7500     67.2128      0.0000    775.9706      6.6676
  1933.0000     66.3483      0.0000    786.2120      7.1135
  1933.2500     66.6663      0.0000    796.3036      7.2476
  1933.5000     66.8613      0.0000    804.1489      6.7532
  1933.7500     66.1296      0.0000    808.2521      6.0020
  1934.0000     64.6881      0.0000    809.7576      5.4987
  1934.2500     63.1891      0.0000    810.3222      5.3009
  1934.5000     62.1995      0.0000    810.7372      5.2376
  1934.7500     62.0189      0.0000    811.1162      5.2112
  1935.0000     62.5108      0.0000    811.3483      5.2001
  1935.2500     63.3063      0.0000    811.3362      5.1837
  1935.5000     64.3844      0.0000    811.1006      5.1433
  1935.7500     65.9762      0.0000    810.7877      5.0938
  1936.0000     67.7342      0.0000    810.5267      5.0592
  1936.2500     68.7224      0.0000    810.3281      5.0373
  1936.5000     68.5453      0.0000    810.1762      5.0173
  1936.7500     67.8569      0.0000    810.0898      5.0009
  1937.0000     67.5115      0.0000    810.0659      4.9943
  1937.2500     67.6755      0.0000    810.0730      4.9971
  1937.5000     67.9746      0.0000    810.0887      4.9982
  1937.7500     68.2085      0.0000    810.1091      4.9826
  1938.0000     68.6338      0.0000    810.1436      4.9451
  1938.2500     69.5649      0.0000    810.1924      4.8954
  1938.5000     70.9607      0.0000    810.2294      4.8499
  1938.7500     72.5639      0.0000    810.2351      4.8176
  1939.0000     74.2315      0.0000    810.2307      4.7946
  1939.2500     75.8997      0.0000    810.2523      4.7730
  1939.5000     77.3768      0.0000    810.3198      4.7508
  1939.7500     78.3804      0.0000    810.4120      4.7336
  1940.0000     78.7098      0.0000    810.4705      4.7199
  1940.2500     78.3831      0.0000    810.4687      4.6905
  1940.5000     77.7853      0.0000    810.4435      4.6349
  1940.7500     77.6197      0.0000    810.4019      4.5776
  1941.0000     78.3821      0.0000    810.1019      4.5542
  1941.2500     79.7114      0.0000    808.4751      4.5676
  1941.5000     80.4261      0.0000    802.2253      4.5839
  1941.7500     79.4637      0.0000    783.8557      4.5772
  1942.0000     76.8578      0.0000    741.9135      4.5654
  1942.2500     73.6775      0.0000    670.6872      4.5861
  1942.5000     70.9838      0.0000    585.4319      4.6447
  1942.7500     68.9821      0.0000    515.4718      4.7091
