~Version Information
VERS.                      2.0: CWLS Log ASCII Standard - VERSION 2.0
WRAP.                       NO: One line per depth step
~Well Information Block
STRT.FT                -6.7500: 
STOP.FT              1661.0000: 
STEP.FT                 0.2500: 
NULL.                -999.2500: 
COMP.          Pioneer Natural Resources: COMPANY
WELL.           Pedri 42-33 Tr: WELL
FLD.           Purgatorie River: FIELD
LOC.           1933'' FNL & 662' FEL--: LOCATION
PROV.                       CO: PROVINCE
CNTY.               Las Animas: COUNTRY
SRVC.          Patterson Wireline: SERVICE COMPANY
DATE.          Tue Dec 27 08:53:52 2005: LOG DATE
UWI.           05 071 08640 00: UNIQUE WELL ID
~Curve Information Block
DEPT.FT            0 000 00 00: Depth
CCL.                          : Casing Collar Locator
TT3.usec                      : CBL 3' Travel Time
AMP3.mV                       : CBL 3' Amplitude
GR.GAPI                       : Gamma Ray
~Parameter Information Block
~A  Depth       CCL         TT3         AMP3         GR     
# ...
    93.7500      0.0000    479.7844      8.7425    105.9605
    94.0000      0.0000    496.2491      8.6834    103.9059
    94.2500      0.0000    503.5911      8.6410    101.5590
    94.5000      0.0000    496.2303      8.6111     99.0242
    94.7500      0.0000    480.2689      8.5885     97.5165
    95.0000      0.0000    468.7738      8.5737     98.6501
    95.2500      0.0000    472.8842      8.5743    102.9040
    95.5000      0.0000    496.3383      8.5981    108.9492
    95.7500      0.0000    533.7782      8.6448    114.4609
    96.0000      0.0000    573.2048      8.7049    117.5659
    96.2500      0.0000    604.4634      8.7642    117.6767
    96.5000      0.0000    627.4285      8.8107    115.1888
    96.7500      0.0000    649.7159      8.8420    110.5489
    97.0000      0.0000    676.4040      8.8678    104.0253
    97.2500      0.0000    704.4161      8.9048     96.7419
    97.5000      0.0000    725.4802      8.9635     91.4292
    97.7500      0.0000    732.1179      9.0407     91.1240
    98.0000      0.0000    722.5840      9.1222     96.7780
    98.2500      0.0000    702.9423      9.1947    106.3933
    98.5000      0.0000    683.5629      9.2516    116.4759
    98.7500      0.0000    671.7079      9.2880    124.1367
    99.0000      0.0000    668.1490      9.2960    128.0374
    99.2500      0.0000    670.6545      9.2726    127.9396
    99.5000      0.0000    677.4510      9.2275    123.9308
    99.7500      0.0000    686.4579      9.1773    116.3823
   100.0000      0.0000    693.7524      9.1311    106.4962
   100.2500      0.0000    694.7028      9.0845     96.2216
   100.5000      0.0000    687.6110      9.0270     87.1821
   100.7500      0.0000    677.1841      8.9538     79.8686
   101.0000      0.0000    672.5596      8.8676     74.0280
   101.2500      0.0000    678.9009      8.7762     69.4350
   101.5000      0.0000    690.8328      8.6924     66.1307
   101.7500      0.0000    695.8424      8.6343     64.3050
   102.0000      0.0000    684.0445      8.6146     64.0405
   102.2500      0.0000    655.1704      8.6307     64.8247
   102.5000      0.0000    618.6146      8.6684     65.4164
   102.7500      0.0000    588.5120      8.7140     64.7463
   103.0000      0.0000    577.0388      8.7608     63.0686
   103.2500      0.0000    587.9697      8.8064     61.7906
   103.5000      0.0000    614.0123      8.8489     61.9256
   103.7500      0.0000    642.1609      8.8851     63.0308
   104.0000      0.0000    662.9843      8.9106     64.0025
   104.2500      0.0000    673.4651      8.9209     64.5985
   104.5000      0.0000    673.2911      8.9144     65.4626
   104.7500      0.0000    664.0310      8.8919     66.6092
   105.0000      0.0000    652.1609      8.8563     66.7369
   105.2500      0.0000    647.6956      8.8146     64.6536
   105.5000      0.0000    656.5172      8.7800     60.9650
   105.7500      0.0000    675.1440      8.7653     57.7457
   106.0000      0.0000    693.5363      8.7733     56.6190
   106.2500      0.0000    702.0469      8.7955     57.4118
   106.5000      0.0000    697.1767      8.8205     58.6418
   106.7500      0.0000    684.1562      8.8432     59.2179
   107.0000      0.0000    673.6780      8.8640     59.6021
   107.2500      0.0000    673.3167      8.8819     61.1559
   107.5000      0.0000    681.9028      8.8920     64.4701
   107.7500      0.0000    692.8146      8.8912     68.6342
   108.0000      0.0000    700.6667      8.8820     72.0453
   108.2500      0.0000    703.8475      8.8697     73.5249
   108.5000      0.0000    703.3026      8.8570     72.6723
   108.7500      0.0000    700.9268      8.8417     69.8160
   109.0000      0.0000    698.4518      8.8183     66.1058
   109.2500      0.0000    696.7557      8.7824     63.2913
   109.5000      0.0000    695.8790      8.7369     62.7928
   109.7500      0.0000    695.5396      8.6919     64.9349
   110.0000      0.0000    695.4510      8.6600     69.1966
   110.2500      0.0000    695.4013      8.6479     74.9187
   110.5000      0.0000    695.2664      8.6517     81.6308
   110.7500      0.0000    695.0428      8.6627     89.0422
   111.0000      0.0000    694.8137      8.6779     96.9618
   111.2500      0.0000    694.6658      8.7021    105.1538
   111.5000      0.0000    694.6301      8.7384    113.0916
   111.7500      0.0000    694.6821      8.7786    119.5507
   112.0000      0.0000    694.7633      8.8086    122.4620
   112.2500      0.0000    694.8121      8.8220    119.9097
   112.5000      0.0000    694.8094      8.8271    111.9696
   112.7500      0.0000    694.7971      8.8389    101.5065
   113.0000      0.0000    694.8268      8.8658     92.8372
   113.2500      0.0000    694.9051      8.9035     89.2653
   113.5000      0.0000    695.0669      8.9407     91.2456
   113.7500      0.0000    695.5624      8.9709     96.3410
   114.0000      0.0000    696.9838      8.9975    101.0551
   114.2500      0.0000    699.9971      9.0277    103.1711
   114.5000      0.0000    704.5133      9.0626    102.8221
   114.7500      0.0000    708.9490      9.0976    101.8120
   115.0000      0.0000    710.8848      9.1326    101.9892
   115.2500      0.0000    709.1075      9.1763    103.7009
   115.5000      0.0000    704.7939      9.2358    105.5714
   115.7500      0.0000    700.2915      9.3032    106.2495
   116.0000      0.0000    697.1052      9.3603    106.2228
   116.2500      0.0000    695.3407      9.3950    107.0667
   116.5000      0.0000    694.5005      9.4081    109.1110
   116.7500      0.0000    694.2090      9.4051    110.9528
   117.0000      0.0000    694.3587      9.3903    111.2365
   117.2500      0.0000    695.0685      9.3663    109.9980
   117.5000      0.0000    696.7421      9.3364    108.2583
   117.7500      0.0000    699.8898      9.3037    107.0967
   118.0000      0.0000    704.3790      9.2708    107.1882
   118.2500      0.0000    708.6764      9.2407    108.6310
   118.5000      0.0000    710.4533      9.2176    110.9860
   118.7500      0.0000    708.5817      9.2065    113.4745
   119.0000      0.0000    704.2854      9.2099    114.9522
   119.2500      0.0000    699.9343      9.2243    113.9758
   119.5000      0.0000    697.0555      9.2421    109.7606
   119.7500      0.0000    695.8355      9.2569    103.3955
   120.0000      0.0000    696.0149      9.2638     97.5738
   120.2500      0.0000    697.7072      9.2498     94.7214
   120.5000      0.0000    701.1056      9.1901     95.2976
   120.7500      0.0000    705.1714      9.0649     97.7393
   121.0000      0.0000    706.8890      8.8958     99.9919
   121.2500      0.0000    703.3463      8.7580    101.2898
   121.5000      0.0000    695.9224      8.7269    102.3221
   121.7500      0.0000    691.9181      8.7951    103.5079
   122.0000      0.0000    700.6711      8.8660    103.8815
   122.2500      0.0000    727.1723      8.8508    102.3602
   122.5000      0.0000    768.3203      8.7531     99.1465
   122.7500      0.0000    813.9960      8.6444     94.9349
   123.0000      0.0000    851.7979      8.5926     89.7383
   123.2500     -2.0000    871.8159      8.6427     83.6471
   123.5000      0.0000    868.5314      8.8502     78.0428
   123.7500      0.0000    840.5187      9.2992     75.0405
   124.0000      0.0000    791.2751     10.0494     75.8571
   124.2500      0.0000    731.7286     11.0168     79.8094
   124.5000      0.0000    679.5813     11.9128     84.3522
   124.7500      0.0000    651.2548     12.3823     86.2546
   125.0000      0.0000    651.5958     12.2732     83.8065
   125.2500      0.0000    672.2998     11.7525     78.4539
   125.5000      0.0000    700.5316     11.1400     73.9401
   125.7500      0.0000    727.1499     10.6626     73.4273
   126.0000      0.0000    747.7201     10.3695     77.2367
   126.2500      0.0000    760.5365     10.2068     83.1766
   126.5000      0.0000    765.9719     10.1121     88.6703
   126.7500      0.0000    765.8314     10.0506     92.3149
   127.0000      0.0000    761.7986     10.0112     93.7881
