~Version Information
VERS.                      2.0: CWLS Log ASCII Standard - VERSION 2.0
WRAP.                       NO: One line per depth step
~Well Information Block
STRT.FT                 6.0000: 
STOP.FT              1577.7500: 
STEP.FT                 0.2500: 
NULL.                -999.2500: 
COMP.          Pioneer Natural Resources: COMPANY
WELL.           Kermit 32-7 Tr: WELL
FLD.           Purgatoire River: FIELD
LOC.           2009' FNL & 2196' FEL: LOCATION
PROV.                 Colorado: PROVINCE
CNTY.               Las Animas: COUNTRY
SRVC.                Patterson: SERVICE COMPANY
DATE.          Wed Jan 18 14:19:39 2006: LOG DATE
UWI.           05 071 08664 00: UNIQUE WELL ID
~Curve Information Block
DEPT.FT            0 000 00 00: Depth
GR.GAPI                       : Gamma Ray
CCL.                          : Casing Collar Locator
TT3.usec                      : CBL 3' Travel Time
AMP3.mV                       : CBL 3' Amplitude
~Parameter Information Block
~A  Depth        GR         CCL         TT3         AMP3    
# ...
   709.5000     90.8433      0.0000    682.0624     10.7935
   709.7500     87.8948      0.0000    682.1641     10.7756
   710.0000     83.5600      0.0000    684.6062     10.7724
   710.2500     79.3783      0.0000    689.7313     10.7736
   710.5000     76.5319      0.0000    697.2856     10.7728
   710.7500     75.1730      0.0000    705.8362     10.7706
   711.0000     75.0059      0.0000    713.3561     10.7758
   711.2500     75.9383      0.0000    718.5148     10.7954
   711.5000     77.9586      0.0000    721.3093     10.8268
   711.7500     80.7591      0.0000    722.5637     10.8629
   712.0000     83.7305      0.0000    723.1010     10.9024
   712.2500     86.3178      0.0000    723.3558     10.9476
   712.5000     88.3342      0.0000    723.4479     10.9917
   712.7500     89.7913      0.0000    723.3915     11.0150
   713.0000     90.3897      0.0000    723.1885     10.9976
   713.2500     89.4754      0.0000    722.7292     10.9401
   713.5000     86.6606      0.0000    721.5628     10.8682
   713.7500     82.2764      0.0000    718.8193     10.8128
   714.0000     77.0698      0.0000    713.6318     10.7850
   714.2500     71.6646      0.0000    706.0292     10.7710
   714.5000     66.4844      0.0000    697.4998     10.7509
   714.7500     61.9529      0.0000    690.4041     10.7119
   715.0000     58.4709      0.0000    686.4910     10.6357
   715.2500     56.2777      0.0000    685.6835     10.4733
   715.5000     55.5117      0.0000    686.0184     10.1363
   715.7500     56.2590      0.0000    685.0715      9.5448
   716.0000     58.4558      0.0000    682.3335      8.7219
   716.2500     61.9797      0.0000    680.5704      7.8341
   716.5000     66.8579      0.0000    684.1378      7.0900
   716.7500     73.0375      0.0000    695.2454      6.5867
   717.0000     79.7744      0.0000    711.9730      6.2894
   717.2500     85.4153      0.0000    730.0853      6.1292
   717.5000     88.1726      0.0000    746.0427      6.0591
   717.7500     87.5050      0.0000    757.7670      6.0371
   718.0000     84.7700     -3.0000    763.7993      6.0250
   718.2500     82.3236     -3.0000    763.4199      6.0255
   718.5000     81.9714      0.0000    757.5188      6.1185
   718.7500     84.3089      0.0000    748.2699      6.4590
   719.0000     89.0167      0.0000    737.8994      7.1886
   719.2500     95.0473      0.0000    728.0413      8.2792
   719.5000    100.5522      0.0000    719.7177      9.4744
   719.7500    103.3941      0.0000    713.4868     10.4521
   720.0000    102.2973      0.0000    709.6286     11.0531
   720.2500     97.5965      0.0000    708.0826     11.3299
   720.5000     90.9171      0.0000    708.2781     11.4254
   720.7500     84.2579      0.0000    709.5243     11.4562
   721.0000     79.3243      0.0000    711.5917     11.4791
   721.2500     77.2035      0.0000    714.4779     11.5095
   721.5000     78.1081      0.0000    717.6774     11.5471
   721.7500     81.2629      0.0000    720.1736     11.5907
   722.0000     85.0734      0.0000    721.0878     11.6387
   722.2500     87.6177      0.0000    720.1078     11.6840
   722.5000     87.4074      0.0000    717.6642     11.7158
   722.7500     84.1245      0.0000    715.0042     11.7280
   723.0000     78.8064      0.0000    713.7155     11.7244
   723.2500     73.1280      0.0000    714.5800     11.7142
   723.5000     68.2375      0.0000    716.9333     11.7011
   723.7500     64.2955      0.0000    719.3605     11.6791
   724.0000     61.0646      0.0000    720.8104     11.6403
   724.2500     58.6049      0.0000    720.8546     11.5886
   724.5000     57.1980      0.0000    719.2870     11.5425
   724.7500     56.8437      0.0000    716.0256     11.5196
   725.0000     57.2273      0.0000    711.4906     11.5172
   725.2500     58.1656      0.0000    706.6760     11.5119
   725.5000     59.6995      0.0000    702.5283     11.4827
   725.7500     61.5026      0.0000    699.4265     11.4296
   726.0000     62.4746      0.0000    697.4685     11.3685
   726.2500     61.4448      0.0000    696.8614     11.3147
   726.5000     58.4463      0.0000    697.3705     11.2758
   726.7500     55.0032      0.0000    697.5725     11.2532
   727.0000     52.9047      0.0000    695.6357     11.2469
   727.2500     52.7686      0.0000    691.1858     11.2605
   727.5000     53.9494      0.0000    685.7899     11.3019
   727.7500     55.6079      0.0000    681.3975     11.3702
   728.0000     57.4387      0.0000    678.8034     11.4414
   728.2500     59.3962      0.0000    677.6273     11.4779
   728.5000     61.2781      0.0000    677.1822     11.4627
   728.7500     62.8456      0.0000    677.0479     11.4158
   729.0000     64.0219      0.0000    677.1307     11.3733
   729.2500     64.6706      0.0000    677.5403     11.3550
   729.5000     64.4875      0.0000    678.5396     11.3572
   729.7500     63.4899      0.0000    680.4689     11.3677
   730.0000     62.3326      0.0000    683.4167     11.3784
   730.2500     61.6490      0.0000    686.8439     11.3857
   730.5000     61.1552      0.0000    689.7611     11.3849
   730.7500     59.8827      0.0000    691.4060     11.3712
   731.0000     57.4032      0.0000    691.5245     11.3442
   731.2500     54.4707      0.0000    690.0938     11.3124
   731.5000     52.2643      0.0000    687.3710     11.2918
   731.7500     51.2186      0.0000    684.2723     11.2975
   732.0000     50.8247      0.0000    682.2025     11.3322
   732.2500     50.4209      0.0000    682.3306     11.3866
   732.5000     49.8637      0.0000    685.0732     11.4517
   732.7500     49.3560      0.0000    690.0510     11.5269
   733.0000     48.9604      0.0000    696.4056     11.6142
   733.2500     48.5435      0.0000    703.2259     11.7097
   733.5000     48.1272      0.0000    709.7075     11.8074
   733.7500     47.9919      0.0000    715.0882     11.9066
   734.0000     48.2609      0.0000    718.8204     12.0127
   734.2500     48.5171      0.0000    720.8868     12.1271
   734.5000     48.1709      0.0000    721.7448     12.2413
   734.7500     47.2552      0.0000    721.9153     12.3390
   735.0000     46.5622      0.0000    721.6367     12.4069
   735.2500     46.8869      0.0000    720.7374     12.4412
   735.5000     48.2841      0.0000    718.7306     12.4478
   735.7500     50.0722      0.0000    715.1550     12.4372
   736.0000     51.4006      0.0000    710.0008     12.4187
   736.2500     51.7518      0.0000    703.7617     12.3944
   736.5000     51.1205      0.0000    697.1018     12.3577
   736.7500     49.9872      0.0000    690.6816     12.2967
   737.0000     49.1582      0.0000    685.2343     12.1996
   737.2500     49.4080      0.0000    681.3818     12.0629
   737.5000     50.9786      0.0000    679.2353     11.8992
   737.7500     53.2223      0.0000    678.3672     11.7346
   738.0000     54.8201      0.0000    678.2004     11.5985
   738.2500     54.6367      0.0000    678.3370     11.5121
   738.5000     52.6430      0.0000    678.5886     11.4829
   738.7500     49.9853      0.0000    678.8560     11.5024
   739.0000     47.9968      0.0000    679.0551     11.5504
   739.2500     47.2002      0.0000    679.1251     11.6027
   739.5000     47.3654      0.0000    679.0673     11.6407
   739.7500     48.3115      0.0000    678.9307     11.6586
   740.0000     50.3319      0.0000    678.7650     11.6629
   740.2500     53.8852      0.0000    678.5983     11.6664
   740.5000     59.0622      0.0000    678.4487     11.6797
   740.7500     65.3300      0.0000    678.3251     11.7067
   741.0000     71.7316      0.0000    678.2142     11.7426
   741.2500     77.4412      0.0000    678.0959     11.7767
   741.5000     82.1177      0.0000    677.9784     11.7985
   741.7500     85.6050      0.0000    677.8969     11.8050
   742.0000     87.4070      0.0000    677.8725     11.8019
   742.2500     86.9029      0.0000    677.8853     11.7954
   742.5000     84.3507      0.0000    677.8992     11.7855
   742.7500     81.4616      0.0000    677.9080     11.7666
