~Version Information
VERS.                      2.0: CWLS Log ASCII Standard - VERSION 2.0
WRAP.                       NO: One line per depth step
~Well Information Block
STRT.FT                 0.0000: 
STOP.FT              1923.5000: 
STEP.FT                 0.2500: 
NULL.                -999.2500: 
COMP.          Petrogulf Corporation: COMPANY
WELL.            Montoya 7-14R: WELL
FLD.           Purgatorie River: FIELD
LOC.           628' FSL & 454' FWL: LOCATION
STAT.                 Colorado: State
CNTY.               Las Animas: COUNTY
CTRY. USA : Country
SECT. 7 : Section
TOWN. 33S : Township
RANG. 67W : Range
SRVC.                Patterson: SERVICE COMPANY
DATE.          Wed Nov 09 12:02:27 2005: LOG DATE
API. 05-071-08554                         : UNIQUE WELL ID
~Curve Information Block
DEPT.FT            0 000 00 00: Depth
CCL.                          : Casing Collar Locator
TT3.usec                      : CBL 3' Travel Time
AMP3.mV                       : CBL 3' Amplitude
GR.GAPI                       : Gamma Ray
~Parameter Information Block
~A  Depth       CCL         TT3         AMP3         GR     
# ...
   134.0000      0.0000    258.2826     77.5154     69.2515
   134.2500      0.0000    258.2990     77.5113     67.0897
   134.5000      0.0000    258.2866     77.5003     64.9037
   134.7500      0.0000    258.2506     77.5015     62.0552
   135.0000      0.0000    258.2154     77.4870     58.9358
   135.2500      0.0000    258.2017     77.4481     56.5284
   135.5000      0.0000    258.2092     77.4484     55.2038
   135.7500      0.0000    258.2190     77.5285     54.1561
   136.0000      0.0000    258.2135     77.6207     52.2079
   136.2500      0.0000    258.1864     77.6536     49.0651
   136.5000      0.0000    258.1421     77.6459     45.6020
   136.7500      0.0000    258.0991     77.6295     43.1066
   137.0000      0.0000    258.0735     77.5967     42.4983
   137.2500      0.0000    258.0576     77.5451     43.8839
   137.5000      0.0000    258.0369     77.4987     46.3683
   137.7500      0.0000    258.0129     77.4794     48.5352
   138.0000      0.0000    257.9977     77.4779     49.5559
   138.2500      0.0000    257.9927     77.4667     49.7204
   138.5000      0.0000    257.9875     77.4275     49.7117
   138.7500      0.0000    257.9787     77.3474     49.5240
   139.0000      0.0000    257.9706     77.2329     48.3183
   139.2500      0.0000    257.9657     77.1153     45.3726
   139.5000      0.0000    257.9648     77.0192     41.0733
   139.7500      0.0000    257.9644     76.9505     36.8476
   140.0000      0.0000    257.9590     76.9173     34.1969
   140.2500      0.0000    257.9472     76.9312     33.8690
   140.5000      0.0000    257.9314     76.9772     35.6882
   140.7500      0.0000    257.9108     76.9984     38.8176
   141.0000      0.0000    257.8828     76.9561     42.2355
   141.2500      0.0000    257.8626     76.8816     45.2272
   141.5000      0.0000    257.8862     76.8419     47.4918
   141.7500      0.0000    257.9656     76.8802     48.8419
   142.0000      0.0000    258.0599     76.9668     49.0638
   142.2500      0.0000    258.1265     77.0248     48.1024
   142.5000      0.0000    258.1700     77.0415     46.2012
   142.7500      0.0000    258.2156     77.0686     43.8412
   143.0000      0.0000    258.2609     77.1253     41.6336
   143.2500      0.0000    258.2851     77.1910     40.1510
   143.5000      0.0000    258.2892     77.2522     39.6557
   143.7500      0.0000    258.2906     77.3043     39.9198
   144.0000      0.0000    258.3015     77.3310     40.3174
   144.2500      0.0000    258.3255     77.3232     40.1759
   144.5000      0.0000    258.3552     77.3048     39.2554
   144.7500      0.0000    258.3779     77.3014     38.0139
   145.0000      0.0000    258.3860     77.3225     37.2772
   145.2500      0.0000    258.3823     77.3671     37.4754
   145.5000      0.0000    258.3817     77.3999     38.2489
   145.7500      0.0000    258.3981     77.3758     38.9270
   146.0000      0.0000    258.4288     77.3072     39.2182
   146.2500      0.0000    258.4626     77.2499     39.1674
   146.5000      0.0000    258.4963     77.2394     38.6984
   146.7500      0.0000    258.5262     77.2861     37.7628
   147.0000      0.0000    258.5338     77.3986     36.9261
   147.2500      0.0000    258.5046     77.5474     37.2188
   147.5000      0.0000    258.4498     77.6270     39.1586
   147.7500      0.0000    258.4109     77.4737     42.2524
   148.0000      0.0000    258.4862     76.6738     45.7288
   148.2500      0.0000    258.8934     74.2447     49.4838
   148.5000      0.0000    259.9443     69.2589     53.8990
   148.7500      0.0000    261.7123     62.5890     58.9719
   149.0000      0.0000    263.7121     56.8867     64.2533
   149.2500      0.0000    265.2647     53.6956     69.5888
   149.5000      0.0000    266.0721     52.4261     75.2724
   149.7500      0.0000    266.2476     52.2068     81.4158
   150.0000      0.0000    266.1167     52.4424     87.7332
   150.2500      0.0000    265.9745     52.5816     93.9722
   150.5000     -2.0000    265.8987     52.5073    100.1398
   150.7500      2.0000    265.8138     52.5162    106.3295
   151.0000      0.0000    265.6259     52.9234    112.4479
   151.2500      0.0000    265.2641     53.9826    117.9362
   151.5000      0.0000    264.6221     56.1671    121.8861
   151.7500      0.0000    263.5038     59.7079    123.8462
   152.0000      0.0000    261.8605     63.6416    124.3320
   152.2500      0.0000    260.1219     66.9476    124.1980
   152.5000      0.0000    258.8995     69.8920    123.8951
   152.7500      0.0000    258.3550     72.6943    123.5912
   153.0000      0.0000    258.2142     74.9028    123.3796
   153.2500      0.0000    258.2033     76.3070    123.0417
   153.5000      0.0000    258.2036     77.0637    122.1841
   153.7500      0.0000    258.1876     77.3841    120.8393
   154.0000      0.0000    258.1676     77.4552    119.3252
   154.2500      0.0000    258.1542     77.4511    117.3040
   154.5000      0.0000    258.1378     77.4932    113.8389
   154.7500      0.0000    258.1058     77.5698    108.9876
   155.0000      0.0000    258.0645     77.5935    104.5920
   155.2500      0.0000    258.0377     77.5520    102.4516
   155.5000      0.0000    258.0377     77.5317    102.0664
   155.7500      0.0000    258.0559     77.5875    101.2731
   156.0000      0.0000    258.0770     77.6505     99.0391
   156.2500      0.0000    258.0845     77.6267     96.5286
   156.5000      0.0000    258.0726     77.5338     95.0382
   156.7500      0.0000    258.0554     77.4583     93.8410
   157.0000      0.0000    258.0464     77.4463     90.9193
   157.2500      0.0000    258.0439     77.4891     85.3935
   157.5000      0.0000    258.0411     77.5457     78.4107
   157.7500      0.0000    258.0357     77.5723     71.8228
   158.0000      0.0000    258.0296     77.5636     66.6596
   158.2500      0.0000    258.0271     77.5339     62.7739
   158.5000      0.0000    258.0303     77.4904     59.3937
   158.7500      0.0000    258.0452     77.4608     56.0363
   159.0000      0.0000    258.0803     77.4725     53.2294
   159.2500      0.0000    258.1291     77.5156     52.2992
   159.5000      0.0000    258.1698     77.5732     54.1846
   159.7500      0.0000    258.1848     77.6136     58.3668
   160.0000      0.0000    258.1722     77.5933     63.0098
   160.2500      0.0000    258.1395     77.5169     66.0788
   160.5000      0.0000    258.1050     77.4251     66.4350
   160.7500      0.0000    258.0952     77.3599     64.3299
   161.0000      0.0000    258.1170     77.3555     61.1413
   161.2500      0.0000    258.1519     77.4017     58.3580
   161.5000      0.0000    258.1823     77.4483     56.4491
   161.7500      0.0000    258.2026     77.4641     54.6332
   162.0000      0.0000    258.2156     77.4478     51.7629
   162.2500      0.0000    258.2287     77.4145     47.4394
   162.5000      0.0000    258.2427     77.4034     42.3462
   162.7500      0.0000    258.2471     77.4328     37.6574
   163.0000      0.0000    258.2357     77.4529     34.2550
   163.2500      0.0000    258.2165     77.4294     32.5301
   163.5000      0.0000    258.1999     77.4068     32.5699
   163.7500      0.0000    258.1920     77.4208     34.0461
   164.0000      0.0000    258.1979     77.4663     36.0117
   164.2500      0.0000    258.2198     77.5356     37.3825
   164.5000      0.0000    258.2462     77.5864     37.8751
   164.7500      0.0000    258.2545     77.5679     38.0932
   165.0000      0.0000    258.2372     77.5120     38.5156
   165.2500      0.0000    258.2135     77.4797     38.8069
   165.5000      0.0000    258.2029     77.4418     38.3237
   165.7500      0.0000    258.2076     77.3399     36.9340
   166.0000      0.0000    258.2210     77.2115     35.2035
   166.2500      0.0000    258.2339     77.1403     34.0262
   166.5000      0.0000    258.2411     77.1416     34.1208
   166.7500      0.0000    258.2487     77.1761     35.6892
   167.0000      0.0000    258.2591     77.2412     38.4404
   167.2500      0.0000    258.2639     77.3609     41.8412
