~Version Information
VERS.                      2.0: CWLS Log ASCII Standard - VERSION 2.0
WRAP.                       NO: One line per depth step
~Well Information Block
STRT.FT               260.0000: 
STOP.FT              1230.0000: 
STEP.FT                 0.2500: 
NULL.                -999.2500: 
COMP.          Pioneer Natural Resources: COMPANY
WELL.             Mahalo 12-20: WELL
FLD.           Purgatoire River: FIELD
LOC.           1689' FNL & 479' FWL: LOCATION
CNTY.               Las Animas: COUNTY
SRVC.                Patterson: SERVICE COMPANY
DATE.          Thu Feb 23 20:25:01 2006: LOG DATE
UWI.           05 071 08700 00: UNIQUE WELL ID
STAT.                 Colorado: STATE
~Curve Information Block
DEPT.FT            0 000 00 00: Depth
SN.Ohm-m                      : IEL Short Normal
SP.mV                         : IEL Spontaneous Potential
DIR.Ohm-m                     : IEL Induction Resistivity
GR.GAPI                       : Gamma Ray
~Parameter Information Block
~A  Depth        SN          SP         DIR          GR     
# ...
   762.5000     10.0816     41.1638      9.0696    127.4592
   762.7500     10.3085     41.0783      9.2704    123.8986
   763.0000     10.5728     41.0050      9.5187    119.6828
   763.2500     10.8908     40.9504      9.8253    118.0361
   763.5000     11.2948     40.9095     10.1952    117.3285
   763.7500     11.7408     40.8652     10.6262    117.8134
   764.0000     12.1502     40.7910     11.1078    119.5551
   764.2500     12.5359     40.6618     11.6247    121.2725
   764.5000     12.9695     40.4690     12.1619    124.6953
   764.7500     13.4506     40.2280     12.7088    127.4015
   765.0000     13.9255     39.9724     13.2591    131.1570
   765.2500     14.3669     39.7420     13.8086    132.6100
   765.5000     14.7651     39.5703     14.3554    132.0204
   765.7500     15.1426     39.4745     14.9006    129.6481
   766.0000     15.5787     39.4491     15.4468    124.0319
   766.2500     16.1172     39.4681     15.9946    119.7423
   766.5000     16.6916     39.4985     16.5419    113.6334
   766.7500     17.2158     39.5148     17.0877    110.2466
   767.0000     17.6561     39.5092     17.6347    106.9844
   767.2500     18.0057     39.4926     18.1835    106.3883
   767.5000     18.3267     39.4885     18.7194    107.6900
   767.7500     18.7610     39.5215     19.2058    109.3634
   768.0000     19.3495     39.6063     19.5985    111.7241
   768.2500     19.9418     39.7414     19.8775    112.8213
   768.5000     20.3919     39.9085     20.0701    113.9513
   768.7500     20.7354     40.0785     20.2364    114.4392
   769.0000     21.0718     40.2227     20.4283    114.0537
   769.2500     21.3598     40.3234     20.6646    112.5834
   769.5000     21.5027     40.3774     20.9437    109.2096
   769.7500     21.5644     40.3925     21.2743    107.4426
   770.0000     21.6963     40.3836     21.6879    107.3358
   770.2500     21.9738     40.3687     22.2164    108.8726
   770.5000     22.4281     40.3637     22.8602    111.5937
   770.7500     23.0774     40.3771     23.5762    112.4149
   771.0000     23.8321     40.4101     24.2992    111.5119
   771.2500     24.4896     40.4600     24.9814    110.1157
   771.5000     24.9627     40.5240     25.6159    108.2440
   771.7500     25.3914     40.5999     26.2220    107.2798
   772.0000     25.9152     40.6854     26.8108    105.1058
   772.2500     26.4917     40.7749     27.3648    102.4700
   772.5000     26.9677     40.8564     27.8540     97.1011
   772.7500     27.2470     40.9109     28.2685     93.6795
   773.0000     27.3892     40.9185     28.6310     90.4650
   773.2500     27.5306     40.8664     28.9793     89.6422
   773.5000     27.7440     40.7536     29.3366     89.2285
   773.7500     28.0177     40.5896     29.6940     88.9516
   774.0000     28.2804     40.3903     30.0207     88.4617
   774.2500     28.4379     40.1755     30.2970     88.1118
   774.5000     28.4840     39.9684     30.5429     87.0727
   774.7500     28.5281     39.7947     30.8108     85.7309
   775.0000     28.6691     39.6749     31.1397     82.8505
   775.2500     28.8683     39.6143     31.5080     80.6901
   775.5000     29.0006     39.5985     31.8291     77.6186
   775.7500     29.0206     39.6046     32.0019     75.8919
   776.0000     28.9599     39.6164     31.9749     74.1341
   776.2500     28.8253     39.6324     31.7665     73.7658
   776.5000     28.6533     39.6641     31.4311     74.7707
   776.7500     28.5162     39.7294     31.0170     76.4689
   777.0000     28.3888     39.8427     30.5582     80.0264
   777.2500     28.1764     40.0092     30.0912     82.5735
   777.5000     27.8705     40.2248     29.6597     85.8508
   777.7500     27.5620     40.4781     29.2981     87.4079
   778.0000     27.3175     40.7517     29.0108     88.9279
   778.2500     27.1214     41.0218     28.7719     89.8177
   778.5000     26.9156     41.2628     28.5469     91.8509
   778.7500     26.6675     41.4583     28.3147     93.9169
   779.0000     26.4492     41.6104     28.0726     97.7840
   779.2500     26.3592     41.7377     27.8235    100.5244
   779.5000     26.3189     41.8631     27.5631    104.4994
   779.7500     26.1202     41.9985     27.2789    106.9422
   780.0000     25.6986     42.1400     26.9603    110.2102
   780.2500     25.2090     42.2717     26.6073    112.3851
   780.5000     24.8427     42.3755     26.2297    116.5815
   780.7500     24.6395     42.4384     25.8395    120.1348
   781.0000     24.4580     42.4569     25.4477    125.1561
   781.2500     24.1666     42.4363     25.0687    127.1002
   781.5000     23.7913     42.3877     24.7239    127.2724
   781.7500     23.3845     42.3272     24.4320    126.2200
   782.0000     22.9339     42.2702     24.1952    124.4139
   782.2500     22.4713     42.2231     23.9963    123.4383
   782.5000     22.1180     42.1794     23.8123    121.8758
   782.7500     21.9337     42.1281     23.6303    120.2240
   783.0000     21.8189     42.0687     23.4511    116.1785
   783.2500     21.6831     42.0198     23.2836    112.4345
   783.5000     21.5713     42.0128     23.1392    105.7441
   783.7500     21.5281     42.0700     23.0328    100.9942
   784.0000     21.5180     42.1885     22.9856     94.3844
   784.2500     21.5365     42.3415     23.0207     90.9283
   784.5000     21.6094     42.4929     23.1457     87.6317
   784.7500     21.6778     42.6116     23.3300     86.3570
   785.0000     21.6741     42.6843     23.4990     84.7665
   785.2500     21.6606     42.7215     23.5637     83.5916
   785.5000     21.7296     42.7537     23.4779     81.8033
   785.7500     21.8728     42.8141     23.2739     80.6677
   786.0000     22.0227     42.9212     23.0414     78.5766
   786.2500     22.1361     43.0724     22.8714     76.5593
   786.5000     22.1880     43.2499     22.8154     72.8242
   786.7500     22.1278     43.4321     22.8783     70.6194
   787.0000     21.9395     43.6013     23.0337     69.2352
   787.2500     21.7274     43.7445     23.2420     69.9817
   787.5000     21.6307     43.8523     23.4607     73.1288
   787.7500     21.6881     43.9207     23.6495     75.8692
   788.0000     21.8387     43.9563     23.7743     79.5482
   788.2500     21.9732     43.9790     23.8155     81.0577
   788.5000     21.9939     44.0127     23.7726     81.5125
   788.7500     21.8894     44.0700     23.6642     80.8439
   789.0000     21.7269     44.1460     23.5188     79.0084
   789.2500     21.5965     44.2273     23.3637     77.4356
   789.5000     21.5763     44.3044     23.2165     74.7857
   789.7500     21.6674     44.3759     23.0784     73.0298
   790.0000     21.7432     44.4414     22.9312     70.6868
   790.2500     21.6755     44.4961     22.7423     69.3587
   790.5000     21.4975     44.5306     22.4814     67.8556
   790.7500     21.3364     44.5343     22.1446     67.2891
   791.0000     21.2321     44.4997     21.7673     66.8026
   791.2500     21.1107     44.4242     21.4115     66.2237
   791.5000     20.8986     44.3118     21.1354     64.3011
   791.7500     20.5771     44.1730     20.9697     62.3291
   792.0000     20.1947     44.0229     20.9116     58.7378
   792.2500     19.8844     43.8768     20.9337     56.0668
   792.5000     19.7360     43.7459     20.9959     51.6545
   792.7500     19.6794     43.6324     21.0546     48.4648
   793.0000     19.5855     43.5289     21.0718     43.4880
   793.2500     19.4301     43.4256     21.0252     40.1276
   793.5000     19.3284     43.3200     20.9177     35.0267
   793.7500     19.3865     43.2206     20.7777     31.6595
   794.0000     19.5670     43.1385     20.6485     27.2527
   794.2500     19.7792     43.0804     20.5687     25.2593
   794.5000     20.0021     43.0515     20.5538     24.1784
   794.7500     20.2766     43.0609     20.5925     24.5565
   795.0000     20.6301     43.1205     20.6627     25.9642
   795.2500     21.0190     43.2383     20.7579     27.0555
   795.5000     21.3405     43.4151     20.9023     28.7151
   795.7500     21.5037     43.6434     21.1345     29.9065
