~Version Information
VERS.                      2.0: CWLS Log ASCII Standard - VERSION 2.0
WRAP.                       NO: One line per depth step
~Well Information Block
STRT.FT               585.0000: 
STOP.FT              2277.5000: 
STEP.FT                 0.1000: 
NULL.                -999.2500: 
COMP.          Pioneer Natural Resources: COMPANY
WELL.          Interceptor 43-13 Tr: WELL
FLD.           Purgatoire River: FIELD
LOC.           2006' FSL & 438' FEL: LOCATION
PROV.                 Colorado: PROVINCE
CNTY.               Las Animas: COUNTRY
SRVC.                Patterson: SERVICE COMPANY
DATE.          Mon Oct 17 07:15:06 2005: LOG DATE
UWI.           05 071 08549 00: UNIQUE WELL ID
~Curve Information Block
DEPT.FT            0 000 00 00: Depth
DCAL.in                       : CDL Caliper
RHOB.g/cc                     : CDL Bulk Density
RHOC.g/cc                     : CDL Density Correction
DPOR.pu                       : CDL Density Porosity
GR.GAPI                       : Gamma Ray
NPOR.pu                       : Neutron Porosity
~Parameter Information Block
~A  Depth       DCAL        RHOB        RHOC        DPOR         GR         NPOR    
# ...
  2044.2000      7.8971      2.4563     -0.0082     11.7384    133.6717     27.7210
  2044.3000      7.9094      2.4336      0.0129     13.1122    130.2690     27.8383
  2044.4000      7.9094      2.4438      0.0333     12.4950    129.1545     27.7893
  2044.5000      7.9000      2.4882      0.0302      9.8047    126.3619     27.7479
  2044.6000      7.9000      2.5764      0.1099      4.4579    119.3305     27.5811
  2044.7000      7.9000      2.6965      0.2002     -2.8177    113.6322     27.1450
  2044.8000      7.8230      2.8059      0.2026     -9.4497    112.7581     26.6573
  2044.9000      7.8230      2.8718      0.2239    -13.4418    110.7708     26.2716
  2045.0000      7.8011      2.8936      0.2207    -14.7625    103.9505     26.0172
  2045.1000      7.8011      2.8807      0.2563    -13.9839     94.9357     25.9293
  2045.2000      7.8011      2.8309      0.1919    -10.9610     90.2198     25.7057
  2045.3000      7.7453      2.7550      0.0765     -6.3646     93.4788     24.9388
  2045.4000      7.7453      2.6873      0.0020     -2.2577     99.8750     23.9951
  2045.5000      7.7616      2.6427      0.0443      0.4398    104.6234     23.8517
  2045.6000      7.7616      2.6121     -0.0431      2.2970    106.5952     24.2205
  2045.7000      7.7616      2.5894     -0.0125      3.6720    105.5855     24.2255
  2045.8000      7.7922      2.5735      0.0140      4.6354    103.7411     24.3084
  2045.9000      7.7922      2.5682      0.0302      4.9561    104.7184     25.0970
  2046.0000      7.9090      2.5769      0.0529      4.4317    109.6016     25.8371
  2046.1000      7.9090      2.5870      0.0953      3.8180    116.0252     25.9217
  2046.2000      7.9090      2.5793      0.0701      4.2865    120.2950     25.6561
  2046.3000      7.9481      2.5492      0.0655      6.1068    122.2011     25.4969
  2046.4000      7.9481      2.5109      0.0240      8.4325    123.9949     25.4680
  2046.5000      7.9685      2.4874      0.0105      9.8542    127.3415     25.5564
  2046.6000      7.9685      2.4934      0.0129      9.4933    134.3721     25.6998
  2046.7000      7.9685      2.5159      0.0979      8.1251    142.8703     25.5784
  2046.8000      7.9725      2.5245      0.0865      7.6039    145.1999     25.3241
  2046.9000      7.9725      2.5156      0.0235      8.1447    139.4731     25.3614
  2047.0000      7.9335      2.5135      0.0894      8.2713    134.7534     25.5003
  2047.1000      7.9335      2.5260      0.1121      7.5129    137.7724     25.5280
  2047.2000      7.9335      2.5424      0.1077      6.5220    144.2325     25.6494
  2047.3000      7.9106      2.5496      0.1399      6.0827    146.9333     25.7514
  2047.4000      7.9106      2.5403      0.1039      6.6485    145.0505     25.5757
  2047.5000      7.9027      2.5215      0.0951      7.7902    143.2014     25.2245
  2047.6000      7.9027      2.5056      0.0766      8.7541    142.7760     24.8945
  2047.7000      7.9027      2.4987      0.0459      9.1684    142.5540     24.6568
  2047.8000      7.9014      2.4980      0.0748      9.2109    141.8670     24.5169
  2047.9000      7.9014      2.4948      0.0530      9.4060    141.0005     24.4553
  2048.0000      7.9023      2.4887      0.0475      9.7769    140.3500     24.5692
  2048.1000      7.9023      2.4898      0.0507      9.7110    139.7872     24.9368
  2048.2000      7.9023      2.5063      0.0821      8.7089    140.2156     25.2981
  2048.3000      7.9116      2.5341      0.0757      7.0217    141.8839     25.5627
  2048.4000      7.9116      2.5583      0.1142      5.5569    145.1409     25.8547
  2048.5000      7.8828      2.5685      0.0898      4.9375    145.7978     26.0679
  2048.6000      7.8828      2.5663      0.0817      5.0729    139.2404     26.0102
  2048.7000      7.8828      2.5567      0.1061      5.6539    130.3519     25.7426
  2048.8000      7.8871      2.5438      0.0707      6.4389    124.8168     25.4438
  2048.9000      7.8871      2.5320      0.0697      7.1512    125.6277     25.1735
  2049.0000      7.8964      2.5286      0.0746      7.3578    131.7713     24.9590
  2049.1000      7.8964      2.5360      0.0830      6.9089    135.9495     24.8291
  2049.2000      7.8964      2.5490      0.1263      6.1239    136.1319     24.9140
  2049.3000      7.8909      2.5665      0.0948      5.0592    138.3835     25.3726
  2049.4000      7.8909      2.5866      0.1235      3.8396    143.5569     25.8976
  2049.5000      7.8880      2.5963      0.1262      3.2543    144.9284     26.0020
  2049.6000      7.8880      2.5845      0.1337      3.9698    139.7212     25.7573
  2049.7000      7.8880      2.5566      0.0943      5.6592    132.7369     25.5477
  2049.8000      7.8877      2.5306      0.1053      7.2354    129.3689     25.5106
  2049.9000      7.8877      2.5177      0.0590      8.0202    129.6744     25.5868
  2050.0000      7.8731      2.5166      0.0733      8.0823    129.5341     25.5436
  2050.1000      7.8731      2.5206      0.0662      7.8402    125.1868     25.1673
  2050.2000      7.8731      2.5335      0.0163      7.0583    118.4149     24.5072
  2050.3000      7.8874      2.5602      0.1010      5.4400    116.2395     23.9510
  2050.4000      7.8874      2.5836      0.1515      4.0264    121.3641     23.8815
  2050.5000      7.8882      2.5904      0.1693      3.6139    125.4048     24.0987
  2050.6000      7.8882      2.5909      0.1441      3.5802    122.7569     24.2711
  2050.7000      7.8882      2.5897      0.1739      3.6554    117.7003     24.1401
  2050.8000      7.8272      2.5745      0.1297      4.5778    113.2851     23.5807
  2050.9000      7.8272      2.5467      0.0533      6.2615    109.1372     22.9833
  2051.0000      7.8135      2.5214      0.0608      7.7938    105.9185     22.9811
  2051.1000      7.8135      2.5051      0.0287      8.7840    105.3848     23.5900
  2051.2000      7.8135      2.5001     -0.0086      9.0830    109.1188     24.3083
  2051.3000      7.8466      2.5041      0.0380      8.8394    115.1707     24.4936
  2051.4000      7.8466      2.4936      0.0768      9.4785    119.8593     23.9403
  2051.5000      7.9013      2.4377      0.0776     12.8667    121.5817     23.2508
  2051.6000      7.9013      2.3382      0.0276     18.8952    121.7654     22.9957
  2051.7000      7.9013      2.2386     -0.0341     24.9322    123.1540     23.0480
  2051.8000      7.8887      2.1707     -0.0164     29.0485    125.6026     23.2877
  2051.9000      7.8887      2.1237     -0.0428     31.8979    127.7792     23.9245
  2052.0000      7.8891      2.0941     -0.0506     33.6921    129.4154     25.0086
  2052.1000      7.8891      2.1124      0.0104     32.5817    131.3543     26.1480
  2052.2000      7.8891      2.2001      0.1820     27.2646    132.0209     26.9483
  2052.3000      7.8667      2.3274      0.4252     19.5528    127.4081     27.1308
  2052.4000      7.8667      2.4351      0.5059     13.0222    123.0941     26.6621
  2052.5000      7.8985      2.5004      0.4631      9.0678    128.9157     26.0620
  2052.6000      7.8985      2.5366      0.4391      6.8737    141.3278     25.9832
  2052.7000      7.8985      2.5510      0.3561      5.9982    151.9788     26.4928
  2052.8000      8.1053      2.5459      0.3622      6.3110    158.2178     27.0704
  2052.9000      8.1053      2.5330      0.2912      7.0921    160.1755     27.2782
  2053.0000      8.1300      2.5225      0.3275      7.7291    160.3940     27.0583
  2053.1000      8.1300      2.5091      0.3164      8.5390    160.6385     26.6748
  2053.2000      8.1300      2.4915      0.2889      9.6051    161.4506     26.3967
  2053.3000      8.1058      2.4771      0.2588     10.4810    160.7396     20.1861
  2053.4000      8.1058      2.4758      0.2719     10.5581    157.4197     20.2044
  2053.5000      8.2022      2.4960      0.3380      9.3357    156.5722     20.6458
  2053.6000      8.2022      2.5161      0.4106      8.1179    161.6099     20.9867
  2053.7000      8.2022      2.5009      0.3518      9.0366    168.2695     20.9094
