~Version Information
 VERS.                                  2.0 : CWLS LAS VERSION
 WRAP.                                   NO : WRAPING MODE
 SWARE .                 MController 2.5.0E : SOFTWARE VERSION
~Well Information
 WELL.                      Black Cat 13-23 : WELL
 COMP.     Pioneer Natural Resources USA Inc: COMPANY
 FLD.                      Purgatorie River : FIELD
 LOC.                 NW/SW Sec32 T32S R67W : LOCATION
 DATE.                           7/30-31/05 : DATE(S) LOGGED
 SRVC.       Blanco Geological Services LLC : SERVICE COMPANY
 STAT.                                   CO : STATE
 CNTY.                           Las Animas : COUNTY
 CTRY.                                  USA : COUNTRY
 API.                       05-071-08450-00 : API NUMBER
 STRT.FT                             327.00 : START DEPTH
 STOP.FT                            2850.00 : STOP DEPTH
 STEP.FT                               1.00 : DEPTH INCREMENT
 NULL.                                -9999 : NULL VALUE
~Curve information
 DEPTH.FT                                   :
 ROP.MIN/FT                                 :
 GAS.UNITS                                  :
~ASCII Log data
       327.0     -9999.00          3.0 
       328.0         0.77          3.0 
       329.0         1.98          3.5 
       330.0         1.03          3.7 
       331.0         0.07          3.7 
       332.0         0.13          3.9 
       333.0         0.07          5.2 
       334.0         0.10          6.5 
       335.0         0.10          8.5 
       336.0         0.30         16.0 
       337.0         0.07         18.8 
       338.0         0.15         18.8 
       339.0         1.20         17.7 
       340.0         0.07          2.7 
       341.0         0.13          3.1 
       342.0         0.10          2.7 
       343.0         0.07          2.7 
       344.0         0.10          2.7 
       345.0         0.07          3.0 
       346.0         0.10          3.4 
       347.0         0.07          3.4 
       348.0         0.10          2.8 
       349.0         0.10          2.8 
       350.0         0.07          2.8 
       351.0         0.10          2.8 
       352.0         0.07          2.8 
       353.0         0.10          3.1 
       354.0         0.07          3.1 
       355.0         0.10          3.1 
       356.0         0.10          3.1 
       357.0         0.10          3.1 
       358.0         0.10          2.7 
       359.0         0.10          2.7 
       360.0         0.13          2.8 
       361.0         0.07          2.8 
       362.0         0.15          3.2 
       363.0         0.10          3.2 
       364.0         0.23          2.7 
       365.0         0.10          3.6 
       366.0         0.27          3.1 
       367.0         1.57          3.8 
       368.0         0.10          2.9 
       369.0         0.10          2.9 
       370.0         0.95          3.2 
       371.0         1.63          4.1 
       372.0         0.10          2.8 
       373.0         0.07          2.8 
       374.0         0.10          2.9 
       375.0         0.07          2.9 
       376.0         0.10          2.9 
       377.0         0.10          3.6 
       378.0         0.07          3.6 
       379.0         0.13          3.6 
       380.0         0.20          3.5 
       381.0         0.17          3.6 
       382.0         0.20          5.2 
       383.0         0.13          5.2 
       384.0         0.28         10.8 
       385.0         0.30         17.2 
       386.0         0.33         19.0 
       387.0         0.37         13.2 
       388.0         0.33          8.0 
       389.0         0.23          6.1 
       390.0         0.23          4.5 
       391.0         0.20          3.8 
       392.0         0.23          3.4 
       393.0         0.23          2.7 
       394.0         0.23          3.1 
       395.0         0.20          3.4 
       396.0         0.20          3.4 
       397.0         0.22          3.8 
       398.0         0.17          5.1 
       399.0         0.13          7.2 
       400.0         0.13          8.2 
       401.0         0.13         11.1 
       402.0         0.17         11.5 
       403.0         0.20         13.4 
       404.0         0.13         14.6 
       405.0         0.20         13.9 
       406.0         0.13         15.2 
       407.0         1.37         94.1 
       408.0         0.10         94.1 
       409.0         0.68         89.2 
       410.0         0.23         62.6 
       411.0         0.07         51.4 
       412.0         1.90         82.1 
       413.0         0.10         91.0 
       414.0         0.07        116.3 
       415.0         0.27        143.2 
       416.0         0.07        143.2 
       417.0         0.27        163.1 
       418.0         0.32        176.6 
       419.0         0.30        188.3 
       420.0         0.27        194.0 
       421.0         0.27        198.9 
       422.0         0.30        239.9 
       423.0         0.20        288.5 
       424.0         0.23        378.8 
       425.0         0.53        453.4 
       426.0         0.30        366.1 
       427.0         0.27        246.4 
       428.0         0.27         98.2 
       429.0         0.22         46.9 
       430.0         0.23         39.0 
       431.0         0.23         18.5 
       432.0         0.27         17.8 
       433.0         0.27         11.4 
       434.0         0.20         11.1 
       435.0         0.20         11.1 
       436.0         0.20         10.5 
       437.0         0.17          9.6 
       438.0         0.17         12.4 
       439.0         0.20         12.4 
       440.0         0.17         15.6 
       441.0         0.17         16.9 
       442.0         0.17         17.1 
       443.0         0.20         15.4 
       444.0         0.20         13.3 
       445.0         0.20         12.1 
       446.0         0.15         15.0 
       447.0         0.10         15.0 
       448.0         1.17         24.7 
       449.0         0.10         23.1 
       450.0         0.87         22.6 
       451.0         1.65         31.0 
       452.0         0.07         16.9 
       453.0         0.10         16.9 
       454.0         0.13         16.5 
       455.0         0.20         16.6 
       456.0         0.20         20.0 
       457.0         0.20         35.5 
       458.0         0.20         47.7 
       459.0         0.20         52.9 
       460.0         0.23         73.2 
       461.0         0.23         90.6 
       462.0         0.23        102.8 
       463.0         0.20        112.0 
       464.0         0.43        120.3 
       465.0         0.42        129.7 
       466.0         0.53        253.3 
       467.0         0.37        438.2 
       468.0         0.37        383.5 
       469.0         0.37        315.8 
       470.0         0.30        140.3 
       471.0         0.30         64.3 
       472.0         0.30         40.6 
       473.0         0.37         15.5 
       474.0         0.48          7.1 
       475.0         0.33          3.6 
       476.0         0.17          3.1 
       477.0         0.17          2.4 
       478.0         0.23          2.7 
       479.0         0.30          3.2 
       480.0         0.27          2.7 
       481.0         2.18          4.7 
       482.0         0.90          6.9 
       483.0         1.63         17.0 
       484.0         0.12         19.2 
       485.0         0.10         23.5 
       486.0         0.17         36.8 
       487.0         0.30         50.3 
       488.0         0.30         60.6 
       489.0         0.57         75.5 
       490.0         0.23         81.4 
       491.0         0.23         85.3 
       492.0         0.27        100.2 
       493.0         0.17        121.8 
       494.0         0.20        177.1 
       495.0         0.23        308.6 
       496.0         0.23        386.8 
       497.0         0.38        328.9 
       498.0         0.20        209.4 
       499.0         0.23        195.7 
       500.0         0.17        106.2 
       501.0         0.20         33.0 
       502.0         0.20         33.0 
       503.0         0.17         20.6 
       504.0         0.20         18.6 
       505.0         0.20         11.2 
       506.0         0.20          9.5 
       507.0         0.17          5.6 
       508.0         0.23          3.4 
       509.0         0.23          1.8 
       510.0         0.27          1.6 
       511.0         5.87         31.7 
       512.0         0.10         31.7 
       513.0         0.07         39.5 
       514.0         0.20         39.5 
       515.0         0.27         46.2 
       516.0         0.23         51.1 
       517.0         0.30         56.1 
       518.0         0.27         59.9 
       519.0         0.28         77.9 
       520.0         0.23         93.3 
       521.0         0.27        130.6 
       522.0         0.23        199.7 
       523.0         0.20        248.0 
       524.0         0.23        253.3 
       525.0         0.23        184.0 
       526.0         0.23        111.3 
