~Version Information
 VERS.                                  2.0 : CWLS LAS VERSION
 WRAP.                                   NO : WRAPING MODE
 SWARE .                 MController 2.5.0N : SOFTWARE VERSION
~Well Information
 WELL.                          Gough 14-29 : WELL
 COMP.    Pioneer Natural Resouces USA Inc. : COMPANY
 FLD.                      Purgatoire River : FIELD
 LOC.             SW/SW Sec 29, T33S, R65W  : LOCATION
 DATE.                             12/22/05 : DATE(S) LOGGED
 SRVC.       BLANCO Geological Services LLC : SERVICE COMPANY
 STAT.                                   CO : STATE
 CNTY.                           Las Animas : COUNTY
 CTRY.                                  USA : COUNTRY
 API.                          05-071-08612 : API NUMBER
 STRT.FT                             190.00 : START DEPTH
 STOP.FT                            1026.00 : STOP DEPTH
 STEP.FT                               1.00 : DEPTH INCREMENT
 NULL.                                -9999 : NULL VALUE
~Curve information
 DEPTH.FT                                   :
 ROP.MIN/FT                                 :
 GAS.UNITS                                  :
~ASCII Log data
# ...
       590.0         0.53          7.0 
       591.0         2.88          7.7 
       592.0         0.30          7.4 
       593.0         0.23          7.3 
       594.0         0.33          7.3 
       595.0         0.37          7.9 
       596.0         0.30          7.5 
       597.0         0.30          7.2 
       598.0         0.20          7.1 
       599.0         0.20          7.1 
       600.0         0.18          7.7 
       601.0         0.17          7.1 
       602.0         0.17          7.1 
       603.0         0.23          7.1 
       604.0         0.27          7.4 
       605.0         0.27          7.3 
       606.0         0.23          7.1 
       607.0         0.27          7.1 
       608.0         0.27          7.7 
       609.0         0.17          7.2 
       610.0         0.17          7.2 
       611.0         0.23          7.4 
       612.0         0.23          7.1 
       613.0         0.20          8.3 
       614.0         0.17          8.3 
       615.0         0.17          8.7 
       616.0         0.18          7.4 
       617.0         0.17          8.1 
       618.0         0.17          7.4 
       619.0         0.20          7.7 
       620.0         0.43          8.2 
       621.0         3.32          9.3 
       622.0         0.33          7.0 
       623.0         0.27          6.7 
       624.0         0.33          7.0 
       625.0         0.37          7.1 
       626.0         0.30          7.1 
       627.0         0.30          7.4 
       628.0         0.33          7.4 
       629.0         0.32          7.1 
       630.0         0.33          7.5 
       631.0         0.37          7.4 
       632.0         0.30          7.5 
       633.0         0.33          7.1 
       634.0         0.30          7.0 
       635.0         0.33          6.7 
       636.0         0.33          7.4 
       637.0         0.33          7.1 
       638.0         0.33          7.2 
       639.0         0.35          7.1 
       640.0         0.30          7.1 
       641.0         0.30          7.6 
       642.0         0.33          7.4 
       643.0         0.33          8.2 
       644.0         0.30          7.7 
       645.0         0.30          7.3 
       646.0         0.30          8.2 
       647.0         0.27          7.1 
       648.0         0.27          7.2 
       649.0         0.27          7.6 
       650.0         0.32          6.8 
       651.0         3.55          7.8 
       652.0         0.37          7.5 
       653.0         0.30          7.4 
       654.0         0.20          8.0 
       655.0         0.30          7.4 
       656.0         0.27          7.1 
       657.0         0.20          7.1 
       658.0         0.20          7.6 
       659.0         0.20          7.3 
       660.0         0.20          7.5 
       661.0         0.27          7.6 
       662.0         0.30          7.4 
       663.0         0.32          7.4 
       664.0         0.27          7.0 
       665.0         0.27          7.2 
       666.0         0.30          7.2 
       667.0         0.30          7.0 
       668.0         0.30          7.3 
       669.0         0.33          7.5 
       670.0         0.30          7.1 
       671.0         0.30          7.2 
       672.0         0.33          7.1 
       673.0         0.27          7.4 
       674.0         0.32          7.4 
       675.0         0.30          7.0 
       676.0         0.30          7.3 
       677.0         0.30          7.2 
       678.0         0.30          7.3 
       679.0         0.27          7.3 
       680.0         0.37          7.6 
       681.0         6.97        130.8 
       682.0         0.27        128.5 
       683.0         0.27        121.6 
       684.0         0.30        127.0 
       685.0         0.27        127.3 
       686.0         0.28        117.4 
       687.0         0.23        110.3 
       688.0         0.23        108.6 
       689.0         0.23        104.1 
       690.0         0.30         96.9 
       691.0         0.30         92.9 
       692.0         0.30         91.8 
       693.0         0.27         84.4 
       694.0         0.27         84.0 
       695.0         0.30         83.8 
       696.0         0.30         83.4 
       697.0         0.33         80.8 
       698.0         0.42         79.2 
       699.0         0.43         50.2 
       700.0         0.37         52.3 
       701.0         0.37         26.8 
       702.0         0.37         10.0 
       703.0         0.37         32.1 
       704.0         0.37        479.2 
       705.0         0.37        222.1 
       706.0         0.45        175.5 
       707.0         0.50        195.3 
       708.0         0.37        174.9 
       709.0         0.10        159.2 
       710.0         0.73        144.0 
       711.0         3.72        212.8 
       712.0         0.40        136.3 
       713.0         0.43        130.1 
       714.0         0.27        126.4 
       715.0         0.28        125.1 
       716.0         0.20        121.7 
       717.0         0.27        121.1 
       718.0         0.20        113.8 
       719.0         0.23        113.0 
       720.0         0.27        111.7 
       721.0         0.27        111.7 
       722.0         0.30        106.8 
       723.0         0.23        103.7 
       724.0         0.27        108.1 
       725.0         0.27        108.4 
       726.0         0.37         93.9 
       727.0         0.32         68.2 
       728.0         0.27         72.4 
       729.0         0.30         64.7 
       730.0         0.33         20.0 
       731.0         0.30         13.4 
       732.0         0.37         10.2 
       733.0         0.30          9.8 
       734.0         0.33          8.6 
       735.0         0.33          8.6 
       736.0         0.33          8.0 
       737.0         0.40       1265.7 
       738.0         0.45        957.3 
       739.0         0.13        581.2 
       740.0         0.13        581.2 
       741.0         8.90        440.0 
       742.0         0.55        207.0 
       743.0         0.40        210.5 
       744.0         0.47        210.3 
       745.0         0.43        178.2 
       746.0         0.33        156.4 
       747.0         0.33        164.7 
       748.0         0.27        163.8 
       749.0         0.30        147.6 
       750.0         0.27        141.5 
       751.0         0.30        144.6 
       752.0         0.28        137.2 
       753.0         0.23        130.7 
       754.0         0.23        129.7 
       755.0         0.23        128.8 
       756.0         0.27        132.0 
       757.0         0.33        130.6 
       758.0         0.33        123.1 
       759.0         0.33         79.2 
       760.0         0.33         78.0 
       761.0         0.33         86.2 
       762.0         0.37         93.1 
       763.0         0.35         40.5 
       764.0         0.30         31.8 
       765.0         0.37         14.3 
       766.0         0.30       1027.9 
       767.0         0.33        881.9 
       768.0         0.33        840.3 
       769.0         0.33        539.6 
       770.0         0.37        463.6 
       771.0         4.50        440.0 
       772.0         0.43        123.2 
       773.0         0.37        123.0 
       774.0         0.30        127.7 
       775.0         0.33        156.1 
       776.0         0.30        182.7 
       777.0         0.37        193.3 
       778.0         0.40        175.6 
       779.0         0.33        151.6 
       780.0         0.35        153.6 
       781.0         0.30        155.3 
       782.0         0.40        141.4 
       783.0         0.37        137.6 
       784.0         0.33        135.1 
       785.0         0.37         89.6 
       786.0         0.33         99.2 
       787.0         0.23        112.1 
       788.0         0.20        107.1 
       789.0         0.23        107.1 
