~Version Information
VERS.                      2.0: CWLS Log ASCII Standard - VERSION 2.0
WRAP.                       NO: One line per depth step
~Well Information Block
STRT.FT               892.0000: 
STOP.FT              2094.0000: 
STEP.FT                 0.1000: 
NULL.                -999.2500: 
COMP.          Pioneer Natural Resources: COMPANY
WELL.          Greenwood 43-29 Tr: WELL
FLD.           Purgatoire River: FIELD
LOC.           1478' FSL & 744' FEL: LOCATION
STAT.                 Colorado: State
CNTY.               Las Animas: COUNTY
CTRY. USA : Country
SECT. 29 : Section
TOWN. 32S : Township
RANG. 67W : Range
SRVC.                Patterson: SERVICE COMPANY
DATE.          Wed Aug 31 10:39:20 2005: LOG DATE
API.           05 071 08478 00: UNIQUE WELL ID
~Curve Information Block
DEPT.FT            0 000 00 00: Depth
DCAL.in                       : CDL Caliper
RHOB.g/cc                     : CDL Bulk Density
RHOC.g/cc                     : CDL Density Correction
DPOR.pu                       : CDL Density Porosity
GR.GAPI                       : Gamma Ray
NPOR.pu                       : Neutron Porosity
~Parameter Information Block
~A  Depth       DCAL        RHOB        RHOC        DPOR         GR         NPOR    
# ...
  2082.4000      7.9268      2.5377      0.0453      6.8052   -999.2500   -999.2500
  2082.5000      7.9230      2.5502      0.0846      6.0475   -999.2500   -999.2500
  2082.6000      7.9230      2.5433      0.1451      6.4646   -999.2500   -999.2500
  2082.7000      7.9230      2.5244      0.0272      7.6130   -999.2500   -999.2500
  2082.8000      7.9318      2.5181      0.0019      7.9931   -999.2500   -999.2500
  2082.9000      7.9318      2.5351      0.0503      6.9627   -999.2500   -999.2500
  2083.0000      7.9423      2.5595      0.1090      5.4831   -999.2500   -999.2500
  2083.1000      7.9423      2.5762      0.0587      4.4747   -999.2500   -999.2500
  2083.2000      7.9423      2.5837      0.0825      4.0183   -999.2500   -999.2500
  2083.3000      7.9460      2.5819      0.0618      4.1244   -999.2500   -999.2500
  2083.4000      7.9460      2.5692      0.0749      4.8952   -999.2500   -999.2500
  2083.5000      7.9432      2.5497      0.0192      6.0792   -999.2500   -999.2500
  2083.6000      7.9432      2.5429     -0.0031      6.4910   -999.2500   -999.2500
  2083.7000      7.9432      2.5647      0.0210      5.1692   -999.2500   -999.2500
  2083.8000      7.9613      2.5966      0.0767      3.2368   -999.2500   -999.2500
  2083.9000      7.9613      2.6123      0.0552      2.2829   -999.2500   -999.2500
  2084.0000      7.9432      2.6136      0.0770      2.2055   -999.2500   -999.2500
  2084.1000      7.9432      2.6083      0.0775      2.5272   -999.2500   -999.2500
  2084.2000      7.9432      2.6019      0.0680      2.9139   -999.2500   -999.2500
  2084.3000      7.9305      2.6059      0.0688      2.6722   -999.2500   -999.2500
  2084.4000      7.9305      2.6172      0.1277      1.9858   -999.2500   -999.2500
  2084.5000      7.9328      2.6189      0.0990      1.8867   -999.2500   -999.2500
  2084.6000      7.9328      2.6059      0.0780      2.6725   -999.2500   -999.2500
  2084.7000      7.9328      2.5832      0.0552      4.0482   -999.2500   -999.2500
  2084.8000      7.9429      2.5575      0.0158      5.6057   -999.2500   -999.2500
  2084.9000      7.9429      2.5410      0.0265      6.6034   -999.2500   -999.2500
  2085.0000      7.9380      2.5425      0.0553      6.5166   -999.2500   -999.2500
  2085.1000      7.9380      2.5602      0.0384      5.4415   -999.2500   -999.2500
  2085.2000      7.9380      2.5814      0.1213      4.1548   -999.2500   -999.2500
  2085.3000      7.9206      2.5857      0.1045      3.8975   -999.2500   -999.2500
  2085.4000      7.9206      2.5773      0.0706      4.4086   -999.2500   -999.2500
  2085.5000      7.9113      2.5794      0.0991      4.2800   -999.2500   -999.2500
  2085.6000      7.9113      2.5960      0.0475      3.2736   -999.2500   -999.2500
  2085.7000      7.9113      2.6111      0.0868      2.3596   -999.2500   -999.2500
  2085.8000      7.9295      2.6085      0.0806      2.5146   -999.2500   -999.2500
  2085.9000      7.9295      2.5852      0.1152      3.9276   -999.2500   -999.2500
  2086.0000      7.9311      2.5481      0.0790      6.1763   -999.2500   -999.2500
  2086.1000      7.9311      2.5205      0.0372      7.8496   -999.2500   -999.2500
  2086.2000      7.9311      2.5243      0.0676      7.6208   -999.2500   -999.2500
  2086.3000      7.9320      2.5436      0.0748      6.4458   -999.2500   -999.2500
  2086.4000      7.9320      2.5509      0.0706      6.0088   -999.2500   -999.2500
  2086.5000      7.9204      2.5400      0.0957      6.6652   -999.2500   -999.2500
  2086.6000      7.9204      2.5236      0.0053      7.6609   -999.2500   -999.2500
  2086.7000      7.9204      2.5236     -0.0032      7.6599   -999.2500   -999.2500
  2086.8000      7.9241      2.5405      0.0643      6.6351   -999.2500   -999.2500
  2086.9000      7.9241      2.5489      0.0766      6.1265   -999.2500   -999.2500
  2087.0000      7.9268      2.5447      0.0484      6.3828   -999.2500   -999.2500
  2087.1000      7.9268      2.5506     -0.0100      6.0220   -999.2500   -999.2500
  2087.2000      7.9268      2.5677      0.1349      4.9880   -999.2500   -999.2500
  2087.3000      7.9275      2.5763      0.0603      4.4674   -999.2500   -999.2500
  2087.4000      7.9275      2.5843      0.0102      3.9815   -999.2500   -999.2500
  2087.5000      7.9233      2.6098      0.0705      2.4380   -999.2500   -999.2500
  2087.6000      7.9233      2.6458      0.0880      0.2546   -999.2500   -999.2500
  2087.7000      7.9233      2.6713      0.1119     -1.2898   -999.2500   -999.2500
  2087.8000      7.9169      2.6660      0.1424     -0.9679   -999.2500   -999.2500
  2087.9000      7.9169      2.6262      0.0926      1.4450   -999.2500   -999.2500
  2088.0000      7.9000      2.5808      0.0705      4.1927   -999.2500   -999.2500
  2088.1000      7.9000      2.5668      0.0308      5.0403   -999.2500   -999.2500
  2088.2000      7.9000      2.5752      0.1339      4.5314   -999.2500   -999.2500
  2088.3000      7.8684      2.5678      0.0230      4.9839   -999.2500   -999.2500
  2088.4000      7.8684      2.5411      0.0371      6.6016   -999.2500   -999.2500
  2088.5000      7.8723      2.5149      0.0476      8.1886   -999.2500   -999.2500
  2088.6000      7.8723      2.5020      0.0188      8.9719   -999.2500   -999.2500
  2088.7000      7.8723      2.5045      0.0498      8.8185   -999.2500   -999.2500
  2088.8000      7.8806      2.5111      0.0995      8.4190   -999.2500   -999.2500
  2088.9000      7.8806      2.5148      0.0528      8.1970   -999.2500   -999.2500
  2089.0000      7.9018      2.5210      0.0984      7.8203   -999.2500   -999.2500
  2089.1000      7.9018      2.5280      0.0803      7.3921   -999.2500   -999.2500
  2089.2000      7.9018      2.5325      0.0930      7.1212   -999.2500   -999.2500
  2089.3000      7.9204      2.5408      0.0528      6.6187   -999.2500   -999.2500
  2089.4000      7.9204      2.5540      0.0862      5.8192   -999.2500   -999.2500
  2089.5000      7.9397      2.5641      0.0921      5.2072   -999.2500   -999.2500
  2089.6000      7.9397      2.5769      0.0619      4.4329   -999.2500   -999.2500
  2089.7000      7.9397      2.6021      0.0874      2.9055   -999.2500   -999.2500
  2089.8000      7.9320      2.6318      0.1199      1.1021   -999.2500   -999.2500
  2089.9000      7.9320      2.6513      0.1337     -0.0759   -999.2500   -999.2500
  2090.0000      7.8747      2.6501      0.1620     -0.0070   -999.2500   -999.2500
  2090.1000      7.8747      2.6205      0.1485      1.7898   -999.2500   -999.2500
  2090.2000      7.8747      2.5677      0.0454      4.9877   -999.2500   -999.2500
  2090.3000      7.8647      2.5282      0.0663      7.3819   -999.2500   -999.2500
  2090.4000      7.8647      2.5630      0.0228      5.2744   -999.2500   -999.2500
  2090.5000      7.7965      2.5762      0.0655      4.4712   -999.2500   -999.2500
  2090.6000      7.7965      2.1563      0.4363     29.9236   -999.2500   -999.2500
  2090.7000      7.7965      1.2258      0.0300     86.3142   -999.2500   -999.2500
  2090.8000      7.4580      0.4159      0.0300    135.3989   -999.2500   -999.2500
  2090.9000      7.4580      0.0790   -999.2500    155.8183   -999.2500   -999.2500
  2091.0000      7.0378      0.0081   -999.2500    160.1125   -999.2500   -999.2500
  2091.1000      7.0378      0.0004   -999.2500    160.5793   -999.2500   -999.2500
  2091.2000      7.0378      0.0000   -999.2500    160.6061   -999.2500   -999.2500
  2091.3000      5.3229      0.0000   -999.2500    160.6061   -999.2500   -999.2500
  2091.4000      5.3229   -999.2500   -999.2500   -999.2500   -999.2500   -999.2500
  2091.5000      5.0935   -999.2500   -999.2500   -999.2500   -999.2500   -999.2500
  2091.6000      5.0935   -999.2500   -999.2500   -999.2500   -999.2500   -999.2500
  2091.7000      5.0935   -999.2500   -999.2500   -999.2500   -999.2500   -999.2500
  2091.8000   -999.2500   -999.2500   -999.2500   -999.2500   -999.2500   -999.2500
  2091.9000   -999.2500   -999.2500   -999.2500   -999.2500   -999.2500   -999.2500
