~Version Information
VERS.                      2.0: CWLS Log ASCII Standard - VERSION 2.0
WRAP.                       NO: One line per depth step
~Well Information Block
STRT.FT                -6.2500: 
STOP.FT              2245.0000: 
STEP.FT                 0.0500: 
NULL.                -999.2500: 
COMP.          Pioneer Natural Resources: COMPANY
WELL.          Roadster 41-33 Kv: WELL
FLD.           Purgatoire River: FIELD
LOC.           903' FNL & 248' FEL--: LOCATION
PROV.                 Colorado: PROVINCE
CNTY.               Las Animas: COUNTRY
SRVC.                Patterson: SERVICE COMPANY
DATE.          Tue Jan 17 11:20:00 2006: LOG DATE
UWI.           05 071 08615 00: UNIQUE WELL ID
~Curve Information Block
DEPT.FT            0 000 00 00: Depth
CCL.                          : Casing Collar Locator
TT3.usec                      : CBL 3' Travel Time
AMP3.mV                       : CBL 3' Amplitude
GR.GAPI                       : Gamma Ray
~Parameter Information Block
~A  Depth       CCL         TT3         AMP3         GR     
# ...
  1936.7500      0.0000    696.6837      8.0619     87.7551
  1936.8000      0.0000    696.6837      8.0619     87.7551
  1936.8500      0.0000    696.6837      8.0619     87.7551
  1936.9000      0.0000    696.6837      8.0619     87.7551
  1936.9500      0.0000    696.6837      8.0619     87.7551
  1937.0000      0.0000    690.6075      8.2343     87.2030
  1937.0500      0.0000    690.6075      8.2343     87.2030
  1937.1000      0.0000    690.6075      8.2343     87.2030
  1937.1500      0.0000    690.6075      8.2343     87.2030
  1937.2000      0.0000    690.6075      8.2343     87.2030
  1937.2500      0.0000    684.6603      8.5616     84.6180
  1937.3000      0.0000    684.6603      8.5616     84.6180
  1937.3500      0.0000    684.6603      8.5616     84.6180
  1937.4000      0.0000    684.6603      8.5616     84.6180
  1937.4500      0.0000    684.6603      8.5616     84.6180
  1937.5000      0.0000    680.3024      9.0189     79.9641
  1937.5500      0.0000    680.3024      9.0189     79.9641
  1937.6000      0.0000    680.3024      9.0189     79.9641
  1937.6500      0.0000    680.3024      9.0189     79.9641
  1937.7000      0.0000    680.3024      9.0189     79.9641
  1937.7500      0.0000    679.1522      9.5063     74.8011
  1937.8000      0.0000    679.1522      9.5063     74.8011
  1937.8500      0.0000    679.1522      9.5063     74.8011
  1937.9000      0.0000    679.1522      9.5063     74.8011
  1937.9500      0.0000    679.1522      9.5063     74.8011
  1938.0000      0.0000    681.9983      9.8765     71.2017
  1938.0500      0.0000    681.9983      9.8765     71.2017
  1938.1000      0.0000    681.9983      9.8765     71.2017
  1938.1500      0.0000    681.9983      9.8765     71.2017
  1938.2000      0.0000    681.9983      9.8765     71.2017
  1938.2500      0.0000    687.9286     10.0182     70.2611
  1938.3000      0.0000    687.9286     10.0182     70.2611
  1938.3500      0.0000    687.9286     10.0182     70.2611
  1938.4000      0.0000    687.9286     10.0182     70.2611
  1938.4500      0.0000    687.9286     10.0182     70.2611
  1938.5000      0.0000    694.9222      9.9395     71.7839
  1938.5500      0.0000    694.9222      9.9395     71.7839
  1938.6000      0.0000    694.9222      9.9395     71.7839
  1938.6500      0.0000    694.9222      9.9395     71.7839
  1938.7000      0.0000    694.9222      9.9395     71.7839
  1938.7500      0.0000    701.3743      9.7851     75.3653
  1938.8000      0.0000    701.3743      9.7851     75.3653
  1938.8500      0.0000    701.3743      9.7851     75.3653
  1938.9000      0.0000    701.3743      9.7851     75.3653
  1938.9500      0.0000    701.3743      9.7851     75.3653
  1939.0000      0.0000    706.6765      9.7427     81.1738
  1939.0500      0.0000    706.6765      9.7427     81.1738
  1939.1000      0.0000    706.6765      9.7427     81.1738
  1939.1500      0.0000    706.6765      9.7427     81.1738
  1939.2000      0.0000    706.6765      9.7427     81.1738
  1939.2500      0.0000    710.4814      9.8885     88.9902
  1939.3000      0.0000    710.4814      9.8885     88.9902
  1939.3500      0.0000    710.4814      9.8885     88.9902
  1939.4000      0.0000    710.4814      9.8885     88.9902
  1939.4500      0.0000    710.4814      9.8885     88.9902
  1939.5000      0.0000    712.2106     10.1184     96.7961
  1939.5500      0.0000    712.2106     10.1184     96.7961
  1939.6000      0.0000    712.2106     10.1184     96.7961
  1939.6500      0.0000    712.2106     10.1184     96.7961
  1939.7000      0.0000    712.2106     10.1184     96.7961
  1939.7500      0.0000    711.6726     10.2443    101.4101
  1939.8000      0.0000    711.6726     10.2443    101.4101
  1939.8500      0.0000    711.6726     10.2443    101.4101
  1939.9000      0.0000    711.6726     10.2443    101.4101
  1939.9500      0.0000    711.6726     10.2443    101.4101
  1940.0000      0.0000    709.6860     10.1457    100.9906
  1940.0500      0.0000    709.6860     10.1457    100.9906
  1940.1000      0.0000    709.6860     10.1457    100.9906
  1940.1500      0.0000    709.6860     10.1457    100.9906
  1940.2000      0.0000    709.6860     10.1457    100.9906
  1940.2500      0.0000    707.6266      9.8251     96.6454
  1940.3000      0.0000    707.6266      9.8251     96.6454
  1940.3500      0.0000    707.6266      9.8251     96.6454
  1940.4000      0.0000    707.6266      9.8251     96.6454
  1940.4500      0.0000    707.6266      9.8251     96.6454
  1940.5000      0.0000    706.4698      9.3705     91.4666
  1940.5500      0.0000    706.4698      9.3705     91.4666
  1940.6000      0.0000    706.4698      9.3705     91.4666
  1940.6500      0.0000    706.4698      9.3705     91.4666
  1940.7000      0.0000    706.4698      9.3705     91.4666
  1940.7500      0.0000    706.4612      8.9081     88.1696
  1940.8000      0.0000    706.4612      8.9081     88.1696
  1940.8500      0.0000    706.4612      8.9081     88.1696
  1940.9000      0.0000    706.4612      8.9081     88.1696
  1940.9500      0.0000    706.4612      8.9081     88.1696
  1941.0000      0.0000    707.3888      8.5558     87.6641
  1941.0500      0.0000    707.3888      8.5558     87.6641
  1941.1000      0.0000    707.3888      8.5558     87.6641
  1941.1500      0.0000    707.3888      8.5558     87.6641
  1941.2000      0.0000    707.3888      8.5558     87.6641
  1941.2500      0.0000    708.7421      8.3674     89.5107
  1941.3000      0.0000    708.7421      8.3674     89.5107
  1941.3500      0.0000    708.7421      8.3674     89.5107
  1941.4000      0.0000    708.7421      8.3674     89.5107
  1941.4500      0.0000    708.7421      8.3674     89.5107
  1941.5000      0.0000    709.3554      8.3060     93.1344
  1941.5500      0.0000    709.3554      8.3060     93.1344
  1941.6000      0.0000    709.3554      8.3060     93.1344
  1941.6500      0.0000    709.3554      8.3060     93.1344
  1941.7000      0.0000    709.3554      8.3060     93.1344
  1941.7500      0.0000    707.2209      8.2823     98.2600
  1941.8000      0.0000    707.2209      8.2823     98.2600
  1941.8500      0.0000    707.2209      8.2823     98.2600
  1941.9000      0.0000    707.2209      8.2823     98.2600
  1941.9500      0.0000    707.2209      8.2823     98.2600
  1942.0000      0.0000    700.7869      8.2208    104.3873
  1942.0500      0.0000    700.7869      8.2208    104.3873
  1942.1000      0.0000    700.7869      8.2208    104.3873
  1942.1500      0.0000    700.7869      8.2208    104.3873
  1942.2000      0.0000    700.7869      8.2208    104.3873
  1942.2500      0.0000    690.9249      8.1049    110.3037
  1942.3000      0.0000    690.9249      8.1049    110.3037
  1942.3500      0.0000    690.9249      8.1049    110.3037
  1942.4000      0.0000    690.9249      8.1049    110.3037
  1942.4500      0.0000    690.9249      8.1049    110.3037
  1942.5000      0.0000    680.4003      7.9692    114.4569
  1942.5500      0.0000    680.4003      7.9692    114.4569
  1942.6000      0.0000    680.4003      7.9692    114.4569
  1942.6500      0.0000    680.4003      7.9692    114.4569
  1942.7000      0.0000    680.4003      7.9692    114.4569
  1942.7500      0.0000    670.4496      7.8571    115.8883
  1942.8000      0.0000    670.4496      7.8571    115.8883
  1942.8500      0.0000    670.4496      7.8571    115.8883
  1942.9000      0.0000    670.4496      7.8571    115.8883
  1942.9500      0.0000    670.4496      7.8571    115.8883
  1943.0000      0.0000    659.2398      7.7892    114.6085
  1943.0500      0.0000    659.2398      7.7892    114.6085
  1943.1000      0.0000    659.2398      7.7892    114.6085
  1943.1500      0.0000    659.2398      7.7892    114.6085
  1943.2000      0.0000    659.2398      7.7892    114.6085
  1943.2500      0.0000    644.9232      7.7724    111.1265
  1943.3000      0.0000    644.9232      7.7724    111.1265
  1943.3500      0.0000    644.9232      7.7724    111.1265
  1943.4000      0.0000    644.9232      7.7724    111.1265
