~Version Information
 VERS.                                  2.0 : CWLS LAS VERSION
 WRAP.                                   NO : WRAPING MODE
 SWARE .                 MController 2.5.0N : SOFTWARE VERSION
~Well Information
 WELL.                          AMX 13-13TR : WELL
 COMP.       Pioneer Natural Resources, USA : COMPANY
 FLD.                       Purgatory River : FIELD
 LOC.                NW/SW Sec 13 T32S R67W : LOCATION
 DATE.                             12/21/05 : DATE(S) LOGGED
 SRVC.      Blanco Geological Services, LLC : SERVICE COMPANY
 STAT.                             Colorado : STATE
 CNTY.                           Las Animas : COUNTY
 CTRY.                                  USA : COUNTRY
 API.                       05-071-08631-00 : API NUMBER
 STRT.FT                             395.00 : START DEPTH
 STOP.FT                            2187.00 : STOP DEPTH
 STEP.FT                               1.00 : DEPTH INCREMENT
 NULL.                                -9999 : NULL VALUE
~Curve information
 DEPTH.FT                                   :
 ROP.MIN/FT                                 :
 GAS.UNITS                                  :
~ASCII Log data
# ...
      1995.0         0.42        135.8 
      1996.0         0.33        128.3 
      1997.0         0.47        123.3 
      1998.0         0.50        123.8 
      1999.0         0.47        125.8 
      2000.0         0.37        126.3 
      2001.0         0.30        125.6 
      2002.0         0.23        119.8 
      2003.0         0.23        105.2 
      2004.0         0.32         88.6 
      2005.0         0.20         76.4 
      2006.0         3.12        211.6 
      2007.0         0.40        197.0 
      2008.0         0.33        193.8 
      2009.0         0.30        181.4 
      2010.0         0.23        166.3 
      2011.0         0.23        157.5 
      2012.0         0.23        151.0 
      2013.0         0.37        150.2 
      2014.0         0.30        147.1 
      2015.0         0.23        140.6 
      2016.0         0.20        134.6 
      2017.0         0.27        131.1 
      2018.0         0.17        130.1 
      2019.0         0.22        135.1 
      2020.0         0.17        138.1 
      2021.0         0.17        139.4 
      2022.0         0.17        139.4 
      2023.0         0.27        138.7 
      2024.0         0.30        135.2 
      2025.0         0.30        128.4 
      2026.0         0.27        123.3 
      2027.0         0.23        121.4 
      2028.0         0.27        118.3 
      2029.0         0.27        115.9 
      2030.0         0.27        114.7 
      2031.0         0.30        112.5 
      2032.0         0.32        111.1 
      2033.0         0.33        109.3 
      2034.0         0.33        101.9 
      2035.0         0.37         82.8 
      2036.0         3.15        224.5 
      2037.0         0.50        226.6 
      2038.0         0.50        213.8 
      2039.0         0.40        174.1 
      2040.0         0.33        144.9 
      2041.0         0.37        128.1 
      2042.0         0.38        126.3 
      2043.0         0.47        125.3 
      2044.0         0.43        114.0 
      2045.0         0.37        104.7 
      2046.0         0.33         97.7 
      2047.0         0.27         91.7 
      2048.0         0.40         87.2 
      2049.0         0.30         79.1 
      2050.0         0.33         73.1 
      2051.0         0.17         74.2 
      2052.0         0.22         77.0 
      2053.0         0.23         79.1 
      2054.0         0.27         79.5 
      2055.0         0.33         78.6 
      2056.0         0.30         77.7 
      2057.0         0.20         81.5 
      2058.0         0.20         84.8 
      2059.0         0.20         85.6 
      2060.0         0.30         85.4 
      2061.0         0.37         83.4 
      2062.0         0.43         82.7 
      2063.0         0.27         77.4 
      2064.0         0.32         66.6 
      2065.0         0.30         52.6 
      2066.0         4.62        226.6 
      2067.0         0.57        153.6 
      2068.0         0.50        133.3 
      2069.0         0.47        115.2 
      2070.0         0.68        114.4 
      2071.0         0.50        100.1 
      2072.0         0.27         90.6 
      2073.0         0.30         87.2 
      2074.0         0.20         84.7 
      2075.0         0.23         84.0 
      2076.0         0.27         82.6 
      2077.0         0.27         79.6 
      2078.0         0.27         79.9 
      2079.0         0.27         83.5 
      2080.0         0.25         84.6 
      2081.0         0.27         84.5 
      2082.0         0.27         83.9 
      2083.0         0.27         82.0 
      2084.0         0.23         78.1 
      2085.0         0.53         76.6 
      2086.0         0.57         79.5 
      2087.0         0.37         81.0 
      2088.0         0.27         81.6 
      2089.0         0.30         81.4 
      2090.0         0.32         78.9 
      2091.0         0.30         77.1 
      2092.0         0.20         75.8 
      2093.0         0.33         71.3 
      2094.0         0.27         59.1 
      2095.0         0.27         52.3 
      2096.0         3.35        188.7 
      2097.0         0.27        192.9 
      2098.0         0.37        192.4 
      2099.0         0.33        179.0 
      2100.0         0.27        161.6 
      2101.0         0.27        147.2 
      2102.0         0.28        133.6 
      2103.0         0.27        128.9 
      2104.0         0.30        129.1 
      2105.0         0.30        126.5 
      2106.0         0.27        118.3 
      2107.0         0.30        111.2 
      2108.0         0.27        103.8 
      2109.0         0.27         98.4 
      2110.0         0.23         94.2 
      2111.0         0.20         91.8 
      2112.0         0.17         90.0 
      2113.0         0.27         89.0 
      2114.0         0.27         87.4 
      2115.0         0.32         85.5 
      2116.0         0.30         82.6 
      2117.0         0.27         80.9 
      2118.0         0.27         79.6 
      2119.0         0.30         79.1 
      2120.0         0.23         79.3 
      2121.0         0.27         79.0 
      2122.0         0.30         77.3 
      2123.0         0.33         74.5 
      2124.0         0.33         66.8 
      2125.0         0.27         53.6 
      2126.0         3.32        182.9 
      2127.0         0.38        186.9 
      2128.0         0.47        184.0 
      2129.0         0.47        159.9 
      2130.0         0.30        134.2 
      2131.0         0.30        125.2 
      2132.0         0.73        121.9 
      2133.0         0.57        114.9 
      2134.0         0.33        102.1 
      2135.0         0.35         95.0 
      2136.0         0.37         88.3 
      2137.0         0.30         82.9 
      2138.0         0.40         79.8 
      2139.0         0.33         77.1 
      2140.0         0.30         74.3 
      2141.0         0.27         72.1 
      2142.0         0.23         71.6 
      2143.0         0.23         71.2 
      2144.0         0.37         70.1 
      2145.0         0.32         67.4 
      2146.0         0.27         67.4 
      2147.0         0.27         68.9 
      2148.0         0.37         69.6 
      2149.0         0.40         69.1 
      2150.0         0.60         66.2 
      2151.0         0.37         71.6 
      2152.0         0.30         73.3 
      2153.0         0.27         73.2 
      2154.0         0.30         70.8 
      2155.0         0.32         62.1 
      2156.0         3.98        226.9 
      2157.0         0.40        174.1 
      2158.0         0.30        169.9 
      2159.0         0.30        157.8 
      2160.0         0.27        143.6 
      2161.0         0.27        131.7 
      2162.0         0.27        123.5 
      2163.0         0.27        121.3 
      2164.0         0.33        120.5 
      2165.0         0.32        115.9 
      2166.0         0.30        108.2 
      2167.0         0.30        101.1 
      2168.0         0.27         95.2 
      2169.0         0.30         92.2 
      2170.0         0.23         89.9 
      2171.0         0.27         87.6 
      2172.0         0.23         85.3 
      2173.0         0.27         83.9 
      2174.0         0.27         82.2 
      2175.0         0.27         79.9 
      2176.0         0.27         78.0 
      2177.0         0.28         75.8 
      2178.0         0.27         74.0 
      2179.0         0.23         73.5 
      2180.0         0.27         73.3 
      2181.0         0.27         70.4 
      2182.0         0.27         61.4 
      2183.0         0.30         53.0 
      2184.0         0.13         46.4 
      2185.0         0.23         46.0 
