~Version Information
VERS.                      2.0: CWLS Log ASCII Standard - VERSION 2.0
WRAP.                       NO: One line per depth step
~Well Information Block
STRT.FT               240.0000: 
STOP.FT              1677.0000: 
STEP.FT                 0.1000: 
NULL.                -999.2500: 
COMP.          Pioneer Natural Resources: COMPANY
WELL.          Lorencito 8-1-34-67: WELL
FLD.           Purgatoire River: FIELD
LOC.           1567' FNL & 500' FEL: LOCATION
STAT.                 Colorado: State
CTRY. USA : Country 
CNTY.               Las Animas: COUNTY
SECT. 1 : Section 
TOWN. 34S : Township
RANG. 67W : Range
SRVC.                Patterson: SERVICE COMPANY
DATE.          Fri Aug 26 09:30:14 2005: LOG DATE
API.           05 071 08506 00: UNIQUE WELL ID
~Curve Information Block
DEPT.FT            0 000 00 00: Depth
DCAL.in                       : CDL Caliper
RHOB.g/cc                     : CDL Bulk Density
RHOC.g/cc                     : CDL Density Correction
DPOR.pu                       : CDL Density Porosity
GR.GAPI                       : Gamma Ray
NPOR.pu                       : Neutron Porosity
~Parameter Information Block
~A  Depth       DCAL        RHOB        RHOC        DPOR         GR         NPOR    
# ...
   998.4000      8.0743      2.5944      0.0443      3.3672    121.0753     25.6986
   998.5000      8.0941      2.6059     -0.0065      2.6709    109.1994     25.8210
   998.6000      8.0941      2.6106      0.0430      2.3908     96.3874     25.2498
   998.7000      8.0941      2.6202      0.0208      1.8062     90.7798     24.4433
   998.8000      8.0974      2.6301      0.0286      1.2066     94.9124     23.8991
   998.9000      8.0974      2.6291      0.0095      1.2652    101.8407     23.6321
   999.0000      8.0936      2.6229     -0.0372      1.6445    105.5428     23.6197
   999.1000      8.0936      2.6201      0.0463      1.8129    106.8015     23.7226
   999.2000      8.0936      2.6093      0.0188      2.4687    105.8497     23.6074
   999.3000      8.0644      2.5803      0.0148      4.2231    101.1975     23.0214
   999.4000      8.0644      2.5464     -0.0201      6.2807     95.2913     22.1422
   999.5000      8.0333      2.5394     -0.1021      6.7004     91.9935     21.6410
   999.6000      8.0333      2.5741      0.0039      4.6014     92.4480     22.0344
   999.7000      8.0333      2.6217      0.1032      1.7145     95.8538     22.9249
   999.8000      8.0322      2.6489      0.0358      0.0685     99.1300     23.5219
   999.9000      8.0322      2.6524      0.0598     -0.1462    100.7602     23.6294
  1000.0000      8.0245      2.6376      0.0777      0.7519    101.3387     23.4201
  1000.1000      8.0245      2.6103      0.0568      2.4065    101.5423     23.0773
  1000.2000      8.0245      2.5850      0.0478      3.9406     99.8224     22.9568
  1000.3000      8.0216      2.5660      0.0384      5.0934     96.9663     23.0644
  1000.4000      8.0216      2.5497      0.0110      6.0802     97.2100     23.1179
  1000.5000      8.0196      2.5462     -0.0053      6.2921     98.8243     23.0791
  1000.6000      8.0196      2.5601      0.0183      5.4498     99.2572     22.9684
  1000.7000      8.0196      2.5770      0.0143      4.4237    100.4133     22.8560
  1000.8000      8.0280      2.5843      0.0647      3.9823    102.3913     22.8858
  1000.9000      8.0280      2.5871      0.0064      3.8115    103.8375     23.0781
  1001.0000      8.0423      2.6001      0.0190      3.0272    103.7887     23.1502
  1001.1000      8.0423      2.6231      0.0567      1.6325    104.0918     22.8913
  1001.2000      8.0423      2.6365      0.1037      0.8176    106.7445     22.5869
  1001.3000      8.0714      2.6227      0.0958      1.6548    109.7240     22.4115
  1001.4000      8.0714      2.5959     -0.0204      3.2810    112.3932     22.2872
  1001.5000      8.0428      2.5888     -0.0470      3.7062    115.5875     22.1952
  1001.6000      8.0428      2.6068      0.0140      2.6210    118.9900     22.2472
  1001.7000      8.0428      2.6241      0.0491      1.5702    124.5299     22.7020
  1001.8000      8.0391      2.6198      0.0282      1.8274    133.2321     23.3270
  1001.9000      8.0391      2.5905      0.0414      3.6042    138.0337     23.6500
  1002.0000      8.0513      2.5467     -0.0192      6.2628    136.7178     23.8683
  1002.1000      8.0513      2.5084     -0.0077      8.5800    140.4743     24.2690
  1002.2000      8.0513      2.4881     -0.0536      9.8138    151.3497     24.7265
  1002.3000      8.0350      2.4961     -0.0196      9.3279    157.7218     25.0238
  1002.4000      8.0350      2.5373      0.0168      6.8293    156.0083     25.2412
  1002.5000      8.1161      2.5797      0.0690      4.2631    151.3090     25.3209
  1002.6000      8.1161      2.5816      0.1082      4.1460    147.1926     25.1162
  1002.7000      8.1161      2.5603      0.0085      5.4373    143.5482     24.8887
  1002.8000      8.1272      2.5596      0.0416      5.4785    141.5741     24.9073
  1002.9000      8.1272      2.5731      0.0366      4.6594    142.4112     25.0427
  1003.0000      8.1169      2.5682      0.0651      4.9546    141.7242     25.0307
  1003.1000      8.1169      2.5449      0.0215      6.3693    137.8922     24.7690
  1003.2000      8.1169      2.5312      0.0023      7.2021    136.4878     24.5485
  1003.3000      8.1331      2.5278      0.0037      7.4043    137.3181     24.8191
  1003.4000      8.1331      2.5064      0.0306      8.7035    136.0426     25.4155
  1003.5000      8.1237      2.4743     -0.0700     10.6475    133.8038     25.6051
  1003.6000      8.1237      2.4715     -0.0247     10.8197    135.5186     25.3270
  1003.7000      8.1237      2.4981      0.0174      9.2076    142.1262     25.1964
  1003.8000      8.0984      2.5190     -0.0299      7.9394    149.7977     25.3308
  1003.9000      8.0984      2.5228      0.0275      7.7097    155.3896     25.3491
  1004.0000      8.0582      2.5305      0.0356      7.2410    156.2484     25.0952
  1004.1000      8.0582      2.5601      0.0614      5.4513    151.3988     25.0074
  1004.2000      8.0582      2.5979      0.1021      3.1579    141.4315     25.4926
  1004.3000      8.0308      2.6177      0.0423      1.9556    130.0969     26.0753
  1004.4000      8.0308      2.6155      0.0380      2.0901    126.6324     25.9648
  1004.5000      8.0207      2.6070      0.0512      2.6086    132.3233     25.2179
  1004.6000      8.0207      2.6012      0.0536      2.9584    137.6902     24.5788
  1004.7000      8.0207      2.5918      0.0812      3.5276    137.0108     24.3761
  1004.8000      8.0311      2.5758      0.0694      4.4999    134.2941     24.2810
  1004.9000      8.0311      2.5639     -0.0079      5.2159    135.8900     24.2295
  1005.0000      8.0734      2.5651      0.0542      5.1475    141.2305     24.5787
  1005.1000      8.0734      2.5781      0.0050      4.3564    144.8678     25.1971
  1005.2000      8.0734      2.5957      0.0422      3.2926    142.3789     25.5397
  1005.3000      8.0703      2.5983      0.0057      3.1354    137.5986     25.4145
  1005.4000      8.0703      2.5736      0.0190      4.6285    136.7467     25.2453
  1005.5000      8.1242      2.5393     -0.0103      6.7102    139.2885     25.5444
  1005.6000      8.1242      2.5233     -0.0031      7.6804    141.5287     26.1062
  1005.7000      8.1242      2.5238      0.0127      7.6505    142.9480     26.1523
  1005.8000      8.1625      2.5258     -0.0194      7.5257    145.0548     25.4116
  1005.9000      8.1625      2.5346     -0.0185      6.9958    147.3599     24.6026
  1006.0000      8.1298      2.5442      0.0551      6.4126    147.6833     24.2439
  1006.1000      8.1298      2.5368      0.0589      6.8587    147.2410     24.1472
  1006.2000      8.1298      2.5207      0.0234      7.8390    147.2583     24.1608
  1006.3000      8.0961      2.5212      0.0403      7.8089    146.2659     24.1278
  1006.4000      8.0961      2.5456      0.0644      6.3296    145.5863     24.0958
  1006.5000      8.0335      2.5706      0.1345      4.8094    145.7468     24.2748
  1006.6000      8.0335      2.5683      0.1300      4.9486    145.5493     24.5353
  1006.7000      8.0335      2.5485      0.0774      6.1494    144.7959     24.6621
  1006.8000      8.0205      2.5445      0.0532      6.3948    143.6965     24.6282
  1006.9000      8.0205      2.5577      0.0710      5.5969    140.6070     24.3560
  1007.0000      8.0336      2.5696      0.0811      4.8702    133.7030     23.9624
  1007.1000      8.0336      2.5793      0.0740      4.2821    126.1922     23.8372
  1007.2000      8.0336      2.5963      0.1032      3.2571    120.0220     24.0532
  1007.3000      8.0108      2.6214      0.1082      1.7329    115.9472     24.2505
  1007.4000      8.0108      2.6382      0.1315      0.7122    118.0498     24.2050
  1007.5000      8.0217      2.6291      0.0873      1.2697    122.8491     24.1805
  1007.6000      8.0217      2.6000      0.0596      3.0308    122.2057     24.2449
  1007.7000      8.0217      2.5679      0.0626      4.9755    118.3680     24.2223
  1007.8000      8.0259      2.5401      0.0504      6.6589    119.5783     24.2887
  1007.9000      8.0259      2.5235     -0.0013      7.6645    125.7141     24.7748
