~Version Information
 VERS.                                  2.0 : CWLS LAS VERSION
 WRAP.                                   NO : WRAPING MODE
 SWARE .                 MController 2.5.3A : SOFTWARE VERSION
~Well Information
 WELL.                          Darren 11-7 : WELL
 COMP.  Pioneer Natural Resources USA, Inc. : COMPANY
 FLD.                      Purgatoire River : FIELD
 LOC.              NW/NW Sec. 7, T33S, R65W : LOCATION
 DATE.                           03/19/2006 : DATE(S) LOGGED
 SRVC.                  Entrada GeoSciences : SERVICE COMPANY
 STAT.                             Colorado : STATE
 CNTY.                           Las Animas : COUNTY
 CTRY.                        United States : COUNTRY
 API.                       05-071-08720-00 : API NUMBER
 STRT.FT                             250.00 : START DEPTH
 STOP.FT                            1450.00 : STOP DEPTH
 STEP.FT                               1.00 : DEPTH INCREMENT
 NULL.                                -9999 : NULL VALUE
~Curve information
 DEPTH.FT                                   :
 ROP.MIN/FT                                 :
 GAS.UNITS                                  :
~ASCII Log data
# ...
      450.00         0.20          6.1 
      451.00         0.27          5.7 
      452.00         0.23          5.3 
      453.00         0.27          5.8 
      454.00         0.07          5.2 
      455.00         0.27          5.3 
      456.00         0.23          4.8 
      457.00         0.17          5.8 
      458.00         0.13          5.7 
      459.00         0.27          5.9 
      460.00         0.27          3.5 
      461.00         0.27          3.9 
      462.00         0.03          3.9 
      463.00         0.18          4.8 
      464.00         0.17          4.9 
      465.00         0.17          4.7 
      466.00         0.17          4.4 
      467.00         0.17          3.5 
      468.00         0.17          4.4 
      469.00         0.20          4.8 
      470.00         0.17          5.3 
      471.00         0.13          3.9 
      472.00         0.17          3.9 
      473.00         0.20          3.9 
      474.00         0.17          5.1 
      475.00         0.17          5.1 
      476.00         0.40          7.0 
      477.00         0.27          6.9 
      478.00         0.10          8.9 
      479.00         0.27         12.0 
      480.00         0.27         11.0 
      481.00         0.13          8.6 
      482.00         0.27          6.2 
      483.00         0.07          6.8 
      484.00         0.13          6.3 
      485.00         0.13          6.2 
      486.00         0.17          6.2 
      487.00         0.17          4.8 
      488.00         0.07          4.8 
      489.00         0.30          6.1 
      490.00         0.27          4.8 
      491.00         0.20          3.1 
      492.00         0.35          4.6 
      493.00         0.37          4.3 
      494.00         0.20          3.6 
      495.00         0.20          4.1 
      496.00         0.17          4.3 
      497.00         0.17          4.5 
      498.00         0.20          4.8 
      499.00         0.20          4.8 
      500.00         0.17          5.3 
      501.00         0.20          4.6 
      502.00         0.17          4.3 
      503.00         0.17          4.3 
      504.00         0.17          4.3 
      505.00         0.13          4.2 
      506.00         0.17          3.9 
      507.00         0.17          3.7 
      508.00         0.17          3.1 
      509.00         0.20          3.1 
      510.00         0.17          3.7 
      511.00         0.30          4.7 
      512.00         0.27          4.1 
      513.00         0.27          5.9 
      514.00         0.27          7.5 
      515.00         0.10          8.4 
      516.00         0.13          8.4 
      517.00         0.27         11.4 
      518.00         0.23         10.4 
      519.00         0.17          8.4 
      520.00         0.10          8.4 
      521.00         0.25          7.3 
      522.00         0.13          5.4 
      523.00         0.13          6.2 
      524.00         0.27          5.1 
      525.00         0.23          4.3 
      526.00         0.23          4.7 
      527.00         0.20          4.3 
      528.00         0.17          3.6 
      529.00         0.23          3.9 
      530.00         0.17          7.1 
      531.00         0.20          7.1 
      532.00         0.13          7.1 
      533.00         0.13          6.0 
      534.00         0.13          7.1 
      535.00         0.10          7.1 
      536.00         0.20          8.7 
      537.00         0.13         17.0 
      538.00         0.13         17.0 
      539.00         0.17         24.9 
      540.00         0.13         28.4 
      541.00         0.23         28.4 
      542.00         0.27         30.0 
      543.00         0.20         27.5 
      544.00         0.13         24.0 
      545.00         0.13         25.2 
      546.00         0.27         25.1 
      547.00         0.27         36.4 
      548.00         0.28         43.8 
      549.00         0.17         48.1 
      550.00         0.30         98.3 
      551.00         0.07         98.3 
      552.00         0.27        108.2 
      553.00         0.27         81.2 
      554.00         0.23         50.0 
      555.00         0.03         50.0 
      556.00         0.07         39.3 
      557.00         0.20         31.7 
      558.00         0.13         31.7 
      559.00         0.27         31.6 
      560.00         0.23         26.9 
      561.00         0.10         24.5 
      562.00         0.17         15.7 
      563.00         0.30         14.8 
      564.00         0.23         13.9 
      565.00         0.07         13.9 
      566.00         0.22         14.5 
      567.00         0.10         13.9 
      568.00         0.03         13.9 
      569.00         0.20         13.7 
      570.00         0.27         13.7 
      571.00         0.27         13.3 
      572.00         0.03         13.2 
      573.00         0.27         12.8 
      574.00         0.23         12.3 
      575.00         0.20         11.8 
      576.00         0.20         12.4 
      577.00         0.17         12.1 
      578.00         0.28         12.0 
      579.00         0.07         12.0 
      580.00         0.17         14.3 
      581.00         0.10         14.8 
      582.00         0.03         16.9 
      583.00         0.20         17.7 
      584.00         0.27         17.5 
      585.00         0.27         15.4 
      586.00         0.20         14.7 
      587.00         0.03         14.7 
      588.00         0.17         14.7 
      589.00         0.30         16.5 
      590.00         0.27         16.7 
      591.00         0.17         16.7 
      592.00         0.30         16.2 
      593.00         0.23         60.6 
      594.00         0.23          9.7 
      595.00         0.28          9.5 
      596.00         0.27          9.1 
      597.00         0.17          8.0 
      598.00         0.20          9.2 
      599.00         0.20          9.2 
      600.00         0.17          7.9 
      601.00         0.22          9.1 
      602.00         0.20          8.5 
      603.00         0.20          8.7 
      604.00         0.17          8.6 
      605.00         0.13          8.6 
      606.00         0.23          7.5 
      607.00         0.20          7.5 
      608.00         0.17          7.8 
      609.00         0.20          7.8 
      610.00         0.23          8.5 
      611.00         0.13          8.1 
      612.00         0.17          7.1 
      613.00         0.20          8.0 
      614.00         0.27          7.1 
      615.00         0.17          7.1 
      616.00         0.27         11.5 
      617.00         0.27         15.9 
      618.00         0.22         15.9 
      619.00         0.07         19.0 
      620.00         0.27         20.0 
      621.00         0.13         21.2 
      622.00         0.27         42.1 
      623.00         0.27         10.7 
      624.00         0.27         10.6 
      625.00         0.10          9.2 
      626.00         0.30          9.6 
      627.00         0.23          8.8 
      628.00         0.07          7.9 
      629.00         0.28          8.4 
      630.00         0.17         10.6 
      631.00         0.13         13.0 
      632.00         0.17         14.6 
      633.00         0.20         16.4 
      634.00         0.23         16.4 
      635.00         0.20         15.2 
      636.00         0.27         14.9 
      637.00         0.27         27.2 
      638.00         0.27         27.9 
      639.00         0.27         31.5 
      640.00         0.27         29.1 
      641.00         0.10         29.1 
      642.00         0.37         28.0 
      643.00         0.23         21.3 
      644.00         0.15         16.8 
      645.00         0.27         16.2 
      646.00         0.10         12.0 
      647.00         0.13         12.0 
      648.00         0.13         11.5 
      649.00         0.07         11.5 
