~Version Information
VERS.                      2.0: CWLS Log ASCII Standard - VERSION 2.0
WRAP.                       NO: One line per depth step
~Well Information Block
STRT.FT               322.3000: 
STOP.FT              1375.0000: 
STEP.FT                 0.1000: 
NULL.                -999.2500: 
COMP.          Pioneer Natural Resources: COMPANY
WELL.          Buffet 41-36 Tr: WELL
FLD.           Purgatoire River: FIELD
LOC.           119' FNL & 271' FEL: LOCATION
PROV.                 Colorado: PROVINCE
CNTY.               Las Animas: COUNTRY
SRVC.                Patterson: SERVICE COMPANY
DATE.          Thu Dec 29 07:13:13 2005: LOG DATE
UWI.           05 071 08627 00: UNIQUE WELL ID
~Curve Information Block
DEPT.FT            0 000 00 00: Depth
DCAL.in                       : CDL Caliper
RHOB.g/cc                     : CDL Bulk Density
RHOC.g/cc                     : CDL Density Correction
DPOR.pu                       : CDL Density Porosity
GR.GAPI                       : Gamma Ray
~Parameter Information Block
~A  Depth       DCAL        RHOB        RHOC        DPOR         GR     
# ...
   411.9000      8.0897      2.4691     -0.0481     10.9653    135.7438
   412.0000      8.0902      2.4770     -0.0461     10.4839    129.8923
   412.1000      8.0902      2.4927     -0.0098      9.5346    129.1017
   412.2000      8.0902      2.5024      0.0129      8.9438    130.3232
   412.3000      8.0906      2.5064      0.0082      8.7034    129.5647
   412.4000      8.0906      2.5168     -0.0322      8.0727    126.5566
   412.5000      8.0909      2.5335      0.0581      7.0589    125.5867
   412.6000      8.0909      2.5437      0.0360      6.4413    129.4677
   412.7000      8.0909      2.5509      0.0493      6.0089    134.7303
   412.8000      8.0912      2.5595      0.0792      5.4843    140.3394
   412.9000      8.0912      2.5641      0.0606      5.2060    149.6288
   413.0000      8.0918      2.5645      0.0975      5.1810    155.5462
   413.1000      8.0918      2.5592      0.0930      5.5009    150.1862
   413.2000      8.0918      2.5502      0.0605      6.0483    141.1168
   413.3000      8.0921      2.5455      0.0500      6.3338    136.7940
   413.4000      8.0921      2.5460      0.0140      6.3015    138.0403
   413.5000      8.0919      2.5502      0.0219      6.0514    141.3690
   413.6000      8.0919      2.5500      0.0460      6.0601    142.7857
   413.7000      8.0919      2.5409      0.0212      6.6098    141.7545
   413.8000      8.0920      2.5384      0.0035      6.7643    140.1720
   413.9000      8.0920      2.5505      0.0293      6.0303    139.8422
   414.0000      8.0923      2.5605      0.0325      5.4215    140.5647
   414.1000      8.0923      2.5581      0.0204      5.5680    141.3421
   414.2000      8.0923      2.5583      0.0357      5.5567    142.6162
   414.3000      8.0925      2.5756     -0.0106      4.5071    146.1441
   414.4000      8.0925      2.5972      0.0436      3.1987    150.9843
   414.5000      8.0929      2.5978      0.0182      3.1633    151.0340
   414.6000      8.0929      2.5754      0.0011      4.5209    141.5443
   414.7000      8.0929      2.5506     -0.0190      6.0267    129.4352
   414.8000      8.0930      2.5390     -0.0173      6.7277    124.1427
   414.9000      8.0930      2.5404     -0.0292      6.6450    125.8500
   415.0000      8.0935      2.5433      0.0077      6.4655    131.1830
   415.1000      8.0935      2.5350     -0.0004      6.9688    135.8969
   415.2000      8.0935      2.5234     -0.0186      7.6734    134.7269
   415.3000      8.0947      2.5296     -0.0118      7.2999    125.2175
   415.4000      8.0947      2.5491      0.0215      6.1178    115.2423
   415.5000      8.0954      2.5615     -0.0174      5.3632    115.3013
   415.6000      8.0954      2.5644      0.0050      5.1907    123.3938
   415.7000      8.0954      2.5608      0.0024      5.4086    131.3783
   415.8000      8.0948      2.5519      0.0095      5.9439    135.4386
   415.9000      8.0948      2.5468      0.0207      6.2546    134.4069
   416.0000      8.0942      2.5527      0.0089      5.8995    131.7726
   416.1000      8.0942      2.5664      0.0212      5.0692    132.1373
   416.2000      8.0942      2.5764      0.0418      4.4635    134.4001
   416.3000      8.0940      2.5701     -0.0019      4.8441    135.8280
   416.4000      8.0940      2.5542     -0.0316      5.8044    136.6228
   416.5000      8.0933      2.5525      0.0134      5.9065    136.7358
   416.6000      8.0933      2.5697      0.0203      4.8674    134.3248
   416.7000      8.0933      2.5905      0.0407      3.6089    130.9021
   416.8000      8.0931      2.6084      0.0596      2.5229    130.5031
   416.9000      8.0931      2.6233      0.0991      1.6152    129.3426
   417.0000      8.0958      2.6318      0.0710      1.1006    122.0582
   417.1000      8.0958      2.6292      0.1053      1.2614    116.3762
   417.2000      8.0958      2.6129      0.0789      2.2456    120.4119
   417.3000      8.0985      2.5926      0.0337      3.4805    127.6485
   417.4000      8.0985      2.5795      0.0243      4.2742    129.9060
   417.5000      8.0971      2.5691      0.0215      4.9034    128.2139
   417.6000      8.0971      2.5539      0.0001      5.8256    126.1099
   417.7000      8.0971      2.5415     -0.0195      6.5777    126.5422
   417.8000      8.0952      2.5425      0.0027      6.5137    130.1888
   417.9000      8.0952      2.5624     -0.0378      5.3068    134.7045
   418.0000      8.0939      2.5999      0.0398      3.0344    139.1713
   418.1000      8.0939      2.6313      0.0738      1.1313    141.6981
   418.2000      8.0939      2.6378      0.0266      0.7411    140.5818
   418.3000      8.0934      2.6322      0.0204      1.0809    137.4501
   418.4000      8.0934      2.6282      0.0245      1.3242    135.2617
   418.5000      8.0942      2.6212      0.0312      1.7478    138.4741
   418.6000      8.0942      2.6028      0.0421      2.8603    143.7406
   418.7000      8.0942      2.5761     -0.0102      4.4758    140.4009
   418.8000      8.0945      2.5541     -0.0421      5.8104    129.3544
   418.9000      8.0945      2.5492     -0.0313      6.1102    121.0346
   419.0000      8.0938      2.5701     -0.0544      4.8437    121.1861
   419.1000      8.0938      2.6046      0.0357      2.7542    128.8341
   419.2000      8.0938      2.6178      0.0369      1.9500    135.8609
   419.3000      8.0927      2.6018     -0.0212      2.9220    133.7334
   419.4000      8.0927      2.5843     -0.0297      3.9843    126.7902
   419.5000      8.0923      2.5832     -0.0067      4.0483    123.4796
   419.6000      8.0923      2.5920      0.0016      3.5149    123.2388
   419.7000      8.0923      2.6011      0.0077      2.9626    124.3630
   419.8000      8.0922      2.6070     -0.0280      2.6083    127.6431
   419.9000      8.0922      2.6070      0.0161      2.6060    129.9170
   420.0000      8.0922      2.6073      0.0088      2.5870    129.3484
   420.1000      8.0922      2.6224      0.0251      1.6723    127.6564
   420.2000      8.0922      2.6375      0.0778      0.7558    126.7688
   420.3000      8.0927      2.6233      0.0264      1.6207    127.2246
   420.4000      8.0927      2.5943      0.0129      3.3787    126.6407
   420.5000      8.0929      2.5801      0.0105      4.2384    126.0579
   420.6000      8.0929      2.5837      0.0084      4.0211    129.8576
   420.7000      8.0929      2.5917      0.0231      3.5359    136.6045
   420.8000      8.0931      2.5937      0.0079      3.4110    139.3562
   420.9000      8.0931      2.5951      0.0229      3.3243    135.7645
   421.0000      8.0945      2.5953      0.0469      3.3180    132.1788
   421.1000      8.0945      2.5825      0.0061      4.0914    133.7454
   421.2000      8.0945      2.5581     -0.0076      5.5715    141.9281
   421.3000      8.0962      2.5321     -0.0402      7.1462    151.5611
   421.4000      8.0962      2.5181     -0.0545      7.9936    152.4689
   421.5000      8.0967      2.5223     -0.0049      7.7391    145.6542
   421.6000      8.0967      2.5290      0.0035      7.3357    139.9091
   421.7000      8.0967      2.5238     -0.0318      7.6463    139.6941
   421.8000      8.0942      2.5101     -0.0036      8.4810    149.7596
   421.9000      8.0942      2.4948     -0.0261      9.4045    164.2622
   422.0000      8.0908      2.4852     -0.0676      9.9888    171.6251
   422.1000      8.0908      2.4797      0.0047     10.3210    173.2422
   422.2000      8.0908      2.4708     -0.0033     10.8601    174.3881
   422.3000      8.0874      2.4666     -0.0152     11.1136    173.1756
   422.4000      8.0874      2.4766     -0.0334     10.5088    168.3889
   422.5000      8.0847      2.4867      0.0187      9.8981    163.2191
   422.6000      8.0847      2.4754      0.0277     10.5792    159.8322
   422.7000      8.0847      2.4536     -0.0233     11.9027    156.6982
   422.8000      8.0822      2.4551      0.0146     11.8116    150.7943
   422.9000      8.0822      2.4885      0.0187      9.7898    143.2247
   423.0000      8.0783      2.5333      0.0842      7.0745    137.9131
