~Version Information
VERS.                      2.0: CWLS Log ASCII Standard - VERSION 2.0
WRAP.                       NO: One line per depth step
~Well Information Block
STRT.FT                -1.5000: 
STOP.FT              2143.7500: 
STEP.FT                 0.2500: 
NULL.                -999.2500: 
COMP.          Pioneer Natural Resources: COMPANY
WELL.              Kermit 32-7: WELL
FLD.           Purgatoire River: FIELD
LOC.           2002' FNL & 2103' FEL: LOCATION
PROV.                 Colorado: PROVINCE
CNTY.               Las Animas: COUNTRY
SRVC.                Patterson: SERVICE COMPANY
DATE.          Wed Jan 18 14:17:49 2006: LOG DATE
UWI.           05 071 08647 00: UNIQUE WELL ID
~Curve Information Block
DEPT.FT            0 000 00 00: Depth
GR.GAPI                       : Gamma Ray
CCL.                          : Casing Collar Locator
TT3.usec                      : CBL 3' Travel Time
AMP3.mV                       : CBL 3' Amplitude
~Parameter Information Block
~A  Depth        GR         CCL         TT3         AMP3    
# ...
   434.0000     55.7172      0.0000    535.9661     12.3541
   434.2500     57.1444      0.0000    523.5378     12.3712
   434.5000     58.0663      0.0000    508.4572     12.3113
   434.7500     58.7119      0.0000    501.8695     12.1018
   435.0000     59.0067      0.0000    509.5923     11.6711
   435.2500     58.7141      0.0000    529.5742     11.0246
   435.5000     57.8670      0.0000    554.7195     10.2790
   435.7500     56.9623      0.0000    579.0513      9.5777
   436.0000     56.5068      0.0000    602.2974      8.9851
   436.2500     56.2639      0.0000    627.7987      8.5059
   436.5000     55.2808      0.0000    656.2503      8.1644
   436.7500     52.9090      0.0000    683.5720      7.9924
   437.0000     49.6227      0.0000    704.8558      7.9698
   437.2500     46.6572     -3.0000    717.8665      8.0432
   437.5000     44.9045     -3.0000    722.0084      8.2072
   437.7500     44.2042      0.0000    715.4423      8.5550
   438.0000     43.6940      0.0000    695.1353      9.2292
   438.2500     42.7778      0.0000    661.5297     10.2711
   438.5000     41.6846      0.0000    623.4243     11.4865
   438.7500     41.1548      0.0000    594.6524     12.5259
   439.0000     41.7177      0.0000    582.9559     13.1566
   439.2500     43.2834      0.0000    584.3224     13.4123
   439.5000     45.3468      0.0000    590.3607     13.4663
   439.7500     47.3863      0.0000    597.5985     13.4415
   440.0000     49.0248      0.0000    606.9214     13.3691
   440.2500     50.1286      0.0000    617.8094     13.2466
   440.5000     51.0515      0.0000    627.2023     13.0819
   440.7500     52.5877      0.0000    632.6278     12.9056
   441.0000     55.3051      0.0000    633.9192     12.7631
   441.2500     58.8379      0.0000    632.4653     12.6923
   441.5000     61.9711      0.0000    630.2545     12.6961
   441.7500     63.4823      0.0000    629.1816     12.7352
   442.0000     62.9632      0.0000    630.1375     12.7528
   442.2500     61.0169      0.0000    632.4977     12.7144
   442.5000     58.8578      0.0000    634.8785     12.6267
   442.7500     57.6567      0.0000    636.2894     12.5244
   443.0000     57.8975      0.0000    636.3392     12.4430
   443.2500     59.1031      0.0000    634.4619     12.4021
   443.5000     60.2606      0.0000    629.2385     12.4048
   443.7500     60.6847      0.0000    619.0052     12.4410
   444.0000     60.4011      0.0000    603.9958     12.4873
   444.2500     59.6126      0.0000    588.0841     12.5103
   444.5000     58.0871      0.0000    577.1354     12.4823
   444.7500     55.4426      0.0000    574.4114     12.4012
   445.0000     51.8364      0.0000    578.0193     12.2936
   445.2500     47.9888      0.0000    583.3339     12.1939
   445.5000     44.6631      0.0000    587.0559     12.1194
   445.7500     42.4612      0.0000    588.5312     12.0644
   446.0000     42.0531      0.0000    588.3810     12.0154
   446.2500     44.2212      0.0000    586.9161     11.9616
   446.5000     49.3190      0.0000    583.6388     11.8960
   446.7500     56.5431      0.0000    577.7964     11.8127
   447.0000     63.9302      0.0000    569.4608     11.7118
   447.2500     69.4996      0.0000    560.1824     11.6046
   447.5000     72.6446      0.0000    552.3912     11.5141
   447.7500     74.3273      0.0000    548.1248     11.4664
   448.0000     75.9749      0.0000    548.3488     11.4782
   448.2500     78.4491      0.0000    553.0353     11.5503
   448.5000     81.9025      0.0000    561.1808     11.6729
   448.7500     86.0678      0.0000    570.8083     11.8347
   449.0000     90.5186      0.0000    579.7794     12.0251
   449.2500     94.9375      0.0000    587.1830     12.2318
   449.5000     99.1146      0.0000    593.8823     12.4400
   449.7500    102.5742      0.0000    601.5102     12.6368
   450.0000    104.5283      0.0000    610.7983     12.8141
   450.2500    104.4637      0.0000    620.7427     12.9673
   450.5000    102.5840      0.0000    629.3637     13.0933
   450.7500     99.5991      0.0000    635.2578     13.1937
   451.0000     96.2492      0.0000    638.4045     13.2814
   451.2500     93.1281      0.0000    639.7288     13.3805
   451.5000     90.8013      0.0000    640.2361     13.5118
   451.7500     89.7472      0.0000    640.5375     13.6744
   452.0000     89.9036      0.0000    640.8358     13.8416
   452.2500     90.4301      0.0000    641.1068     13.9806
   452.5000     90.3577      0.0000    641.2761     14.0763
   452.7500     89.5197      0.0000    641.2992     14.1388
   453.0000     88.4907      0.0000    641.1559     14.1875
   453.2500     87.7781      0.0000    640.8514     14.2343
   453.5000     87.5812      0.0000    640.4506     14.2805
   453.7500     88.1849      0.0000    640.0860     14.3261
   454.0000     89.8800      0.0000    639.9331     14.3779
   454.2500     92.2421      0.0000    640.2373     14.4467
   454.5000     93.8575      0.0000    641.4441     14.5368
   454.7500     93.2465      0.0000    644.2589     14.6406
   455.0000     90.2317      0.0000    649.3274     14.7446
   455.2500     86.1867      0.0000    656.5527     14.8384
   455.5000     82.7172      0.0000    664.7053     14.9182
   455.7500     80.3022      0.0000    671.9885     14.9842
   456.0000     78.4204      0.0000    677.1660     15.0366
   456.2500     76.7233      0.0000    680.1318     15.0732
   456.5000     75.6283      0.0000    681.5387     15.0887
   456.7500     75.7975      0.0000    682.1213     15.0797
   457.0000     77.3377      0.0000    682.3257     15.0500
   457.2500     79.4803      0.0000    682.2789     15.0089
   457.5000     80.8335      0.0000    681.7922     14.9610
   457.7500     80.2287      0.0000    680.1752     14.9011
   458.0000     77.6743      0.0000    675.8379     14.8237
   458.2500     74.3581      0.0000    666.2965     14.7354
   458.5000     71.4966      0.0000    649.7109     14.6549
   458.7500     69.3592      0.0000    627.9769     14.5972
   459.0000     67.5172      0.0000    608.3898     14.5601
   459.2500     65.7121      0.0000    600.2361     14.5271
   459.5000     64.1366      0.0000    607.8090     14.4857
   459.7500     62.9207      0.0000    626.7327     14.4391
   460.0000     61.6520      0.0000    647.6982     14.4023
   460.2500     59.6606      0.0000    663.4713     14.3921
   460.5000     56.7288      0.0000    672.2809     14.4152
   460.7500     53.4061      0.0000    676.0886     14.4617
   461.0000     50.6410      0.0000    677.4198     14.5085
   461.2500     49.0981      0.0000    677.8197     14.5368
   461.5000     48.7274      0.0000    677.9212     14.5465
   461.7500     48.9170      0.0000    677.9288     14.5466
   462.0000     48.9943      0.0000    677.8842     14.5341
   462.2500     48.6522      0.0000    677.7733     14.4932
   462.5000     48.0748      0.0000    677.5869     14.4172
   462.7500     47.7830      0.0000    677.3554     14.3233
   463.0000     48.3052      0.0000    677.1243     14.2384
   463.2500     49.8041      0.0000    676.9197     14.1771
   463.5000     51.8796      0.0000    676.7475     14.1373
   463.7500     53.7574      0.0000    676.6172     14.1126
   464.0000     54.7110      0.0000    676.5489     14.1029
   464.2500     54.3351      0.0000    676.5545     14.1145
   464.5000     52.5837      0.0000    676.6249     14.1576
   464.7500     49.7873      0.0000    676.7468     14.2390
   465.0000     46.7103      0.0000    676.9254     14.3530
   465.2500     44.3787      0.0000    677.1840     14.4801
   465.5000     43.5067      0.0000    677.5237     14.6005
   465.7500     43.9504      0.0000    677.8571     14.7070
   466.0000     44.8453      0.0000    677.7493     14.8040
   466.2500     45.3931      0.0000    675.7708     14.8965
   466.5000     45.4658      0.0000    668.7051     14.9835
   466.7500     45.4959      0.0000    652.0134     15.0598
   467.0000     45.9846      0.0000    623.6639     15.1148
   467.2500     47.1167      0.0000    590.0046     15.1283
