~Version Information
VERS.                      2.0: CWLS Log ASCII Standard - VERSION 2.0
WRAP.                       NO: One line per depth step
~Well Information Block
STRT.FT               460.0000: 
STOP.FT              1498.0000: 
STEP.FT                 0.1000: 
NULL.                -999.2500: 
COMP.          Pioneer Natural Resources: COMPANY
WELL.           Amore 32-09 Tr: WELL
FLD.           Purgatoire River: FIELD
LOC.           1941' FNL & 2297' FEL: LOCATION
PROV.                 Colorado: PROVINCE
CNTY.               Las Animas: COUNTRY
SRVC.                Patterson: SERVICE COMPANY
DATE.          Mon Nov 14 13:24:57 2005: LOG DATE
UWI.           05 071 08584 00: UNIQUE WELL ID
~Curve Information Block
DEPT.FT            0 000 00 00: Depth
DCAL.in                       : CDL Caliper
RHOB.g/cc                     : CDL Bulk Density
RHOC.g/cc                     : CDL Density Correction
DPOR.pu                       : CDL Density Porosity
GR.GAPI                       : Gamma Ray
NPOR.pu                       : Neutron Porosity
~Parameter Information Block
~A  Depth       DCAL        RHOB        RHOC        DPOR         GR         NPOR    
# ...
   661.6000      8.0098      2.6084      0.0619      2.5186     98.9193     23.6578
   661.7000      8.0098      2.5997      0.0561      3.0462     98.7480     22.8726
   661.8000      8.0086      2.5891      0.0716      3.6929    102.9513     21.5247
   661.9000      8.0086      2.5752      0.0540      4.5324    111.1442     19.9615
   662.0000      8.0086      2.5674      0.0071      5.0067    118.1403     18.8142
   662.1000      8.0086      2.5737      0.0107      4.6243    121.8893     18.2027
   662.2000      8.0086      2.5857      0.0394      3.8964    121.9267     17.8168
   662.3000      8.0088      2.5890      0.0808      3.6964    119.0368     17.3966
   662.4000      8.0088      2.5812      0.0458      4.1684    120.5110     17.2656
   662.5000      8.0095      2.5739      0.0409      4.6136    128.5271     17.7155
   662.6000      8.0095      2.5671      0.0706      5.0270    134.1262     18.5314
   662.7000      8.0095      2.5519      0.0609      5.9451    132.6493     19.1949
   662.8000      8.0102      2.5384     -0.0081      6.7628    130.3601     19.3422
   662.9000      8.0102      2.5411      0.0706      6.5993    130.9401     19.3422
   663.0000      8.0108      2.5489      0.1042      6.1245    131.9615     19.7361
   663.1000      8.0108      2.5464      0.0816      6.2805    132.3253     20.3576
   663.2000      8.0108      2.5373      0.0922      6.8296    133.8053     20.9312
   663.3000      8.0103      2.5314      0.0784      7.1880    135.0056     21.5142
   663.4000      8.0103      2.5350      0.0434      6.9726    132.6041     21.9920
   663.5000      8.0093      2.5480      0.0479      6.1809    128.6571     22.2636
   663.6000      8.0093      2.5612      0.0542      5.3795    127.3732     22.6269
   663.7000      8.0093      2.5662      0.0615      5.0768    130.4629     22.9989
   663.8000      8.0089      2.5670      0.0614      5.0293    131.9838     22.8497
   663.9000      8.0089      2.5765      0.0561      4.4540    122.4530     22.1291
   664.0000      8.0089      2.5932      0.0793      3.4448    105.7826     21.3289
   664.1000      8.0089      2.5967      0.1046      3.2282     94.9596     20.7279
   664.2000      8.0089      2.5828      0.0684      4.0738     90.6159     20.3177
   664.3000      8.0091      2.5705      0.0700      4.8161     85.4086     20.1936
   664.4000      8.0091      2.5676      0.0876      4.9958     79.3562     19.9941
   664.5000      8.0084      2.5641      0.0237      5.2063     77.0148     19.3400
   664.6000      8.0084      2.5573      0.0170      5.6188     78.2122     18.4832
   664.7000      8.0084      2.5561      0.0199      5.6925     79.1882     17.8907
   664.8000      8.0074      2.5644      0.0573      5.1877     77.5662     17.8719
   664.9000      8.0074      2.5684      0.0577      4.9465     72.8849     18.5061
   665.0000      8.0075      2.5584      0.0215      5.5517     68.6787     19.2113
   665.1000      8.0075      2.5493      0.0382      6.1060     67.2664     18.8927
   665.2000      8.0075      2.5509      0.0891      6.0057     65.8508     17.5166
   665.3000      8.0083      2.5473      0.0930      6.2232     61.9748     16.2726
   665.4000      8.0083      2.5276      0.0740      7.4167     60.2955     15.6921
   665.5000      8.0089      2.5060      0.0725      8.7280     62.9309     15.4647
   665.6000      8.0089      2.4977      0.0606      9.2327     64.1777     15.4332
   665.7000      8.0089      2.4980      0.0430      9.2147     60.9674     15.3182
   665.8000      8.0096      2.4917      0.1236      9.5944     54.7190     14.8841
   665.9000      8.0096      2.4763      0.0600     10.5259     51.0437     14.5935
   666.0000      8.0105      2.4670      0.0700     11.0917     54.6112     14.5428
   666.1000      8.0105      2.4715      0.0939     10.8184     59.7866     14.1499
   666.2000      8.0105      2.4818      0.1050     10.1951     57.2520     13.4920
   666.3000      8.0108      2.4877      0.0931      9.8362     47.9450     13.2347
   666.4000      8.0108      2.4854      0.1119      9.9746     41.1384     13.4103
   666.5000      8.0103      2.4729      0.0984     10.7331     42.0384     13.5793
   666.6000      8.0103      2.4489      0.0811     12.1905     48.8031     13.5513
   666.7000      8.0103      2.4221      0.0430     13.8141     56.5142     13.4599
   666.8000      8.0099      2.4070      0.0709     14.7271     61.6544     13.5700
   666.9000      8.0099      2.4094      0.0532     14.5833     64.3419     13.9090
   667.0000      8.0103      2.4247      0.0668     13.6543     65.5403     14.1512
   667.1000      8.0103      2.4342      0.0848     13.0812     65.0396     13.9817
   667.2000      8.0103      2.4207      0.0177     13.8991     63.3651     13.5707
   667.3000      8.0109      2.4014     -0.0140     15.0690     60.7676     13.2587
   667.4000      8.0109      2.4032      0.0253     14.9593     57.0425     13.1279
   667.5000      8.0106      2.4203      0.0320     13.9187     53.6612     13.1221
   667.6000      8.0106      2.4344      0.0596     13.0665     52.6924     13.0163
   667.7000      8.0106      2.4396      0.0411     12.7518     54.3699     12.5594
   667.8000      8.0099      2.4333      0.0644     13.1320     56.5171     12.0860
   667.9000      8.0099      2.4140      0.0497     14.3048     57.8684     12.0439
   668.0000      8.0100      2.3914     -0.0126     15.6739     59.8678     12.2851
   668.1000      8.0100      2.3820     -0.0191     16.2410     65.1685     12.5695
   668.2000      8.0100      2.3890      0.0398     15.8174     73.3090     12.6844
   668.3000      8.0106      2.3973      0.0452     15.3142     79.1287     12.6168
   668.4000      8.0106      2.3989      0.0431     15.2204     80.0129     12.7843
   668.5000      8.0105      2.4035      0.0346     14.9413     78.1420     13.2595
   668.6000      8.0105      2.4163      0.0542     14.1623     77.3373     13.7448
   668.7000      8.0105      2.4299      0.0515     13.3382     79.8670     14.2015
   668.8000      8.0100      2.4416      0.0561     12.6323     84.3093     14.7760
   668.9000      8.0100      2.4512      0.0597     12.0505     86.9915     15.4059
   669.0000      8.0098      2.4548      0.0342     11.8314     84.6318     15.7051
   669.1000      8.0098      2.4528      0.0342     11.9536     76.3817     15.5949
   669.2000      8.0098      2.4417      0.0649     12.6216     68.1097     15.3472
   669.3000      8.0100      2.4185      0.0024     14.0277     65.5988     15.1037
   669.4000      8.0100      2.3940      0.0101     15.5174     67.0630     14.9001
   669.5000      8.0102      2.3788      0.0121     16.4342     67.9171     14.7910
   669.6000      8.0102      2.3797     -0.0307     16.3843     65.1775     14.9920
   669.7000      8.0102      2.3959      0.0336     15.4000     60.6357     15.4975
   669.8000      8.0103      2.4175      0.0265     14.0919     58.5892     15.9228
   669.9000      8.0103      2.4389      0.0850     12.7962     60.2495     16.0651
   670.0000      8.0115      2.4538      0.1273     11.8911     64.2840     16.0226
   670.1000      8.0115      2.4558      0.0912     11.7718     67.4887     16.1524
   670.2000      8.0115      2.4533      0.0908     11.9240     67.7174     16.7589
   670.3000      8.0131      2.4561      0.1196     11.7491     68.4033     17.4176
   670.4000      8.0131      2.4630      0.0921     11.3357     73.0779     17.6864
   670.5000      8.0114      2.4682      0.0715     11.0171     79.0697     17.8450
   670.6000      8.0114      2.4759      0.0514     10.5536     81.2724     18.1305
   670.7000      8.0114      2.4965      0.0419      9.3027     80.3551     18.5877
   670.8000      8.0091      2.5293      0.0401      7.3146     80.6195     19.2249
   670.9000      8.0091      2.5571      0.0865      5.6277     82.9744     19.7635
   671.0000      8.0080      2.5630      0.0958      5.2739     87.3425     19.8080
   671.1000      8.0080      2.5549      0.0705      5.7614     92.1858     19.1472
