~Version Information
VERS.                      2.0: CWLS Log ASCII Standard - VERSION 2.0
WRAP.                       NO: One line per depth step
~Well Information Block
STRT.FT                 0.0000: 
STOP.FT              1238.2500: 
STEP.FT                 0.2500: 
NULL.                -999.2500: 
COMP.          Pioneer Natural Resources: COMPANY
WELL.                 Ray 34-6: WELL
FLD.           Purgatoire River: FIELD
LOC.           684' FSL & 2254' FEL: LOCATION
CNTY.               Las Animas: COUNTY
SRVC.                         : SERVICE COMPANY
DATE.          Fri Jun 23 09:23:24 2006: LOG DATE
UWI.           05 071 08695 00: UNIQUE WELL ID
STAT.                       CO: STATE
~Curve Information Block
DEPT.FT            0 000 00 00: Depth
GR.GAPI                       : Gamma Ray
CCL.                          : Casing Collar Locator
TT3.usec                      : CBL 3' Travel Time
AMP3.mV                       : CBL 3' Amplitude
~Parameter Information Block
~A  Depth        GR         CCL         TT3         AMP3    
# ...
   971.5000    109.0498      0.0000    767.3478     10.7412
   971.7500    109.5183      0.0000    763.0605     10.3646
   972.0000    110.5376      0.0000    759.1696      9.9212
   972.2500    112.3886      0.0000    756.6413      9.4886
   972.5000    116.2339      0.0000    755.4053      9.1125
   972.7500    122.7184      0.0000    754.9897      8.8007
   973.0000    130.6389      0.0000    754.9403      8.5411
   973.2500    137.2884      0.0000    754.9259      8.3221
   973.5000    140.0921      0.0000    754.7739      8.1451
   973.7500    138.0750      0.0000    754.4788      8.0234
   974.0000    132.0669      0.0000    754.1216      7.9637
   974.2500    123.7732      0.0000    753.7117      7.9458
   974.5000    114.9614      0.0000    753.0478      7.9305
   974.7500    107.4260      0.0000    751.6235      7.8914
   975.0000    102.7690      0.0000    748.6548      7.8315
   975.2500    101.4178      0.0000    743.5297      7.7663
   975.5000    102.3146      0.0000    736.7596      7.7029
   975.7500    104.1000      0.0000    730.5510      7.6392
   976.0000    106.2412      0.0000    727.8074      7.5748
   976.2500    108.9025      0.0000    729.9672      7.5151
   976.5000    112.4018      0.0000    735.8113      7.4691
   976.7500    116.9426      0.0000    742.5552      7.4470
   977.0000    122.0702      0.0000    747.9930      7.4585
   977.2500    126.0409      0.0000    751.5494      7.5086
   977.5000    126.6197      0.0000    753.7260      7.5909
   977.7500    123.2672      0.0000    755.0557      7.6849
   978.0000    118.0689      0.0000    755.6357      7.7597
   978.2500    113.7972      0.0000    755.2977      7.7882
   978.5000    111.3749      0.0000    753.8714      7.7655
   978.7500    109.8230      0.0000    751.0529      7.7180
   979.0000    108.3082      0.0000    746.2177      7.6882
   979.2500    107.2728      0.0000    738.9089      7.7007
   979.5000    107.4003      0.0000    729.9034      7.7376
   979.7500    108.2731      0.0000    721.6409      7.7532
   980.0000    108.5949      0.0000    717.2664      7.7112
   980.2500    107.3296      0.0000    719.0699      7.6089
   980.5000    104.2874      0.0000    727.3030      7.4763
   980.7500    100.0969      0.0000    739.8024      7.3616
   981.0000     95.9968      0.0000    752.8151      7.3086
   981.2500     93.1606      0.0000    762.8073      7.3318
   981.5000     91.7452      0.0000    767.9133      7.4088
   981.7500     90.7237      0.0000    768.1092      7.5008
   982.0000     88.8487      0.0000    764.5614      7.5792
   982.2500     85.7092      0.0000    758.8877      7.6364
   982.5000     81.9425      0.0000    752.6329      7.6783
   982.7500     78.8009      0.0000    746.9377      7.7112
   983.0000     77.5554      0.0000    742.2452      7.7394
   983.2500     78.8455      0.0000    738.1357      7.7739
   983.5000     82.2857      0.0000    734.0040      7.8346
   983.7500     86.7022      0.0000    730.3043      7.9317
   984.0000     90.8138      0.0000    728.4648      8.0460
   984.2500     93.8461      0.0000    729.1395      8.1367
   984.5000     95.7727      0.0000    731.2925      8.1703
   984.7500     97.0029      0.0000    733.4836      8.1388
   985.0000     97.7561      0.0000    734.8480      8.0562
   985.2500     97.9160      0.0000    733.7100      7.9458
   985.5000     97.4552      0.0000    726.4088      7.8273
   985.7500     96.5971      0.0000    709.4595      7.7104
   986.0000     95.6243      0.0000    682.9919      7.5941
   986.2500     94.9790      0.0000    651.2716      7.4734
   986.5000     95.2876      0.0000    620.4169      7.3473
   986.7500     96.6029      0.0000    596.4395      7.2237
   987.0000     97.7078      0.0000    584.2429      7.1161
   987.2500     96.9078      0.0000    585.9827      7.0367
   987.5000     93.7004      0.0000    599.7571      6.9893
   987.7500     89.3366      0.0000    621.0025      6.9653
   988.0000     85.8409      0.0000    645.2691      6.9435
   988.2500     84.7603      0.0000    668.5262      6.9001
   988.5000     86.3842      0.0000    685.6897      6.8157
   988.7500     89.4750      0.0000    692.6258      6.6750
   989.0000     91.9361      0.0000    691.7292      6.4704
   989.2500     92.4336      0.0000    693.0476      6.2149
   989.5000     91.4172      0.0000    706.4580      5.9486
   989.7500     90.1867      0.0000    732.5089      5.7368
   990.0000     89.0691      0.0000    761.7193      5.6666
   990.2500     87.1486      0.0000    782.1737      5.8158
   990.5000     83.8535      0.0000    787.8574      6.1866
   990.7500     80.0473      0.0000    781.4468      6.6828
   991.0000     77.1696     -2.0000    770.7277      7.1876
   991.2500     75.9496      0.0000    763.1796      7.6587
   991.5000     76.2448      0.0000    763.5261      8.1429
   991.7500     77.4809      0.0000    773.4732      8.7083
   992.0000     79.0345      0.0000    790.9103      9.3554
   992.2500     80.8648      0.0000    809.5869      9.9732
   992.5000     83.9169      0.0000    821.6503     10.3999
   992.7500     89.2878      0.0000    822.0156     10.5795
   993.0000     96.7939      0.0000    810.8986     10.6439
   993.2500    104.7277      0.0000    792.6542     10.7868
   993.5000    111.0006      0.0000    772.8960     11.0644
   993.7500    114.3023      0.0000    756.6212     11.3568
   994.0000    114.4808      0.0000    747.1831     11.4991
   994.2500    112.4006      0.0000    745.1310     11.4129
   994.5000    109.4888      0.0000    747.9881     11.1286
   994.7500    107.0836      0.0000    752.1326     10.7303
   995.0000    105.8930      0.0000    755.1464     10.3039
   995.2500    105.6943      0.0000    756.4640      9.9104
   995.5000    105.2619      0.0000    756.4741      9.5771
   995.7500    103.0653      0.0000    755.4527      9.2967
   996.0000     98.7632      0.0000    752.9867      9.0495
   996.2500     93.9341      0.0000    748.0646      8.8330
   996.5000     90.7924      0.0000    740.2251      8.6670
   996.7500     90.1875      0.0000    731.4183      8.5618
   997.0000     91.1406      0.0000    726.2255      8.4946
   997.2500     92.0593      0.0000    728.6094      8.4275
   997.5000     91.9760      0.0000    737.8942      8.3411
   997.7500     90.7861      0.0000    749.0433      8.2445
   998.0000     88.7702      0.0000    757.3196      8.1557
   998.2500     86.1238      0.0000    761.7392      8.0839
   998.5000     82.8913      0.0000    763.9233      8.0301
   998.7500     79.1970      0.0000    765.0425      7.9975
   999.0000     75.4475      0.0000    764.8163      7.9953
   999.2500     72.3609      0.0000    762.8566      8.0275
   999.5000     70.7535      0.0000    759.8529      8.0833
   999.7500     71.0357      0.0000    757.1252      8.1442
  1000.0000     72.7819      0.0000    755.5016      8.1962
  1000.2500     74.9829      0.0000    754.9442      8.2262
  1000.5000     76.6773      0.0000    754.9580      8.2168
  1000.7500     77.1208      0.0000    755.0466      8.1544
  1001.0000     75.7359      0.0000    754.9156      8.0410
  1001.2500     72.6114      0.0000    754.6304      7.8931
  1001.5000     69.0709      0.0000    754.7510      7.7356
  1001.7500     67.0404      0.0000    756.4451      7.5966
  1002.0000     67.4217      0.0000    761.3781      7.4988
  1002.2500     69.3350      0.0000    771.0615      7.4494
  1002.5000     71.2726      0.0000    785.4136      7.4406
  1002.7500     72.8172      0.0000    801.2159      7.4594
  1003.0000     74.7962      0.0000    812.2845      7.4920
  1003.2500     77.7637      0.0000    812.8076      7.5247
  1003.5000     80.8674      0.0000    802.0746      7.5499
  1003.7500     82.5571      0.0000    785.6279      7.5735
  1004.0000     82.0715      0.0000    770.8251      7.6112
  1004.2500     79.8225      0.0000    761.5745      7.6694
  1004.5000     76.5711      0.0000    757.3987      7.7309
  1004.7500     72.7598      0.0000    755.9734      7.7647
