~Version Information
VERS.                      2.0: CWLS Log ASCII Standard - VERSION 2.0
WRAP.                       NO: One line per depth step
~Well Information Block
STRT.FT               322.3000: 
STOP.FT              1375.0000: 
STEP.FT                 0.1000: 
NULL.                -999.2500: 
COMP.          Pioneer Natural Resources: COMPANY
WELL.          Buffet 41-36 Tr: WELL
FLD.           Purgatoire River: FIELD
LOC.           119' FNL & 271' FEL: LOCATION
PROV.                 Colorado: PROVINCE
CNTY.               Las Animas: COUNTRY
SRVC.                Patterson: SERVICE COMPANY
DATE.          Thu Dec 29 07:13:13 2005: LOG DATE
UWI.           05 071 08627 00: UNIQUE WELL ID
~Curve Information Block
DEPT.FT            0 000 00 00: Depth
DCAL.in                       : CDL Caliper
RHOB.g/cc                     : CDL Bulk Density
RHOC.g/cc                     : CDL Density Correction
DPOR.pu                       : CDL Density Porosity
GR.GAPI                       : Gamma Ray
~Parameter Information Block
~A  Depth       DCAL        RHOB        RHOC        DPOR         GR     
# ...
   479.1000      8.0721      2.5582      0.0390      5.5623    130.8362
   479.2000      8.0721      2.5742      0.0523      4.5926    125.9832
   479.3000      8.0728      2.5756      0.0624      4.5120    126.6671
   479.4000      8.0728      2.5567      0.0311      5.6561    131.1039
   479.5000      8.0724      2.5344     -0.0006      7.0032    135.2274
   479.6000      8.0724      2.5262      0.0110      7.5032    137.2875
   479.7000      8.0724      2.5406     -0.0185      6.6282    136.1182
   479.8000      8.0714      2.5759      0.0564      4.4895    129.8735
   479.9000      8.0714      2.6121      0.0619      2.2981    123.5722
   480.0000      8.0708      2.6260      0.0707      1.4549    120.2260
   480.1000      8.0708      2.6130      0.0749      2.2430    117.4939
   480.2000      8.0708      2.5851      0.0388      3.9363    116.3835
   480.3000      8.0709      2.5601      0.0033      5.4475    117.1964
   480.4000      8.0709      2.5531      0.0109      5.8753    119.7966
   480.5000      8.0718      2.5611     -0.0042      5.3859    126.3967
   480.6000      8.0718      2.5742     -0.0173      4.5941    133.8067
   480.7000      8.0718      2.5837      0.0075      4.0189    135.4174
   480.8000      8.0728      2.5794     -0.0113      4.2801    127.1495
   480.9000      8.0728      2.5703     -0.0617      4.8284    114.2599
   481.0000      8.0731      2.5723     -0.0012      4.7103    106.2934
   481.1000      8.0731      2.5734      0.0190      4.6447    102.8876
   481.2000      8.0731      2.5583     -0.0048      5.5566     97.8841
   481.3000      8.0733      2.5383     -0.0301      6.7702     87.8618
   481.4000      8.0733      2.5301     -0.0093      7.2678     76.2708
   481.5000      8.0725      2.5326     -0.0132      7.1138     69.7481
   481.6000      8.0725      2.5363      0.0073      6.8886     68.5482
   481.7000      8.0725      2.5340      0.0109      7.0312     67.5794
   481.8000      8.0713      2.5316     -0.0349      7.1737     64.9166
   481.9000      8.0713      2.5397      0.0158      6.6874     63.5908
   482.0000      8.0705      2.5517      0.0001      5.9583     65.2018
   482.1000      8.0705      2.5522      0.0509      5.9280     67.7079
   482.2000      8.0705      2.5378     -0.0087      6.8010     68.5740
   482.3000      8.0704      2.5250     -0.0228      7.5762     65.9974
   482.4000      8.0704      2.5260     -0.0188      7.5123     60.6626
   482.5000      8.0706      2.5326     -0.0204      7.1150     55.5135
   482.6000      8.0706      2.5353     -0.0317      6.9496     53.4595
   482.7000      8.0706      2.5406     -0.0281      6.6320     55.0515
   482.8000      8.0704      2.5614     -0.0554      5.3726     58.0517
   482.9000      8.0704      2.5932      0.0082      3.4407     60.7005
   483.0000      8.0700      2.6089      0.0307      2.4906     60.9294
   483.1000      8.0700      2.5955      0.0203      3.3026     57.2985
   483.2000      8.0700      2.5646      0.0097      5.1777     53.5068
   483.3000      8.0701      2.5293     -0.0354      7.3151     52.4842
   483.4000      8.0701      2.5040     -0.0626      8.8513     52.2686
   483.5000      8.0704      2.4996     -0.0498      9.1150     50.5704
   483.6000      8.0704      2.5094     -0.0109      8.5188     49.4474
   483.7000      8.0704      2.5197      0.0074      7.8994     51.1974
   483.8000      8.0705      2.5235      0.0291      7.6642     53.0517
   483.9000      8.0705      2.5163     -0.0025      8.1034     52.6224
   484.0000      8.0704      2.4971     -0.0064      9.2657     51.3036
   484.1000      8.0704      2.4702     -0.0260     10.8980     50.8141
   484.2000      8.0704      2.4437     -0.0470     12.5037     50.6381
   484.3000      8.0702      2.4275     -0.0385     13.4827     51.0630
   484.4000      8.0702      2.4243     -0.0256     13.6790     53.6170
   484.5000      8.0702      2.4276      0.0157     13.4776     57.1189
   484.6000      8.0702      2.4357     -0.0058     12.9889     58.3001
   484.7000      8.0702      2.4445      0.0575     12.4518     56.3632
   484.8000      8.0708      2.4377      0.0235     12.8674     54.6486
   484.9000      8.0708      2.4144     -0.0224     14.2784     56.0673
   485.0000      8.0714      2.3967     -0.0459     15.3530     57.1264
   485.1000      8.0714      2.3987     -0.0411     15.2291     52.4149
   485.2000      8.0714      2.4123      0.0058     14.4083     43.9250
   485.3000      8.0710      2.4203      0.0289     13.9240     38.4796
   485.4000      8.0710      2.4144      0.0031     14.2798     39.4721
   485.5000      8.0703      2.4006     -0.0218     15.1138     42.8200
   485.6000      8.0703      2.3901     -0.0333     15.7507     43.2495
   485.7000      8.0703      2.3918     -0.0137     15.6456     41.1589
   485.8000      8.0713      2.4027      0.0032     14.9853     40.3040
   485.9000      8.0713      2.4055      0.0395     14.8204     41.1935
   486.0000      8.0751      2.3948     -0.0133     15.4694     40.8693
   486.1000      8.0751      2.3896     -0.0117     15.7793     40.4833
   486.2000      8.0751      2.4012      0.0092     15.0775     43.0118
   486.3000      8.0785      2.4120      0.0681     14.4253     47.5208
   486.4000      8.0785      2.4046      0.0309     14.8712     51.0760
   486.5000      8.0764      2.3922     -0.0070     15.6269     53.2679
   486.6000      8.0764      2.3896      0.0349     15.7825     54.7869
   486.7000      8.0764      2.3940     -0.0035     15.5170     55.7688
   486.8000      8.0733      2.4041      0.0471     14.9017     57.0071
   486.9000      8.0733      2.4149      0.0608     14.2498     56.8193
   487.0000      8.0722      2.4178      0.0476     14.0718     53.9356
   487.1000      8.0722      2.4170      0.0251     14.1235     51.5984
   487.2000      8.0722      2.4213      0.0224     13.8590     49.8292
   487.3000      8.0715      2.4339      0.0349     13.0989     46.9495
   487.4000      8.0715      2.4529      0.0514     11.9479     45.6414
   487.5000      8.0709      2.4734      0.0513     10.7060     47.3037
   487.6000      8.0709      2.4874      0.0666      9.8520     48.8873
   487.7000      8.0709      2.4894      0.0616      9.7350     48.8223
   487.8000      8.0708      2.4818      0.0153     10.1912     49.3748
   487.9000      8.0708      2.4718      0.0572     10.8022     51.8107
   488.0000      8.0732      2.4660     -0.0037     11.1512     54.9752
   488.1000      8.0732      2.4694      0.0157     10.9436     58.4926
   488.2000      8.0732      2.4768     -0.0180     10.4971     62.6479
   488.3000      8.0772      2.4825     -0.0030     10.1499     67.1243
   488.4000      8.0772      2.4903     -0.0003      9.6781     72.4134
   488.5000      8.0758      2.5034      0.0096      8.8844     75.6260
   488.6000      8.0758      2.5178      0.0124      8.0126     73.7852
   488.7000      8.0758      2.5283      0.0366      7.3759     72.4426
   488.8000      8.0730      2.5337      0.0609      7.0480     74.7548
   488.9000      8.0730      2.5339      0.0189      7.0344     76.3073
   489.0000      8.0715      2.5239      0.0679      7.6427     77.0160
   489.1000      8.0715      2.5049      0.0146      8.7964     79.5244
   489.2000      8.0715      2.5017     -0.0003      8.9892     83.4651
   489.3000      8.0707      2.5300      0.0500      7.2710     88.1677
   489.4000      8.0707      2.5707      0.0942      4.8054     91.6577
   489.5000      8.0703      2.5990      0.0940      3.0931     91.6314
   489.6000      8.0703      2.6062      0.1168      2.6544     88.8217
   489.7000      8.0703      2.5994      0.0733      3.0693     85.4453
   489.8000      8.0703      2.5954      0.0636      3.3108     81.9905
   489.9000      8.0703      2.6023      0.0916      2.8912     78.1063
   490.0000      8.0707      2.6090      0.1229      2.4823     75.8241
   490.1000      8.0707      2.5986      0.1128      3.1138     75.3902
   490.2000      8.0707      2.5758      0.0358      4.5000     75.0623
