~Version Information
VERS.                      2.0: CWLS Log ASCII Standard - VERSION 2.0
WRAP.                       NO: One line per depth step
~Well Information Block
STRT.FT               400.0000: 
STOP.FT              1577.5000: 
STEP.FT                 0.1000: 
NULL.                -999.2500: 
COMP.          Pioneer Natural Resources: COMPANY
WELL.          Lorencito 10-36-33-67: WELL
FLD.           Purgatoire River: FIELD
LOC.           2130' FSL & 2362' FEL: LOCATION
STAT.                 Colorado: State
CNTY.               Las Animas: COUNTY
CTRY. USA : Country
SECT. 36 : Section
TOWN. 33S : Township
RANG. 67W : Range
SRVC.                Patterson: SERVICE COMPANY
DATE.          Mon Aug 29 07:03:31 2005: LOG DATE
API.           05 071 08501 00: UNIQUE WELL ID
~Curve Information Block
DEPT.FT            0 000 00 00: Depth
DCAL.in                       : CDL Caliper
RHOB.g/cc                     : CDL Bulk Density
RHOC.g/cc                     : CDL Density Correction
DPOR.pu                       : CDL Density Porosity
GR.GAPI                       : Gamma Ray
NPOR.pu                       : Neutron Porosity
~Parameter Information Block
~A  Depth       DCAL        RHOB        RHOC        DPOR         GR         NPOR    
# ...
   860.8000      8.0450      2.5582      0.0441      5.5632    103.9043     22.8731
   860.9000      8.0450      2.5586      0.0543      5.5412     97.7409     22.6908
   861.0000      8.0458      2.5338     -0.0571      7.0407     92.1443     22.5159
   861.1000      8.0458      2.5189      0.0047      7.9461     86.4861     22.2144
   861.2000      8.0458      2.5134      0.0068      8.2806     81.0648     21.9011
   861.3000      8.0693      2.5027     -0.0127      8.9274     79.5697     21.7387
   861.4000      8.0693      2.4972     -0.0589      9.2631     83.1179     21.6185
   861.5000      8.0812      2.5079      0.0144      8.6134     88.3381     21.2967
   861.6000      8.0812      2.5164      0.0400      8.0975     93.0778     21.1823
   861.7000      8.0812      2.5126     -0.0323      8.3286     97.4310     21.6266
   861.8000      8.0679      2.5153      0.0236      8.1631    103.0059     22.0716
   861.9000      8.0679      2.5276      0.0307      7.4177    110.1317     22.1061
   862.0000      8.0819      2.5336      0.0288      7.0523    114.5221     21.9615
   862.1000      8.0819      2.5314     -0.0096      7.1878    112.6128     22.1608
   862.2000      8.0819      2.5331      0.0220      7.0820    108.1439     22.8335
   862.3000      8.0903      2.5516     -0.0173      5.9633    104.1999     23.2221
   862.4000      8.0903      2.5855      0.0496      3.9077     98.5998     22.9765
   862.5000      8.0692      2.6088      0.0553      2.4977     90.7101     22.6898
   862.6000      8.0692      2.6025      0.0710      2.8761     86.3903     22.4739
   862.7000      8.0692      2.5780      0.0552      4.3649     90.1461     22.1429
   862.8000      8.0599      2.5535      0.0266      5.8491     98.6276     22.0372
   862.9000      8.0599      2.5403      0.0306      6.6476    106.6614     22.2414
   863.0000      8.0321      2.5438      0.0288      6.4373    110.4748     22.3087
   863.1000      8.0321      2.5573      0.0562      5.6184    109.5371     22.2749
   863.2000      8.0321      2.5649      0.0709      5.1579    106.2759     22.4324
   863.3000      8.0174      2.5607      0.0035      5.4092    102.6887     22.6271
   863.4000      8.0174      2.5542      0.0145      5.8059    101.9254     22.6806
   863.5000      8.0480      2.5502      0.0222      6.0465    106.7663     22.7116
   863.6000      8.0480      2.5467     -0.0042      6.2600    114.4959     22.9399
   863.7000      8.0480      2.5518      0.0064      5.9506    117.9604     23.3811
   863.8000      8.0637      2.5710      0.0338      4.7898    113.6136     23.7230
   863.9000      8.0637      2.5880      0.0634      3.7582    106.4928     23.7784
   864.0000      8.0522      2.5908      0.0534      3.5855    103.7114     23.7138
   864.1000      8.0522      2.5926      0.0157      3.4781    106.1307     23.4218
   864.2000      8.0522      2.6013      0.0632      2.9526    109.2313     22.6906
   864.3000      8.0171      2.5986      0.0421      3.1167    111.5162     22.1051
   864.4000      8.0171      2.5813      0.0068      4.1659    117.0404     22.4884
   864.5000      8.0216      2.5664      0.0441      5.0682    124.2821     23.5382
   864.6000      8.0216      2.5454      0.0482      6.3421    125.4024     24.0723
   864.7000      8.0216      2.5073     -0.0045      8.6489    120.4414     23.8166
   864.8000      8.0260      2.4789     -0.0609     10.3702    115.8065     23.5794
   864.9000      8.0260      2.4869     -0.0370      9.8848    113.3485     23.6049
   865.0000      8.0561      2.5162     -0.0279      8.1092    112.0057     23.6410
   865.1000      8.0561      2.5354      0.0078      6.9442    110.5265     23.5893
   865.2000      8.0561      2.5390     -0.0249      6.7285    107.4795     23.4217
   865.3000      8.0658      2.5400      0.0032      6.6647    104.4398     23.3070
   865.4000      8.0658      2.5466     -0.0262      6.2681    104.4018     23.4193
   865.5000      8.1015      2.5700     -0.0083      4.8460    109.1163     23.4909
   865.6000      8.1015      2.6177      0.0470      1.9604    114.3184     23.2385
   865.7000      8.1015      2.6650      0.0993     -0.9110    113.0068     22.8725
   865.8000      8.1080      2.6752      0.0994     -1.5252    108.8426     22.7880
   865.9000      8.1080      2.6424      0.0719      0.4597    110.0955     23.0858
   866.0000      8.0764      2.5947      0.0279      3.3539    115.4830     23.5627
   866.1000      8.0764      2.5584     -0.0119      5.5487    118.4844     23.8136
   866.2000      8.0764      2.5396     -0.0202      6.6889    117.0007     23.6847
   866.3000      8.0904      2.5347     -0.0029      6.9864    114.7871     23.5373
   866.4000      8.0904      2.5439     -0.0425      6.4299    114.6563     23.7427
   866.5000      8.0828      2.5557      0.0287      5.7168    115.2814     24.1126
   866.6000      8.0828      2.5478      0.0423      6.1958    116.5092     24.2638
   866.7000      8.0828      2.5219     -0.0139      7.7636    117.4187     24.0518
   866.8000      8.0610      2.4947     -0.0193      9.4106    116.4503     23.5162
   866.9000      8.0610      2.4725      0.0208     10.7560    115.6083     23.0374
   867.0000      8.0800      2.4636     -0.0449     11.2994    116.9333     23.0445
   867.1000      8.0800      2.4855     -0.0430      9.9674    120.5440     23.4852
   867.2000      8.0800      2.5377     -0.0469      6.8050    125.2929     23.9915
   867.3000      8.0772      2.5829      0.0747      4.0663    129.6804     24.3863
   867.4000      8.0772      2.5879      0.0687      3.7638    131.6315     24.7052
   867.5000      8.0656      2.5714      0.0116      4.7647    130.3010     24.8025
   867.6000      8.0656      2.5686      0.0692      4.9326    130.1800     24.4966
   867.7000      8.0656      2.5788      0.0932      4.3159    135.3599     23.6685
   867.8000      8.0240      2.5793      0.1037      4.2870    144.0628     22.3871
   867.9000      8.0240      2.5622      0.0910      5.3232    151.3729     21.3754
   868.0000      8.0054      2.5447      0.0121      6.3830    151.7818     21.3932
   868.1000      8.0054      2.5384      0.0230      6.7653    146.2878     22.1305
   868.2000      8.0054      2.5230      0.1159      7.6992    142.8356     22.5809
   868.3000      8.0102      2.4965     -0.0122      9.3012    144.4884     22.5128
   868.4000      8.0102      2.4932      0.0347      9.5052    148.8179     22.5438
   868.5000      8.0231      2.5096      0.0669      8.5064    152.4008     22.7747
   868.6000      8.0231      2.5122      0.0277      8.3533    151.8556     22.7152
   868.7000      8.0231      2.5066     -0.0515      8.6926    148.9666     22.3656
   868.8000      8.0393      2.5198      0.0681      7.8890    148.7607     22.1581
   868.9000      8.0393      2.5445      0.1420      6.3924    150.6175     22.2032
   869.0000      8.1296      2.5564      0.1564      5.6729    149.6299     22.0367
   869.1000      8.1296      2.5462      0.2068      6.2899    146.3363     21.6676
   869.2000      8.1296      2.5189      0.2143      7.9463    147.6894     21.8352
   869.3000      8.2105      2.4946      0.0671      9.4180    154.9801     22.4823
   869.4000      8.2105      2.4883      0.1079      9.8022    155.9745     22.9627
   869.5000      8.1982      2.4864      0.1045      9.9133    145.9534     23.1961
   869.6000      8.1982      2.4823      0.0364     10.1658    137.4359     23.4572
   869.7000      8.1982      2.4887      0.0251      9.7771    140.1827     23.8445
   869.8000      8.2624      2.5072      0.0779      8.6521    149.3431     24.1422
   869.9000      8.2624      2.5254      0.1406      7.5504    155.0215     24.1052
   870.0000      8.3559      2.5381      0.1626      6.7840    153.7745     24.0584
   870.1000      8.3559      2.5462      0.2374      6.2902    149.0379     24.3188
   870.2000      8.3559      2.5415      0.2096      6.5741    144.1989     24.5191
   870.3000      8.3407      2.5159      0.0750      8.1264    141.9603     24.3804
