~Version Information
VERS.                      2.0: CWLS Log ASCII Standard - VERSION 2.0
WRAP.                       NO: One line per depth step
~Well Information Block
STRT.FT               597.2500: 
STOP.FT              1567.2500: 
STEP.FT                 0.2500: 
NULL.                -999.2500: 
COMP.          Pioneer Natural Resources: COMPANY
WELL.           Butch 33-10 Tr: WELL
FLD.           Purgatoire River: FIELD
LOC.           2309' FSL & 1337' FEL--: LOCATION
PROV.                 Colorado: PROVINCE
CNTY.               Las Animas: COUNTRY
SRVC.                Patterson: SERVICE COMPANY
DATE.          Sat Jan 14 05:18:29 2006: LOG DATE
UWI.           05 071 08649 00: UNIQUE WELL ID
~Curve Information Block
DEPT.FT            0 000 00 00: Depth
SN.Ohm-m                      : IEL Short Normal
SP.mV                         : IEL Spontaneous Potential
DIR.Ohm-m                     : IEL Induction Resistivity
GR.GAPI                       : Gamma Ray
~Parameter Information Block
~A  Depth        SN          SP         DIR          GR     
# ...
   697.7500     21.4391   -103.5417     14.6398    136.5819
   698.0000     21.6632   -103.8907     14.4985    136.4296
   698.2500     21.8225   -104.2272     14.3738    137.0039
   698.5000     21.8303   -104.5199     14.2777    139.4696
   698.7500     21.5492   -104.7432     14.2172    142.2192
   699.0000     20.8769   -104.8802     14.1907    146.9415
   699.2500     19.7940   -104.9256     14.1860    149.2792
   699.5000     18.3546   -104.8886     14.1846    149.5182
   699.7500     16.6821   -104.7916     14.1724    147.2009
   700.0000     14.9957   -104.6663     14.1478    142.1523
   700.2500     13.6180   -104.5477     14.1203    140.0098
   700.5000     12.8979   -104.4657     14.1007    141.3289
   700.7500     13.0513   -104.4397     14.0903    144.9697
   701.0000     14.0125   -104.4768     14.0783    151.8635
   701.2500     15.4237   -104.5739     14.0486    155.9685
   701.5000     16.8067   -104.7230     13.9893    160.6591
   701.7500     17.8148   -104.9162     13.8994    163.0010
   702.0000     18.3828   -105.1487     13.7905    165.2691
   702.2500     18.6755   -105.4165     13.6833    165.4660
   702.5000     18.9073   -105.7115     13.6028    163.0096
   702.7500     19.1854   -106.0129     13.5717    159.6846
   703.0000     19.4779   -106.2819     13.6063    153.7896
   703.2500     19.6960   -106.4611     13.7152    150.5836
   703.5000     19.7961   -106.4807     13.9004    148.1677
   703.7500     19.8156   -106.2711     14.1589    147.8264
   704.0000     19.8335   -105.7787     14.4811    147.8129
   704.2500     19.9155   -104.9803     14.8487    147.7269
   704.5000     20.0903   -103.8920     15.2310    147.5546
   704.7500     20.3474   -102.5714     15.5867    147.3333
   705.0000     20.6374   -101.1109     15.8712    146.5128
   705.2500     20.8906    -99.6264     16.0506    145.8549
   705.5000     21.0505    -98.2408     16.1135    145.8183
   705.7500     21.0872    -97.0664     16.0728    146.9848
   706.0000     20.9786    -96.1887     15.9570    150.6386
   706.2500     20.6966    -95.6535     15.7959    154.0596
   706.5000     20.2211    -95.4613     15.6088    160.0703
   706.7500     19.5482    -95.5711     15.3999    164.2316
   707.0000     18.6696    -95.9112     15.1621    169.3609
   707.2500     17.5641    -96.3958     14.8871    171.0112
   707.5000     16.2586    -96.9418     14.5755    169.8876
   707.7500     14.9209    -97.4817     14.2427    167.2413
   708.0000     13.8488    -97.9691     13.9142    162.6961
   708.2500     13.3054    -98.3782     13.6171    160.6240
   708.5000     13.3512    -98.6991     13.3729    160.0276
   708.7500     13.8378    -98.9317     13.1951    161.0023
   709.0000     14.5375    -99.0805     13.0919    162.8165
   709.2500     15.2552    -99.1524     13.0677    163.2399
   709.5000     15.8572    -99.1553     13.1235    162.2068
   709.7500     16.2780    -99.0983     13.2527    160.8177
   710.0000     16.5298    -98.9918     13.4379    158.2956
   710.2500     16.6701    -98.8478     13.6496    156.3018
   710.5000     16.7502    -98.6792     13.8528    152.8252
   710.7500     16.8195    -98.5004     14.0186    150.4434
   711.0000     16.9619    -98.3266     14.1338    147.2592
   711.2500     17.2647    -98.1720     14.2018    145.4811
   711.5000     17.7400    -98.0479     14.2344    143.4464
   711.7500     18.3122    -97.9589     14.2444    142.7517
   712.0000     18.8869    -97.9007     14.2409    143.0942
   712.2500     19.4034    -97.8589     14.2284    144.2128
   712.5000     19.8250    -97.8111     14.2085    146.9275
   712.7500     20.0993    -97.7322     14.1829    149.4578
   713.0000     20.1382    -97.6016     14.1561    154.8435
   713.2500     19.8414    -97.4106     14.1350    159.7040
   713.5000     19.1453    -97.1672     14.1250    168.1173
   713.7500     18.0622    -96.8949     14.1260    173.0828
   714.0000     16.6952    -96.6286     14.1314    176.4319
   714.2500     15.2308    -96.4042     14.1313    174.8020
   714.5000     13.9106    -96.2499     14.1192    167.5551
   714.7500     12.9940    -96.1792     14.0974    161.6230
   715.0000     12.7101    -96.1884     14.0753    154.8569
   715.2500     13.1843    -96.2597     14.0620    152.7556
   715.5000     14.3407    -96.3673     14.0583    152.4444
   715.7500     15.8569    -96.4843     14.0542    153.0646
   716.0000     17.2766    -96.5878     14.0339    153.8212
   716.2500     18.2456    -96.6615     13.9841    153.8682
   716.5000     18.6727    -96.6957     13.9010    153.3470
   716.7500     18.6828    -96.6855     13.7939    152.8772
   717.0000     18.4618    -96.6294     13.6830    152.3641
   717.2500     18.1601    -96.5278     13.5958    152.1624
   717.5000     17.8810    -96.3842     13.5609    151.7748
   717.7500     17.6919    -96.2051     13.6020    151.1319
   718.0000     17.6301    -96.0019     13.7324    148.9870
   718.2500     17.7077    -95.7894     13.9518    146.6964
   718.5000     17.9175    -95.5845     14.2460    142.7268
   718.7500     18.2360    -95.4050     14.5916    140.4748
   719.0000     18.6251    -95.2654     14.9640    138.5420
   719.2500     19.0429    -95.1741     15.3472    138.1124
   719.5000     19.4692    -95.1319     15.7398    137.7954
   719.7500     19.9171    -95.1292     16.1544    137.1876
   720.0000     20.4063    -95.1469     16.6128    135.2660
   720.2500     20.9322    -95.1590     17.1393    133.6701
   720.5000     21.4770    -95.1372     17.7563    132.1515
   720.7500     22.0482    -95.0585     18.4814    132.2535
   721.0000     22.6978    -94.9108     19.3249    133.4714
   721.2500     23.5014    -94.6966     20.2856    133.9982
   721.5000     24.5091    -94.4320     21.3491    133.1579
   721.7500     25.7018    -94.1404     22.4900    131.6855
   722.0000     26.9880    -93.8445     23.6776    129.3037
   722.2500     28.2561    -93.5577     24.8814    127.9658
   722.5000     29.4494    -93.2803     26.0747    125.6031
   722.7500     30.5931    -92.9999     27.2363    123.0738
   723.0000     31.7333    -92.6968     28.3543    117.8482
   723.2500     32.8574    -92.3514     29.4289    114.4371
   723.5000     33.9077    -91.9506     30.4677    111.4532
   723.7500     34.8574    -91.4926     31.4753    111.1495
   724.0000     35.7133    -90.9866     32.4501    111.8868
   724.2500     36.4480    -90.4509     33.3925    112.2164
   724.5000     37.0331    -89.9089     34.3159    111.8253
   724.7500     37.5449    -89.3854     35.2427    111.1123
   725.0000     38.1291    -88.9037     36.1861    109.8098
   725.2500     38.8440    -88.4833     37.1392    109.1304
   725.5000     39.6472    -88.1397     38.0844    109.3249
   725.7500     40.5382    -87.8823     39.0061    110.7710
   726.0000     41.6113    -87.7145     39.8938    114.8289
   726.2500     42.9537    -87.6310     40.7356    117.9641
   726.5000     44.5347    -87.6173     41.5220    121.0487
   726.7500     46.2057    -87.6492     42.2607    120.8808
   727.0000     47.8116    -87.6947     42.9854    116.9671
   727.2500     49.3187    -87.7199     43.7469    112.8039
   727.5000     50.8271    -87.6960     44.5938    106.1802
   727.7500     52.4801    -87.6064     45.5600    101.9979
   728.0000     54.4044    -87.4526     46.6653     95.5830
   728.2500     56.6843    -87.2535     47.9240     90.6965
   728.5000     59.2840    -87.0412     49.3528     82.0804
   728.7500     61.9951    -86.8524     50.9676     75.6899
   729.0000     64.5387    -86.7200     52.7644     66.0380
   729.2500     66.7191    -86.6663     54.6887     60.2048
   729.5000     68.4559    -86.7009     56.6244     53.2707
   729.7500     69.7425    -86.8209     58.4340     50.0869
   730.0000     70.6897    -87.0143     60.0412     47.1587
   730.2500     71.6458    -87.2635     61.4712     45.9394
   730.5000     73.1029    -87.5488     62.7860     44.2876
   730.7500     75.2773    -87.8503     63.9647     42.9971
   731.0000     77.8313    -88.1504     64.8644     40.8527
