~Version Information
VERS.                      2.0: CWLS Log ASCII Standard - VERSION 2.0
WRAP.                       NO: One line per depth step
~Well Information Block
STRT.FT               460.0000: 
STOP.FT              1509.0000: 
STEP.FT                 0.2500: 
NULL.                -999.2500: 
COMP.          Pioneer Natural Resources: COMPANY
WELL.           Amore 32-09 Tr: WELL
FLD.           Purgatoire River: FIELD
LOC.           1941' FNL & 2297' FEL: LOCATION
PROV.                 Colorado: PROVINCE
CNTY.               Las Animas: COUNTRY
SRVC.                Patterson: SERVICE COMPANY
DATE.          Mon Nov 14 11:07:52 2005: LOG DATE
UWI.           05 071 08584 00: UNIQUE WELL ID
~Curve Information Block
DEPT.FT            0 000 00 00: Depth
SN.Ohm-m                      : IEL Short Normal
SP.mV                         : IEL Spontaneous Potential
DIR.Ohm-m                     : IEL Induction Resistivity
GR.GAPI                       : Gamma Ray
~Parameter Information Block
~A  Depth        SN          SP         DIR          GR     
# ...
   929.0000   2000.0000   2000.0000     18.7338    122.3494
   929.2500   2000.0000   2000.0000     19.2192    122.3836
   929.5000   2000.0000   2000.0000     19.8006    123.3832
   929.7500   2000.0000   2000.0000     20.4841    124.1419
   930.0000   2000.0000   2000.0000     21.2745    123.9998
   930.2500   2000.0000   2000.0000     22.1614    122.5770
   930.5000   2000.0000   2000.0000     23.1101    119.0551
   930.7500   2000.0000   2000.0000     24.0625    116.6604
   931.0000   2000.0000   2000.0000     24.9513    114.1513
   931.2500   2000.0000   2000.0000     25.7160    113.2206
   931.5000   2000.0000   2000.0000     26.3158    112.1078
   931.7500   2000.0000   2000.0000     26.7313    111.1483
   932.0000   2000.0000   2000.0000     26.9662    109.8367
   932.2500   2000.0000   2000.0000     27.0566    109.9032
   932.5000   2000.0000   2000.0000     27.0798    112.4028
   932.7500   2000.0000   2000.0000     27.1441    115.2850
   933.0000   2000.0000   2000.0000     27.3515    119.5606
   933.2500   2000.0000   2000.0000     27.7509    121.4441
   933.5000   2000.0000   2000.0000     28.3119    122.4647
   933.7500   2000.0000   2000.0000     28.9471    122.3391
   934.0000   2000.0000   2000.0000     29.5751    121.9558
   934.2500   2000.0000   2000.0000     30.1758    121.9906
   934.5000   2000.0000   2000.0000     30.7830    122.3647
   934.7500   2000.0000   2000.0000     31.4272    122.2307
   935.0000   2000.0000   2000.0000     32.0948    120.2492
   935.2500   2000.0000   2000.0000     32.7462    117.4853
   935.5000   2000.0000   2000.0000     33.3618    111.7068
   935.7500   2000.0000   2000.0000     33.9578    107.2693
   936.0000   2000.0000   2000.0000     34.5585    100.4408
   936.2500   2000.0000   2000.0000     35.1571     96.2354
   936.5000   2000.0000   2000.0000     35.7056     91.5005
   936.7500   2000.0000   2000.0000     36.1344     89.8192
   937.0000   2000.0000   2000.0000     36.3757     89.0889
   937.2500   2000.0000   2000.0000     36.3571     88.9783
   937.5000   2000.0000   2000.0000     35.9770     88.2435
   937.7500   2000.0000   2000.0000     35.1176     87.4439
   938.0000   2000.0000   2000.0000     33.7299     86.9666
   938.2500   2000.0000   2000.0000     31.9226     87.9061
   938.5000   2000.0000   2000.0000     29.9363     91.8808
   938.7500   2000.0000   2000.0000     28.0131     96.1545
   939.0000   2000.0000   2000.0000     26.2856    104.2005
   939.2500   2000.0000   2000.0000     24.7633    109.9258
   939.5000   2000.0000   2000.0000     23.3878    117.6531
   939.7500   2000.0000   2000.0000     22.1035    121.6877
   940.0000   2000.0000   2000.0000     20.9025    126.2698
   940.2500   2000.0000   2000.0000     19.8225    128.9994
   940.5000   2000.0000   2000.0000     18.9128    133.4263
   940.7500   2000.0000   2000.0000     18.2035    136.3673
   941.0000   2000.0000   2000.0000     17.6973    139.5584
   941.2500   2000.0000   2000.0000     17.3792    140.4930
   941.5000   2000.0000   2000.0000     17.2276    140.9435
   941.7500   2000.0000   2000.0000     17.2174    141.3800
   942.0000   2000.0000   2000.0000     17.3163    141.8100
   942.2500   2000.0000   2000.0000     17.4840    140.3706
   942.5000   2000.0000   2000.0000     17.6766    132.9221
   942.7500   2000.0000   2000.0000     17.8519    124.3021
   943.0000   2000.0000   2000.0000     17.9716    108.5964
   943.2500   2000.0000   2000.0000     18.0050     98.7164
   943.5000   2000.0000   2000.0000     17.9407     88.5318
   943.7500   2000.0000   2000.0000     17.8031     86.0473
   944.0000   2000.0000   2000.0000     17.6531     88.8035
   944.2500   2000.0000   2000.0000     17.5625     94.0031
   944.5000   2000.0000   2000.0000     17.5726    104.3703
   944.7500   2000.0000   2000.0000     17.6628    111.6275
   945.0000   2000.0000   2000.0000     17.7487    121.6566
   945.2500   2000.0000   2000.0000     17.7179    127.5528
   945.5000   2000.0000   2000.0000     17.4907    135.1521
   945.7500   2000.0000   2000.0000     17.0613    139.2289
   946.0000   2000.0000   2000.0000     16.4911    143.3815
   946.2500   2000.0000   2000.0000     15.8658    144.6270
   946.5000   2000.0000   2000.0000     15.2567    144.2655
   946.7500   2000.0000   2000.0000     14.7066    142.8260
   947.0000   2000.0000   2000.0000     14.2343    139.5168
   947.2500   2000.0000   2000.0000     13.8468    136.8391
   947.5000   2000.0000   2000.0000     13.5486    132.3389
   947.7500   2000.0000   2000.0000     13.3453    129.0403
   948.0000   2000.0000   2000.0000     13.2397    123.7190
   948.2500   2000.0000   2000.0000     13.2268    120.0324
   948.5000   2000.0000   2000.0000     13.2928    114.4666
   948.7500   2000.0000   2000.0000     13.4210    110.8280
   949.0000   2000.0000   2000.0000     13.5993    105.8331
   949.2500   2000.0000   2000.0000     13.8214    103.1027
   949.5000   2000.0000   2000.0000     14.0766    100.1968
   949.7500   2000.0000   2000.0000     14.3387     99.0019
   950.0000   2000.0000   2000.0000     14.5683     97.9412
   950.2500   2000.0000   2000.0000     14.7308     97.4569
   950.5000   2000.0000   2000.0000     14.8162     97.0263
   950.7500   2000.0000   2000.0000     14.8448     97.3477
   951.0000   2000.0000   2000.0000     14.8552     99.5578
   951.2500   2000.0000   2000.0000     14.8849    102.0715
   951.5000   2000.0000   2000.0000     14.9545    106.0442
   951.7500   2000.0000   2000.0000     15.0619    108.0076
   952.0000   2000.0000   2000.0000     15.1859    109.6111
   952.2500   2000.0000   2000.0000     15.2980    110.2156
   952.5000   2000.0000   2000.0000     15.3767    111.3048
   952.7500   2000.0000   2000.0000     15.4166    112.2956
   953.0000   2000.0000   2000.0000     15.4258    113.7292
   953.2500   2000.0000   2000.0000     15.4156    114.2393
   953.5000   2000.0000   2000.0000     15.3897    113.6745
   953.7500   2000.0000   2000.0000     15.3420    112.1506
   954.0000   2000.0000   2000.0000     15.2597    108.4482
   954.2500   2000.0000   2000.0000     15.1296    105.8583
   954.5000   2000.0000   2000.0000     14.9435    103.6272
   954.7500   2000.0000   2000.0000     14.7029    103.8865
   955.0000   2000.0000   2000.0000     14.4207    106.6761
   955.2500   2000.0000   2000.0000     14.1201    109.4083
   955.5000   2000.0000   2000.0000     13.8295    113.2781
   955.7500   2000.0000   2000.0000     13.5774    115.0205
   956.0000   2000.0000   2000.0000     13.3850    115.9370
   956.2500   2000.0000   2000.0000     13.2603    115.5445
   956.5000   2000.0000   2000.0000     13.1953    114.0360
   956.7500   2000.0000   2000.0000     13.1674    112.8638
   957.0000   2000.0000   2000.0000     13.1444    111.6485
   957.2500   2000.0000   2000.0000     13.0914    111.5226
   957.5000   2000.0000   2000.0000     12.9804    112.2447
   957.7500   2000.0000   2000.0000     12.8019    112.8071
   958.0000   2000.0000   2000.0000     12.5711    112.7135
   958.2500   2000.0000   2000.0000     12.3215    111.8597
   958.5000   2000.0000   2000.0000     12.0927    110.3668
   958.7500   2000.0000   2000.0000     11.9198    110.2692
   959.0000   2000.0000   2000.0000     11.8299    112.9021
   959.2500   2000.0000   2000.0000     11.8429    116.5031
   959.5000   2000.0000   2000.0000     11.9716    122.7851
   959.7500   2000.0000   2000.0000     12.2172    125.8157
   960.0000   2000.0000   2000.0000     12.5660    126.2864
   960.2500   2000.0000   2000.0000     12.9922    123.7160
   960.5000   2000.0000   2000.0000     13.4679    117.2623
   960.7500   2000.0000   2000.0000     13.9762    112.5071
   961.0000   2000.0000   2000.0000     14.5158    105.7524
   961.2500   2000.0000   2000.0000     15.0956    101.5227
   961.5000   2000.0000   2000.0000     15.7276     95.6308
   961.7500   2000.0000   2000.0000     16.4280     92.0445
   962.0000   2000.0000   2000.0000     17.2232     86.5696
   962.2500   2000.0000   2000.0000     18.1523     82.3045
