~Version Information
 VERS.                                  2.0 : CWLS LAS VERSION
 WRAP.                                   NO : WRAPING MODE
 SWARE .                 MController 2.5.0J : SOFTWARE VERSION
~Well Information
 WELL.                     Montoya 18-11V B : WELL
 COMP.                 Petrogulf Corporation: COMPANY
 FLD.                      Purgatoire River : FIELD
 LOC.                NW/NW Sec 18 T33S R67W : LOCATION
 DATE.                            10/3-4/05 : DATE(S) LOGGED
 SRVC.       BLANCO Geological Services LLC : SERVICE COMPANY
 STAT.                                   CO : STATE
 CNTY.                           Las Animas : COUNTY
 CTRY.                                  USA : COUNTRY
 API.                       05-071-08539-00 : API NUMBER
 STRT.FT                              86.00 : START DEPTH
 STOP.FT                            2495.00 : STOP DEPTH
 STEP.FT                               1.00 : DEPTH INCREMENT
 NULL.                                9999 : NULL VALUE
~Curve information
 DEPTH.FT                                   :
 ROP.MIN/FT                                 :
 GAS.UNITS                                  :
~ASCII Log data 
# ...
      2086.0         0.50         21.9 
      2087.0         0.57         21.3 
      2088.0         0.47         21.2 
      2089.0         0.53         21.6 
      2090.0         0.53         21.6 
      2091.0         0.48         21.9 
      2092.0         0.53         21.6 
      2093.0         0.57         20.9 
      2094.0         0.50         21.1 
      2095.0         0.50         21.2 
      2096.0         0.50         21.2 
      2097.0         0.55         21.2 
      2098.0         0.53         21.3 
      2099.0         0.50         21.8 
      2100.0         0.73         21.9 
      2101.0         0.63         21.5 
      2102.0         0.53         17.8 
      2103.0         0.58         23.3 
      2104.0         3.82         63.2 
      2105.0         0.37         36.3 
      2106.0         0.23         35.3 
      2107.0         0.33         34.9 
      2108.0         0.47         32.9 
      2109.0         0.50         30.7 
      2110.0         0.47         28.8 
      2111.0         0.42         27.1 
      2112.0         0.37         41.2 
      2113.0         0.43         55.4 
      2114.0         0.40         55.3 
      2115.0         0.23         50.1 
      2116.0         0.13         47.4 
      2117.0         0.30         46.7 
      2118.0         0.40         44.0 
      2119.0         0.50         40.3 
      2120.0         0.52         37.5 
      2121.0         0.40         34.8 
      2122.0         0.37         33.6 
      2123.0         0.27         32.6 
      2124.0         0.33         32.6 
      2125.0         0.33         32.7 
      2126.0         0.40         32.2 
      2127.0         0.30         32.0 
      2128.0         0.27         28.0 
      2129.0         0.25         25.2 
      2130.0         0.30         23.9 
      2131.0         0.27         24.5 
      2132.0         0.30         27.8 
      2133.0         0.20         31.5 
      2134.0         2.98         51.3 
      2135.0         0.53         38.0 
      2136.0         0.47         35.5 
      2137.0         0.40         35.5 
      2138.0         0.40         34.3 
      2139.0         0.50         32.8 
      2140.0         0.48         32.1 
      2141.0         0.40         28.7 
      2142.0         0.40         30.8 
      2143.0         0.37         30.8 
      2144.0         0.63         29.8 
      2145.0         0.60         25.5 
      2146.0         0.47         27.7 
      2147.0         0.32         27.8 
      2148.0         0.17         27.8 
      2149.0         0.30         28.0 
      2150.0         0.53         28.4 
      2151.0         0.47         28.1 
      2152.0         0.33         27.8 
      2153.0         0.37         26.9 
      2154.0         0.43         25.9 
      2155.0         0.47         25.4 
      2156.0         0.45         24.5 
      2157.0         0.40         26.4 
      2158.0         0.43         30.4 
      2159.0         0.33         30.3 
      2160.0         0.20         28.6 
      2161.0         0.20         27.8 
      2162.0         0.20         27.5 
      2163.0         0.37         27.1 
      2164.0         3.88         44.0 
      2165.0         0.42         38.7 
      2166.0         0.40         36.3 
      2167.0         0.40         38.4 
      2168.0         0.37         38.9 
      2169.0         0.37         37.5 
      2170.0         0.63         35.2 
      2171.0         0.47         31.7 
      2172.0         0.52         31.9 
      2173.0         0.43         80.1 
      2174.0         0.37         95.6 
      2175.0         0.30         94.6 
      2176.0         0.17         84.2 
      2177.0         0.23         79.0 
      2178.0         0.57         71.8 
      2179.0         0.53         57.7 
      2180.0         0.48         52.0 
      2181.0         0.37         46.5 
      2182.0         0.30         43.0 
      2183.0         0.50         40.5 
      2184.0         0.47         38.8 
      2185.0         0.47         38.3 
      2186.0         0.53         36.4 
      2187.0         0.68         36.5 
      2188.0         0.63         37.0 
      2189.0         0.37         36.1 
      2190.0         0.37         29.9 
      2191.0         0.27         27.5 
      2192.0         0.23         31.8 
      2193.0         0.27         39.5 
      2194.0         2.62         77.8 
      2195.0         0.50         57.0 
      2196.0         0.57         49.3 
      2197.0         0.58         47.8 
      2198.0         0.53         46.2 
      2199.0         0.63         42.0 
      2200.0         0.60         38.9 
      2201.0         0.50         35.5 
      2202.0         0.57         34.0 
      2203.0         0.52         32.7 
      2204.0         0.50         31.5 
      2205.0         0.50         30.7 
      2206.0         0.50         30.1 
      2207.0         0.53         30.2 
      2208.0         0.50         31.9 
      2209.0         0.48         31.9 
      2210.0         0.33         31.0 
      2211.0         0.47         30.6 
      2212.0         0.60         30.3 
      2213.0         0.50         30.1 
      2214.0         0.37         29.7 
      2215.0         0.50         44.1 
      2216.0         0.42         46.3 
      2217.0         0.37         45.5 
      2218.0         0.27         43.2 
      2219.0         0.43         41.4 
      2220.0         0.57         40.6 
      2221.0         0.40         37.1 
      2222.0         0.60         29.9 
      2223.0         0.43         35.2 
      2224.0         3.37         78.1 
      2225.0         0.60         55.3 
      2226.0         0.60         57.3 
      2227.0         0.57         56.2 
      2228.0         0.63         49.8 
      2229.0         0.47         46.1 
      2230.0         0.48         43.1 
      2231.0         0.53         40.7 
      2232.0         0.63         39.2 
      2233.0         0.57         38.2 
      2234.0         0.57         42.0 
      2235.0         0.43         47.7 
      2236.0         0.40         47.8 
      2237.0         0.32         47.1 
      2238.0         0.17         46.2 
      2239.0         0.20         46.3 
      2240.0         0.37         46.3 
      2241.0         0.33         45.8 
      2242.0         0.27         45.6 
      2243.0         0.37         45.7 
      2244.0         0.37         46.3 
      2245.0         0.37         46.4 
      2246.0         0.37         46.1 
      2247.0         0.42         45.6 
      2248.0         0.37         45.6 
      2249.0         0.33         39.8 
      2250.0         0.30         35.3 
      2251.0         0.30         38.5 
      2252.0         0.33         47.6 
      2253.0         0.23         58.8 
      2254.0         2.55         80.4 
      2255.0         0.37         63.8 
      2256.0         0.50         55.8 
      2257.0         0.53         53.1 
      2258.0         0.62         52.6 
      2259.0         0.63         47.8 
      2260.0         0.67         44.1 
      2261.0         0.77         40.8 
      2262.0         0.83         43.1 
      2263.0         0.68         47.5 
      2264.0         0.43         46.3 
      2265.0         0.43         44.9 
      2266.0         0.50         45.4 
      2267.0         0.43         43.8 
      2268.0         0.43         42.2 
      2269.0         0.58         41.4 
      2270.0         0.63         40.5 
      2271.0         0.63         40.9 
      2272.0         0.57         42.2 
      2273.0         0.57         44.7 
      2274.0         0.55         45.5 
      2275.0         0.43         45.2 
      2276.0         0.47         44.3 
      2277.0         0.43         44.0 
      2278.0         0.43         43.4 
      2279.0         0.43         42.3 
      2280.0         0.47         44.2 
      2281.0         0.68         43.5 
      2282.0         0.50         32.0 
      2283.0         0.47         39.3 
      2284.0         3.85         68.5 
      2285.0         0.63         62.1 
