~Version Information
VERS.                      2.0: CWLS Log ASCII Standard - VERSION 2.0
WRAP.                       NO: One line per depth step
~Well Information Block
STRT.FT                -4.0000: 
STOP.FT              1544.0000: 
STEP.FT                 0.2500: 
NULL.                -999.2500: 
COMP.          Pioneer Natural Resources: COMPANY
WELL.           Screamin 12-29: WELL
FLD.           Purgatoire River: FIELD
LOC.           2038' FNL & 612' FWL--: LOCATION
CNTY.               Las Animas: COUNTY
SRVC.                Patterson: SERVICE COMPANY
DATE.          Fri Apr 14 00:36:42 2006: LOG DATE
UWI.           05 071 08661 00: UNIQUE WELL ID
STAT.                 Colorado: STATE
~Curve Information Block
DEPT.FT            0 000 00 00: Depth
GR.GAPI                       : Gamma Ray
CCL.                          : Casing Collar Locator
TT3.usec                      : CBL 3' Travel Time
AMP3.mV                       : CBL 3' Amplitude
~Parameter Information Block
~A  Depth        GR         CCL         TT3         AMP3    
# ...
  1503.5000     73.7356      0.0000    712.3234      7.4720
  1503.7500     73.7175      0.0000    709.4267      7.4875
  1504.0000     74.4555      0.0000    705.7926      7.4608
  1504.2500     75.1327      0.0000    702.9459      7.4236
  1504.5000     76.6564      0.0000    695.0958      7.3607
  1504.7500     78.2423      0.0000    686.3342      7.3238
  1505.0000     80.8512      0.0000    667.9481      7.2885
  1505.2500     81.8082      0.0000    653.3190      7.2796
  1505.5000     80.8221      0.0000    631.4362      7.2722
  1505.7500     78.7040      0.0000    619.2954      7.2543
  1506.0000     74.9630      0.0000    607.1329      7.1857
  1506.2500     72.9955      0.0000    602.9985      7.1103
  1506.5000     71.0491      0.0000    601.2890      6.9648
  1506.7500     70.0487      0.0000    601.8055      6.8585
  1507.0000     68.9515      0.0000    601.5939      6.7089
  1507.2500     68.9328      0.0000    598.5088      6.6287
  1507.5000     70.3231      0.0000    587.8967      6.5532
  1507.7500     71.7851      0.0000    578.3032      6.5380
  1508.0000     73.6927      0.0000    564.6196      6.5675
  1508.2500     74.3816      0.0000    557.4614      6.6131
  1508.5000     74.5904      0.0000    549.7887      6.6891
  1508.7500     74.5972      0.0000    547.2651      6.7222
  1509.0000     75.2003      0.0000    550.0831      6.7136
  1509.2500     75.9250      0.0000    556.7293      6.6617
  1509.5000     76.2729      0.0000    569.3239      6.5269
  1509.7500     75.3847      0.0000    575.2505      6.4193
  1510.0000     72.9335      0.0000    575.4868      6.2772
  1510.2500     71.7068      0.0000    569.9474      6.2184
  1510.5000     71.7934      0.0000    558.6708      6.1995
  1510.7500     72.6331      0.0000    554.2433      6.2241
  1511.0000     73.0337      0.0000    558.4918      6.2829
  1511.2500     72.2570      0.0000    568.3315      6.3192
  1511.5000     70.8599      0.0000    587.6062      6.3583
  1511.7500     70.9386      0.0000    599.4876      6.3762
  1512.0000     73.4221      0.0000    611.7993      6.3931
  1512.2500     76.3275      0.0000    615.8713      6.3950
  1512.5000     81.3684      0.0000    617.4456      6.3813
  1512.7500     84.5977      0.0000    616.9822      6.3673
  1513.0000     88.8220      0.0000    615.3402      6.3549
  1513.2500     91.1749      0.0000    613.2786      6.3575
  1513.5000     93.8147      0.0000    607.8407      6.3781
  1513.7500     94.8632      0.0000    602.7791      6.4039
  1514.0000     95.5234      0.0000    594.0190      6.4614
  1514.2500     95.5227      0.0000    587.9152      6.5080
  1514.5000     94.7442      0.0000    579.1294      6.5752
  1514.7500     93.5102      0.0000    573.6721      6.6110
  1515.0000     90.8064      0.0000    564.5875      6.6477
  1515.2500     88.9543      0.0000    556.5725      6.6622
  1515.5000     86.7155      0.0000    542.9503      6.6718
  1515.7500     85.4097      0.0000    537.0424      6.6741
  1516.0000     83.2282      0.0000    541.4489      6.6829
  1516.2500     81.7938      0.0000    554.8356      6.7001
  1516.5000     80.5174      0.0000    585.4572      6.7519
  1516.7500     80.3819      0.0000    607.6774      6.8059
  1517.0000     80.3001      0.0000    636.0292      6.9076
  1517.2500     79.5738      0.0000    648.9252      6.9739
  1517.5000     77.2881      0.0000    657.9296      7.0374
  1517.7500     75.7302      0.0000    658.2883      7.0455
  1518.0000     74.9441      0.0000    655.6453      7.0126
  1518.2500     75.6367      0.0000    655.5263      6.9699
  1518.5000     77.2663      0.0000    661.7870      6.8896
  1518.7500     77.8832      0.0000    669.6995      6.8355
  1519.0000     78.0242      0.0000    681.9066      6.7718
  1519.2500     78.5137      0.0000    686.8649      6.7472
  1519.5000     81.6253      0.0000    687.6293      6.7355
  1519.7500     85.3899      0.0000    685.6104      6.7358
  1520.0000     91.5982      0.0000    684.4091      6.7251
  1520.2500     94.4998      0.0000    687.1313      6.6973
  1520.5000     95.4861      0.0000    696.4974      6.6166
  1520.7500     94.1732      0.0000    704.3511      6.5417
  1521.0000     90.8921      0.0000    714.4972      6.4181
  1521.2500     88.8265      0.0000    718.7043      6.3433
  1521.5000     87.2427      0.0000    720.8469      6.2668
  1521.7500     87.6660      0.0000    720.0892      6.2477
  1522.0000     90.0148      0.0000    717.3188      6.2722
  1522.2500     91.3722      0.0000    715.6545      6.3233
  1522.5000     90.4254      0.0000    715.3751      6.4349
  1522.7500     87.5113      0.0000    716.8383      6.5066
  1523.0000     82.1477      0.0000    719.7604      6.5622
  1523.2500     79.7507      0.0000    720.5921      6.5602
  1523.5000     78.9811      0.0000    717.6150      6.5418
  1523.7500     79.5880      0.0000    711.7953      6.5487
  1524.0000     80.4353      0.0000    697.7117      6.5953
  1524.2500     80.5757      0.0000    687.1870      6.6343
  1524.5000     80.4061      0.0000    676.6419      6.6897
  1524.7500     80.1013      0.0000    675.9578      6.7334
  1525.0000     78.8576      0.0000    682.3032      6.8208
  1525.2500     77.2818      0.0000    686.6650      6.8795
  1525.5000     74.3902      0.0000    685.8540      6.9254
  1525.7500     72.9513      0.0000    679.7113      6.9192
  1526.0000     72.7807      0.0000    667.3260      6.8854
  1526.2500     74.1039      0.0000    660.4905      6.8705
  1526.5000     77.3549      0.0000    653.1262      6.8592
  1526.7500     79.6996      0.0000    647.2797      6.8294
  1527.0000     82.9841      0.0000    629.5480      6.6826
  1527.2500     85.1007      0.0000    605.2842      6.4800
  1527.5000     88.1364      0.0000    534.3758      5.9615
  1527.7500     89.7075      0.0000    457.6716      5.4573
  1528.0000     90.8234      0.0000    309.8148      4.5389
  1528.2500     90.8513      0.0000    209.8047      3.9304
  1528.5000     90.3579      0.0000     93.3043      3.2219
  1528.7500     89.7290      0.0000     46.1792      2.9333
  1529.0000     88.0991      0.0000     12.3983      2.7246
  1529.2500     86.6116      0.0000      4.3081      2.6741
  1529.5000     84.3977      0.0000      0.6611      2.6512
  1529.7500     83.3290      0.0000      0.1475      2.6480
  1530.0000     82.7472      2.0000   -999.2500   -999.2500
  1530.2500     83.1912      2.0000   -999.2500   -999.2500
  1530.5000     85.1961      0.0000   -999.2500   -999.2500
  1530.7500     87.0831      0.0000   -999.2500   -999.2500
  1531.0000     89.2043      0.0000   -999.2500   -999.2500
  1531.2500     89.2748      0.0000   -999.2500   -999.2500
  1531.5000     87.4445      0.0000   -999.2500   -999.2500
  1531.7500     85.9623      0.0000   -999.2500   -999.2500
  1532.0000     85.3349      0.0000   -999.2500   -999.2500
  1532.2500     86.4394      0.0000   -999.2500   -999.2500
  1532.5000     89.4568      0.0000   -999.2500   -999.2500
  1532.7500     91.1631   -999.2500   -999.2500   -999.2500
  1533.0000     91.4251   -999.2500   -999.2500   -999.2500
  1533.2500     89.8567   -999.2500   -999.2500   -999.2500
  1533.5000     86.0796   -999.2500   -999.2500   -999.2500
  1533.7500     83.5944   -999.2500   -999.2500   -999.2500
  1534.0000     81.1017   -999.2500   -999.2500   -999.2500
  1534.2500     80.6028   -999.2500   -999.2500   -999.2500
  1534.5000     81.6507   -999.2500   -999.2500   -999.2500
  1534.7500     83.1004   -999.2500   -999.2500   -999.2500
  1535.0000     84.6419   -999.2500   -999.2500   -999.2500
  1535.2500     83.9144   -999.2500   -999.2500   -999.2500
  1535.5000     78.1148   -999.2500   -999.2500   -999.2500
  1535.7500     70.3356   -999.2500   -999.2500   -999.2500
  1536.0000     53.1304   -999.2500   -999.2500   -999.2500
  1536.2500     39.6392   -999.2500   -999.2500   -999.2500
  1536.5000     20.9913   -999.2500   -999.2500   -999.2500
  1536.7500     11.8436   -999.2500   -999.2500   -999.2500
