~Version Information
VERS.                      2.0: CWLS Log ASCII Standard - VERSION 2.0
WRAP.                       NO: One line per depth step
~Well Information Block
STRT.FT               505.0000: 
STOP.FT               770.5000: 
STEP.FT                 0.1000: 
NULL.                -999.2500: 
COMP.          Pioneer Natural Resources: COMPANY
WELL.                Zed 11-23: WELL
FLD.           Purgatoire River: FIELD
LOC.           641' FNL & 952' FWL: LOCATION
CNTY.               Las Animas: COUNTY
SRVC.                Patterson: SERVICE COMPANY
DATE.          Mon Feb 27 07:12:43 2006: LOG DATE
UWI.           05 071 08702 00: UNIQUE WELL ID
STAT.                 Colorado: STATE
~Curve Information Block
DEPT.FT            0 000 00 00: Depth
DCAL.in                       : CDL Caliper
RHOB.g/cc                     : CDL Bulk Density
RHOC.g/cc                     : CDL Density Correction
DPOR.pu                       : CDL Density Porosity
GR.GAPI                       : Gamma Ray
NPOR.pu                       : Neutron Porosity
~Parameter Information Block
~A  Depth       DCAL        RHOB        RHOC        DPOR         GR         NPOR    
# ...
   668.2000      7.9503      2.5141      0.0829      8.2389     94.0950     25.2890
   668.3000      7.9453      2.4987      0.0766      9.1700     82.4188     25.2752
   668.4000      7.9453      2.4775     -0.0266     10.4552     75.1362     26.3612
   668.5000      7.9447      2.4721      0.0168     10.7838     75.1670     27.9809
   668.6000      7.9447      2.4824      0.0098     10.1596     79.4396     28.3064
   668.7000      7.9447      2.4938      0.0230      9.4663     83.3459     27.0696
   668.8000      7.9452      2.5053     -0.0027      8.7697     84.8926     25.7105
   668.9000      7.9452      2.5243      0.0467      7.6171     86.4074     25.2034
   669.0000      7.9417      2.5458      0.0432      6.3177     86.2168     25.0530
   669.1000      7.9417      2.5592      0.0587      5.5005     84.0295     24.8780
   669.2000      7.9417      2.5648      0.0533      5.1625     84.4991     25.1021
   669.3000      7.9396      2.5667      0.0525      5.0499     84.6396     26.0374
   669.4000      7.9396      2.5590      0.0491      5.5156     80.0200     27.1256
   669.5000      7.9397      2.5343      0.0818      7.0092     75.8277     27.2553
   669.6000      7.9397      2.5086      0.0002      8.5679     76.8105     26.4269
   669.7000      7.9397      2.5009      0.0518      9.0367     79.8649     25.6634
   669.8000      7.9295      2.4984      0.0658      9.1903     80.1103     25.2602
   669.9000      7.9295      2.4915     -0.0039      9.6053     76.9728     24.7983
   670.0000      7.9357      2.4911      0.0425      9.6332     73.3249     24.3725
   670.1000      7.9357      2.5007      0.0041      9.0496     72.1582     24.5859
   670.2000      7.9357      2.5145      0.0384      8.2095     74.2488     25.0766
   670.3000      7.9414      2.5238      0.0530      7.6512     75.1677     24.8792
   670.4000      7.9414      2.5264      0.0284      7.4894     72.1773     24.1561
   670.5000      7.9411      2.5302      0.0616      7.2626     70.5340     23.6706
   670.6000      7.9411      2.5391      0.0457      6.7207     72.4087     24.0604
   670.7000      7.9411      2.5501      0.0224      6.0565     73.7063     25.4069
   670.8000      7.9382      2.5544      0.0711      5.7945     73.1140     26.4510
   670.9000      7.9382      2.5422      0.0356      6.5317     72.1596     26.1444
   671.0000      7.9404      2.5146      0.0412      8.2032     70.4745     25.6162
   671.1000      7.9404      2.4818      0.0156     10.1965     68.7737     25.9581
   671.2000      7.9404      2.4575     -0.0665     11.6668     71.2763     26.4646
   671.3000      7.9366      2.4514      0.0069     12.0373     78.4771     26.6396
   671.4000      7.9366      2.4528      0.0564     11.9502     85.9825     26.6843
   671.5000      7.9427      2.4458      0.0632     12.3749     88.4825     26.5469
   671.6000      7.9427      2.4429     -0.0384     12.5530     86.5649     26.4192
   671.7000      7.9427      2.4679      0.0019     11.0351     85.0548     26.5354
   671.8000      7.9376      2.5098      0.0116      8.4991     84.2807     26.6036
   671.9000      7.9376      2.5363      0.0843      6.8882     84.5955     26.3450
   672.0000      7.9373      2.5356      0.0397      6.9348     85.9965     25.7662
   672.1000      7.9373      2.5222      0.0191      7.7471     85.6121     25.0173
   672.2000      7.9373      2.5134      0.0533      8.2762     82.8237     24.7649
   672.3000      7.9345      2.5122      0.0203      8.3531     82.0804     24.9483
   672.4000      7.9345      2.5143      0.0261      8.2237     83.7683     24.6431
   672.5000      7.9368      2.5129      0.0686      8.3074     81.8115     23.9182
   672.6000      7.9368      2.5124     -0.0137      8.3402     74.5390     23.5017
   672.7000      7.9368      2.5274      0.0142      7.4275     66.6340     24.2324
   672.8000      7.9371      2.5455      0.0775      6.3355     63.4801     26.2033
   672.9000      7.9371      2.5443      0.0617      6.4061     65.9465     27.7899
   673.0000      7.9390      2.5260      0.0500      7.5163     71.4562     27.8413
   673.1000      7.9390      2.5069      0.0160      8.6718     78.1950     26.8653
   673.2000      7.9390      2.4993      0.0051      9.1354     83.5299     25.8766
   673.3000      7.9373      2.5007      0.0066      9.0458     83.2420     25.7419
   673.4000      7.9373      2.5090      0.0216      8.5430     79.4842     26.2627
   673.5000      7.9434      2.5286      0.0241      7.3564     79.7555     26.5274
   673.6000      7.9434      2.5508      0.0939      6.0107     82.9817     26.4869
   673.7000      7.9434      2.5587      0.0687      5.5312     82.6756     26.4187
   673.8000      7.9449      2.5489      0.0627      6.1273     80.1579     26.0620
   673.9000      7.9449      2.5288      0.0370      7.3469     79.1647     25.3548
   674.0000      7.9337      2.5117      0.0240      8.3795     79.8219     25.0120
   674.1000      7.9337      2.5139      0.0056      8.2512     81.6151     25.3842
   674.2000      7.9337      2.5372      0.0684      6.8379     82.1435     26.1294
   674.3000      7.9141      2.5661      0.0822      5.0862     79.7706     26.9599
   674.4000      7.9141      2.5861      0.0592      3.8726     78.7539     27.3838
   674.5000      7.9335      2.5894      0.0796      3.6713     80.7328     26.7422
   674.6000      7.9335      2.5782      0.0148      4.3525     80.5746     25.2063
   674.7000      7.9335      2.5653      0.0140      5.1304     78.7274     23.8066
   674.8000      7.9396      2.5525      0.0401      5.9105     81.5515     23.4829
   674.9000      7.9396      2.5309      0.0713      7.2207     86.9204     24.0622
   675.0000      7.9384      2.5132     -0.0302      8.2910     89.2749     24.7998
   675.1000      7.9384      2.5189      0.0225      7.9458     90.9316     25.2124
   675.2000      7.9384      2.5361      0.0559      6.9005     95.4380     25.1735
   675.3000      7.9367      2.5496      0.0371      6.0876     98.9589     25.0514
   675.4000      7.9367      2.5613      0.0536      5.3749     94.0364     25.0476
   675.5000      7.9412      2.5668      0.0386      5.0450     82.8709     24.7745
   675.6000      7.9412      2.5551      0.0593      5.7542     78.2360     24.1197
   675.7000      7.9412      2.5335     -0.0329      7.0607     82.1790     23.6896
   675.8000      7.9527      2.5215      0.0075      7.7900     85.7117     23.6975
   675.9000      7.9527      2.5195      0.0183      7.9084     86.8004     23.5598
   676.0000      7.9346      2.5183      0.0081      7.9840     86.8834     23.0825
   676.1000      7.9346      2.5194      0.0305      7.9143     83.7640     22.8722
   676.2000      7.9346      2.5201      0.0762      7.8698     78.0292     23.1838
   676.3000      7.9328      2.5138      0.0208      8.2550     74.8000     23.5863
   676.4000      7.9328      2.5085      0.0050      8.5777     76.1202     23.9354
   676.5000      7.9371      2.5090      0.0256      8.5430     79.0641     24.3478
   676.6000      7.9371      2.5088      0.0414      8.5553     82.7953     24.5646
   676.7000      7.9371      2.5074     -0.0150      8.6435     87.2839     24.2703
   676.8000      7.9435      2.5076      0.0457      8.6294     90.2086     23.4961
   676.9000      7.9435      2.5074      0.0422      8.6433     89.4824     22.6312
   677.0000      7.9380      2.5066      0.0432      8.6925     85.9588     22.3512
   677.1000      7.9380      2.5019      0.0715      8.9784     81.3617     23.2669
   677.2000      7.9380      2.4906      0.0070      9.6605     76.9688     24.6508
   677.3000      7.9330      2.4806      0.0115     10.2672     76.3026     25.0626
   677.4000      7.9330      2.4766      0.0276     10.5111     83.0355     24.6335
   677.5000      7.9360      2.4775      0.0268     10.4566     94.0600     24.5088
   677.6000      7.9360      2.4827      0.0414     10.1389    100.2616     24.9299
   677.7000      7.9360      2.4885      0.0178      9.7896     99.2991     25.1376
