~Version Information
VERS.                      2.0: CWLS Log ASCII Standard - VERSION 2.0
WRAP.                       NO: One line per depth step
~Well Information Block
STRT.FT               650.0000: 
STOP.FT              2127.7000: 
STEP.FT                 0.1000: 
NULL.                -999.2500: 
COMP.          Pioneer Natural Resources: COMPANY
WELL.          Kennington 41-26: WELL
FLD.           Purgatoire River: FIELD
LOC.           940' FNL & 1008' FEL--: LOCATION
CNTY.               Las Animas: COUNTY
SRVC.                Patterson: SERVICE COMPANY
DATE.          Wed Mar 29 11:30:50 2006: LOG DATE
UWI.           05 071 08679 00: UNIQUE WELL ID
STAT.                 Colorado: STATE
~Curve Information Block
DEPT.FT            0 000 00 00: Depth
DCAL.in                       : CDL Caliper
RHOB.g/cc                     : CDL Bulk Density
RHOC.g/cc                     : CDL Density Correction
DPOR.pu                       : CDL Density Porosity
NPOR.pu                       : Neutron Porosity
GR.GAPI                       : Gamma Ray
~Parameter Information Block
~A  Depth       DCAL        RHOB        RHOC        DPOR        NPOR         GR     
# ...
  1523.6000      7.9717      2.6251      0.0266      1.5066     21.2613     79.6870
  1523.7000      7.9717      2.6049      0.0941      2.7313     21.5187     83.8267
  1523.8000      7.9722      2.5582      0.0002      5.5657     21.3853     93.1827
  1523.9000      7.9722      2.5107      0.0167      8.4422     20.4697    100.3876
  1524.0000      7.9693      2.4902     -0.0081      9.6823     19.9887    101.7823
  1524.1000      7.9693      2.5021      0.0091      8.9609     21.4339     99.9081
  1524.2000      7.9693      2.5353      0.0295      6.9531     23.7418     97.7115
  1524.3000      7.9669      2.5611      0.1066      5.3854     24.8668     97.5139
  1524.4000      7.9669      2.5533      0.0587      5.8598     24.6782    101.1387
  1524.5000      7.9667      2.5228      0.0401      7.7120     24.3166    105.9426
  1524.6000      7.9667      2.4965      0.0215      9.3007     24.4481    109.7065
  1524.7000      7.9667      2.4763      0.0724     10.5282     24.8346    113.3980
  1524.8000      7.9682      2.4515      0.0320     12.0301     25.0467    116.7350
  1524.9000      7.9682      2.4339      0.0149     13.0956     24.8853    119.3239
  1525.0000      7.9707      2.4366      0.0537     12.9334     24.3206    120.1990
  1525.1000      7.9707      2.4529      0.0223     11.9431     23.4447    118.7657
  1525.2000      7.9707      2.4767      0.0381     10.5003     22.3224    115.3391
  1525.3000      7.9712      2.5008      0.1013      9.0414     21.2922    111.9410
  1525.4000      7.9712      2.5146      0.1108      8.2060     20.6887    110.0340
  1525.5000      7.9726      2.5213      0.0782      7.8029     20.4995    106.5961
  1525.6000      7.9726      2.5294      0.1203      7.3067     20.2377    103.5960
  1525.7000      7.9726      2.5398      0.0929      6.6815     19.2309    107.1099
  1525.8000      7.9794      2.5506      0.1100      6.0216     17.5351    112.8366
  1525.9000      7.9794      2.5573      0.0970      5.6162     16.0461    112.3270
  1526.0000      7.9868      2.5580      0.0817      5.5752     16.1784    105.5604
  1526.1000      7.9868      2.5519      0.0937      5.9434     18.5509     99.1441
  1526.2000      7.9868      2.5362      0.0320      6.8970     21.7691     98.3956
  1526.3000      7.9856      2.5297     -0.0200      7.2920     24.0525    101.3992
  1526.4000      7.9856      2.5518      0.0689      5.9490     25.2020    105.5619
  1526.5000      7.9787      2.5843      0.1311      3.9826     25.5874    110.6980
  1526.6000      7.9787      2.6036      0.0850      2.8123     25.1600    113.5731
  1526.7000      7.9787      2.6132      0.0787      2.2280     24.0940    113.0768
  1526.8000      7.9752      2.6176      0.0804      1.9651     23.6195    112.4238
  1526.9000      7.9752      2.6108      0.0852      2.3738     24.6247    113.3677
  1527.0000      7.9803      2.5914      0.0871      3.5489     25.9773    115.4664
  1527.1000      7.9803      2.5669      0.0479      5.0388     26.3102    118.8525
  1527.2000      7.9803      2.5544      0.0606      5.7936     25.6741    120.7604
  1527.3000      7.9910      2.5648      0.0182      5.1664     24.7180    118.9941
  1527.4000      7.9910      2.5810      0.1022      4.1820     24.0048    117.8534
  1527.5000      7.9972      2.5817      0.0562      4.1375     23.6054    119.7309
  1527.6000      7.9972      2.5770      0.0540      4.4245     23.3132    120.3495
  1527.7000      7.9972      2.5814      0.0734      4.1583     22.9104    117.8831
  1527.8000      7.9972      2.5896      0.0862      3.6615     21.8362    117.5834
  1527.9000      7.9972      2.5984      0.0796      3.1290     19.8993    123.1197
  1528.0000      7.9905      2.6166      0.0837      2.0257     18.0458    126.9211
  1528.1000      7.9905      2.6447      0.0782      0.3202     17.2369    119.4265
  1528.2000      7.9905      2.6708      0.1036     -1.2605     17.3644    106.1865
  1528.3000      7.9741      2.6802      0.1396     -1.8277     18.0029     99.3593
  1528.4000      7.9741      2.6733      0.0913     -1.4134     18.6189     99.2393
  1528.5000      7.9572      2.6748      0.0858     -1.5040     18.6438     98.8650
  1528.6000      7.9572      2.7045      0.0813     -3.3046     18.3609     95.1396
  1528.7000      7.9572      2.7507      0.1205     -6.1027     18.1737     88.5931
  1528.8000      7.9513      2.7785      0.0862     -7.7899     17.9276     80.4013
  1528.9000      7.9513      2.7659      0.0625     -7.0251     17.7034     72.0421
  1529.0000      7.9508      2.7213      0.0224     -4.3238     17.7610     64.6299
  1529.1000      7.9508      2.6748     -0.0490     -1.5025     18.0376     59.8837
  1529.2000      7.9508      2.6561     -0.0562     -0.3719     18.5303     58.9130
  1529.3000      7.9495      2.6634      0.0078     -0.8113     19.2896     59.5411
  1529.4000      7.9495      2.6654     -0.0169     -0.9352     19.9066     58.2282
  1529.5000      7.9476      2.6527     -0.0388     -0.1650     19.9921     57.9298
  1529.6000      7.9476      2.6422     -0.0262      0.4727     20.0205     63.2710
  1529.7000      7.9476      2.6336      0.0325      0.9961     20.4826     71.2769
  1529.8000      7.9464      2.6104      0.0228      2.3983     21.0104     76.7268
  1529.9000      7.9464      2.5726      0.0144      4.6928     21.2383     80.0092
  1530.0000      7.9467      2.5475     -0.0373      6.2115     21.3339     83.3159
  1530.1000      7.9467      2.5625      0.0054      5.3047     21.2047     85.1282
  1530.2000      7.9467      2.6010      0.0966      2.9696     20.5478     84.3035
  1530.3000      7.9474      2.6208      0.1412      1.7670     19.7685     82.9577
  1530.4000      7.9474      2.6129      0.1201      2.2460     19.5884     84.0370
  1530.5000      7.9478      2.6052      0.1008      2.7172     20.2690     87.6860
  1530.6000      7.9478      2.6123      0.1196      2.2824     21.1912     90.3581
  1530.7000      7.9478      2.6243      0.0787      1.5570     21.5343     88.7077
  1530.8000      7.9471      2.6311      0.0704      1.1450     21.3358     82.7686
  1530.9000      7.9471      2.6250      0.1288      1.5134     21.2118     78.2495
  1531.0000      7.9448      2.6065      0.0734      2.6348     21.5710     80.6829
  1531.1000      7.9448      2.5969      0.0539      3.2188     22.3221     88.1690
  1531.2000      7.9448      2.6056      0.0581      2.6934     22.9536     93.3310
  1531.3000      7.9438      2.6161      0.0596      2.0544     23.0314     95.0828
  1531.4000      7.9438      2.6173      0.0134      1.9794     22.6850     97.7097
  1531.5000      7.9451      2.6122      0.0746      2.2902     22.4569     98.2151
  1531.6000      7.9451      2.6082      0.0444      2.5331     22.3419     95.0373
  1531.7000      7.9451      2.6067      0.0267      2.6263     21.7007     93.3570
  1531.8000      7.9472      2.5988      0.0258      3.1022     20.3737     96.2940
  1531.9000      7.9472      2.5835      0.0445      4.0274     18.7950    101.4287
  1532.0000      7.9471      2.5716      0.0425      4.7497     17.5393    102.4108
  1532.1000      7.9471      2.5673      0.0555      5.0111     17.0194     97.3986
  1532.2000      7.9471      2.5652      0.0473      5.1417     17.0379     91.0288
  1532.3000      7.9452      2.5671      0.0470      5.0226     16.9594     85.0055
  1532.4000      7.9452      2.5849      0.0231      3.9438     16.5562     78.0048
  1532.5000      7.9438      2.6148      0.0791      2.1325     15.9120     71.8743
  1532.6000      7.9438      2.6256      0.1214      1.4792     15.0092     69.1178
  1532.7000      7.9438      2.6085      0.0458      2.5142     14.1365     68.5290
  1532.8000      7.9390      2.5959      0.0937      3.2805     14.1589     67.3916
  1532.9000      7.9390      2.5984      0.1226      3.1281     15.2947     64.2376
  1533.0000      7.9296      2.5986      0.1086      3.1176     16.4007     60.7586
  1533.1000      7.9296      2.5926      0.0834      3.4774     16.7829     60.7260
