~Version Information
 VERS.                                  2.0 : CWLS LAS VERSION
 WRAP.                                   NO : WRAPING MODE
 SWARE .                 MController 2.5.0N : SOFTWARE VERSION
~Well Information
 WELL.                        Cayenne 23-23 : WELL
 COMP.    Pioneer Natural Resources USA Inc : COMPANY
 FLD.                      Purgatoire River : FIELD
 LOC.                 NE/SW SEC23 T32S R66W : LOCATION
 DATE.                          08/16-17/05 : DATE(S) LOGGED
 SRVC.       Blanco Geological Services LLC : SERVICE COMPANY
 STAT.                             Colorado : STATE
 CNTY.                           Las Animas : COUNTY
 CTRY.                                  USA : COUNTRY
 API.                       05-071-08476-00 : API NUMBER
 STRT.FT                             901.00 : START DEPTH
 STOP.FT                            2365.00 : STOP DEPTH
 STEP.FT                               1.00 : DEPTH INCREMENT
 NULL.                                -9999 : NULL VALUE
~Curve information
 DEPTH.FT                                   :
 ROP.MIN/FT                                 :
 GAS.UNITS                                  :
~ASCII Log data
# ...
      1901.0         0.23        618.6 
      1902.0         0.30        620.2 
      1903.0         0.27        621.8 
      1904.0         0.27        621.8 
      1905.0         0.23        621.2 
      1906.0         0.23        619.9 
      1907.0         0.23        618.6 
      1908.0         0.23        617.0 
      1909.0         0.27        618.3 
      1910.0         0.23        618.6 
      1911.0         0.23        618.9 
      1912.0         0.23        618.9 
      1913.0         0.28        618.6 
      1914.0         0.27        620.5 
      1915.0         0.33        620.2 
      1916.0         5.28       1476.5 
      1917.0         0.57       1350.8 
      1918.0         0.42        956.6 
      1919.0         0.30        797.1 
      1920.0         0.33        761.3 
      1921.0         0.33        754.6 
      1922.0         0.40        747.8 
      1923.0         0.40        707.8 
      1924.0         0.47        666.6 
      1925.0         0.50        633.4 
      1926.0         0.62        620.5 
      1927.0         0.40        619.2 
      1928.0         0.40        625.0 
      1929.0         0.47        663.4 
      1930.0         0.40        686.9 
      1931.0         0.27        690.4 
      1932.0         0.27        680.8 
      1933.0         0.30        659.8 
      1934.0         0.27        643.4 
      1935.0         0.35        625.0 
      1936.0         0.23        612.8 
      1937.0         0.23        607.0 
      1938.0         0.20        602.1 
      1939.0         0.23        603.4 
      1940.0         0.20        602.1 
      1941.0         0.23        605.7 
      1942.0         0.27        605.7 
      1943.0         0.20        602.8 
      1944.0         0.20        603.1 
      1945.0         0.27        605.0 
      1946.0         3.55        770.7 
      1947.0         0.50        873.2 
      1948.0         0.48        932.1 
      1949.0         0.43        938.6 
      1950.0         0.33        905.7 
      1951.0         0.33        839.0 
      1952.0         0.30        767.1 
      1953.0         0.33        706.2 
      1954.0         0.27        664.3 
      1955.0         0.30        640.8 
      1956.0         0.30        634.4 
      1957.0         0.33        632.4 
      1958.0         0.35        630.8 
      1959.0         0.30        631.5 
      1960.0         0.27        627.6 
      1961.0         0.27        618.9 
      1962.0         0.27        612.1 
      1963.0         0.23        608.9 
      1964.0         0.27        610.2 
      1965.0         0.30        619.5 
      1966.0         0.27        629.5 
      1967.0         0.30        636.6 
      1968.0         0.30        640.2 
      1969.0         0.27        638.6 
      1970.0         0.32        633.7 
      1971.0         0.30        631.8 
      1972.0         0.23        628.3 
      1973.0         0.27        626.3 
      1974.0         1.20        666.9 
      1975.0         1.62        585.4 
      1976.0         0.23        621.5 
      1977.0         0.20        666.3 
      1978.0         0.20        697.9 
      1979.0         0.33        732.7 
      1980.0         0.37        751.7 
      1981.0         0.33        782.3 
      1982.0         0.27        811.6 
      1983.0         0.33        858.0 
      1984.0         0.57        940.5 
      1985.0         0.52        941.2 
      1986.0         0.47        864.8 
      1987.0         0.40        763.9 
      1988.0         0.40        712.4 
      1989.0         0.40        684.3 
      1990.0         0.40        672.7 
      1991.0         0.33        667.9 
      1992.0         0.37        665.6 
      1993.0         0.45        660.8 
      1994.0         0.43        650.8 
      1995.0         0.20        641.1 
      1996.0         0.23        641.1 
      1997.0         0.27        637.6 
      1998.0         0.27        636.0 
      1999.0         0.27        635.3 
      2000.0         0.27        634.4 
      2001.0         0.33        635.0 
      2002.0         0.33        633.4 
      2003.0         0.30        634.7 
      2004.0         0.65        636.0 
      2005.0         0.73        672.1 
      2006.0         6.10       1597.3 
      2007.0         0.57        681.4 
      2008.0         0.57        695.0 
      2009.0         0.50        704.0 
      2010.0         0.37        697.5 
      2011.0         0.37        679.5 
      2012.0         0.38        660.5 
      2013.0         0.53        644.4 
      2014.0         0.40        625.3 
      2015.0         0.23        625.3 
      2016.0         0.30        628.9 
      2017.0         0.33        631.8 
      2018.0         0.37        628.3 
      2019.0         0.23        631.2 
      2020.0         0.30        631.8 
      2021.0         0.30        634.1 
      2022.0         0.32        631.8 
      2023.0         0.30        627.0 
      2024.0         0.33        621.2 
      2025.0         0.33        615.4 
      2026.0         0.33        617.6 
      2027.0         0.47        619.9 
      2028.0         0.43        625.3 
      2029.0         0.43        625.7 
      2030.0         0.40        625.7 
      2031.0         0.42        623.1 
      2032.0         0.37        622.8 
      2033.0         0.37        621.5 
      2034.0         0.57        617.0 
      2035.0         0.87        646.6 
      2036.0         4.02       1450.3 
      2037.0         0.32       1341.7 
      2038.0         0.27       1154.2 
      2039.0         0.47        978.9 
      2040.0         0.53        798.7 
      2041.0         0.43        759.1 
      2042.0         0.40        764.9 
      2043.0         0.33        751.0 
      2044.0         0.43        719.8 
      2045.0         0.30        678.5 
      2046.0         0.28        656.3 
      2047.0         0.30        637.9 
      2048.0         0.30        630.2 
      2049.0         0.30        640.2 
      2050.0         0.33        670.5 
      2051.0         0.33        683.7 
      2052.0         0.83        684.0 
      2053.0         0.78        663.7 
      2054.0         0.50        624.1 
      2055.0         0.47        578.9 
      2056.0         0.53        590.9 
      2057.0         0.47        616.6 
      2058.0         0.33        561.5 
      2059.0         0.40        477.4 
      2060.0         0.33        440.0 
      2061.0         0.35          9.7 
      2062.0         0.40          7.4 
      2063.0         0.33          6.4 
      2064.0         0.33          6.1 
      2065.0         0.53          5.9 
      2066.0         3.98         20.1 
      2067.0         0.47         18.0 
      2068.0         0.75          4.4 
      2069.0         0.67          3.9 
      2070.0         0.57          4.1 
      2071.0         0.57          4.1 
      2072.0         0.50          4.1 
      2073.0         0.43          4.1 
      2074.0         0.48          3.8 
      2075.0         0.47          3.9 
      2076.0         0.33          3.8 
      2077.0         0.40          3.9 
      2078.0         0.37          3.8 
      2079.0         0.30          3.9 
      2080.0         0.33         39.8 
      2081.0         0.30        102.8 
      2082.0         0.17        113.2 
      2083.0         0.13        118.8 
      2084.0         0.17        122.0 
      2085.0         0.20        126.0 
      2086.0         0.28        127.8 
      2087.0         0.33        127.2 
      2088.0         0.30        121.5 
      2089.0         0.30        112.6 
      2090.0         0.27        116.6 
      2091.0         0.30        130.0 
      2092.0         0.33        142.3 
      2093.0         0.37        149.1 
      2094.0         0.40        150.4 
      2095.0         0.37        150.4 
      2096.0         4.90        373.9 
      2097.0         1.30       1394.6 
      2098.0         2.32       1132.3 
      2099.0         0.70        680.1 
      2100.0         0.73        642.4 
