~Version Information
VERS.                      2.0: CWLS Log ASCII Standard - VERSION 2.0
WRAP.                       NO: One line per depth step
~Well Information Block
STRT.FT               625.0000: 
STOP.FT              2053.7000: 
STEP.FT                 0.1000: 
NULL.                -999.2500: 
COMP.          Pioneer Natural Resources: COMPANY
WELL.            Zink 44-10 Tr: WELL
FLD.           Purgatoire River: FIELD
LOC.           486' FSL & 554' FEL--: LOCATION
PROV.                 Colorado: PROVINCE
CNTY.               Las Animas: COUNTRY
SRVC.                Patterson: SERVICE COMPANY
DATE.          Sun Jul 24 08:46:57 2005: LOG DATE
UWI.           05 071 08446 00: UNIQUE WELL ID
~Curve Information Block
DEPT.FT            0 000 00 00: Depth
DCAL.in                       : CDL Caliper
RHOB.g/cc                     : CDL Bulk Density
RHOC.g/cc                     : CDL Density Correction
DPOR.pu                       : CDL Density Porosity
NPOR.pu                       : Neutron Porosity
GR.GAPI                       : Gamma Ray
~Parameter Information Block
~A  Depth       DCAL        RHOB        RHOC        DPOR        NPOR         GR     
# ...
  1181.8000      8.0648      2.6187      0.0251      1.8967     29.2208    122.0802
  1181.9000      8.0648      2.6561      0.0383     -0.3673     28.0642    126.3917
  1182.0000      8.0578      2.6813      0.0628     -1.8969     27.3857    123.5771
  1182.1000      8.0578      2.7052      0.0904     -3.3427     26.9415    115.9572
  1182.2000      8.0578      2.7294      0.1218     -4.8136     26.0143    109.5094
  1182.3000      8.0461      2.7401      0.1074     -5.4610     24.7393    107.2891
  1182.4000      8.0461      2.7409      0.0193     -5.5084     23.8732    111.0142
  1182.5000      8.0374      2.7433      0.0693     -5.6531     23.7989    116.8386
  1182.6000      8.0374      2.7367      0.0727     -5.2560     24.3727    118.8284
  1182.7000      8.0374      2.7190      0.0259     -4.1829     25.1464    118.2729
  1182.8000      8.0353      2.7042      0.0483     -3.2829     25.6605    115.7301
  1182.9000      8.0353      2.6927      0.0726     -2.5859     25.6947    111.4547
  1183.0000      8.0352      2.6856      0.0138     -2.1567     25.5719    109.7977
  1183.1000      8.0352      2.6950      0.0770     -2.7268     25.7050    111.2318
  1183.2000      8.0352      2.7185      0.0857     -4.1518     26.1168    111.7156
  1183.3000      8.0380      2.7433      0.0917     -5.6545     26.9191    110.6295
  1183.4000      8.0380      2.7529      0.1220     -6.2364     27.9999    111.4963
  1183.5000      8.0453      2.7370      0.0566     -5.2705     28.8126    112.9367
  1183.6000      8.0453      2.7086      0.0253     -3.5529     29.3370    110.7670
  1183.7000      8.0453      2.6847      0.0225     -2.1031     29.7735    107.4997
  1183.8000      8.0458      2.6699      0.0114     -1.2077     29.8024    106.2866
  1183.9000      8.0458      2.6658      0.0004     -0.9558     29.5129    105.0170
  1184.0000      8.0377      2.6720      0.0181     -1.3338     29.5335    104.8821
  1184.1000      8.0377      2.6823      0.0458     -1.9583     29.7209    108.5335
  1184.2000      8.0377      2.6948      0.0325     -2.7122     29.2821    111.1806
  1184.3000      8.0384      2.7160      0.0873     -3.9979     28.0680    109.8127
  1184.4000      8.0384      2.7431      0.0896     -5.6432     26.7235    109.9881
  1184.5000      8.0502      2.7644      0.0822     -6.9351     25.9668    113.3090
  1184.6000      8.0502      2.7717      0.0803     -7.3763     25.9352    115.5046
  1184.7000      8.0502      2.7613      0.0748     -6.7475     26.2328    114.8491
  1184.8000      8.0597      2.7346      0.0645     -5.1285     26.6434    112.2403
  1184.9000      8.0597      2.6989      0.0547     -2.9666     27.1877    109.0716
  1185.0000      8.0628      2.6669      0.0006     -1.0259     27.5683    106.1423
  1185.1000      8.0628      2.6468     -0.0126      0.1931     27.1804    104.3955
  1185.2000      8.0628      2.6277      0.0034      1.3487     26.2000    104.2155
  1185.3000      8.0629      2.6023     -0.0442      2.8933     25.6215    105.5944
  1185.4000      8.0629      2.5922     -0.0701      3.5036     25.7718    110.9435
  1185.5000      8.0637      2.6060      0.0075      2.6675     26.0042    119.2866
  1185.6000      8.0637      2.6161      0.0567      2.0533     25.9835    123.5069
  1185.7000      8.0637      2.6121      0.0472      2.2987     26.0403    120.4740
  1185.8000      8.0633      2.6091      0.0464      2.4802     26.3493    116.8892
  1185.9000      8.0633      2.6100      0.0272      2.4263     26.7675    117.0756
  1186.0000      8.0625      2.6122      0.0542      2.2888     27.0687    116.2412
  1186.1000      8.0625      2.6261      0.0444      1.4485     27.2149    110.0336
  1186.2000      8.0625      2.6604      0.0530     -0.6313     27.5281    100.2966
  1186.3000      8.0646      2.7049      0.0749     -3.3298     28.2758     93.5696
  1186.4000      8.0646      2.7328      0.1153     -5.0207     29.1827     93.3210
  1186.5000      8.0671      2.7255      0.0714     -4.5746     29.6603     96.1550
  1186.6000      8.0671      2.6970      0.0465     -2.8456     29.5486     98.3592
  1186.7000      8.0671      2.6743      0.0233     -1.4722     28.9309     99.4847
  1186.8000      8.0704      2.6637      0.0157     -0.8296     28.0902     99.6736
  1186.9000      8.0704      2.6573     -0.0067     -0.4422     27.5957     98.8227
  1187.0000      8.0789      2.6531     -0.0015     -0.1905     27.4764     98.3263
  1187.1000      8.0789      2.6473      0.0213      0.1607     27.6010    100.0044
  1187.2000      8.0789      2.6274      0.0414      1.3676     27.7490    103.9181
  1187.3000      8.0891      2.5959      0.0050      3.2814     27.5613    107.3371
  1187.4000      8.0891      2.5786     -0.0095      4.3301     27.4820    107.9585
  1187.5000      8.0964      2.5848      0.0143      3.9542     27.9925    106.4755
  1187.6000      8.0964      2.5924      0.0669      3.4935     28.6971    107.2265
  1187.7000      8.0964      2.5873     -0.0084      3.7971     29.0783    112.4846
  1187.8000      8.0929      2.5788     -0.0154      4.3131     29.1750    118.0411
  1187.9000      8.0929      2.5745      0.0305      4.5742     29.4420    121.1743
  1188.0000      8.0734      2.5793     -0.0063      4.2829     29.9585    123.8680
  1188.1000      8.0734      2.5947      0.0440      3.3487     30.1583    127.5128
  1188.2000      8.0734      2.6134      0.0536      2.2181     29.8013    131.4605
  1188.3000      8.0485      2.6309      0.0794      1.1602     29.3016    135.9586
  1188.4000      8.0485      2.6422      0.0703      0.4747     29.1418    140.5889
  1188.5000      8.0358      2.6419      0.0737      0.4887     29.4956    140.0092
  1188.6000      8.0358      2.6335      0.0334      0.9995     29.9431    132.8078
  1188.7000      8.0358      2.6236      0.0484      1.5989     29.9155    124.5265
  1188.8000      8.0388      2.6076      0.0841      2.5726     29.3869    117.7882
  1188.9000      8.0388      2.5824      0.0374      4.0985     28.8894    113.9556
  1189.0000      8.0593      2.5664      0.0237      5.0640     28.6438    116.9547
  1189.1000      8.0593      2.5739      0.0144      4.6095     28.2850    126.2258
  1189.2000      8.0593      2.5881      0.0580      3.7542     27.7326    135.2381
  1189.3000      8.0914      2.5845      0.0372      3.9677     27.4630    137.3912
  1189.4000      8.0914      2.5669      0.0155      5.0338     27.6065    132.4469
  1189.5000      8.1186      2.5479      0.0732      6.1885     27.6196    127.6193
  1189.6000      8.1186      2.5300      0.0205      7.2735     27.3865    128.0302
  1189.7000      8.1186      2.5229      0.0118      7.7034     27.3346    131.2400
  1189.8000      8.1412      2.5337      0.0118      7.0503     27.6478    133.3160
  1189.9000      8.1412      2.5522      0.0233      5.9293     27.9502    134.5561
  1190.0000      8.1579      2.5552      0.0965      5.7447     27.7138    136.3461
  1190.1000      8.1579      2.5289      0.0595      7.3417     27.1109    138.1255
  1190.2000      8.1579      2.4907      0.0242      9.6567     26.6969    140.4968
  1190.3000      8.1642      2.4664     -0.0056     11.1285     26.4499    145.0385
  1190.4000      8.1642      2.4604      0.0064     11.4880     26.0444    149.2493
  1190.5000      8.1646      2.4568      0.0424     11.7069     25.4053    147.0763
  1190.6000      8.1646      2.4319      0.0457     13.2201     24.5695    138.0946
  1190.7000      8.1646      2.3667      0.0280     17.1722     23.7083    129.8758
  1190.8000      8.1652      2.2594      0.0169     23.6732     23.0630    127.7002
  1190.9000      8.1652      2.1350     -0.0814     31.2104     22.6539    129.9797
  1191.0000      8.1707      2.0283     -0.0900     37.6761     22.2760    132.1266
  1191.1000      8.1707      1.9491     -0.0863     42.4770     21.6096    132.0904
  1191.2000      8.1707      1.8879     -0.0663     46.1872     20.4520    131.8838
  1191.3000      8.1790      1.8379     -0.0771     49.2197     18.9531    132.4433
