~Version Information
VERS.                      2.0: CWLS Log ASCII Standard - VERSION 2.0
WRAP.                       NO: One line per depth step
~Well Information Block
STRT.FT               197.7500: 
STOP.FT              1631.0000: 
STEP.FT                 0.2500: 
NULL.                -999.2500: 
COMP.          Petrogulf Corporation: COMPANY
WELL.             State 16-44R: WELL
FLD.           Purgatoire River: FIELD
LOC.           632' FSL & 223' FEL--: LOCATION
PROV.                 Colorado: PROVINCE
CNTY.               Las Animas: COUNTRY
SRVC.                Patterson: SERVICE COMPANY
DATE.          Fri Oct 21 11:31:17 2005: LOG DATE
UWI.           05 071 08457 00: UNIQUE WELL ID
~Curve Information Block
DEPT.FT            0 000 00 00: Depth
SP.mV                         : DIL Spontaneous Potential
RILD.Ohm-m                    : DIL Deep Resistivity
RILM.Ohm-m                    : DIL Medium Resistivity
RLL3.Ohm-m                    : DIL Shallow Resistivity
GR.GAPI                       : Gamma Ray
~Parameter Information Block
~A  Depth        SP         RILD        RILM        RLL3         GR     
# ...
   589.7500     29.9247 100000.0000      5.9905     16.5449    125.4420
   590.0000     30.4413     84.3575      7.1775     16.5807    125.7912
   590.2500     30.8632     33.8360      8.8482     16.2170    124.9826
   590.5000     31.1968     21.7277     10.9951     15.7135    122.7529
   590.7500     31.4413     17.0847     13.4263     15.4736    120.6871
   591.0000     31.6022     15.1531     15.7588     16.0670    116.1203
   591.2500     31.6938     14.5207     17.6046     18.3287    111.6572
   591.5000     31.7364     14.6092     18.7964     23.3926    102.8865
   591.7500     31.7515     15.1184     19.4095     32.3770     96.2834
   592.0000     31.7567     15.8585     19.6308     45.5645     86.7551
   592.2500     31.7577     16.6884     19.6575     61.4890     81.4062
   592.5000     31.7455     17.4937     19.6600     76.8627     75.6606
   592.7500     31.7064     18.1910     19.7688     87.8065     73.5544
   593.0000     31.6439     18.7439     20.0655     91.6273     73.1061
   593.2500     31.5914     19.1704     20.5785     87.9260     74.6126
   593.5000     31.5943     19.5254     21.2868     78.5495     79.3121
   593.7500     31.6775     19.8652     22.1318     66.6213     83.6128
   594.0000     31.8251     20.2175     23.0352     55.1514     90.4471
   594.2500     31.9784     20.5737     23.9194     45.9509     94.3735
   594.5000     32.0431     20.9013     24.7229     39.4363     98.4183
   594.7500     31.9191     21.1641     25.4030     35.1726     99.9237
   595.0000     31.5516     21.3386     25.9305     32.5062    101.1296
   595.2500     30.9660     21.4236     26.2830     30.8875    101.7268
   595.5000     30.2489     21.4433     26.4477     29.9537    102.8901
   595.7500     29.4911     21.4404     26.4329     29.5346    103.9368
   596.0000     28.7411     21.4618     26.2789     29.5917    105.6556
   596.2500     28.0042     21.5433     26.0520     30.0703    106.5989
   596.5000     27.2784     21.7032     25.8210     30.7614    107.2788
   596.7500     26.5881     21.9453     25.6371     31.3242    107.1882
   597.0000     25.9856     22.2628     25.5315     31.4711    106.4399
   597.2500     25.5266     22.6424     25.5270     31.1556    105.7319
   597.5000     25.2381     23.0678     25.6470     30.6073    104.7386
   597.7500     25.0942     23.5250     25.9135     30.2119    104.3056
   598.0000     25.0114     24.0053     26.3379     30.3727    104.1035
   598.2500     24.8727     24.5021     26.9150     31.4541    104.1616
   598.5000     24.5874     25.0043     27.6205     33.7424    104.1412
   598.7500     24.1608     25.4944     28.4102     37.2944    103.8551
   599.0000     23.7088     25.9505     29.2254     41.7236    103.0990
   599.2500     23.3802     26.3525     30.0048     46.1564    102.6348
   599.5000     23.2451     26.6863     30.6999     49.5120    102.3135
   599.7500     23.2565     26.9446     31.2822     50.9693    102.3624
   600.0000     23.3153     27.1269     31.7384     50.3116    102.7777
   600.2500     23.3563     27.2362     32.0633     47.9634    103.3129
   600.5000     23.3773     27.2714     32.2556     44.7579    104.5548
   600.7500     23.4157     27.2166     32.3131     41.5837    105.4568
   601.0000     23.5262     27.0355     32.2269     39.0592    105.8332
   601.2500     23.7686     26.6808     31.9801     37.4066    104.7894
   601.5000     24.1829     26.1193     31.5494     36.5950    101.5566
   601.7500     24.7487     25.3540     30.9030     36.5694     99.3610
   602.0000     25.3734     24.4242     29.9969     37.2766     97.8498
   602.2500     25.9410     23.3848     28.7880     38.4403     98.3260
   602.5000     26.3856     22.2880     27.2687     39.3601    100.7334
   602.7500     26.7220     21.1815     25.4996     39.0615    103.2423
   603.0000     27.0165     20.1117     23.6041     36.8250    108.5598
   603.2500     27.3346     19.1216     21.7252     32.7404    113.1386
   603.5000     27.7051     18.2411     19.9800     27.7810    120.5574
   603.7500     28.1149     17.4813     18.4388     23.2073    124.8766
   604.0000     28.5327     16.8366     17.1292     19.7629    129.0132
   604.2500     28.9422     16.2915     16.0515     17.4026    129.9569
   604.5000     29.3574     15.8279     15.1921     15.7109    129.2204
   604.7500     29.8040     15.4323     14.5327     14.4305    128.0011
   605.0000     30.2869     15.1000     14.0545     13.5830    126.3645
   605.2500     30.7762     14.8339     13.7393     13.2609    125.8978
   605.5000     31.2234     14.6419     13.5694     13.4401    126.1995
   605.7500     31.5882     14.5325     13.5276     13.9676    126.6753
   606.0000     31.8522     14.5141     13.5977     14.6630    126.9887
   606.2500     32.0180     14.5949     13.7681     15.4276    126.8098
   606.5000     32.0976     14.7831     14.0345     16.2833    126.5095
   606.7500     32.1003     15.0839     14.4009     17.3205    126.6251
   607.0000     32.0284     15.4972     14.8765     18.6091    126.9902
   607.2500     31.8834     16.0142     15.4686     20.1519    126.7253
   607.5000     31.6784     16.6172     16.1773     21.8919    124.6917
   607.7500     31.4406     17.2829     16.9939     23.7326    122.3579
   608.0000     31.2029     17.9886     17.9042     25.5562    118.3860
   608.2500     30.9897     18.7174     18.8926     27.2665    115.8922
   608.5000     30.8096     19.4610     19.9436     28.8529    112.6346
   608.7500     30.6574     20.2177     21.0415     30.4113    110.9217
   609.0000     30.5232     20.9877     22.1677     32.0688    109.4650
   609.2500     30.3985     21.7644     23.2981     33.8660    109.2481
   609.5000     30.2734     22.5268     24.4044     35.6995    109.3032
   609.7500     30.1327     23.2403     25.4591     37.3410    109.0340
   610.0000     29.9592     23.8703     26.4454     38.4777    107.9365
   610.2500     29.7397     24.4035     27.3627     38.8111    107.1187
   610.5000     29.4656     24.8567     28.2256     38.3187    106.4928
   610.7500     29.1317     25.2650     29.0549     37.5604    106.4236
   611.0000     28.7382     25.6534     29.8632     37.6498    105.7593
   611.2500     28.2950     26.0161     30.6424     39.6589    104.2370
   611.5000     27.8220     26.3179     31.3558     43.7413    100.3588
   611.7500     27.3443     26.5154     31.9414     48.6890     97.6979
   612.0000     26.8925     26.5814     32.3324     52.4966     95.9402
   612.2500     26.5016     26.5149     32.4848     53.6803     97.1141
   612.5000     26.2005     26.3326     32.3969     52.2412    101.9491
   612.7500     25.9977     26.0552     32.0992     49.3596    105.9897
   613.0000     25.8808     25.7026     31.6226     46.2201    111.0271
   613.2500     25.8266     25.2974     30.9748     43.2352    113.2114
   613.5000     25.8139     24.8688     30.1502     40.2675    115.4042
   613.7500     25.8324     24.4488     29.1661     37.2458    116.6570
   614.0000     25.8863     24.0637     28.0879     34.3855    118.1898
   614.2500     25.9892     23.7255     27.0145     31.9671    118.6488
   614.5000     26.1527     23.4285     26.0381     30.0972    118.6087
   614.7500     26.3776     23.1546     25.2119     28.6687    118.8135
   615.0000     26.6532     22.8844     24.5457     27.4428    120.6896
   615.2500     26.9641     22.6076     24.0234     26.1756    122.8588
   615.5000     27.2976     22.3239     23.6243     24.7675    125.7324
   615.7500     27.6440     22.0343     23.3366     23.3744    126.2380
   616.0000     27.9954     21.7309     23.1557     22.3935    124.0785
   616.2500     28.3553     21.3962     23.0720     22.3078    121.1110
   616.5000     28.7474     21.0161     23.0577     23.4463    116.0445
   616.7500     29.2013     20.5937     23.0641     25.7403    113.2483
   617.0000     29.7201     20.1542     23.0337     28.5957    110.7401
   617.2500     30.2694     19.7346     22.9199     31.0240    110.0881
   617.5000     30.7991     19.3691     22.7032     32.0648    110.2732
