~Version Information
VERS.                      2.0: CWLS Log ASCII Standard - VERSION 2.0
WRAP.                       NO: One line per depth step
~Well Information Block
STRT.FT               547.0000: 
STOP.FT              1685.5000: 
STEP.FT                 0.1000: 
NULL.                -999.2500: 
COMP.          Pioneer Natural Resources: COMPANY
WELL.           Pedri 42-33 Tr: WELL
FLD.           Purgatorie River: FIELD
LOC.           1933' FNL & 662' FEL: LOCATION
PROV.                 Colorado: PROVINCE
CNTY.               Las Animas: COUNTRY
SRVC.                Patterson: SERVICE COMPANY
DATE.          Mon Dec 19 13:36:44 2005: LOG DATE
UWI.                          : UNIQUE WELL ID
~Curve Information Block
DEPT.FT            0 000 00 00: Depth
DCAL.in                       : CDL Caliper
RHOB.g/cc                     : CDL Bulk Density
RHOC.g/cc                     : CDL Density Correction
DPOR.pu                       : CDL Density Porosity
GR.GAPI                       : Gamma Ray
~Parameter Information Block
~A  Depth       DCAL        RHOB        RHOC        DPOR         GR     
# ...
   849.4000      8.0809      2.1906      0.0023     27.8417    122.1312
   849.5000      8.0859      2.0895      0.0318     33.9681    123.3190
   849.6000      8.0859      1.9644     -0.0459     41.5541    124.7355
   849.7000      8.0859      1.8563     -0.0726     48.1050    127.5758
   849.8000      8.0657      1.7963      0.0318     51.7376    128.6407
   849.9000      8.0657      1.7720      0.0128     53.2140    124.5444
   850.0000      8.0676      1.7681     -0.0036     53.4484    119.2471
   850.1000      8.0676      1.7927     -0.0256     51.9555    116.8290
   850.2000      8.0676      1.8580      0.0533     47.9990    116.2795
   850.3000      8.1143      1.9613      0.1429     41.7422    115.7757
   850.4000      8.1143      2.0897      0.2393     33.9569    115.1209
   850.5000      8.1503      2.2296      0.3355     25.4805    115.7822
   850.6000      8.1503      2.3609      0.3698     17.5218    119.3115
   850.7000      8.1503      2.4608      0.3240     11.4685    123.4760
   850.8000      8.1908      2.5217      0.2290      7.7773    123.2037
   850.9000      8.1908      2.5512      0.1595      5.9862    119.6117
   851.0000      8.0653      2.5616      0.0938      5.3550    118.5820
   851.1000      8.0653      2.5702      0.0541      4.8387    120.4797
   851.2000      8.0653      2.5799      0.1173      4.2505    120.7977
   851.3000      8.0638      2.5780      0.0421      4.3630    117.7829
   851.4000      8.0638      2.5658      0.0805      5.1043    114.2321
   851.5000      8.0602      2.5533      0.0619      5.8610    112.3003
   851.6000      8.0602      2.5510      0.0250      5.9992    112.0879
   851.7000      8.0602      2.5685      0.0494      4.9365    111.9639
   851.8000      8.0376      2.6054      0.1036      2.7018    110.9606
   851.9000      8.0376      2.6460      0.2015      0.2453    110.8864
   852.0000      8.0411      2.6709      0.1550     -1.2670    111.0030
   852.1000      8.0411      2.6699      0.2000     -1.2067    109.2868
   852.2000      8.0411      2.6379      0.1520      0.7321    107.9516
   852.3000      8.0001      2.5886      0.0939      3.7234    107.7738
   852.4000      8.0001      2.5506      0.0218      6.0237    107.2421
   852.5000      7.9667      2.5397     -0.0129      6.6872    107.8161
   852.6000      7.9667      2.5472     -0.0055      6.2278    110.7988
   852.7000      7.9667      2.5562     -0.0061      5.6853    114.7593
   852.8000      7.9906      2.5583      0.0665      5.5588    116.1926
   852.9000      7.9906      2.5602      0.0035      5.4406    112.2695
   853.0000      8.0698      2.5784      0.0170      4.3423    106.5415
   853.1000      8.0698      2.6085      0.1207      2.5149    103.7561
   853.2000      8.0698      2.6348      0.0662      0.9190    103.3229
   853.3000      8.0532      2.6562      0.1414     -0.3736    103.6216
   853.4000      8.0532      2.6636      0.1686     -0.8212    105.3859
   853.5000      7.9924      2.6490      0.1182      0.0579    108.0335
   853.6000      7.9924      2.6264      0.1176      1.4295    108.9855
   853.7000      7.9924      2.6071      0.1335      2.5993    108.9686
   853.8000      7.9689      2.5977      0.0424      3.1689    111.1684
   853.9000      7.9689      2.6056      0.0800      2.6883    116.5242
   854.0000      7.9808      2.6270      0.1020      1.3926    121.3185
   854.1000      7.9808      2.6592      0.0684     -0.5586    121.9550
   854.2000      7.9808      2.6986      0.1141     -2.9484    118.3506
   854.3000      8.0211      2.7286      0.1319     -4.7641    112.1953
   854.4000      8.0211      2.7390      0.1247     -5.3936    106.3605
   854.5000      8.0372      2.7355      0.0904     -5.1791    103.7799
   854.6000      8.0372      2.7255      0.0657     -4.5728    105.6060
   854.7000      8.0372      2.7124      0.0506     -3.7788    109.1494
   854.8000      8.0172      2.6927      0.0042     -2.5869    109.4949
   854.9000      8.0172      2.6579      0.0382     -0.4768    106.7574
   855.0000      7.9782      2.6126      0.0019      2.2682    105.4485
   855.1000      7.9782      2.5758     -0.0258      4.4960    106.8988
   855.2000      7.9782      2.5584     -0.0057      5.5502    109.6254
   855.3000      8.0294      2.5619     -0.0147      5.3418    111.7320
   855.4000      8.0294      2.5805      0.0164      4.2116    111.7471
   855.5000      8.0752      2.5932      0.0861      3.4402    110.9998
   855.6000      8.0752      2.5849      0.0945      3.9444    112.2512
   855.7000      8.0752      2.5709      0.0297      4.7928    115.6331
   855.8000      8.0674      2.5703      0.0760      4.8314    117.8517
   855.9000      8.0674      2.5825      0.0631      4.0901    116.7345
   856.0000      8.0260      2.6031      0.0978      2.8448    115.5016
   856.1000      8.0260      2.6196      0.1263      1.8450    116.4958
   856.2000      8.0260      2.6154      0.0810      2.0986    117.3032
   856.3000      8.0099      2.5954      0.0682      3.3070    116.6635
   856.4000      8.0099      2.5820     -0.0033      4.1218    116.5668
   856.5000      8.0261      2.5879      0.0126      3.7643    117.4816
   856.6000      8.0261      2.6005      0.0575      3.0004    116.8941
   856.7000      8.0261      2.6026      0.0287      2.8732    115.6140
   856.8000      8.0360      2.5945      0.0273      3.3664    116.5446
   856.9000      8.0360      2.5863      0.0117      3.8632    116.9280
   857.0000      8.0542      2.5882      0.0054      3.7474    115.3622
   857.1000      8.0542      2.6015      0.0180      2.9423    113.5292
   857.2000      8.0542      2.6177      0.0441      1.9564    110.3157
   857.3000      8.0582      2.6363     -0.0009      0.8278    105.5648
   857.4000      8.0582      2.6587      0.0750     -0.5270    101.7326
   857.5000      8.0613      2.6718      0.0445     -1.3192     99.9560
   857.6000      8.0613      2.6676      0.0273     -1.0694     98.7338
   857.7000      8.0613      2.6559      0.0064     -0.3556     97.7118
   857.8000      8.0607      2.6516      0.0185     -0.0967     97.8713
   857.9000      8.0607      2.6603      0.1429     -0.6234     97.8760
   858.0000      8.0314      2.6746      0.1199     -1.4895     95.3601
   858.1000      8.0314      2.6846      0.1713     -2.0953     91.8522
   858.2000      8.0314      2.6827      0.1197     -1.9842     90.4744
   858.3000      7.9339      2.6730      0.0743     -1.3923     91.2828
   858.4000      7.9339      2.6641      0.0874     -0.8544     92.7763
   858.5000      7.9675      2.6600      0.0409     -0.6087     93.7515
   858.6000      7.9675      2.6587      0.1063     -0.5245     93.7605
   858.7000      7.9675      2.6511      0.1053     -0.0664     93.0936
   858.8000      8.0140      2.6295      0.0693      1.2438     91.8158
   858.9000      8.0140      2.5953      0.0647      3.3133     90.0697
   859.0000      7.9892      2.5672      0.0249      5.0206     88.1041
   859.1000      7.9892      2.5692      0.0105      4.8983     86.2151
   859.2000      7.9892      2.6012      0.0511      2.9601     84.2111
   859.3000      7.9801      2.6327      0.1140      1.0459     82.0339
   859.4000      7.9801      2.6445      0.0852      0.3322     80.7995
   859.5000      7.9609      2.6461      0.1231      0.2343     81.0426
   859.6000      7.9609      2.6451      0.1397      0.2988     82.2401
   859.7000      7.9609      2.6382      0.1203      0.7137     84.0560
   859.8000      7.9480      2.6242      0.1122      1.5638     86.8709
   859.9000      7.9480      2.6043      0.0853      2.7714     90.1469
   860.0000      7.9563      2.5788      0.0722      4.3167     92.4451
   860.1000      7.9563      2.5505      0.0239      6.0326     93.9593
   860.2000      7.9563      2.5200      0.0412      7.8797     95.1949
   860.3000      7.9614      2.4673      0.0540     11.0748     96.1677
   860.4000      7.9614      2.3727      0.0345     16.8057     97.0039
   860.5000      8.0192      2.2530      0.0301     24.0582     97.9806
