~Version Information
VERS.                      2.0: CWLS Log ASCII Standard - VERSION 2.0
WRAP.                       NO: One line per depth step
~Well Information Block
STRT.FT               742.7000: 
STOP.FT              1614.5000: 
STEP.FT                 0.1000: 
NULL.                -999.2500: 
COMP.          Pioneer Natural Resources: COMPANY
WELL.           Kermit 32-7 Tr: WELL
FLD.           Purgatoire River: FIELD
LOC.           2009' FNL & 2196' FEL: LOCATION
PROV.                 Colorado: PROVINCE
CNTY.               Las Animas: COUNTRY
SRVC.                Patterson: SERVICE COMPANY
DATE.          Mon Jan 16 13:19:56 2006: LOG DATE
UWI.           05 071 08664 00: UNIQUE WELL ID
~Curve Information Block
DEPT.FT            0 000 00 00: Depth
DCAL.in                       : CDL Caliper
RHOB.g/cc                     : CDL Bulk Density
RHOC.g/cc                     : CDL Density Correction
DPOR.pu                       : CDL Density Porosity
GR.GAPI                       : Gamma Ray
~Parameter Information Block
~A  Depth       DCAL        RHOB        RHOC        DPOR         GR     
# ...
  1168.3000      7.9113      2.6123      0.0554      2.2844     73.5460
  1168.4000      7.9113      2.5818      0.0147      4.1352     80.8679
  1168.5000      7.9038      2.5766      0.0226      4.4475     83.5027
  1168.6000      7.9038      2.5979      0.1010      3.1600     79.5239
  1168.7000      7.9038      2.6303      0.0422      1.1928     74.0891
  1168.8000      7.8881      2.6618      0.1104     -0.7162     71.5915
  1168.9000      7.8881      2.6704      0.1151     -1.2384     71.0267
  1169.0000      7.8872      2.6418      0.0721      0.4993     70.6152
  1169.1000      7.8872      2.5931     -0.0100      3.4497     72.7267
  1169.2000      7.8872      2.5523      0.0173      5.9215     74.4024
  1169.3000      7.8913      2.5389     -0.0454      6.7345     70.6626
  1169.4000      7.8913      2.5540      0.0275      5.8182     66.1229
  1169.5000      7.9062      2.5734      0.0339      4.6399     64.7667
  1169.6000      7.9062      2.5784      0.0463      4.3381     64.8850
  1169.7000      7.9062      2.5769      0.0199      4.4333     65.1244
  1169.8000      7.9172      2.5849      0.0771      3.9434     64.7504
  1169.9000      7.9172      2.6066      0.0395      2.6287     64.0280
  1170.0000      7.9187      2.6229      0.1340      1.6446     62.7436
  1170.1000      7.9187      2.6097      0.0545      2.4442     61.6758
  1170.2000      7.9187      2.5757      0.0190      4.5035     62.3084
  1170.3000      7.9237      2.5412      0.0376      6.5945     62.3352
  1170.4000      7.9237      2.5148     -0.0145      8.1951     60.3358
  1170.5000      7.9199      2.5104     -0.0210      8.4580     58.6495
  1170.6000      7.9199      2.5297      0.0467      7.2895     57.9489
  1170.7000      7.9199      2.5442      0.0952      6.4135     58.7733
  1170.8000      7.8987      2.5343      0.0809      7.0134     62.9976
  1170.9000      7.8987      2.5128      0.0612      8.3162     67.2037
  1171.0000      7.8920      2.5017     -0.0050      8.9860     66.1238
  1171.1000      7.8920      2.5144      0.0304      8.2195     61.9724
  1171.2000      7.8920      2.5440      0.0850      6.4241     58.1060
  1171.3000      7.9001      2.5679      0.1071      4.9728     54.4084
  1171.4000      7.9001      2.5723      0.0828      4.7082     50.8626
  1171.5000      7.9169      2.5632      0.0438      5.2592     48.9941
  1171.6000      7.9169      2.5499      0.0485      6.0653     51.1316
  1171.7000      7.9169      2.5371      0.0831      6.8436     56.3449
  1171.8000      7.9495      2.5255      0.0508      7.5467     60.4998
  1171.9000      7.9495      2.5116      0.0282      8.3905     61.7444
  1172.0000      7.9671      2.5019      0.0149      8.9764     62.7158
  1172.1000      7.9671      2.5077      0.0298      8.6243     64.7014
  1172.2000      7.9671      2.5219      0.0071      7.7630     64.0270
  1172.3000      7.9469      2.5308      0.0238      7.2240     58.6822
  1172.4000      7.9469      2.5356     -0.0179      6.9346     52.9406
  1172.5000      7.9522      2.5469      0.0245      6.2456     51.2793
  1172.6000      7.9522      2.5687      0.0507      4.9268     51.9167
  1172.7000      7.9522      2.5963      0.0797      3.2555     52.2483
  1172.8000      7.9591      2.6196      0.0645      1.8427     51.8205
  1172.9000      7.9591      2.6328      0.0449      1.0434     52.3969
  1173.0000      7.9553      2.6411      0.0782      0.5373     55.3771
  1173.1000      7.9553      2.6521      0.0585     -0.1264     56.4370
  1173.2000      7.9553      2.6634      0.1111     -0.8135     54.3168
  1173.3000      7.9554      2.6636      0.0792     -0.8215     53.3825
  1173.4000      7.9554      2.6482      0.0292      0.1117     53.3321
  1173.5000      7.9269      2.6268     -0.0059      1.4088     51.0585
  1173.6000      7.9269      2.6096      0.0520      2.4473     48.3231
  1173.7000      7.9269      2.5969      0.0574      3.2178     48.1767
  1173.8000      7.9261      2.5905      0.0218      3.6089     50.0360
  1173.9000      7.9261      2.5958      0.0491      3.2831     52.3778
  1174.0000      7.8970      2.6080      0.0272      2.5447     52.9382
  1174.1000      7.8970      2.6196      0.0410      1.8454     50.5412
  1174.2000      7.8970      2.6359      0.0389      0.8524     48.7542
  1174.3000      7.8808      2.6593      0.0898     -0.5615     49.9712
  1174.4000      7.8808      2.6752      0.1114     -1.5303     52.4047
  1174.5000      7.8850      2.6725      0.0892     -1.3611     53.3386
  1174.6000      7.8850      2.6496      0.1441      0.0238     51.3151
  1174.7000      7.8850      2.6153      0.0455      2.1056     49.1276
  1174.8000      7.9043      2.5897      0.0380      3.6564     48.7907
  1174.9000      7.9043      2.5779      0.0509      4.3687     49.2391
  1175.0000      7.8917      2.5661      0.0181      5.0836     49.3608
  1175.1000      7.8917      2.5533      0.0216      5.8614     48.0146
  1175.2000      7.8917      2.5550     -0.0065      5.7594     46.0652
  1175.3000      7.9096      2.5733      0.0599      4.6473     46.8443
  1175.4000      7.9096      2.5914      0.1218      3.5513     49.6406
  1175.5000      7.9592      2.5898      0.1448      3.6510     49.3656
  1175.6000      7.9592      2.5653      0.0638      5.1319     46.5963
  1175.7000      7.9592      2.5439      0.0481      6.4324     47.7050
  1175.8000      7.9379      2.5500      0.0766      6.0601     52.2491
  1175.9000      7.9379      2.5748      0.0911      4.5588     55.2417
  1176.0000      7.9177      2.5906      0.0950      3.5986     59.1075
  1176.1000      7.9177      2.5833      0.0901      4.0435     66.1621
  1176.2000      7.9177      2.5634      0.0803      5.2490     73.3322
  1176.3000      7.8821      2.5530      0.0163      5.8779     83.2296
  1176.4000      7.8821      2.5610      0.0568      5.3941     98.1231
  1176.5000      7.8873      2.5746      0.0704      4.5675    109.1185
  1176.6000      7.8873      2.5823      0.0937      4.1048    109.8725
  1176.7000      7.8873      2.5843      0.0535      3.9820    104.5627
  1176.8000      7.9078      2.5862      0.0273      3.8655     98.0973
  1176.9000      7.9078      2.5890      0.0552      3.6952     93.9073
  1177.0000      7.9203      2.5903      0.0569      3.6175     93.8695
  1177.1000      7.9203      2.5956      0.0561      3.2976     96.3249
  1177.2000      7.9203      2.6061      0.1102      2.6616     99.0312
  1177.3000      7.9275      2.6096      0.0955      2.4463    102.3658
  1177.4000      7.9275      2.6032      0.0925      2.8382    107.3545
  1177.5000      7.9295      2.5993      0.0280      3.0741    111.5126
  1177.6000      7.9295      2.5976      0.0942      3.1767    110.2290
  1177.7000      7.9295      2.5858      0.0424      3.8908    103.3130
  1177.8000      7.9288      2.5720      0.1100      4.7290     95.9408
  1177.9000      7.9288      2.5771      0.0670      4.4160     91.2056
  1178.0000      7.9243      2.6075      0.0518      2.5768     89.2684
  1178.1000      7.9243      2.6457      0.0979      0.2612     91.5274
  1178.2000      7.9243      2.6650      0.1639     -0.9091     96.1544
  1178.3000      7.9186      2.6520      0.1136     -0.1217     98.0800
  1178.4000      7.9186      2.6166      0.0889      2.0231     95.6359
  1178.5000      7.9250      2.5718      0.0867      4.7402     90.8200
  1178.6000      7.9250      2.5294      0.0066      7.3078     86.7817
  1178.7000      7.9250      2.5104      0.0335      8.4585     85.8913
  1178.8000      7.9053      2.5208      0.0512      7.8322     88.0231
  1178.9000      7.9053      2.5423      0.0261      6.5298     93.3180
  1179.0000      7.9007      2.5608      0.0264      5.4061     99.8461
  1179.1000      7.9007      2.5813      0.0667      4.1618    103.3573
  1179.2000      7.9007      2.6118      0.1344      2.3138    106.1019
  1179.3000      7.9038      2.6409      0.1588      0.5486    111.7826
  1179.4000      7.9038      2.6505      0.1508     -0.0322    116.0857
