~Version Information
VERS.                      2.0: CWLS Log ASCII Standard - VERSION 2.0
WRAP.                       NO: One line per depth step
~Well Information Block
STRT.FT                -6.5000: 
STOP.FT              1773.5000: 
STEP.FT                 0.2500: 
NULL.                -999.2500: 
COMP.          Pioneer Natural Resources: COMPANY
WELL.           Lynch 43-30 Tr: WELL
FLD.           Purgatorie River: FIELD
LOC.           1431' FSL & 296' FEL--: LOCATION
PROV.                       CO: PROVINCE
CNTY.               Las Animas: COUNTRY
SRVC.          Patterson Wireline: SERVICE COMPANY
DATE.          Tue Aug 02 09:28:21 2005: LOG DATE
UWI.           05 071 08447 00: UNIQUE WELL ID
~Curve Information Block
DEPT.FT            0 000 00 00: Depth
CCL.                          : Casing Collar Locator
TT3.usec                      : CBL 3' Travel Time
AMP3.mV                       : CBL 3' Amplitude
GR.GAPI                       : Gamma Ray
~Parameter Information Block
MINAMPL.mV              1.0000: Minimum Amplitude
~A  Depth       CCL         TT3         AMP3         GR     
# ...
   228.0000      0.0000    445.1259     28.6703     51.4494
   228.2500      0.0000    402.7792     28.6524     52.8662
   228.5000      0.0000    398.6519     28.5802     54.4913
   228.7500      0.0000    416.1609     28.4889     55.1346
   229.0000      0.0000    429.6549     28.4173     54.2786
   229.2500      0.0000    424.2976     28.3784     52.3618
   229.5000      0.0000    406.1186     28.3338     50.4641
   229.7500      0.0000    393.5686     28.1774     49.4492
   230.0000      0.0000    403.3796     27.7396     49.1928
   230.2500      0.0000    445.4949     26.8433     48.9233
   230.5000      0.0000    523.3311     25.4190     48.3551
   230.7500      0.0000    630.6664     23.6100     47.9853
   231.0000      0.0000    749.7283     21.7651     48.3020
   231.2500      0.0000    857.9680     20.2711     49.3185
   231.5000      0.0000    938.5420     19.3331     50.7468
   231.7500      0.0000    984.2157     18.8903     52.0588
   232.0000      0.0000    993.5261     18.7257     52.5409
   232.2500      2.0000    967.7175     18.6359     51.8895
   232.5000     -2.0000    913.0184     18.5346     50.8274
   232.7500      0.0000    841.2611     18.4978     50.7582
   233.0000      0.0000    764.2499     18.7569     52.4751
   233.2500      0.0000    689.7771     19.5688     55.2371
   233.5000      0.0000    625.1579     20.9921     57.3978
   233.7500      0.0000    578.1023     22.7948     57.9583
   234.0000      0.0000    548.7247     24.6010     57.1342
   234.2500      0.0000    526.4984     26.0906     55.5186
   234.5000      0.0000    502.9170     27.0860     53.4887
   234.7500      0.0000    485.9567     27.5645     51.7249
   235.0000      0.0000    496.1577     27.6339     51.5943
   235.2500      0.0000    545.4543     27.4553     54.3962
   235.5000      0.0000    621.8676     27.1683     60.3178
   235.7500      0.0000    697.6970     26.8726     68.3051
   236.0000      0.0000    751.0003     26.6421     76.6889
   236.2500      0.0000    777.1260     26.5273     83.9175
   236.5000      0.0000    782.6100     26.5435     89.2257
   236.7500      0.0000    772.7697     26.6722     92.7923
   237.0000      0.0000    745.5421     26.8815     94.9778
   237.2500      0.0000    695.1353     27.1437     95.5390
   237.5000      0.0000    621.6105     27.4312     94.0022
   237.7500      0.0000    537.2014     27.7067     90.6387
   238.0000      0.0000    462.3085     27.9327     86.4901
   238.2500      0.0000    415.5326     28.0906     82.5367
   238.5000      0.0000    406.8771     28.1891     79.2307
   238.7500      0.0000    434.9130     28.2620     76.5549
   239.0000      0.0000    484.4975     28.3566     74.1624
   239.2500      0.0000    529.2634     28.5094     71.6845
   239.5000      0.0000    543.6650     28.7175     69.1026
   239.7500      0.0000    517.7147     28.9428     66.7833
   240.0000      0.0000    462.2986     29.1515     65.2574
   240.2500      0.0000    400.6458     29.3416     65.0957
   240.5000      0.0000    352.8867     29.5247     66.7586
   240.7500      0.0000    326.1735     29.6946     70.1575
   241.0000      0.0000    316.3932     29.8249     74.3971
   241.2500      0.0000    315.5586     29.8939     78.2198
   241.5000      0.0000    316.9651     29.9047     80.7546
   241.7500      0.0000    316.8571     29.8851     81.7215
   242.0000      0.0000    314.4417     29.8745     81.1055
   242.2500      0.0000    311.0000     29.9049     79.0171
   242.5000      0.0000    308.1960     29.9850     75.8150
   242.7500      0.0000    307.3598     30.0958     72.0743
   243.0000      0.0000    310.5973     30.2030     68.4326
   243.2500      0.0000    323.1311     30.2709     65.4490
   243.5000      0.0000    354.1360     30.2638     63.3679
   243.7500      0.0000    412.4392     30.1504     62.1263
   244.0000      0.0000    497.4351     29.9265     61.8979
   244.2500      0.0000    593.8141     29.6305     63.2891
   244.5000      0.0000    678.8926     29.3124     66.4667
   244.7500      0.0000    737.3856     28.9889     70.4046
   245.0000      0.0000    768.7343     28.6492     73.5979
   245.2500      0.0000    781.8813     28.2997     75.4464
   245.5000      0.0000    786.2753     27.9748     76.6351
   245.7500      0.0000    787.5485     27.6930     78.2443
   246.0000      0.0000    787.9756     27.4262     80.7369
   246.2500      0.0000    788.1971     27.1273     83.7048
   246.5000      0.0000    788.2935     26.7753     86.2999
   246.7500      0.0000    788.1900     26.3909     87.7536
   247.0000      0.0000    787.7278     26.0203     87.7307
   247.2500      0.0000    786.3228     25.7045     86.4978
   247.5000      0.0000    781.8220     25.4606     84.7530
   247.7500      0.0000    768.6813     25.2900     83.1471
   248.0000      0.0000    737.4716     25.1967     81.8530
   248.2500      0.0000    679.2231     25.1811     80.5208
   248.5000      0.0000    594.4425     25.2163     78.6425
   248.7500      0.0000    498.3353     25.2533     75.9506
   249.0000      0.0000    413.4882     25.2596     72.5170
   249.2500      0.0000    355.1353     25.2422     68.6132
   249.5000      0.0000    323.8386     25.2297     64.4974
   249.7500      0.0000    310.6895     25.2448     60.2518
   250.0000      0.0000    306.2770     25.3000     55.8010
   250.2500      0.0000    304.9945     25.4133     51.1297
   250.5000      0.0000    304.5704     25.6165     46.5774
   250.7500      0.0000    304.3299     25.9402     42.9467
   251.0000      0.0000    304.1150     26.3799     41.2448
   251.2500      0.0000    303.8947     26.8765     42.0333
   251.5000      0.0000    303.7014     27.3364     44.7588
   251.7500      0.0000    303.5823     27.6772     47.7577
   252.0000      0.0000    303.5738     27.8571     49.2832
   252.2500      0.0000    303.6853     27.8754     48.7605
   252.5000      0.0000    303.8928     27.7669     47.0379
   252.7500      0.0000    304.1361     27.6005     45.5216
   253.0000      0.0000    304.3431     27.4586     45.2187
   253.2500      0.0000    304.4752     27.3943     46.3100
   253.5000      0.0000    304.5464     27.4096     48.1584
   253.7500      0.0000    304.5869     27.4807     49.6859
   254.0000      0.0000    304.5992     27.5950     50.1193
   254.2500      0.0000    304.5688     27.7491     49.7040
   254.5000      0.0000    304.5070     27.9234     49.8466
   254.7500      0.0000    304.4581     28.0754     52.3539
   255.0000      0.0000    304.4592     28.1609     58.0701
   255.2500      0.0000    304.5134     28.1499     65.9472
   255.5000      0.0000    304.6038     28.0290     73.5354
   255.7500      0.0000    304.7190     27.8085     78.5747
   256.0000      0.0000    304.8956     27.5276     80.1671
   256.2500      0.0000    305.3039     27.2405     78.5875
   256.5000      0.0000    306.7618     26.9903     74.5539
   256.7500      0.0000    312.0728     26.7938     69.0276
   257.0000      0.0000    328.1044     26.6401     63.3692
   257.2500      0.0000    366.2090     26.4997     59.0809
   257.5000      0.0000    436.7645     26.3478     57.0758
   257.7500      0.0000    538.2479     26.1882     57.1258
   258.0000      0.0000    651.4335     26.0522     58.0382
   258.2500      0.0000    748.6973     25.9705     58.4423
   258.5000      0.0000    811.1800     25.9486     57.4997
   258.7500      0.0000    835.9820     25.9678     55.0259
   259.0000      0.0000    829.8909     26.0047     51.3834
   259.2500      0.0000    802.3266     26.0501     47.5513
   259.5000      0.0000    763.9988     26.1190     44.9294
   259.7500      0.0000    724.2375     26.2452     44.4647
   260.0000      0.0000    685.4508     26.4664     45.8780
   260.2500      0.0000    644.6312     26.8069     47.8919
   260.5000      0.0000    601.6794     27.2610     49.1913
   260.7500      0.0000    559.8970     27.7881     49.2274
   261.0000      0.0000    518.7224     28.3242     48.4131
   261.2500      0.0000    474.7516     28.8058     47.7005
