~Version Information
VERS.                      2.0: CWLS Log ASCII Standard - VERSION 2.0
WRAP.                       NO: One line per depth step
~Well Information Block
STRT.FT               239.2000: 
STOP.FT              1618.0000: 
STEP.FT                 0.1000: 
NULL.                -999.2500: 
COMP.          Pioneer Natural Resources: COMPANY
WELL.          Daytona 31-14 Tr: WELL
FLD.           Purgatoire River: FIELD
LOC.           683' FNL & 1943' FEL: LOCATION
CNTY.               Las Animas: COUNTY
SRVC.                         : SERVICE COMPANY
DATE.          Fri Jan 27 14:32:28 2006: LOG DATE
UWI.           05 071 08681 00: UNIQUE WELL ID
STAT.                 Colorado: STATE
~Curve Information Block
DEPT.FT            0 000 00 00: Depth
DCAL.in                       : CDL Caliper
RHOB.g/cc                     : CDL Bulk Density
RHOC.g/cc                     : CDL Density Correction
DPOR.pu                       : CDL Density Porosity
GR.GAPI                       : Gamma Ray
~Parameter Information Block
~A  Depth       DCAL        RHOB        RHOC        DPOR         GR     
# ...
  1426.4000      7.8916      2.4136      0.0742     14.3253     55.9360
  1426.5000      7.8923      2.4195      0.0369     13.9711     54.2846
  1426.6000      7.8923      2.4360      0.0871     12.9686     54.4580
  1426.7000      7.8923      2.4476      0.1187     12.2675     57.7010
  1426.8000      7.8907      2.4421      0.0746     12.5986     61.1894
  1426.9000      7.8907      2.4316      0.0846     13.2351     61.9155
  1427.0000      7.8885      2.4316      0.0650     13.2360     63.9177
  1427.1000      7.8885      2.4442      0.0703     12.4708     69.0745
  1427.2000      7.8885      2.4585      0.1016     11.6050     72.2384
  1427.3000      7.8915      2.4613      0.0782     11.4370     71.0217
  1427.4000      7.8915      2.4504      0.0797     12.0966     68.6651
  1427.5000      7.8911      2.4313      0.0694     13.2569     68.7713
  1427.6000      7.8911      2.4101      0.0480     14.5408     70.8306
  1427.7000      7.8911      2.3942      0.0594     15.5015     70.9944
  1427.8000      7.8916      2.3906      0.0233     15.7223     68.9470
  1427.9000      7.8916      2.4009      0.0388     15.0968     68.2571
  1428.0000      7.8892      2.4157      0.0620     14.1992     69.6757
  1428.1000      7.8892      2.4247      0.0806     13.6556     70.9406
  1428.2000      7.8892      2.4307      0.0633     13.2888     70.4100
  1428.3000      7.8910      2.4385      0.1048     12.8177     68.3973
  1428.4000      7.8910      2.4453      0.0885     12.4074     65.3794
  1428.5000      7.8937      2.4520      0.0815     12.0022     61.5562
  1428.6000      7.8937      2.4575      0.1096     11.6665     60.1811
  1428.7000      7.8937      2.4565      0.0878     11.7265     62.5403
  1428.8000      7.8913      2.4536      0.0667     11.9059     63.5877
  1428.9000      7.8913      2.4583      0.0847     11.6157     59.8900
  1429.0000      7.8915      2.4701      0.0725     10.9017     56.5666
  1429.1000      7.8915      2.4761      0.0976     10.5398     58.1740
  1429.2000      7.8915      2.4651      0.0803     11.2057     60.6090
  1429.3000      7.8909      2.4464      0.0520     12.3394     59.5861
  1429.4000      7.8909      2.4387      0.0406     12.8031     57.1979
  1429.5000      7.8926      2.4472      0.0599     12.2930     56.8026
  1429.6000      7.8926      2.4582      0.0811     11.6255     57.3427
  1429.7000      7.8926      2.4634      0.0385     11.3084     57.5905
  1429.8000      7.8928      2.4751      0.0606     10.6004     58.5216
  1429.9000      7.8928      2.4981      0.0859      9.2038     59.8447
  1430.0000      7.8920      2.5182      0.1282      7.9899     60.4387
  1430.1000      7.8920      2.5256      0.1151      7.5393     61.1301
  1430.2000      7.8920      2.5223      0.1210      7.7391     62.4567
  1430.3000      7.8911      2.5071      0.0988      8.6591     62.3439
  1430.4000      7.8911      2.4811      0.0602     10.2350     61.3619
  1430.5000      7.8914      2.4575      0.0390     11.6643     63.1015
  1430.6000      7.8914      2.4484      0.0441     12.2191     64.6595
  1430.7000      7.8914      2.4496      0.0974     12.1464     61.1486
  1430.8000      7.8928      2.4525      0.0597     11.9672     56.8815
  1430.9000      7.8928      2.4609      0.0639     11.4607     56.9642
  1431.0000      7.8935      2.4746      0.1046     10.6274     58.8000
  1431.1000      7.8935      2.4828      0.0894     10.1326     59.9736
  1431.2000      7.8935      2.4836      0.0754     10.0823     61.3910
  1431.3000      7.8932      2.4857      0.0761      9.9566     63.9569
  1431.4000      7.8932      2.4854      0.1178      9.9739     67.4070
  1431.5000      7.8925      2.4725      0.0643     10.7562     71.8103
  1431.6000      7.8925      2.4587      0.0435     11.5931     77.7309
  1431.7000      7.8925      2.4588      0.0392     11.5875     82.4175
  1431.8000      7.8899      2.4583      0.0707     11.6200     80.9005
  1431.9000      7.8899      2.4377      0.0544     12.8670     73.6594
  1432.0000      7.8905      2.4122      0.0052     14.4136     68.6862
  1432.1000      7.8905      2.4096      0.0171     14.5679     72.3907
  1432.2000      7.8905      2.4228      0.0851     13.7675     79.7635
  1432.3000      7.8854      2.4248      0.0860     13.6487     82.5544
  1432.4000      7.8854      2.4145      0.0433     14.2746     79.0854
  1432.5000      7.8925      2.4077      0.0722     14.6852     71.2830
  1432.6000      7.8925      2.4110      0.0575     14.4825     63.0398
  1432.7000      7.8925      2.4151      0.1201     14.2348     57.8442
  1432.8000      7.8928      2.4089      0.0533     14.6130     56.3267
  1432.9000      7.8928      2.4008      0.0816     15.1032     57.1921
  1433.0000      7.8892      2.3988      0.0702     15.2241     57.2287
  1433.1000      7.8892      2.3981      0.0681     15.2660     56.4467
  1433.2000      7.8892      2.3995      0.0541     15.1790     57.3362
  1433.3000      7.8899      2.4093      0.0743     14.5878     58.5664
  1433.4000      7.8899      2.4238      0.0810     13.7102     58.5930
  1433.5000      7.8921      2.4334      0.0847     13.1288     58.2712
  1433.6000      7.8921      2.4305      0.1106     13.3032     58.4944
  1433.7000      7.8921      2.4158      0.0795     14.1968     59.2188
  1433.8000      7.8921      2.4061      0.0222     14.7836     59.1214
  1433.9000      7.8921      2.4113      0.0852     14.4682     59.0130
  1434.0000      7.8924      2.4198      0.0805     13.9543     60.1085
  1434.1000      7.8924      2.4259      0.0886     13.5795     60.4382
  1434.2000      7.8924      2.4383      0.0830     12.8297     58.6424
  1434.3000      7.8934      2.4593      0.1143     11.5555     56.1241
  1434.4000      7.8934      2.4769      0.1032     10.4896     53.3930
  1434.5000      7.8996      2.4835      0.0959     10.0930     50.7990
  1434.6000      7.8996      2.4822      0.0907     10.1726     50.8003
  1434.7000      7.8996      2.4732      0.1077     10.7180     53.2249
  1434.8000      7.8935      2.4566      0.0672     11.7229     55.0987
  1434.9000      7.8935      2.4377      0.0950     12.8654     56.3339
  1435.0000      7.8886      2.4183      0.0823     14.0454     59.5073
  1435.1000      7.8886      2.3983      0.0405     15.2560     63.4419
  1435.2000      7.8886      2.3868      0.0400     15.9503     64.4048
  1435.3000      7.8926      2.3967      0.0246     15.3494     63.3951
  1435.4000      7.8926      2.4195      0.0600     13.9720     63.5196
  1435.5000      7.8931      2.4292      0.0861     13.3804     66.9283
  1435.6000      7.8931      2.4252      0.0647     13.6216     73.4136
  1435.7000      7.8931      2.4287      0.0530     13.4100     79.0018
  1435.8000      7.8923      2.4471      0.0646     12.2950     81.4915
  1435.9000      7.8923      2.4680      0.0988     11.0319     81.9313
  1436.0000      7.8916      2.4792      0.0824     10.3502     82.4350
  1436.1000      7.8916      2.4801      0.0915     10.2976     84.5644
  1436.2000      7.8916      2.4723      0.0926     10.7679     87.7901
  1436.3000      7.8844      2.4599      0.0907     11.5226     90.6176
  1436.4000      7.8844      2.4525      0.0548     11.9680     94.4261
  1436.5000      7.8913      2.4567      0.0702     11.7171    101.4467
  1436.6000      7.8913      2.4630      0.0821     11.3359    109.8615
  1436.7000      7.8913      2.4621      0.0678     11.3874    114.4110
  1436.8000      7.8942      2.4644      0.0515     11.2509    110.9956
  1436.9000      7.8942      2.4798      0.0773     10.3126    102.3703
  1437.0000      7.8922      2.4974      0.1009      9.2493     97.1200
  1437.1000      7.8922      2.5037      0.0535      8.8694     98.6171
  1437.2000      7.8922      2.5033      0.0590      8.8904    103.7804
  1437.3000      7.8928      2.5089      0.0414      8.5504    108.8463
  1437.4000      7.8928      2.5225      0.0787      7.7262    109.3332
  1437.5000      7.8913      2.5326      0.0926      7.1174    106.9401
