~Version Information
VERS.                      2.0: CWLS Log ASCII Standard - VERSION 2.0
WRAP.                       NO: One line per depth step
~Well Information Block
STRT.FT               520.0000: 
STOP.FT              2555.2500: 
STEP.FT                 0.2500: 
NULL.                -999.2500: 
COMP.          Pioneer Natural Resources: COMPANY
WELL.          Horsefeathers 24-34: WELL
FLD.           Purgatoire River: FIELD
LOC.           183' FSL & 1570' FWL--: LOCATION
CNTY.               Las Animas: COUNTY
SRVC.                Patterson: SERVICE COMPANY
DATE.          Sun Feb 05 17:35:59 2006: LOG DATE
UWI.           05 071 08675 00: UNIQUE WELL ID
STAT.                 Colorado: STATE
~Curve Information Block
DEPT.FT            0 000 00 00: Depth
SN.Ohm-m                      : IEL Short Normal
SP.mV                         : IEL Spontaneous Potential
DIR.Ohm-m                     : IEL Induction Resistivity
GR.GAPI                       : Gamma Ray
~Parameter Information Block
NPORSHIFT.              0.0000: NPORSHIFT
~A  Depth        SN          SP         DIR          GR     
# ...
   788.0000   2000.0000   1975.0000     21.1717     97.7479
   788.2500   2000.0000   1975.0000     21.0960     98.6241
   788.5000   2000.0000   1975.0000     20.9668    100.6002
   788.7500   2000.0000   1975.0000     20.7879    101.8147
   789.0000   2000.0000   1975.0000     20.5714    102.9297
   789.2500   2000.0000   1975.0000     20.3386    103.5289
   789.5000   2000.0000   1975.0000     20.1132    105.1369
   789.7500   2000.0000   1975.0000     19.9121    106.6401
   790.0000   2000.0000   1975.0000     19.7421    108.0920
   790.2500   2000.0000   1975.0000     19.6030    107.6165
   790.5000   2000.0000   1975.0000     19.4933    104.6825
   790.7500   2000.0000   1975.0000     19.4143    102.0967
   791.0000   2000.0000   1975.0000     19.3684     98.8405
   791.2500   2000.0000   1975.0000     19.3537     97.4652
   791.5000   2000.0000   1975.0000     19.3578     96.3604
   791.7500   2000.0000   1975.0000     19.3597     95.9469
   792.0000   2000.0000   1975.0000     19.3376     95.5590
   792.2500   2000.0000   1975.0000     19.2819     95.6051
   792.5000   2000.0000   1975.0000     19.2012     96.5818
   792.7500   2000.0000   1975.0000     19.1167     97.8463
   793.0000   2000.0000   1975.0000     19.0469     99.9195
   793.2500   2000.0000   1975.0000     18.9953    100.8345
   793.5000   2000.0000   1975.0000     18.9484    101.1767
   793.7500   2000.0000   1975.0000     18.8866    101.0377
   794.0000   2000.0000   1975.0000     18.7985    100.9398
   794.2500   2000.0000   1975.0000     18.6874    101.0003
   794.5000   2000.0000   1975.0000     18.5660    100.9887
   794.7500   2000.0000   1975.0000     18.4468    100.8720
   795.0000   2000.0000   1975.0000     18.3358    100.8199
   795.2500   2000.0000   1975.0000     18.2334    100.9973
   795.5000   2000.0000   1975.0000     18.1372    101.4901
   795.7500   2000.0000   1975.0000     18.0447    101.8846
   796.0000   2000.0000   1975.0000     17.9533    102.6063
   796.2500   2000.0000   1975.0000     17.8609    103.1760
   796.5000   2000.0000   1975.0000     17.7664    104.0001
   796.7500   2000.0000   1975.0000     17.6722    104.5049
   797.0000   2000.0000   1975.0000     17.5868    105.3897
   797.2500   2000.0000   1975.0000     17.5232    106.0962
   797.5000   2000.0000   1975.0000     17.4931    106.9905
   797.7500   2000.0000   1975.0000     17.4992    107.2585
   798.0000   2000.0000   1975.0000     17.5311    107.1939
   798.2500   2000.0000   1975.0000     17.5684    107.0118
   798.5000   2000.0000   1975.0000     17.5877    106.6533
   798.7500   2000.0000   1975.0000     17.5698    106.2697
   799.0000   2000.0000   1975.0000     17.5058    105.4453
   799.2500   2000.0000   1975.0000     17.3998    104.9645
   799.5000   2000.0000   1975.0000     17.2686    105.0117
   799.7500   2000.0000   1975.0000     17.1358    105.8551
   800.0000   2000.0000   1975.0000     17.0226    108.4066
   800.2500   2000.0000   1975.0000     16.9400    110.7123
   800.5000   2000.0000   1975.0000     16.8873    114.1669
   800.7500   2000.0000   1975.0000     16.8570    115.7724
   801.0000   2000.0000   1975.0000     16.8409    116.2569
   801.2500   2000.0000   1975.0000     16.8320    115.4156
   801.5000   2000.0000   1975.0000     16.8187    113.9127
   801.7500   2000.0000   1975.0000     16.7805    113.7688
   802.0000   2000.0000   1975.0000     16.6911    115.1640
   802.2500   2000.0000   1975.0000     16.5281    116.3961
   802.5000   2000.0000   1975.0000     16.2815    117.2902
   802.7500   2000.0000   1975.0000     15.9544    117.2511
   803.0000   2000.0000   1975.0000     15.5583    117.6341
   803.2500   2000.0000   1975.0000     15.1077    119.0470
   803.5000   2000.0000   1975.0000     14.6186    123.1110
   803.7500   2000.0000   1975.0000     14.1079    126.3844
   804.0000   2000.0000   1975.0000     13.5944    130.2849
   804.2500   2000.0000   1975.0000     13.0991    131.3266
   804.5000   2000.0000   1975.0000     12.6445    130.0674
   804.7500   2000.0000   1975.0000     12.2515    127.8551
   805.0000   2000.0000   1975.0000     11.9366    124.3043
   805.2500   2000.0000   1975.0000     11.7105    122.6815
   805.5000   2000.0000   1975.0000     11.5795    121.5727
   805.7500   2000.0000   1975.0000     11.5458    121.3088
   806.0000   2000.0000   1975.0000     11.6066    121.2216
   806.2500   2000.0000   1975.0000     11.7534    121.3954
   806.5000   2000.0000   1975.0000     11.9707    121.6140
   806.7500   2000.0000   1975.0000     12.2374    121.0882
   807.0000   2000.0000   1975.0000     12.5293    118.3708
   807.2500   2000.0000   1975.0000     12.8227    115.3451
   807.5000   2000.0000   1975.0000     13.1000    110.1563
   807.7500   2000.0000   1975.0000     13.3542    107.1897
   808.0000   2000.0000   1975.0000     13.5885    104.7151
   808.2500   2000.0000   1975.0000     13.8116    104.6076
   808.5000   2000.0000   1975.0000     14.0303    106.1875
   808.7500   2000.0000   1975.0000     14.2464    107.7047
   809.0000   2000.0000   1975.0000     14.4588    109.5052
   809.2500   2000.0000   1975.0000     14.6701    109.9977
   809.5000   2000.0000   1975.0000     14.8894    109.6306
   809.7500   2000.0000   1975.0000     15.1288    108.8851
   810.0000   2000.0000   1975.0000     15.3971    107.5596
   810.2500   2000.0000   1975.0000     15.6930    106.7547
   810.5000   2000.0000   1975.0000     16.0028    105.7359
   810.7500   2000.0000   1975.0000     16.3015    105.1466
   811.0000   2000.0000   1975.0000     16.5581    104.3803
   811.2500   2000.0000   1975.0000     16.7450    103.9144
   811.5000   2000.0000   1975.0000     16.8483    103.2286
   811.7500   2000.0000   1975.0000     16.8739    102.9413
   812.0000   2000.0000   1975.0000     16.8463    103.3670
   812.2500   2000.0000   1975.0000     16.8024    104.4016
   812.5000   2000.0000   1975.0000     16.7840    106.6317
   812.7500   2000.0000   1975.0000     16.8264    108.0630
   813.0000   2000.0000   1975.0000     16.9469    109.2918
   813.2500   2000.0000   1975.0000     17.1362    109.0294
   813.5000   2000.0000   1975.0000     17.3630    106.3295
   813.7500   2000.0000   1975.0000     17.5930    102.9743
   814.0000   2000.0000   1975.0000     17.8113     96.6345
   814.2500   2000.0000   1975.0000     18.0297     92.5588
   814.5000   2000.0000   1975.0000     18.2677     88.3897
   814.7500   2000.0000   1975.0000     18.5213     87.5284
   815.0000   2000.0000   1975.0000     18.7408     89.0532
   815.2500   2000.0000   1975.0000     18.8327     91.2466
   815.5000   2000.0000   1975.0000     18.6917     94.7345
   815.7500   2000.0000   1975.0000     18.2521     96.6978
   816.0000   2000.0000   1975.0000     17.5318     99.4100
   816.2500   2000.0000   1975.0000     16.6334    101.5692
   816.5000   2000.0000   1975.0000     15.7012    105.8540
   816.7500   2000.0000   1975.0000     14.8630    109.2697
   817.0000   2000.0000   1975.0000     14.1956    114.2816
   817.2500   2000.0000   1975.0000     13.7200    116.8138
   817.5000   2000.0000   1975.0000     13.4176    118.4609
   817.7500   2000.0000   1975.0000     13.2520    117.9307
   818.0000   2000.0000   1975.0000     13.1884    114.6723
   818.2500   2000.0000   1975.0000     13.2054    110.9556
   818.5000   2000.0000   1975.0000     13.2972    103.9560
   818.7500   2000.0000   1975.0000     13.4670     99.5254
   819.0000   2000.0000   1975.0000     13.7174     95.7672
   819.2500   2000.0000   1975.0000     14.0397     96.1326
   819.5000   2000.0000   1975.0000     14.4064    100.5675
   819.7500   2000.0000   1975.0000     14.7675    104.7795
   820.0000   2000.0000   1975.0000     15.0555    110.1786
   820.2500   2000.0000   1975.0000     15.2035    112.0724
   820.5000   2000.0000   1975.0000     15.1720    112.3564
   820.7500   2000.0000   1975.0000     14.9679    111.9021
   821.0000   2000.0000   1975.0000     14.6396    112.6544
   821.2500   2000.0000   1975.0000     14.2540    114.8894
