~Version Information
VERS.                      2.0: CWLS Log ASCII Standard - VERSION 2.0
WRAP.                       NO: One line per depth step
~Well Information Block
STRT.FT                 0.0000: 
STOP.FT              1426.7500: 
STEP.FT                 0.2500: 
NULL.                -999.2500: 
COMP.          Pioneer Natural Resources: COMPANY
WELL.            Bordeaux 42-2: WELL
FLD.           Purgatorie River: FIELD
LOC.           1963' FNL & 1148' FEL: LOCATION
PROV.                 Colorado: PROVINCE
CNTY.               Las Animas: COUNTRY
SRVC.                Patterson: SERVICE COMPANY
DATE.          Fri Dec 02 09:28:20 2005: LOG DATE
UWI.                          : UNIQUE WELL ID
~Curve Information Block
DEPT.FT            0 000 00 00: Depth
CCL.                          : Casing Collar Locator
TT3.usec                      : CBL 3' Travel Time
AMP3.mV                       : CBL 3' Amplitude
GR.GAPI                       : Gamma Ray
~Parameter Information Block
~A  Depth       CCL         TT3         AMP3         GR     
# ...
   201.0000      0.0000    407.3123     13.3675     57.1544
   201.2500      0.0000    438.9945     12.4772     55.2136
   201.5000      0.0000    463.0855     11.3184     53.7409
   201.7500      0.0000    492.3818     10.4131     52.7783
   202.0000      0.0000    517.5737      9.9633     52.3062
   202.2500      0.0000    513.7824      9.9594     52.1094
   202.5000     -2.0000    492.4137     10.3490     52.0406
   202.7500      0.0000    481.1550     11.0207     52.3996
   203.0000      0.0000    469.9730     11.8249     53.7634
   203.2500      0.0000    437.2586     12.7609     56.2974
   203.5000      0.0000    395.6660     13.9720     59.3502
   203.7500      0.0000    366.4251     15.3240     61.8802
   204.0000      0.0000    349.3037     16.4043     63.2678
   204.2500      0.0000    337.6071     17.0790     63.6376
   204.5000      0.0000    331.3316     17.4458     63.4043
   204.7500      0.0000    331.1998     17.5083     62.6313
   205.0000      0.0000    334.0392     17.3553     61.0217
   205.2500      0.0000    336.2636     17.2584     58.5134
   205.5000      0.0000    337.0380     17.3954     55.5480
   205.7500      0.0000    337.0905     17.6885     52.7106
   206.0000      0.0000    336.9687     17.9476     50.4391
   206.2500      0.0000    336.7702     18.0861     49.0923
   206.5000      0.0000    336.5221     18.1818     48.9580
   206.7500      0.0000    336.3566     18.3677     50.1253
   207.0000      0.0000    336.3148     18.6986     52.4840
   207.2500      0.0000    336.2346     19.1081     55.7687
   207.5000      0.0000    335.9848     19.4580     59.4809
   207.7500      0.0000    335.6461     19.6416     62.9099
   208.0000      0.0000    335.3627     19.6655     65.4978
   208.2500      0.0000    335.1803     19.6160     67.3002
   208.5000      0.0000    335.0696     19.5440     68.8601
   208.7500      0.0000    334.9843     19.4366     70.4349
   209.0000      0.0000    334.8869     19.2968     71.6141
   209.2500      0.0000    334.7756     19.1585     71.9535
   209.5000      0.0000    334.6764     19.0226     71.6615
   209.7500      0.0000    334.6010     18.8859     71.3267
   210.0000      0.0000    334.5309     18.7907     71.1846
   210.2500      0.0000    334.4383     18.7472     70.8797
   210.5000      0.0000    334.3107     18.6737     69.8653
   210.7500      0.0000    334.1600     18.4937     68.2245
   211.0000      0.0000    334.0168     18.2404     67.3503
   211.2500      0.0000    333.9178     18.0141     69.1819
   211.5000      0.0000    333.8751     17.8914     73.9897
   211.7500      0.0000    333.8529     17.8927     79.3121
   212.0000      0.0000    333.8149     17.9730     81.9590
   212.2500      0.0000    333.7755     18.0334     81.0185
   212.5000      0.0000    333.7776     17.9954     78.3485
   212.7500      0.0000    333.8539     17.8741     76.2359
   213.0000      0.0000    334.0093     17.7492     75.2480
   213.2500      0.0000    334.2187     17.6764     74.5432
   213.5000      0.0000    334.4417     17.6563     73.5485
   213.7500      0.0000    334.6488     17.6508     72.6680
   214.0000      0.0000    334.8206     17.6075     72.5896
   214.2500      0.0000    334.9185     17.4959     73.4859
   214.5000      0.0000    334.9038     17.3219     74.9762
   214.7500      0.0000    334.7994     17.1115     76.5993
   215.0000      0.0000    334.6822     16.8998     78.2258
   215.2500      0.0000    334.6205     16.7104     79.9822
   215.5000      0.0000    334.6376     16.5235     81.7131
   215.7500      0.0000    334.7224     16.3021     82.6777
   216.0000      0.0000    334.8634     16.0628     82.0472
   216.2500      0.0000    335.0573     15.8780     79.6727
   216.5000      0.0000    335.2753     15.7881     76.2427
   216.7500      0.0000    335.4486     15.7369     72.7221
   217.0000      0.0000    335.5219     15.6378     69.6927
   217.2500      0.0000    335.5000     15.4865     67.2349
   217.5000      0.0000    335.4281     15.3467     65.3651
   217.7500      0.0000    335.3500     15.2533     64.4312
   218.0000      0.0000    335.3156     15.1907     64.9076
   218.2500      0.0000    335.3944     15.1312     66.7619
   218.5000      0.0000    335.5982     15.0483     69.2660
   218.7500      0.0000    335.8377     14.9206     71.6192
   219.0000      0.0000    336.0484     14.7573     73.4801
   219.2500      0.0000    336.2703     14.6020     74.5489
   219.5000      0.0000    336.5558     14.5033     73.9922
   219.7500      0.0000    336.8907     14.4946     70.9756
   220.0000      0.0000    337.2292     14.5811     65.7725
   220.2500      0.0000    337.5468     14.7050     59.8920
   220.5000      0.0000    337.8286     14.7542     55.0994
   220.7500      0.0000    338.0550     14.6674     52.6276
   221.0000      0.0000    338.2230     14.5044     53.1563
   221.2500      0.0000    338.3475     14.3555     56.9088
   221.5000      0.0000    338.4355     14.2205     63.3575
   221.7500      0.0000    338.5375     14.0602     70.9841
   222.0000      0.0000    338.9458     13.8953     77.6616
   222.2500      0.0000    340.6290     13.7415     81.5791
   222.5000      0.0000    346.0219     13.5242     82.1326
   222.7500      0.0000    358.4421     13.1710     80.0895
   223.0000      0.0000    377.2764     12.7432     76.8352
   223.2500      0.0000    397.6829     12.3687     73.4128
   223.5000      0.0000    423.8435     12.0870     70.2322
   223.7500      0.0000    465.6842     11.8660     67.4751
   224.0000      0.0000    512.6617     11.6969     65.4395
   224.2500      0.0000    546.1236     11.5583     64.2252
   224.5000      0.0000    566.6630     11.3573     63.3751
   224.7500      0.0000    568.7051     11.0735     62.4844
   225.0000      0.0000    531.2324     10.8762     62.0415
   225.2500      0.0000    460.7433     10.9023     62.9311
   225.5000      0.0000    394.4808     11.0541     65.1441
   225.7500      0.0000    356.1534     11.1676     67.6882
   226.0000      0.0000    341.3261     11.2166     69.7513
   226.2500      0.0000    337.1638     11.2641     71.3172
   226.5000      0.0000    336.1137     11.3259     72.6658
   226.7500      0.0000    335.7398     11.3592     73.7843
   227.0000      0.0000    335.5844     11.3464     74.3235
   227.2500      0.0000    335.5947     11.3069     73.8251
   227.5000      0.0000    335.7123     11.2443     71.9845
   227.7500      0.0000    335.8519     11.1551     68.9444
   228.0000      0.0000    335.9376     11.0522     65.3998
   228.2500      0.0000    335.9450     10.9372     62.4169
   228.5000      0.0000    335.9476     10.8214     61.2395
   228.7500      0.0000    336.0284     10.7732     62.9480
   229.0000      0.0000    336.1441     10.8324     67.6047
   229.2500      0.0000    336.1994     10.9148     73.5416
   229.5000      0.0000    336.3491     10.9072     77.9910
   229.7500      0.0000    337.8554     10.7992     78.8825
   230.0000      0.0000    345.3256     10.6532     76.2055
   230.2500      0.0000    368.0920     10.5046     71.7993
   230.5000      0.0000    411.7153     10.3514     67.9440
   230.7500      0.0000    461.8729     10.2246     65.9999
   231.0000      0.0000    494.8781     10.1974     66.1073
   231.2500      0.0000    516.2187     10.2718     67.7707
   231.5000      0.0000    554.7798     10.3287     70.2119
   231.7500      0.0000    613.4438     10.2549     72.1214
   232.0000      0.0000    667.3846     10.0646     71.7926
   232.2500      0.0000    701.1607      9.8515     68.2010
   232.5000      0.0000    717.2730      9.6761     61.9953
   232.7500      0.0000    723.2524      9.5318     55.2546
   233.0000      0.0000    724.4639      9.3862     50.2408
   233.2500      0.0000    722.7405      9.2362     48.2167
   233.5000      0.0000    717.5698      9.1392     49.0740
   233.7500      0.0000    710.2724      9.1749     51.9276
   234.0000      0.0000    706.5750      9.3580     56.1218
   234.2500      0.0000    710.4097      9.6137     61.4781
