~Version Information
VERS.                      2.0: CWLS Log ASCII Standard - VERSION 2.0
WRAP.                       NO: One line per depth step
~Well Information Block
STRT.FT                 0.0000: 
STOP.FT              1507.7500: 
STEP.FT                 0.2500: 
NULL.                -999.2500: 
COMP.          Pioneer Natural Resources: COMPANY
WELL.          Pioneer 34-27 Tr: WELL
FLD.           Purgatorie River: FIELD
LOC.           243' FSL & 1593' FEL: LOCATION
STAT.                 Colorado: State
CNTY.               Las Animas: COUNTY
CTRY. USA : Country
SECT. 27 : Section
TOWN. 32S : Township
RANG. 67W : Range
SRVC.                Patterson: SERVICE COMPANY
DATE.          Wed Oct 12 09:30:25 2005: LOG DATE
API.                          : UNIQUE WELL ID
~Curve Information Block
DEPT.FT            0 000 00 00: Depth
GR.GAPI                       : Gamma Ray
CCL.                          : Casing Collar Locator
TT3.usec                      : CBL 3' Travel Time
AMP3.mV                       : CBL 3' Amplitude
~Parameter Information Block
~A  Depth        GR         CCL         TT3         AMP3    
# ...
  1072.0000     61.8493      0.0000    686.0384     15.5315
  1072.2500     61.2763      0.0000    685.8333     15.5578
  1072.5000     60.4829      0.0000    685.6295     15.5656
  1072.7500     59.2931      0.0000    685.5756     15.5656
  1073.0000     57.8106      0.0000    685.7036     15.5486
  1073.2500     56.5014      0.0000    685.8889     15.5000
  1073.5000     55.5063      0.0000    686.0257     15.4041
  1073.7500     54.4236      0.0000    686.1380     15.2717
  1074.0000     53.0926      0.0000    686.2905     15.1589
  1074.2500     52.0838      0.0000    686.4714     15.1136
  1074.5000     52.0866      0.0000    686.5804     15.1284
  1074.7500     53.2268      0.0000    686.5291     15.1765
  1075.0000     55.1584      0.0000    686.3400     15.2411
  1075.2500     57.3530      0.0000    686.1075     15.2895
  1075.5000     59.1371      0.0000    685.9031     15.2800
  1075.7500     60.0533      0.0000    685.7579     15.2093
  1076.0000     60.4994      0.0000    685.6982     15.1217
  1076.2500     61.5359      0.0000    685.7506     15.0597
  1076.5000     63.8376      0.0000    685.9086     15.0198
  1076.7500     67.1320      0.0000    686.1234     14.9649
  1077.0000     70.5995      0.0000    686.3478     14.8721
  1077.2500     73.3832      0.0000    686.5649     14.7541
  1077.5000     74.7385      0.0000    686.7744     14.6318
  1077.7500     74.2611      0.0000    686.9980     14.5066
  1078.0000     72.2889      0.0000    687.2487     14.3700
  1078.2500     69.7825      0.0000    687.4371     14.2395
  1078.5000     67.5713      0.0000    687.4360     14.1621
  1078.7500     65.9539      0.0000    687.3141     14.1733
  1079.0000     65.1422      0.0000    687.2758     14.2674
  1079.2500     65.6324      0.0000    687.2936     14.3989
  1079.5000     67.7663      0.0000    687.1270     14.5012
  1079.7500     71.2423      0.0000    686.7226     14.5366
  1080.0000     75.3663      0.0000    686.2639     14.5225
  1080.2500     79.5798      0.0000    685.8716     14.4734
  1080.5000     83.5790      0.0000    685.5342     14.3680
  1080.7500     87.1979      0.0000    685.3068     14.2338
  1081.0000     90.3791      0.0000    685.3123     14.1663
  1081.2500     93.0842      0.0000    685.4818     14.2213
  1081.5000     95.1030      0.0000    685.5550     14.3952
  1081.7500     96.0886      0.0000    685.4190     14.6681
  1082.0000     95.9413      0.0000    685.1663     14.9687
  1082.2500     95.2692      0.0000    684.8914     15.1867
  1082.5000     95.4376      0.0000    684.7150     15.2940
  1082.7500     97.7365      0.0000    684.7902     15.3731
  1083.0000    102.0402      0.0000    684.4799     15.4963
  1083.2500    106.4316      0.0000    679.5640     15.6476
  1083.5000    108.6872      0.0000    659.8427     15.7838
  1083.7500    108.3215      0.0000    619.0905     15.9248
  1084.0000    106.7967      0.0000    573.6377     16.1603
  1084.2500    105.5485      0.0000    551.1955     16.5962
  1084.5000    104.2664      0.0000    558.8543     17.2894
  1084.7500    101.4958      0.0000    587.7877     18.1540
  1085.0000     96.6368      0.0000    629.3615     18.9837
  1085.2500     90.9346      0.0000    666.9452     19.6440
  1085.5000     86.5735      0.0000    683.4022     20.1322
  1085.7500     85.0078      0.0000    680.5767     20.4691
  1086.0000     86.0142      0.0000    667.7377     20.6488
  1086.2500     88.0139      0.0000    636.9207     20.6739
  1086.5000     89.2396      0.0000    573.9510     20.5751
  1086.7500     88.8123      0.0000    490.8958     20.3909
  1087.0000     87.0848      0.0000    421.8259     20.1537
  1087.2500     85.1514      0.0000    386.2655     19.9031
  1087.5000     83.9448      0.0000    377.0461     19.6586
  1087.7500     83.6968      0.0000    378.0872     19.4001
  1088.0000     84.1540      0.0000    378.9968     19.1329
  1088.2500     85.0283      0.0000    376.1118     18.8889
  1088.5000     86.0461      0.0000    369.5137     18.6203
  1088.7500     86.7625      0.0000    363.6400     18.1469
  1089.0000     86.6771      0.0000    369.3392     17.2302
  1089.2500     85.6433      0.0000    402.1756     15.8099
  1089.5000     84.0228      0.0000    472.1897     14.2323
  1089.7500     82.2022      0.0000    566.6227     12.9458
  1090.0000     79.9521      0.0000    646.1511     11.9606
  1090.2500     76.4810      0.0000    667.6323     11.1388
  1090.5000     71.2684      0.0000    617.5310     10.7008
  1090.7500     64.8699      0.0000    530.0704     10.7856
  1091.0000     58.8722      0.0000    461.0439     11.0898
  1091.2500     54.9375      0.0000    434.6526     11.3159
  1091.5000     53.7999      2.0000    434.5240     11.4308
  1091.7500     54.9784      0.0000    445.7280     11.4925
  1092.0000     57.1366      0.0000    473.9744     11.7318
  1092.2500     58.7566      0.0000    516.9407     12.6117
  1092.5000     58.9706      0.0000    554.1979     14.1172
  1092.7500     57.9649      0.0000    572.3963     15.3417
  1093.0000     56.4790      0.0000    564.0350     15.6144
  1093.2500     55.0401      0.0000    522.2235     15.3410
  1093.5000     53.8170      0.0000    467.2516     15.2099
  1093.7500     52.8828      0.0000    440.6654     15.4321
  1094.0000     52.3002      0.0000    465.5043     15.8050
  1094.2500     51.9971      0.0000    530.1924     16.0557
  1094.5000     51.7465      0.0000    599.3868     16.0944
  1094.7500     51.3052      0.0000    639.4434     15.9861
  1095.0000     50.6009      0.0000    640.7913     15.8212
  1095.2500     49.8210      0.0000    614.8439     15.6702
  1095.5000     49.3014      0.0000    573.0662     15.5601
  1095.7500     49.2139      0.0000    518.5007     15.4644
  1096.0000     49.3399      0.0000    459.7179     15.3603
  1096.2500     49.2600      0.0000    414.4664     15.2775
  1096.5000     48.8322      0.0000    391.2454     15.2442
  1096.7500     48.4047      0.0000    383.4448     15.2295
  1097.0000     48.5173      0.0000    381.8036     15.1866
  1097.2500     49.5156      0.0000    381.7253     15.1166
  1097.5000     51.4324      0.0000    381.8596     15.0571
  1097.7500     53.9702      0.0000    381.9046     15.0332
  1098.0000     56.4475      0.0000    381.8847     15.0410
  1098.2500     57.9584      0.0000    381.9597     15.0610
  1098.5000     57.9238      0.0000    382.1850     15.0815
  1098.7500     56.6255      0.0000    382.3768     15.1174
  1099.0000     55.0634      0.0000    382.3249     15.1965
  1099.2500     54.0815      0.0000    382.0715     15.3198
  1099.5000     53.6718      0.0000    381.8313     15.4461
  1099.7500     53.2749      0.0000    381.7154     15.5301
  1100.0000     52.6723      0.0000    381.6715     15.5588
  1100.2500     52.2917      0.0000    381.6235     15.5477
  1100.5000     52.6208      0.0000    381.5483     15.5106
  1100.7500     53.5894      0.0000    381.4378     15.4428
  1101.0000     54.6884      0.0000    381.2693     15.3402
  1101.2500     55.5474      0.0000    381.0272     15.2158
  1101.5000     56.1889      0.0000    380.7601     15.0891
  1101.7500     56.7575      0.0000    380.6977     14.9679
  1102.0000     57.2083      0.0000    381.8332     14.8345
  1102.2500     57.3948      0.0000    387.9741     14.6639
  1102.5000     57.4618      0.0000    407.9205     14.4699
  1102.7500     58.0351      0.0000    449.6304     14.3270
  1103.0000     59.8820      0.0000    504.4084     14.3279
  1103.2500     63.2750      0.0000    547.9090     14.5118
  1103.5000     67.6207      0.0000    572.3597     14.8549
  1103.7500     71.7211      0.0000    598.2604     15.3222
  1104.0000     74.5901      0.0000    638.7399     15.8710
  1104.2500     76.2547      0.0000    678.2098     16.4321
  1104.5000     77.8872      0.0000    692.7723     16.9578
  1104.7500     81.1317      0.0000    676.5051     17.4594
  1105.0000     86.9687      0.0000    647.6786     17.9414
  1105.2500     94.7219      0.0000    623.8011     18.3467
