~Version Information
VERS.                      2.0: CWLS Log ASCII Standard - VERSION 2.0
WRAP.                       NO: One line per depth step
~Well Information Block
STRT.FT                 0.0000: 
STOP.FT               878.7500: 
STEP.FT                 0.2500: 
NULL.                -999.2500: 
COMP.          Pioneer Natural Resources: COMPANY
WELL.          Screamin 12-29 Tr: WELL
FLD.           Purgatoire River: FIELD
LOC.           1979' FNL & 532' FWL--: LOCATION
CNTY.               Las Animas: COUNTY
SRVC.                Patterson: SERVICE COMPANY
DATE.          Thu Apr 13 22:21:38 2006: LOG DATE
UWI.           05 071 08660 00: UNIQUE WELL ID
STAT.                 Colorado: STATE
~Curve Information Block
DEPT.FT            0 000 00 00: Depth
GR.GAPI                       : Gamma Ray
CCL.                          : Casing Collar Locator
TT3.usec                      : CBL 3' Travel Time
AMP3.mV                       : CBL 3' Amplitude
~Parameter Information Block
~A  Depth        GR         CCL         TT3         AMP3    
# ...
   167.5000     88.3432      0.0000    831.4955      6.7935
   167.7500     89.5142      0.0000    834.0411      6.7618
   168.0000     91.5137      0.0000    826.1843      6.6960
   168.2500     92.6429      0.0000    815.2204      6.6200
   168.5000     93.3874      0.0000    794.4267      6.4425
   168.7500     93.1086      0.0000    779.7714      6.2891
   169.0000     92.1063      0.0000    759.8752      6.0472
   169.2500     91.7445      0.0000    749.7649      5.9127
   169.5000     92.7009      0.0000    741.1006      5.8032
   169.7500     94.6799      0.0000    739.1223      5.8070
   170.0000     99.8561      0.0000    737.6294      5.9243
   170.2500    104.3684      0.0000    734.2020      6.0600
   170.5000    110.4662      0.0000    721.4106      6.3047
   170.7500    112.4877      0.0000    708.0675      6.4678
   171.0000    111.5649      0.0000    686.1725      6.6789
   171.2500    109.1878      0.0000    675.1936      6.7886
   171.5000    105.0438      0.0000    671.8087      6.8985
   171.7500    102.4129      0.0000    679.9813      6.9287
   172.0000     98.1313      0.0000    703.4398      6.9010
   172.2500     94.4608      0.0000    720.9689      6.8391
   172.5000     87.3311      0.0000    742.2556      6.7111
   172.7500     81.8689      0.0000    752.1183      6.6236
   173.0000     73.8854      0.0000    762.8958      6.5180
   173.2500     69.4246      0.0000    768.5125      6.4752
   173.5000     64.9226      0.0000    773.9166      6.4564
   173.7500     63.8158      0.0000    774.7543      6.4660
   174.0000     65.7152      0.0000    772.7503      6.4815
   174.2500     69.4629      0.0000    771.2786      6.4715
   174.5000     77.5527      0.0000    772.4611      6.4063
   174.7500     82.9230      0.0000    775.7818      6.3342
   175.0000     87.7346      0.0000    780.9827      6.2114
   175.2500     87.8458      0.0000    781.5813      6.1353
   175.5000     84.7028      0.0000    774.9449      6.0345
   175.7500     82.5162      0.0000    765.4581      5.9665
   176.0000     82.5223      0.0000    745.8324      5.8438
   176.2500     85.2293      0.0000    731.1750      5.7411
   176.5000     91.2552      0.0000    711.8546      5.5514
   176.7500     94.7447      0.0000    704.6558      5.4076
   177.0000     97.6266      0.0000    708.0088      5.1989
   177.2500     98.3857      0.0000    719.9664      5.0875
   177.5000     99.2195      0.0000    746.1960      4.9756
   177.7500     99.9243      2.0000    763.2400      4.9255
   178.0000    100.7292      1.1499    779.1501      4.8560
   178.2500    100.6307      0.0000    781.0779      4.8103
   178.5000     99.2098      0.0000    773.9526      4.7903
   178.7500     97.6257      0.0000    767.2288      4.8602
   179.0000     95.0194      0.0000    761.9305      5.1454
   179.2500     93.5222      0.0000    762.9160      5.4286
   179.5000     92.2337      0.0000    767.4175      5.8612
   179.7500     92.4236      0.0000    769.5009      6.0824
   180.0000     94.8695      0.0000    769.6599      6.2697
   180.2500     97.8135      0.0000    768.7158      6.3129
   180.5000    102.7411      0.0000    767.5220      6.3060
   180.7500    105.2274      0.0000    767.1988      6.2865
   181.0000    106.8584      0.0000    767.1556      6.2882
   181.2500    106.8928      0.0000    767.1850      6.3293
   181.5000    106.4266      0.0000    767.1038      6.4467
   181.7500    106.2155      0.0000    766.9418      6.5372
   182.0000    106.8697      0.0000    766.5663      6.6301
   182.2500    108.5436      0.0000    766.2697      6.6340
   182.5000    113.0573      0.0000    765.8244      6.5433
   182.7500    116.4442      0.0000    765.5563      6.4399
   183.0000    119.3009      0.0000    765.2430      6.2771
   183.2500    118.5453      0.0000    765.1279      6.1875
   183.5000    113.9140      0.0000    765.1379      6.0919
   183.7500    110.0629      0.0000    765.2457      6.0487
   184.0000    105.8436      0.0000    765.4243      6.0024
   184.2500    104.6200      0.0000    765.4615      5.9798
   184.5000    104.1902      0.0000    765.3299      5.9544
   184.7500    103.7659      0.0000    765.1600      5.9401
   185.0000    101.7673      0.0000    764.9231      5.9180
   185.2500     99.7633      0.0000    764.8423      5.9055
   185.5000     97.1657      0.0000    764.8392      5.9019
   185.7500     96.4447      0.0000    764.8372      5.9142
   186.0000     97.4262      0.0000    764.5958      5.9545
   186.2500     99.3376      0.0000    764.1704      5.9931
   186.5000    102.9682      0.0000    763.2874      6.0564
   186.7500    104.9709      0.0000    762.8410      6.0896
   187.0000    106.6938      0.0000    762.8542      6.1063
   187.2500    107.4671      0.0000    763.2964      6.0938
   187.5000    109.1093      0.0000    764.1445      6.0487
   187.7500    110.3442      0.0000    764.5943      6.0044
   188.0000    110.8318      0.0000    765.0392      5.9208
   188.2500    109.7473      0.0000    765.2740      5.8650
   188.5000    107.5524      0.0000    765.6417      5.8141
   188.7500    107.3445      0.0000    765.8846      5.8144
   189.0000    109.7191      0.0000    766.1632      5.8562
   189.2500    111.6899      0.0000    766.2440      5.8932
   189.5000    112.0273      0.0000    766.1222      5.9372
   189.7500    109.8967      0.0000    765.8024      5.9619
   190.0000    104.6490      0.0000    764.8205      6.0303
   190.2500    100.9877      0.0000    763.8054      6.1232
   190.5000     96.4695      0.0000    761.8374      6.3502
   190.7500     94.5238      0.0000    760.2263      6.5468
   191.0000     93.9510      0.0000    757.0248      6.8675
   191.2500     95.2908      0.0000    754.2107      7.0747
   191.5000     98.7841      0.0000    749.6889      7.3450
   191.7500    100.7274      0.0000    747.5632      7.4892
   192.0000    100.7739      0.0000    747.5425      7.6557
   192.2500     98.6058      0.0000    749.8820      7.7439
   192.5000     94.2116      0.0000    755.5214      7.8553
   192.7500     92.5492      0.0000    759.3715      7.9147
   193.0000     93.9394      0.0000    763.5942      7.9715
   193.2500     96.9476      0.0000    765.1179      7.9839
   193.5000    101.9242      0.0000    765.9017      7.9683
   193.7500    104.0216      0.0000    765.8054      7.9430
   194.0000    104.0229      0.0000    765.2653      7.8962
   194.2500    102.1937      0.0000    764.8656      7.8616
   194.5000     98.6391      0.0000    764.4433      7.8009
   194.7500     96.8819      0.0000    764.3244      7.7551
   195.0000     95.4502      0.0000    764.3557      7.6879
   195.2500     94.5309      0.0000    764.4725      7.6485
   195.5000     92.3208      0.0000    764.7029      7.5955
   195.7500     90.8747      0.0000    764.8149      7.5599
   196.0000     90.9279      0.0000    764.7186      7.5036
   196.2500     93.2604      0.0000    764.3878      7.4676
   196.5000     99.4883      0.0000    763.6295      7.4268
   196.7500    104.0528      0.0000    763.2245      7.4129
   197.0000    108.8647      0.0000    763.1933      7.4102
   197.2500    109.7940      0.0000    763.5403      7.4153
   197.5000    108.0558      0.0000    764.1974      7.4282
   197.7500    105.9220      0.0000    764.5081      7.4449
   198.0000    103.5342      0.0000    764.7161      7.4956
   198.2500    103.3482      0.0000    764.7570      7.5493
   198.5000    105.3232      0.0000    764.7769      7.6508
   198.7500    107.4499      0.0000    764.7687      7.7229
   199.0000    109.9405      0.0000    764.6873      7.8204
   199.2500    110.2431      0.0000    764.5583      7.8688
   199.5000    108.4086      0.0000    764.1603      7.9098
   199.7500    106.1205      0.0000    763.6542      7.9208
   200.0000    102.1245      0.0000    762.4373      7.9257
   200.2500     99.5213      0.0000    761.5128      7.9236
   200.5000     95.9575      0.0000    760.7413      7.9097
   200.7500     93.7131      0.0000    760.9991      7.8933
