~Version Information
VERS.                      2.0: CWLS Log ASCII Standard - VERSION 2.0
WRAP.                       NO: One line per depth step
~Well Information Block
STRT.FT               240.0000: 
STOP.FT              1043.5000: 
STEP.FT                 0.2500: 
NULL.                -999.2500: 
COMP.          Pioneer Natural Resources: COMPANY
WELL.          Stags Leap 13-30: WELL
FLD.           Purgatorie River: FIELD
LOC.           1813' FSL & 117' FWL: LOCATION
PROV.                 Colorado: PROVINCE
CNTY.               Las Animas: COUNTRY
SRVC.                Patterson: SERVICE COMPANY
DATE.          Thu Dec 08 19:20:57 2005: LOG DATE
UWI.                          : UNIQUE WELL ID
~Curve Information Block
DEPT.FT            0 000 00 00: Depth
DIR.Ohm-m                     : IEL Induction Resistivity
GR.GAPI                       : Gamma Ray
~Parameter Information Block
~A  Depth       DIR          GR     
# ...
   797.5000     19.9581     95.4068
   797.7500     19.7424     94.7411
   798.0000     19.5301     94.8201
   798.2500     19.3112     95.4616
   798.5000     19.0856     96.9234
   798.7500     18.8617     98.0738
   799.0000     18.6516     99.9463
   799.2500     18.4669    101.2176
   799.5000     18.3140    102.9557
   799.7500     18.1934    103.9349
   800.0000     18.1015    105.1460
   800.2500     18.0331    105.7210
   800.5000     17.9847    105.9930
   800.7500     17.9559    105.7853
   801.0000     17.9520    105.2382
   801.2500     17.9855    104.7607
   801.5000     18.0775    103.2383
   801.7500     18.2543    101.2369
   802.0000     18.5421     96.8806
   802.2500     18.9582     93.7745
   802.5000     19.4997     90.3289
   802.7500     20.1344     89.4486
   803.0000     20.8005     90.4417
   803.2500     21.4221     92.2412
   803.5000     21.9377     95.2530
   803.7500     22.3273     96.5221
   804.0000     22.6205     96.1590
   804.2500     22.8830     94.2646
   804.5000     23.1942     89.6897
   804.7500     23.6250     86.3169
   805.0000     24.2212     82.1641
   805.2500     24.9912     80.3691
   805.5000     25.9009     78.8401
   805.7500     26.8779     78.2367
   806.0000     27.8266     77.8254
   806.2500     28.6508     78.1221
   806.5000     29.2772     79.6877
   806.7500     29.6787     81.2172
   807.0000     29.8941     83.2163
   807.2500     30.0309     83.7714
   807.5000     30.2347     83.0480
   807.7500     30.6325     81.7343
   808.0000     31.2766     79.2892
   808.2500     32.1202     77.7510
   808.5000     33.0368     75.8629
   808.7500     33.8778     74.8221
   809.0000     34.5342     73.3852
   809.2500     34.9658     72.4765
   809.5000     35.1874     71.3328
   809.7500     35.2319     70.8577
   810.0000     35.1179     70.7642
   810.2500     34.8371     71.0890
   810.5000     34.3635     71.8038
   810.7500     33.6767     72.1854
   811.0000     32.7863     72.5511
   811.2500     31.7442     72.8638
   811.5000     30.6408     73.8028
   811.7500     29.5838     74.7366
   812.0000     28.6710     76.2181
   812.2500     27.9678     77.0450
   812.5000     27.4953     78.1491
   812.7500     27.2299     79.1127
   813.0000     27.1108     81.2767
   813.2500     27.0574     83.0422
   813.5000     26.9952     85.5637
   813.7500     26.8812     87.0195
   814.0000     26.7145     89.1642
   814.2500     26.5250     90.7066
   814.5000     26.3474     92.8553
   814.7500     26.1954     93.8068
   815.0000     26.0510     94.1123
   815.2500     25.8707     93.5430
   815.5000     25.6012     91.7771
   815.7500     25.1979     90.3634
   816.0000     24.6374     88.8733
   816.2500     23.9250     88.7897
   816.5000     23.0965     90.1502
   816.7500     22.2113     91.7149
   817.0000     21.3386     94.3167
   817.2500     20.5415     95.9858
   817.5000     19.8648     98.4722
   817.7500     19.3289    100.3074
   818.0000     18.9292    103.4151
   818.2500     18.6407    105.4964
   818.5000     18.4279    107.9928
   818.7500     18.2557    108.9994
   819.0000     18.0972    109.7094
   819.2500     17.9353    110.0642
   819.5000     17.7630    111.0430
   819.7500     17.5866    111.9512
   820.0000     17.4303    112.9649
   820.2500     17.3333    112.9495
   820.5000     17.3389    111.4211
   820.7500     17.4813    109.2176
   821.0000     17.7777    103.8585
   821.2500     18.2269     98.9235
   821.5000     18.8129     90.2595
   821.7500     19.5081     84.6435
   822.0000     20.2784     78.5685
   822.2500     21.0866     76.9637
   822.5000     21.8941     78.4208
   822.7500     22.6623     81.4119
   823.0000     23.3552     87.4841
   823.2500     23.9485     91.7912
   823.5000     24.4382     97.7617
   823.7500     24.8445    101.2586
   824.0000     25.2042    105.8872
   824.2500     25.5584    108.6322
   824.5000     25.9403    112.1102
   824.7500     26.3668    113.7105
   825.0000     26.8339    114.2527
   825.2500     27.3141    113.0019
   825.5000     27.7541    108.6896
   825.7500     28.0776    104.5461
   826.0000     28.1978     97.3393
   826.2500     28.0435     92.5037
   826.5000     27.5892     86.4894
   826.7500     26.8701     84.0236
   827.0000     25.9726     83.1741
   827.2500     25.0052     84.2270
   827.5000     24.0672     87.1428
   827.7500     23.2284     89.3785
   828.0000     22.5247     92.6506
   828.2500     21.9647     94.7781
   828.5000     21.5415     98.1246
   828.7500     21.2432    100.5253
   829.0000     21.0573    104.1420
   829.2500     20.9713    106.2872
   829.5000     20.9718    108.7806
   829.7500     21.0447    110.0080
   830.0000     21.1770    111.4713
   830.2500     21.3572    112.1982
   830.5000     21.5717    112.5272
   830.7500     21.7995    111.9916
   831.0000     22.0115    109.9070
   831.2500     22.1787    107.6578
   831.5000     22.2855    102.8749
   831.7500     22.3388     98.6270
   832.0000     22.3648     90.5837
   832.2500     22.3966     84.2285
   832.5000     22.4634     73.9185
   832.7500     22.5852     67.3240
   833.0000     22.7728     59.6614
   833.2500     23.0258     57.0185
   833.5000     23.3260     57.6905
   833.7500     23.6317     61.2401
   834.0000     23.8868     70.4472
   834.2500     24.0477     78.2944
   834.5000     24.1121     90.3497
   834.7500     24.1294     97.0359
   835.0000     24.1815    103.0712
   835.2500     24.3507    104.0700
   835.5000     24.6933    101.5459
   835.7500     25.2316     97.8458
   836.0000     25.9624     90.8017
   836.2500     26.8699     86.1316
   836.5000     27.9307     80.6279
   836.7500     29.1016     78.3601
   837.0000     30.3028     76.8577
   837.2500     31.4123     76.6630
   837.5000     32.2925     76.7103
   837.7500     32.8404     76.5985
   838.0000     33.0362     75.9351
   838.2500     32.9522     75.2294
   838.5000     32.7155     74.2561
   838.7500     32.4530     73.9857
   839.0000     32.2546     74.3700
   839.2500     32.1667     75.0412
   839.5000     32.2024     76.3018
   839.7500     32.3480     77.1277
   840.0000     32.5629     78.1954
   840.2500     32.7811     78.7924
   840.5000     32.9300     79.4949
   840.7500     32.9617     79.7297
   841.0000     32.8762     79.5461
   841.2500     32.7199     79.1249
   841.5000     32.5608     78.4031
   841.7500     32.4614     78.0026
   842.0000     32.4612     77.4474
   842.2500     32.5698     77.0529
   842.5000     32.7691     76.6853
   842.7500     33.0208     76.8911
   843.0000     33.2776     78.1671
   843.2500     33.4939     79.5233
   843.5000     33.6342     81.6189
   843.7500     33.6778     82.5949
   844.0000     33.6238     83.0392
   844.2500     33.4945     82.8089
   844.5000     33.3357     82.3362
   844.7500     33.2074     82.2480
   845.0000     33.1697     82.5036
   845.2500     33.2661     82.7115
   845.5000     33.5139     82.6410
   845.7500     33.9023     82.2462
   846.0000     34.3946     81.3654
   846.2500     34.9357     80.8586
   846.5000     35.4627     80.6146
   846.7500     35.9178     80.8472
   847.0000     36.2629     81.5189
   847.2500     36.4938     81.9164
   847.5000     36.6476     81.9994
   847.7500     36.7913     81.5161
   848.0000     36.9912     79.8581
   848.2500     37.2804     78.2625
   848.5000     37.6456     75.6904
   848.7500     38.0405     74.2300
   849.0000     38.4137     72.8568
   849.2500     38.7313     72.5701
   849.5000     38.9764     72.9228
   849.7500     39.1343     73.4086
   850.0000     39.1763     73.9848
   850.2500     39.0637     74.1641
   850.5000     38.7752     74.3998
   850.7500     38.3415     74.7142
   851.0000     37.8550     75.3950
   851.2500     37.4338     75.8527
   851.5000     37.1574     76.4117
   851.7500     37.0205     76.7475
   852.0000     36.9384     77.4504
   852.2500     36.8040     78.2234
   852.5000     36.5554     79.9784
   852.7500     36.2049     81.4990
   853.0000     35.8203     84.1134
