~Version Information
VERS.                      2.0: CWLS Log ASCII Standard - VERSION 2.0
WRAP.                       NO: One line per depth step
~Well Information Block
STRT.FT                -8.7500: 
STOP.FT              2331.5000: 
STEP.FT                 0.2500: 
NULL.                -999.2500: 
COMP.          Pioneer Natural Resources: COMPANY
WELL.          Sparrowhawk 22-12: WELL
FLD.           Purgatorie River: FIELD
LOC.           2049' FNL & 2060' FWL--: LOCATION
CNTY.               Las Animas: COUNTY
SRVC.          Patterson Wireline: SERVICE COMPANY
DATE.          Wed Apr 12 08:53:41 2006: LOG DATE
UWI.           05 071 08484 00: UNIQUE WELL ID
STAT.                       CO: STATE
~Curve Information Block
DEPT.FT            0 000 00 00: Depth
CCL.                          : Casing Collar Locator
TT3.usec                      : CBL 3' Travel Time
AMP3.mV                       : CBL 3' Amplitude
GR.GAPI                       : Gamma Ray
~Parameter Information Block
MAXAMPL.mV              0.0000: Maximum Amplitude
~A  Depth       CCL         TT3         AMP3         GR     
# ...
  1833.7500      0.0000    264.5622     74.0564    136.1947
  1834.0000      0.0000    264.5826     73.7122    139.4716
  1834.2500      0.0000    264.5941     73.3408    142.9040
  1834.5000      0.0000    264.5947     72.9270    145.9832
  1834.7500      0.0000    264.5858     72.5061    147.7271
  1835.0000      0.0000    264.5707     72.1336    147.6003
  1835.2500      0.0000    264.5540     71.8349    146.0921
  1835.5000      0.0000    264.5408     71.5849    144.1411
  1835.7500      0.0000    264.5353     71.3360    142.2928
  1836.0000      0.0000    264.5377     71.0814    140.7179
  1836.2500      0.0000    264.5405     70.9002    139.7060
  1836.5000      0.0000    264.5299     70.9211    139.4992
  1836.7500      0.0000    264.4935     71.2023    139.6369
  1837.0000      0.0000    264.4323     71.6318    139.0793
  1837.2500      0.0000    264.3632     71.9747    137.3963
  1837.5000      0.0000    264.3075     72.0479    135.6797
  1837.7500      0.0000    264.2752     71.8417    135.9478
  1838.0000      0.0000    264.2617     71.4750    139.5177
  1838.2500      0.0000    264.2573     71.0785    146.1256
  1838.5000      0.0000    264.2550     70.7480    154.6231
  1838.7500      0.0000    264.2497     70.5750    163.9702
  1839.0000      0.0000    264.2339     70.6596    173.3311
  1839.2500      0.0000    264.1976     71.0665    181.8502
  1839.5000      0.0000    264.1354     71.7617    188.7418
  1839.7500      0.0000    264.0532     72.5798    193.1890
  1840.0000      0.0000    263.9690     73.2704    194.1270
  1840.2500      0.0000    263.9034     73.6260    190.8963
  1840.5000      0.0000    263.8654     73.5963    184.2618
  1840.7500      0.0000    263.8492     73.2726    176.0277
  1841.0000      0.0000    263.8433     72.7631    167.6178
  1841.2500      0.0000    263.8423     72.1031    159.8254
  1841.5000      0.0000    263.8485     71.2739    153.7860
  1841.7500      0.0000    263.8657     70.2659    150.9486
  1842.0000      0.0000    263.8936     69.1103    151.7053
  1842.2500      0.0000    263.9283     67.8709    154.7938
  1842.5000      0.0000    263.9655     66.6208    158.3446
  1842.7500      0.0000    264.0039     65.4130    161.0339
  1843.0000      0.0000    264.0470     64.2495    162.2357
  1843.2500      0.0000    264.1031     63.0701    161.9165
  1843.5000      0.0000    264.1797     61.7876    160.7346
  1843.7500      0.0000    264.2773     60.3387    159.7661
  1844.0000      0.0000    264.3923     58.6830    159.7364
  1844.2500      0.0000    264.5310     56.7490    160.5104
  1844.5000      0.0000    264.7195     54.4284    161.1772
  1844.7500      0.0000    265.0005     51.6637    160.4256
  1845.0000      0.0000    265.4510     48.5252    157.0711
  1845.2500      0.0000    266.2556     45.1800    150.7868
  1845.5000      0.0000    267.8228     41.8042    142.7763
  1845.7500      0.0000    270.7907     38.5385    135.7168
  1846.0000      0.0000    275.7058     35.4838    132.5947
  1846.2500      0.0000    282.4313     32.6818    134.8214
  1846.5000      0.0000    289.8756     30.1067    140.9654
  1846.7500      0.0000    296.5612     27.7249    147.3972
  1847.0000      0.0000    301.5881     25.5816    150.6252
  1847.2500      0.0000    304.9775     23.8189    149.3870
  1847.5000      0.0000    307.1848     22.6056    144.9362
  1847.7500      0.0000    308.5317     22.0471    139.8656
  1848.0000      0.0000    309.0838     22.1485    136.4624
  1848.2500      0.0000    308.7567     22.8644    135.3514
  1848.5000      0.0000    307.2732     24.1971    135.3554
  1848.7500      0.0000    304.0713     26.2645    134.9905
  1849.0000      0.0000    298.5915     29.2776    134.1233
  1849.2500      0.0000    290.9808     33.4256    134.0366
  1849.5000      0.0000    282.5092     38.7164    136.1378
  1849.7500      0.0000    274.9997     44.8660    140.7843
  1850.0000      0.0000    269.6884     51.3460    147.0163
  1850.2500      0.0000    266.6539     57.5870    153.1376
  1850.5000      0.0000    265.2123     63.1646    157.6076
  1850.7500      0.0000    264.6213     67.8092    159.5558
  1851.0000      0.0000    264.4461     71.2705    159.0309
  1851.2500      0.0000    264.5533     73.1740    157.3030
  1851.5000      0.0000    264.9708     73.0340    156.3835
  1851.7500      0.0000    265.7458     70.5861    157.1711
  1852.0000      0.0000    266.8323     66.3371    158.1418
  1852.2500      0.0000    268.0552     61.7427    156.8001
  1852.5000      0.0000    269.1757     58.5159    152.3438
  1852.7500      0.0000    270.0104     57.5269    146.0473
  1853.0000      0.0000    270.5085     58.3598    139.4062
  1853.2500      0.0000    270.7359     59.9027    133.1923
  1853.5000      2.0000    270.7983     61.2450    128.1785
  1853.7500      0.0000    270.7705     62.0900    125.2609
  1854.0000      0.0000    270.6693     62.6273    124.5050
  1854.2500      0.0000    270.4620     63.3002    125.2106
  1854.5000      0.0000    270.0887     64.6697    127.2089
  1854.7500      0.0000    269.4871     67.1846    131.4035
  1855.0000      0.0000    268.6320     70.7666    138.8144
  1855.2500      0.0000    267.5826     74.6296    149.1839
  1855.5000      0.0000    266.4941     77.7578    160.3280
  1855.7500      0.0000    265.5562     79.6353    168.9558
  1856.0000      0.0000    264.8943     80.4425    172.6482
  1856.2500      0.0000    264.5171     80.6634    171.2704
  1856.5000      0.0000    264.3471     80.6782    166.4243
  1856.7500      0.0000    264.2895     80.6622    159.8499
  1857.0000      0.0000    264.2781     80.6691    152.7578
  1857.2500      0.0000    264.2811     80.7098    146.2757
  1857.5000      0.0000    264.2886     80.7665    141.6484
  1857.7500      0.0000    264.3012     80.7647    139.8235
  1858.0000      0.0000    264.3227     80.5564    141.0455
  1858.2500      0.0000    264.3545     79.9770    144.4290
  1858.5000      0.0000    264.3915     78.9724    147.6519
  1858.7500      0.0000    264.4233     77.6923    147.9158
  1859.0000      0.0000    264.4414     76.4280    144.1661
  1859.2500      0.0000    264.4447     75.4290    138.1794
  1859.5000      0.0000    264.4391     74.7768    132.9252
  1859.7500      0.0000    264.4314     74.4136    130.0082
  1860.0000      0.0000    264.4255     74.2381    129.0387
  1860.2500      0.0000    264.4222     74.1652    129.0399
  1860.5000      0.0000    264.4204     74.1385    129.7101
  1860.7500      0.0000    264.4186     74.1346    131.2235
  1861.0000      0.0000    264.4150     74.1593    133.5068
  1861.2500      0.0000    264.4083     74.2281    136.1443
  1861.5000      0.0000    264.3991     74.3426    138.6904
  1861.7500      0.0000    264.3896     74.4798    140.6927
  1862.0000      0.0000    264.3821     74.5973    141.5325
  1862.2500      0.0000    264.3780     74.6513    140.3922
  1862.5000      0.0000    264.3776     74.6254    136.2840
  1862.7500      0.0000    264.3797     74.5499    128.5929
  1863.0000      0.0000    264.3818     74.4835    118.3508
  1863.2500      0.0000    264.3815     74.4712    108.5967
  1863.5000      0.0000    264.3797     74.5208    102.5220
  1863.7500      0.0000    264.3806     74.6136    101.3691
  1864.0000      0.0000    264.3877     74.7245    104.5734
  1864.2500      0.0000    264.3993     74.8281    111.1230
  1864.5000      0.0000    264.4091     74.9013    119.9986
  1864.7500      0.0000    264.4129     74.9355    129.7898
  1865.0000      0.0000    264.4119     74.9396    138.6253
  1865.2500      0.0000    264.4099     74.9260    144.7775
  1865.5000      0.0000    264.4087     74.9034    147.6339
  1865.7500      0.0000    264.4066     74.8876    148.0861
  1866.0000      0.0000    264.4027     74.8965    147.7526
  1866.2500      0.0000    264.3991     74.9203    147.6932
  1866.5000      0.0000    264.3999     74.9149    147.7085
  1866.7500      0.0000    264.4064     74.8419    146.6006
  1867.0000      0.0000    264.4163     74.7051    143.1005
