~Version Information
VERS.                      2.0: CWLS Log ASCII Standard - VERSION 2.0
WRAP.                       NO: One line per depth step
~Well Information Block
STRT.FT               545.0000: 
STOP.FT              2200.7000: 
STEP.FT                 0.1000: 
NULL.                -999.2500: 
COMP.          Pioneer Natural Resources: COMPANY
WELL.               Erin 21-15: WELL
FLD.           Purgatoire River: FIELD
LOC.           1217' FNL & 2284' FWL--: LOCATION
CNTY.               Las Animas: COUNTY
SRVC.                Patterson: SERVICE COMPANY
DATE.          Thu Mar 02 09:55:43 2006: LOG DATE
UWI.           05 071 08713 00: UNIQUE WELL ID
STAT.                 Colorado: STATE
~Curve Information Block
DEPT.FT            0 000 00 00: Depth
DCAL.in                       : CDL Caliper
RHOB.g/cc                     : CDL Bulk Density
RHOC.g/cc                     : CDL Density Correction
DPOR.pu                       : CDL Density Porosity
NPOR.pu                       : Neutron Porosity
GR.GAPI                       : Gamma Ray
~Parameter Information Block
~A  Depth       DCAL        RHOB        RHOC        DPOR        NPOR         GR     
# ...
   650.6000      8.1323      2.6014      0.0272      2.9471     20.4295    115.3483
   650.7000      8.1323      2.6083      0.0411      2.5276     20.5292    118.3930
   650.8000      8.1424      2.6045      0.0422      2.7561     20.2445    114.5457
   650.9000      8.1424      2.6015      0.0572      2.9411     19.6046    107.6861
   651.0000      8.1480      2.5992      0.0285      3.0776     19.0667    104.5922
   651.1000      8.1480      2.5915      0.0680      3.5432     19.0597    107.8583
   651.2000      8.1480      2.5732      0.0052      4.6527     19.4055    115.0326
   651.3000      8.1490      2.5510      0.0163      6.0024     19.7121    122.2329
   651.4000      8.1490      2.5388      0.0346      6.7367     19.9256    125.0364
   651.5000      8.1502      2.5434      0.0337      6.4632     19.8971    120.4694
   651.6000      8.1502      2.5567      0.0264      5.6546     19.6929    110.1660
   651.7000      8.1502      2.5683      0.0120      4.9495     19.7873    102.8060
   651.8000      8.1507      2.5777      0.0335      4.3843     20.1022    105.8536
   651.9000      8.1507      2.5807      0.0476      4.2028     20.0569    113.4789
   652.0000      8.1501      2.5706      0.0637      4.8120     19.6728    116.0733
   652.1000      8.1501      2.5608     -0.0112      5.4054     19.7015    115.1053
   652.2000      8.1501      2.5657      0.0559      5.1104     20.4936    114.5966
   652.3000      8.1515      2.5716      0.0691      4.7519     21.3506    111.3261
   652.4000      8.1515      2.5652      0.0363      5.1366     21.5972    105.0147
   652.5000      8.1552      2.5529      0.0223      5.8867     21.6205    104.8322
   652.6000      8.1552      2.5463      0.0097      6.2870     22.0182    111.1908
   652.7000      8.1552      2.5452      0.0603      6.3525     22.4775    114.5298
   652.8000      8.1622      2.5361      0.0464      6.9040     22.2578    114.7912
   652.9000      8.1622      2.5185      0.0129      7.9715     21.6955    115.1374
   653.0000      8.1712      2.5083      0.0047      8.5851     21.7462    113.0181
   653.1000      8.1712      2.5158      0.0181      8.1363     22.1715    111.1066
   653.2000      8.1712      2.5358      0.0356      6.9207     22.2932    114.1146
   653.3000      8.1753      2.5553      0.0522      5.7414     22.2454    118.7081
   653.4000      8.1753      2.5654      0.0179      5.1292     22.1263    121.9369
   653.5000      8.1761      2.5633      0.0599      5.2546     21.9364    125.9086
   653.6000      8.1761      2.5538      0.0121      5.8289     21.9470    129.4324
   653.7000      8.1761      2.5518      0.0765      5.9545     22.0730    127.7714
   653.8000      8.1762      2.5605      0.0751      5.4268     22.1425    118.7812
   653.9000      8.1762      2.5734      0.0692      4.6422     22.3648    107.6774
   654.0000      8.1745      2.5935      0.0691      3.4216     22.5130    103.4492
   654.1000      8.1745      2.6216      0.0851      1.7228     22.2210    108.7670
   654.2000      8.1745      2.6458      0.1082      0.2576     21.6430    117.3308
   654.3000      8.1738      2.6609      0.1078     -0.6592     21.1896    121.0010
   654.4000      8.1738      2.6763      0.0902     -1.5917     21.3149    116.5404
   654.5000      8.1754      2.6986      0.0613     -2.9474     21.9917    107.8211
   654.6000      8.1754      2.7193      0.0771     -4.1979     22.6499    100.9591
   654.7000      8.1754      2.7238      0.0697     -4.4700     22.7504     98.1482
   654.8000      8.1767      2.7161      0.0073     -4.0033     22.3115     99.0552
   654.9000      8.1767      2.7119      0.0159     -3.7488     22.0011    100.5263
   655.0000      8.1772      2.7106      0.0366     -3.6699     22.1068     98.9905
   655.1000      8.1772      2.7063      0.0187     -3.4131     22.0331     96.9144
   655.2000      8.1772      2.6957     -0.0022     -2.7712     21.6268     97.7732
   655.3000      8.1780      2.6647      0.0262     -0.8886     21.4073    100.8019
   655.4000      8.1780      2.6187     -0.0367      1.8941     21.4930    105.1870
   655.5000      8.1784      2.5882     -0.0265      3.7473     21.6134    108.7939
   655.6000      8.1784      2.5745      0.0269      4.5742     21.6565    109.2156
   655.7000      8.1784      2.5582      0.0448      5.5630     21.6356    108.6081
   655.8000      8.1790      2.5434      0.0049      6.4596     21.5423    108.7762
   655.9000      8.1790      2.5445      0.0417      6.3924     21.3002    109.9848
   656.0000      8.1797      2.5515      0.0472      5.9719     20.8634    109.6673
   656.1000      8.1797      2.5411      0.0460      6.5970     20.5044    107.3159
   656.2000      8.1797      2.5160      0.0044      8.1236     20.5336    111.2021
   656.3000      8.1809      2.5034     -0.0060      8.8871     20.5625    122.5987
   656.4000      8.1809      2.5176      0.0155      8.0266     20.2728    130.0561
   656.5000      8.1845      2.5435      0.0530      6.4557     20.1429    130.3507
   656.6000      8.1845      2.5583      0.0311      5.5599     20.4752    132.0082
   656.7000      8.1845      2.5587      0.0584      5.5308     20.8765    134.4021
   656.8000      8.1872      2.5567      0.0228      5.6543     20.9349    130.5181
   656.9000      8.1872      2.5595      0.0402      5.4846     20.8347    125.8478
   657.0000      8.1829      2.5647      0.0593      5.1689     21.0993    126.2507
   657.1000      8.1829      2.5676      0.0448      4.9948     21.7211    126.7020
   657.2000      8.1829      2.5666      0.0455      5.0561     22.1731    122.0763
   657.3000      8.1795      2.5639      0.0452      5.2156     22.2649    114.2676
   657.4000      8.1795      2.5665      0.0583      5.0597     22.5343    109.3246
   657.5000      8.1827      2.5799      0.0524      4.2502     23.3142    109.8247
   657.6000      8.1827      2.5932      0.0592      3.4423     23.9667    114.1817
   657.7000      8.1827      2.5862      0.0293      3.8670     23.7990    122.2664
   657.8000      8.1945      2.5604     -0.0053      5.4286     23.0352    132.9781
   657.9000      8.1945      2.5256      0.0159      7.5404     22.2856    136.9877
   658.0000      8.2166      2.4827     -0.0371     10.1394     21.8809    128.6034
   658.1000      8.2166      2.4488     -0.0391     12.1946     22.0069    116.4042
   658.2000      8.2166      2.4456     -0.0521     12.3889     22.5236    110.5705
   658.3000      8.2408      2.4706     -0.0053     10.8752     22.9456    113.6031
   658.4000      8.2408      2.5019      0.0511      8.9738     22.8960    122.0801
   658.5000      8.2567      2.5244      0.0406      7.6093     22.6223    129.3958
   658.6000      8.2567      2.5375      0.0469      6.8189     22.6146    129.8139
   658.7000      8.2567      2.5433      0.0486      6.4680     22.6547    123.2533
   658.8000      8.2712      2.5455      0.0557      6.3354     22.3630    117.0215
   658.9000      8.2712      2.5456      0.0784      6.3258     22.2237    116.4660
   659.0000      8.2916      2.5414      0.0466      6.5822     22.6028    119.5745
   659.1000      8.2916      2.5348      0.0424      6.9811     22.9876    121.7421
   659.2000      8.2916      2.5313     -0.0024      7.1911     23.0497    123.3519
   659.3000      8.3102      2.5324      0.0247      7.1272     23.1329    125.6143
   659.4000      8.3102      2.5278      0.0370      7.4043     23.2286    126.3508
   659.5000      8.3211      2.5129      0.0290      8.3083     22.9970    125.5871
   659.6000      8.3211      2.5017      0.0049      8.9866     22.7264    124.4470
   659.7000      8.3211      2.5046      0.0095      8.8097     22.9099    124.6337
   659.8000      8.3257      2.5125     -0.0072      8.3350     23.0862    124.7477
   659.9000      8.3257      2.5141     -0.0017      8.2393     22.8364    121.9732
   660.0000      8.3287      2.5143     -0.0187      8.2259     22.6367    119.4246
   660.1000      8.3287      2.5218      0.0364      7.7693     22.8024    120.9759
