~Version Information
VERS.                      2.0: CWLS Log ASCII Standard - VERSION 2.0
WRAP.                       NO: One line per depth step
~Well Information Block
STRT.FT               588.7000: 
STOP.FT              1820.2000: 
STEP.FT                 0.1000: 
NULL.                -999.2500: 
COMP.          Pioneer Natural Resources: COMPANY
WELL.           Loews 41-32 Tr: WELL
FLD.           Purgatoire River: FIELD
LOC.           706' FNL & 224' FEL--: LOCATION
CNTY.               Las Animas: COUNTY
SRVC.                Patterson: SERVICE COMPANY
DATE.          Tue Feb 21 10:23:46 2006: LOG DATE
UWI.           05 071 08690 00: UNIQUE WELL ID
STAT.                 Colorado: STATE
~Curve Information Block
DEPT.FT            0 000 00 00: Depth
DCAL.in                       : CDL Caliper
RHOB.g/cc                     : CDL Bulk Density
RHOC.g/cc                     : CDL Density Correction
DPOR.pu                       : CDL Density Porosity
GR.GAPI                       : Gamma Ray
~Parameter Information Block
~A  Depth       DCAL        RHOB        RHOC        DPOR         GR     
# ...
  1148.7000      7.9956      2.5671      0.0652      5.0263    134.9323
  1148.8000      7.9781      2.5888      0.1318      3.7063    124.4338
  1148.9000      7.9781      2.6145      0.1272      2.1497    114.4037
  1149.0000      7.9721      2.6248      0.1173      1.5275    113.4895
  1149.1000      7.9721      2.6164      0.0435      2.0351    118.5140
  1149.2000      7.9721      2.5930      0.0443      3.4534    120.0220
  1149.3000      7.9731      2.5609      0.0433      5.4023    117.1728
  1149.4000      7.9731      2.5370      0.0295      6.8501    114.4704
  1149.5000      7.9699      2.5404     -0.0269      6.6410    112.2329
  1149.6000      7.9699      2.5634      0.0606      5.2468    108.4789
  1149.7000      7.9699      2.5810      0.0695      4.1807    102.7218
  1149.8000      7.9679      2.5924      0.0420      3.4901     96.1510
  1149.9000      7.9679      2.6042      0.0767      2.7770     92.1639
  1150.0000      7.9712      2.5966      0.1045      3.2352     92.6308
  1150.1000      7.9712      2.5587      0.0416      5.5352     94.9341
  1150.2000      7.9712      2.5208      0.0031      7.8281     95.9547
  1150.3000      7.9753      2.5103      0.0502      8.4672     96.9506
  1150.4000      7.9753      2.5140      0.0639      8.2425     98.6810
  1150.5000      7.9764      2.5125      0.0471      8.3313    100.9566
  1150.6000      7.9764      2.5081      0.0545      8.6003    106.5037
  1150.7000      7.9764      2.5116      0.0523      8.3854    114.7016
  1150.8000      7.9772      2.5149      0.1036      8.1878    120.9441
  1150.9000      7.9772      2.4934      0.0727      9.4915    122.2960
  1151.0000      7.9793      2.4539      0.0301     11.8836    119.1793
  1151.1000      7.9793      2.4360      0.0109     12.9667    116.7963
  1151.2000      7.9793      2.4540      0.0780     11.8784    117.8315
  1151.3000      7.9760      2.4849      0.0466     10.0056    119.4881
  1151.4000      7.9760      2.5110      0.1028      8.4217    120.4884
  1151.5000      7.9670      2.5354      0.0923      6.9464    122.5074
  1151.6000      7.9670      2.5642      0.0639      5.1990    124.3641
  1151.7000      7.9670      2.5858      0.1262      3.8884    124.1820
  1151.8000      7.9624      2.5866      0.0718      3.8444    124.7335
  1151.9000      7.9624      2.5789      0.0406      4.3069    126.6589
  1152.0000      7.9629      2.5770      0.0622      4.4249    126.4783
  1152.1000      7.9629      2.5792      0.0314      4.2938    125.7782
  1152.2000      7.9629      2.5864      0.0476      3.8570    127.7861
  1152.3000      7.9634      2.5959      0.0878      3.2814    128.9052
  1152.4000      7.9634      2.5974      0.0279      3.1858    125.8401
  1152.5000      7.9632      2.5883      0.0669      3.7367    120.2316
  1152.6000      7.9632      2.5727      0.0462      4.6866    115.7074
  1152.7000      7.9632      2.5653      0.0302      5.1327    114.0345
  1152.8000      7.9632      2.5784      0.0276      4.3408    111.9596
  1152.9000      7.9632      2.5957      0.0626      3.2919    109.5489
  1153.0000      7.9624      2.5937      0.0798      3.4135    109.4287
  1153.1000      7.9624      2.5745      0.0284      4.5767    110.1600
  1153.2000      7.9624      2.5610      0.0073      5.3931    111.1390
  1153.3000      7.9618      2.5754      0.0136      4.5236    112.9691
  1153.4000      7.9618      2.6147      0.0552      2.1366    113.3878
  1153.5000      7.9636      2.6505      0.0759     -0.0275    111.5060
  1153.6000      7.9636      2.6641      0.1089     -0.8527    107.9493
  1153.7000      7.9636      2.6647      0.0344     -0.8891    104.2828
  1153.8000      7.9648      2.6656      0.0403     -0.9450    101.9850
  1153.9000      7.9648      2.6597      0.0716     -0.5865    101.3494
  1154.0000      7.9650      2.6394      0.0235      0.6447    102.8404
  1154.1000      7.9650      2.6135      0.0521      2.2109    105.2540
  1154.2000      7.9650      2.5849      0.0357      3.9441    105.2670
  1154.3000      7.9656      2.5580      0.0064      5.5771    102.7923
  1154.4000      7.9656      2.5476     -0.0082      6.2083    105.2367
  1154.5000      7.9665      2.5598      0.0181      5.4664    117.4141
  1154.6000      7.9665      2.5850      0.0282      3.9409    129.4281
  1154.7000      7.9665      2.6062      0.0950      2.6561    130.4246
  1154.8000      7.9678      2.6139      0.0400      2.1881    124.2639
  1154.9000      7.9678      2.6103      0.1039      2.4085    120.2770
  1155.0000      7.9672      2.5976      0.0203      3.1747    120.9471
  1155.1000      7.9672      2.5855      0.0250      3.9077    124.2462
  1155.2000      7.9672      2.5876      0.0244      3.7802    125.6994
  1155.3000      7.9643      2.5995      0.0600      3.0593    121.9413
  1155.4000      7.9643      2.6019      0.0746      2.9165    118.0660
  1155.5000      7.9616      2.5980      0.0255      3.1493    116.1185
  1155.6000      7.9616      2.6111      0.0152      2.3596    111.4706
  1155.7000      7.9616      2.6346      0.0861      0.9355    105.6179
  1155.8000      7.9608      2.6338      0.0842      0.9846    105.7295
  1155.9000      7.9608      2.5979      0.0411      3.1592    113.0737
  1156.0000      7.9604      2.5551      0.0169      5.7519    120.3499
  1156.1000      7.9604      2.5341      0.0105      7.0235    119.5901
  1156.2000      7.9604      2.5316      0.0516      7.1737    112.3427
  1156.3000      7.9600      2.5244      0.0083      7.6115    108.3555
  1156.4000      7.9600      2.4996      0.0222      9.1153    112.8109
  1156.5000      7.9589      2.4625      0.0082     11.3652    117.9659
  1156.6000      7.9589      2.4336     -0.0046     13.1126    115.8354
  1156.7000      7.9589      2.4294      0.0524     13.3716    111.1760
  1156.8000      7.9573      2.4471      0.0356     12.2974    110.4776
  1156.9000      7.9573      2.4755      0.0814     10.5767    114.0220
  1157.0000      7.9578      2.4976      0.1080      9.2353    117.2088
  1157.1000      7.9578      2.5063      0.0957      8.7073    116.2630
  1157.2000      7.9578      2.5078      0.1174      8.6205    115.4509
  1157.3000      7.9605      2.5028      0.1082      8.9188    118.9270
  1157.4000      7.9605      2.4981      0.0522      9.2054    124.3917
  1157.5000      7.9618      2.5097      0.0565      8.5056    127.2144
  1157.6000      7.9618      2.5332      0.1360      7.0809    125.8533
  1157.7000      7.9618      2.5462      0.1390      6.2898    124.4543
  1157.8000      7.9603      2.5491      0.0161      6.1148    125.9327
  1157.9000      7.9603      2.5568      0.0606      5.6485    127.5512
  1158.0000      7.9584      2.5658      0.0464      5.1010    127.0572
  1158.1000      7.9584      2.5627      0.0992      5.2884    126.6740
  1158.2000      7.9584      2.5499      0.0535      6.0646    128.0527
  1158.3000      7.9577      2.5520      0.0441      5.9420    129.3990
  1158.4000      7.9577      2.5804      0.0407      4.2173    129.6353
  1158.5000      7.9594      2.6152      0.0723      2.1067    128.0235
  1158.6000      7.9594      2.6337      0.0807      0.9852    123.0694
  1158.7000      7.9594      2.6322      0.1056      1.0772    118.0059
  1158.8000      7.9616      2.6217      0.0574      1.7179    117.9513
  1158.9000      7.9616      2.6133      0.0790      2.2259    121.0045
  1159.0000      7.9621      2.6090      0.0456      2.4863    121.3199
  1159.1000      7.9621      2.6102      0.0580      2.4147    118.4670
  1159.2000      7.9621      2.6216      0.0430      1.7230    118.1546
  1159.3000      7.9617      2.6370      0.1276      0.7868    121.7508
  1159.4000      7.9617      2.6410      0.0698      0.5441    123.1646
  1159.5000      7.9631      2.6321      0.0464      1.0872    121.8573
  1159.6000      7.9631      2.6136      0.0626      2.2063    120.9681
  1159.7000      7.9631      2.5911     -0.0027      3.5704    118.9066
  1159.8000      7.9642      2.5834     -0.0069      4.0357    118.1089
