~Version Information
VERS.                      2.0: CWLS Log ASCII Standard - VERSION 2.0
WRAP.                       NO: One line per depth step
~Well Information Block
STRT.FT               400.0000: 
STOP.FT              2232.0000: 
STEP.FT                 0.2500: 
NULL.                -999.2500: 
COMP.          Evergreen Operating Corporation: COMPANY
WELL.                Croc 42-9: WELL
FLD.           Purgatorie River: FIELD
LOC.           2262' FNL & 238' FEL: LOCATION
STAT.                 Colorado: State
CNTY.               Las Animas: COUNTY
CTRY. USA : Country
SECT. 9 : Section
TOWN. 32S : Township
RANG. 66W : Range
SRVC.                Patterson: SERVICE COMPANY
DATE.          Wed Jul 21 23:25:54 2004: LOG DATE
API.           05 071 08106 00: UNIQUE WELL ID
~Curve Information Block
DEPT.FT            0 000 00 00: Depth
SN.Ohm-m                      : IEL Short Normal
SP.mV                         : IEL Spontaneous Potential
DIR.Ohm-m                     : IEL Induction Resistivity
GR.GAPI                       : Gamma Ray
~Parameter Information Block
~A  Depth        SN          SP         DIR          GR     
# ...
  1137.0000      3.2562    -12.2222      0.0832    103.3235
  1137.2500      5.0297      9.7155      0.1255    105.9175
  1137.5000      7.1574     27.2389      0.2125    110.2638
  1137.7500      9.1919     40.7212      0.3910    113.5938
  1138.0000     10.7860     50.8472      0.7871    118.8994
  1138.2500     11.8731     58.3470      1.9931    122.2140
  1138.5000     12.5670     63.8825     14.4818    126.4771
  1138.7500     13.0227     68.0051 100000.0000    128.9616
  1139.0000     13.3602     71.1428 100000.0000    132.2229
  1139.2500     13.6359     73.6023 100000.0000    133.7857
  1139.5000     13.8616     75.5630 100000.0000    134.6806
  1139.7500     14.0533     77.0875 100000.0000    134.4399
  1140.0000     14.2655     78.1948 100000.0000    133.7344
  1140.2500     14.5524     78.9513 100000.0000    133.5150
  1140.5000     14.8884     79.4873 100000.0000    133.7222
  1140.7500     15.1872     79.9308 100000.0000    133.9902
  1141.0000     15.3941     80.3518 100000.0000    134.0396
  1141.2500     15.4993     80.7644 100000.0000    133.6016
  1141.5000     15.4825     81.1557 100000.0000    132.2596
  1141.7500     15.2930     81.5053 100000.0000    131.2403
  1142.0000     14.8638     81.7974 100000.0000    130.4669
  1142.2500     14.1696     82.0306 100000.0000    131.0439
  1142.5000     13.3330     82.2194 100000.0000    134.1837
  1142.7500     12.6497     82.3818 100000.0000    137.5844
  1143.0000     12.4341     82.5275 100000.0000    143.0022
  1143.2500     12.8168     82.6639 100000.0000    145.5441
  1143.5000     13.6885     82.8117 100000.0000    146.4158
  1143.7500     14.7897     82.9964 100000.0000    145.1494
  1144.0000     15.8159     83.2187 100000.0000    141.9207
  1144.2500     16.5330     83.4435 100000.0000    140.0466
  1144.5000     16.8848     83.6319     37.8363    139.2953
  1144.7500     16.9624     83.7761     16.9775    140.4147
  1145.0000     16.8830     83.9004     12.0216    143.3092
  1145.2500     16.7436     84.0326     10.1156    144.6809
  1145.5000     16.6450     84.1750      9.2865    143.7605
  1145.7500     16.6810     84.2991      8.9243    140.7103
  1146.0000     16.8862     84.3729      8.7843    133.3710
  1146.2500     17.2040     84.3974      8.7710    127.7813
  1146.5000     17.4971     84.4076      8.8625    120.4189
  1146.7500     17.5876     84.4387      9.0677    117.0652
  1147.0000     17.3529     84.5032      9.3962    115.1182
  1147.2500     16.8191     84.5992      9.8380    116.0470
  1147.5000     16.1318     84.7237     10.3582    120.7086
  1147.7500     15.4538     84.8675     10.9077    125.5634
  1148.0000     14.9075     85.0064     11.4451    133.8882
  1148.2500     14.5429     85.1104     11.9498    139.0293
  1148.5000     14.3314     85.1607     12.4172    144.8594
  1148.7500     14.2360     85.1582     12.8441    147.3676
  1149.0000     14.2811     85.1166     13.2226    149.4285
  1149.2500     14.5255     85.0524     13.5458    149.7215
  1149.5000     14.9753     84.9807     13.8144    148.0549
  1149.7500     15.5646     84.9151     14.0365    145.1891
  1150.0000     16.2226     84.8622     14.2190    137.9515
  1150.2500     16.9173     84.8152     14.3619    131.1737
  1150.5000     17.6313     84.7561     14.4602    118.6845
  1150.7500     18.3238     84.6722     14.5130    109.7267
  1151.0000     18.9495     84.5707     14.5289     97.5522
  1151.2500     19.4914     84.4748     14.5224     91.4187
  1151.5000     19.9005     84.4069     14.5021     86.2155
  1151.7500     20.0306     84.3767     14.4617     85.3812
  1152.0000     19.7388     84.3829     14.3794     87.1800
  1152.2500     19.0327     84.4168     14.2256     89.7698
  1152.5000     18.0741     84.4618     13.9760     95.1632
  1152.7500     17.0699     84.4912     13.6222     99.6536
  1153.0000     16.1706     84.4760     13.1771    107.1711
  1153.2500     15.4382     84.4013     12.6704    112.0593
  1153.5000     14.8667     84.2768     12.1387    118.1186
  1153.7500     14.4044     84.1316     11.6164    120.9663
  1154.0000     13.9696     83.9976     11.1313    123.6326
  1154.2500     13.4778     83.8970     10.7038    124.8127
  1154.5000     12.8734     83.8364     10.3480    126.0710
  1154.7500     12.1536     83.8073     10.0710    126.0123
  1155.0000     11.3875     83.7911      9.8736    123.2316
  1155.2500     10.7137     83.7656      9.7506    119.7198
  1155.5000     10.2923     83.7126      9.6933    114.2742
  1155.7500     10.2152     83.6230      9.6921    112.1341
  1156.0000     10.4343     83.4954      9.7388    112.4557
  1156.2500     10.7849     83.3312      9.8277    114.5649
  1156.5000     11.0986     83.1309      9.9564    118.0574
  1156.7500     11.3489     82.8942     10.1251    118.8679
  1157.0000     11.6822     82.6229     10.3368    116.4542
  1157.2500     12.2047     82.3238     10.5948    113.1223
  1157.5000     12.8365     82.0135     10.9005    107.8379
  1157.7500     13.5298     81.7170     11.2504    105.0171
  1158.0000     14.3890     81.4545     11.6338    102.3747
  1158.2500     15.4343     81.2252     12.0345    101.8435
  1158.5000     16.5214     81.0044     12.4335    102.8793
  1158.7500     17.5277     80.7596     12.8154    104.3442
  1159.0000     18.4371     80.4693     13.1731    106.6766
  1159.2500     19.2569     80.1284     13.5097    108.1353
  1159.5000     19.9392     79.7421     13.8327    110.7604
  1159.7500     20.3845     79.3182     14.1441    113.2639
  1160.0000     20.5136     78.8529     14.4351    118.4496
  1160.2500     20.3517     78.3082     14.6899    122.5980
  1160.5000     19.9839     77.6065     14.8966    128.7601
  1160.7500     19.4366     76.6853     15.0547    132.0798
  1161.0000     18.7144     75.6099     15.1728    135.0938
  1161.2500     17.9497     74.6482     15.2597    135.7895
  1161.5000     17.4080     74.1829     15.3192    135.4033
  1161.7500     17.3232     74.4690     15.3509    134.5682
  1162.0000     17.7615     75.4376     15.3549    132.7317
  1162.2500     18.6005     76.7399     15.3350    131.0304
  1162.5000     19.5696     77.9914     15.2978    127.7439
  1162.7500     20.3695     78.9791     15.2521    125.3796
  1163.0000     20.8560     79.6858     15.2081    122.3438
  1163.2500     21.1004     80.1862     15.1765    120.9860
  1163.5000     21.2472     80.5489     15.1637    120.4384
  1163.7500     21.3402     80.8070     15.1649    121.3817
  1164.0000     21.2967     80.9776     15.1621    124.7677
  1164.2500     21.0138     81.0831     15.1291    127.7367
  1164.5000     20.4475     81.1552     15.0425    131.4344
  1164.7500     19.6099     81.2264     14.8922    132.3493
  1165.0000     18.5888     81.3201     14.6844    130.5623
  1165.2500     17.5843     81.4446     14.4370    127.6196
  1165.5000     16.8452     81.5939     14.1729    122.4209
  1165.7500     16.5339     81.7509     13.9170    119.7903
  1166.0000     16.6488     81.8907     13.6934    118.9117
  1166.2500     17.0231     81.9881     13.5204    120.6441
  1166.5000     17.3808     82.0313     13.4021    125.3838
  1166.7500     17.4792     82.0317     13.3245    128.5085
  1167.0000     17.2618     82.0125     13.2607    131.1849
  1167.2500     16.8469     81.9889     13.1836    131.4230
  1167.5000     16.3862     81.9585     13.0786    130.1543
  1167.7500     15.9573     81.9123     12.9484    128.6099
  1168.0000     15.5446     81.8503     12.8072    125.5380
  1168.2500     15.1076     81.7891     12.6725    123.0332
  1168.5000     14.6959     81.7533     12.5586    118.6296
  1168.7500     14.4660     81.7604     12.4754    115.5687
  1169.0000     14.5521     81.8086     12.4309    112.3404
  1169.2500     14.9479     81.8768     12.4311    112.2348
  1169.5000     15.5115     81.9351     12.4775    115.8423
  1169.7500     16.0465     81.9609     12.5630    119.9276
  1170.0000     16.3990     81.9452     12.6701    125.9958
  1170.2500     16.5263     81.8930     12.7740    128.9021
