~Version Information
 VERS.                                  2.0 : CWLS LAS VERSION
 WRAP.                                   NO : WRAPING MODE
 SWARE .                 MController 2.5.0J : SOFTWARE VERSION
~Well Information
 WELL.                     Hemisphere 32-24 : WELL
 COMP.    Pioneer Natural Resources USA Inc : COMPANY
 FLD.                      Purgatoire River : FIELD
 LOC.                 SE/SW Sec 24 T33 R67W : LOCATION
 DATE.                             08/14/05 : DATE(S) LOGGED
 SRVC.       BLANCO Geological Services LLC : SERVICE COMPANY
 STAT.                                   CO : STATE
 CNTY.                           Las Animas : COUNTY
 CTRY.                                  USA : COUNTRY
 API.                       05-071-08440-00 : API NUMBER
 STRT.FT                             399.00 : START DEPTH
 STOP.FT                            2171.00 : STOP DEPTH
 STEP.FT                               1.00 : DEPTH INCREMENT
 NULL.                                -9999 : NULL VALUE
~Curve information
 DEPTH.FT                                   :
 ROP.MIN/FT                                 :
 GAS.UNITS                                  :
~ASCII Log data
# ...
      1399.0         0.23         34.0 
      1400.0         0.30         34.1 
      1401.0         0.30         35.1 
      1402.0         0.23         35.1 
      1403.0         0.27         35.2 
      1404.0         0.23         35.2 
      1405.0         0.15         35.1 
      1406.0         2.83        119.8 
      1407.0         0.37        148.6 
      1408.0         0.28         93.8 
      1409.0         0.27         90.3 
      1410.0         0.20         68.7 
      1411.0         0.33         64.4 
      1412.0         0.30         57.6 
      1413.0         0.33         51.2 
      1414.0         0.30         45.6 
      1415.0         0.27         41.0 
      1416.0         0.30         39.6 
      1417.0         0.27         37.3 
      1418.0         0.27         37.0 
      1419.0         0.23         35.6 
      1420.0         0.25         35.5 
      1421.0         0.33         36.9 
      1422.0         0.40         38.3 
      1423.0         0.53         38.0 
      1424.0         0.23         37.8 
      1425.0         0.40         36.9 
      1426.0         0.40         37.5 
      1427.0         0.43         36.0 
      1428.0         0.33         34.7 
      1429.0         0.28         35.1 
      1430.0         0.27         34.4 
      1431.0         0.27         34.8 
      1432.0         0.27         34.1 
      1433.0         0.30         34.2 
      1434.0         0.30         33.0 
      1435.0         0.33         33.7 
      1436.0         3.38        170.6 
      1437.0         0.43        152.2 
      1438.0         0.37         84.0 
      1439.0         0.43         56.4 
      1440.0         0.35         52.2 
      1441.0         0.40         51.5 
      1442.0         0.23         46.9 
      1443.0         0.37         40.8 
      1444.0         0.37         38.0 
      1445.0         0.30         37.9 
      1446.0         0.33         37.4 
      1447.0         0.37         39.3 
      1448.0         0.33         43.3 
      1449.0         0.27         43.4 
      1450.0         0.35         44.0 
      1451.0         0.27         43.9 
      1452.0         0.30         44.4 
      1453.0         0.20         43.4 
      1454.0         0.30         42.0 
      1455.0         0.27         40.9 
      1456.0         0.27         41.5 
      1457.0         0.27         40.4 
      1458.0         0.27         40.5 
      1459.0         0.33         40.8 
      1460.0         0.23         40.9 
      1461.0         0.27         40.4 
      1462.0         0.28         40.6 
      1463.0         0.30         40.1 
      1464.0         0.27         39.6 
      1465.0         0.33         39.4 
      1466.0         2.98        157.7 
      1467.0         0.47        167.2 
      1468.0         0.33         95.5 
      1469.0         0.37         69.5 
      1470.0         0.53         62.1 
      1471.0         0.60         55.8 
      1472.0         0.55         50.0 
      1473.0         0.30         47.3 
      1474.0         0.33         44.4 
      1475.0         0.30         41.6 
      1476.0         0.27         40.8 
      1477.0         0.23         41.2 
      1478.0         0.23         41.3 
      1479.0         0.23         41.0 
      1480.0         0.20         40.8 
      1481.0         0.17         40.5 
      1482.0         0.17         39.7 
      1483.0         0.23         38.7 
      1484.0         0.23         39.4 
      1485.0         0.17         38.4 
      1486.0         0.13         37.8 
      1487.0         0.32         38.4 
      1488.0         0.30         38.0 
      1489.0         0.23         38.2 
      1490.0         0.30         40.6 
      1491.0         0.30         41.1 
      1492.0         0.37         40.9 
      1493.0         0.27         40.1 
      1494.0         0.23         39.4 
      1495.0         0.47         38.2 
      1496.0         3.78        157.5 
      1497.0         0.82         68.6 
      1498.0         0.43         50.5 
      1499.0         0.47         49.3 
      1500.0         0.47         47.2 
      1501.0         0.47         42.3 
      1502.0         0.47         38.9 
      1503.0         0.45         39.5 
      1504.0         0.50         38.5 
      1505.0         0.43         38.1 
      1506.0         0.43         38.2 
      1507.0         0.40         37.3 
      1508.0         0.47         35.2 
      1509.0         0.30         35.0 
      1510.0         0.23         35.3 
      1511.0         0.27         34.9 
      1512.0         0.28         35.2 
      1513.0         0.23         34.7 
      1514.0         0.33         36.9 
      1515.0         0.47         37.2 
      1516.0         0.37         37.5 
      1517.0         0.37         36.9 
      1518.0         0.37         37.1 
      1519.0         0.37         36.6 
      1520.0         0.33         36.3 
      1521.0         0.30         35.9 
      1522.0         0.25         36.4 
      1523.0         0.17         36.0 
      1524.0         0.20         34.3 
      1525.0         0.23         33.7 
      1526.0         3.68        181.8 
      1527.0         0.37        149.1 
      1528.0         0.30         71.0 
      1529.0         0.30         53.2 
      1530.0         0.37         52.4 
      1531.0         0.27         55.1 
      1532.0         0.27         54.4 
      1533.0         0.23         51.1 
      1534.0         0.28         48.0 
      1535.0         0.27         47.6 
      1536.0         0.27         44.0 
      1537.0         0.23         43.1 
      1538.0         0.20         39.7 
      1539.0         0.13         39.7 
      1540.0         0.17         39.8 
      1541.0         0.17         38.2 
      1542.0         0.17         39.0 
      1543.0         0.23         39.4 
      1544.0         0.17         40.0 
      1545.0         0.13         40.0 
      1546.0         0.17         39.2 
      1547.0         0.30         38.5 
      1548.0         0.27         36.9 
      1549.0         0.27         38.1 
      1550.0         0.32         37.7 
      1551.0         0.37         38.2 
      1552.0         0.43         38.3 
      1553.0         0.40         39.0 
      1554.0         0.27         38.9 
      1555.0         0.27         40.3 
      1556.0         4.12        117.9 
      1557.0         0.50         54.2 
      1558.0         0.42         54.2 
      1559.0         0.27         52.4 
      1560.0         0.13         46.6 
      1561.0         0.30         44.0 
      1562.0         0.30         42.9 
      1563.0         0.27         43.9 
      1564.0         0.30         43.4 
      1565.0         0.30         42.9 
      1566.0         0.17         41.9 
      1567.0         0.10         41.9 
      1568.0         0.20         42.9 
      1569.0         0.47         44.0 
      1570.0         0.38         47.1 
      1571.0         0.40         45.3 
      1572.0         0.33         44.2 
      1573.0         0.37         42.9 
      1574.0         0.37         41.0 
      1575.0         0.37         40.4 
      1576.0         0.27         40.4 
      1577.0         0.33         40.0 
      1578.0         0.30         40.9 
      1579.0         0.33         40.5 
      1580.0         0.32         39.0 
      1581.0         0.30         38.9 
      1582.0         0.17         38.0 
      1583.0         0.17         38.0 
      1584.0         0.10         38.7 
      1585.0         0.17         37.1 
      1586.0         3.22        102.4 
      1587.0         0.33         83.9 
      1588.0         0.33         55.4 
      1589.0         0.37         52.1 
      1590.0         0.43         52.7 
      1591.0         0.23         50.4 
      1592.0         0.20         49.9 
      1593.0         0.47         43.9 
      1594.0         0.38         41.0 
      1595.0         0.47         40.2 
      1596.0         0.33         39.8 
      1597.0         0.40         39.9 
      1598.0         0.27         40.0 
