~Version Information
VERS.                      2.0: CWLS Log ASCII Standard - VERSION 2.0
WRAP.                       NO: One line per depth step
~Well Information Block
STRT.FT               240.0000: 
STOP.FT              1338.7000: 
STEP.FT                 0.1000: 
NULL.                -999.2500: 
COMP.          Pioneer Natural Resources: COMPANY
WELL.            Hamburg 43-35: WELL
FLD.           Purgatoire River: FIELD
LOC.           2444' FSL & 950' FEL--: LOCATION
PROV.                 Colorado: PROVINCE
CNTY.               Las Animas: COUNTRY
SRVC.                Patterson: SERVICE COMPANY
DATE.          Sun Dec 04 11:50:58 2005: LOG DATE
UWI.           05 071 08607 00: UNIQUE WELL ID
~Curve Information Block
DEPT.FT            0 000 00 00: Depth
DCAL.in                       : CDL Caliper
RHOB.g/cc                     : CDL Bulk Density
RHOC.g/cc                     : CDL Density Correction
DPOR.pu                       : CDL Density Porosity
NPOR.pu                       : Neutron Porosity
GR.GAPI                       : Gamma Ray
~Parameter Information Block
~A  Depth       DCAL        RHOB        RHOC        DPOR        NPOR         GR     
# ...
  1161.6000      8.0080      2.4839      0.0757     10.0644     26.9379    159.5899
  1161.7000      8.0080      2.4819      0.1038     10.1867     27.6739    155.8589
  1161.8000      8.0335      2.4715      0.1031     10.8203     27.8443    149.5728
  1161.9000      8.0335      2.4595      0.0665     11.5469     27.7848    147.2029
  1162.0000      8.0367      2.4496      0.1247     12.1482     27.6662    149.0722
  1162.1000      8.0367      2.4152      0.0983     14.2287     27.5978    150.0159
  1162.2000      8.0367      2.3333      0.0454     19.1918     27.6638    147.6598
  1162.3000      8.0220      2.2121      0.0091     26.5416     27.3469    143.6665
  1162.4000      8.0220      2.0758     -0.0437     34.7978     26.1009    142.3537
  1162.5000      7.9989      1.9435     -0.0923     42.8177     24.1148    146.7687
  1162.6000      7.9989      1.8264     -0.1297     49.9160     21.6776    148.4310
  1162.7000      7.9989      1.7316     -0.1393     55.6588     19.2034    139.6747
  1162.8000      7.9722      1.6586     -0.1125     60.0853     17.0321    126.8107
  1162.9000      7.9722      1.5994     -0.0442     63.6729     15.0246    116.6080
  1163.0000      7.9501      1.5474     -0.0079     66.8268     13.2164    108.4590
  1163.1000      7.9501      1.5110      0.0174     69.0318     11.8593    100.1174
  1163.2000      7.9501      1.5184      0.0267     68.5839     10.9037     91.9078
  1163.3000      7.9361      1.5908      0.1435     64.1950     10.2226     85.1727
  1163.4000      7.9361      1.7107      0.2791     56.9256      9.7379     80.5145
  1163.5000      7.9391      1.8391      0.2981     49.1460      9.3746     76.2764
  1163.6000      7.9391      1.9559      0.3020     42.0677      9.1603     75.0084
  1163.7000      7.9391      2.0695      0.2745     35.1799      9.1534     80.9640
  1163.8000      7.9572      2.1928      0.2994     27.7112      9.4257     88.3973
  1163.9000      7.9572      2.3178      0.3174     20.1306     10.0121     87.3576
  1164.0000      7.9587      2.4254      0.3089     13.6122     10.7965     79.2885
  1164.1000      7.9587      2.5010      0.2744      9.0298     11.6606     73.7132
  1164.2000      7.9587      2.5411      0.2191      6.5972     12.6289     75.7317
  1164.3000      7.9362      2.5542      0.1613      5.8080     13.7902     84.2088
  1164.4000      7.9362      2.5546      0.0840      5.7841     15.2323     95.4107
  1164.5000      7.9159      2.5536      0.0702      5.8424     16.9912    105.7180
  1164.6000      7.9159      2.5520      0.0710      5.9417     18.8706    112.3014
  1164.7000      7.9159      2.5488      0.0419      6.1338     20.5283    114.8860
  1164.8000      7.9091      2.5453      0.0381      6.3433     21.7282    113.0540
  1164.9000      7.9091      2.5401      0.0402      6.6632     22.4620    107.5647
  1165.0000      7.9104      2.5259      0.0589      7.5231     22.8967    103.3733
  1165.1000      7.9104      2.4980      0.0350      9.2115     23.0199    101.6548
  1165.2000      7.9104      2.4757     -0.0285     10.5630     22.8806     98.4455
  1165.3000      7.9148      2.4804      0.0125     10.2786     22.7005     94.4730
  1165.4000      7.9148      2.4979      0.0398      9.2208     22.6343     96.9516
  1165.5000      7.9200      2.5065      0.0223      8.6997     22.6307    106.0070
  1165.6000      7.9200      2.5019      0.0457      8.9748     22.3446    112.0344
  1165.7000      7.9200      2.4867      0.0077      9.8944     21.7908    110.7245
  1165.8000      7.9219      2.4745     -0.0154     10.6367     21.3577    105.9001
  1165.9000      7.9219      2.4773      0.0100     10.4672     21.1490    103.5546
  1166.0000      7.9224      2.4876     -0.0046      9.8425     21.1503    106.2768
  1166.1000      7.9224      2.4944      0.0063      9.4328     21.4564    145.1059
  1166.2000      7.9224      2.5014      0.0055      9.0048     21.9633    141.3315
  1166.3000      7.9250      2.5113      0.0510      8.4038     22.4118    133.5243
  1166.4000      7.9250      2.5173      0.0037      8.0443     22.5469    125.2906
  1166.5000      7.9283      2.5201      0.0079      7.8744     22.3381    117.4082
  1166.6000      7.9283      2.5131      0.0565      8.2943     22.2061    114.8822
  1166.7000      7.9283      2.4942     -0.0149      9.4447     22.2466    118.1953
  1166.8000      7.9317      2.4866     -0.0101      9.9024     22.0528    120.0513
  1166.9000      7.9317      2.4992      0.0288      9.1394     21.5897    117.5731
  1167.0000      7.9321      2.5126      0.0397      8.3279     21.2325    113.8751
  1167.1000      7.9321      2.5148      0.0307      8.1917     21.2696    107.5849
  1167.2000      7.9321      2.5114      0.0380      8.4028     21.6389    102.7848
  1167.3000      7.9313      2.5093      0.0363      8.5248     22.0581    112.5417
  1167.4000      7.9313      2.5145      0.0291      8.2147     22.4927    130.6205
  1167.5000      7.9328      2.5257      0.0323      7.5341     22.9107    135.6232
  1167.6000      7.9328      2.5338      0.0557      7.0397     22.8709    126.2699
  1167.7000      7.9328      2.5410      0.0304      6.6054     22.3862    117.5016
  1167.8000      7.9337      2.5526      0.0926      5.9054     22.1191    115.8451
  1167.9000      7.9337      2.5546      0.0458      5.7789     22.3543    117.3952
  1168.0000      7.9301      2.5401      0.0420      6.6629     22.8597    119.6007
  1168.1000      7.9301      2.5238      0.0357      7.6461     23.2984    124.5218
  1168.2000      7.9301      2.5206      0.0234      7.8398     23.4409    132.1680
  1168.3000      7.9255      2.5277      0.0391      7.4121     23.2617    136.7582
  1168.4000      7.9255      2.5286      0.0415      7.3577     23.1458    133.0671
  1168.5000      7.9238      2.5132      0.0568      8.2881     23.2075    129.3944
  1168.6000      7.9238      2.4940      0.0234      9.4567     23.0827    135.2011
  1168.7000      7.9238      2.4907      0.0153      9.6565     22.8304    142.0479
  1168.8000      7.9225      2.5046      0.0306      8.8145     22.7276    140.3750
  1168.9000      7.9225      2.5245      0.0350      7.6033     22.6754    134.3988
  1169.0000      7.9215      2.5422      0.0562      6.5306     22.5856    129.2137
  1169.1000      7.9215      2.5477      0.0772      6.1990     22.5277    126.0000
  1169.2000      7.9215      2.5353      0.0424      6.9527     22.5172    125.4174
  1169.3000      7.9224      2.5164      0.0157      8.0941     22.5835    126.2146
  1169.4000      7.9224      2.5099      0.0038      8.4894     22.7069    125.7001
  1169.5000      7.9239      2.5180      0.0213      8.0030     22.7045    123.0860
  1169.6000      7.9239      2.5247      0.0580      7.5911     22.5471    119.2017
  1169.7000      7.9239      2.5237      0.0465      7.6555     22.3283    117.8004
  1169.8000      7.9254      2.5289      0.0394      7.3379     21.8369    121.1433
  1169.9000      7.9254      2.5443      0.0643      6.4046     21.2153    120.9708
  1170.0000      7.9295      2.5512      0.0584      5.9862     21.0530    114.4813
  1170.1000      7.9295      2.5431      0.0332      6.4780     21.4463    109.2956
  1170.2000      7.9295      2.5327      0.0540      7.1120     21.8474    109.0711
  1170.3000      7.9382      2.5249      0.0459      7.5823     22.0047    108.8608
  1170.4000      7.9382      2.5150      0.0462      8.1826     22.2194    105.1860
  1170.5000      7.9478      2.5034      0.0228      8.8833     22.4816    102.7278
  1170.6000      7.9478      2.4975      0.0375      9.2451     22.4101    106.8621
  1170.7000      7.9478      2.5003      0.0331      9.0756     22.0538    116.0953
  1170.8000      7.9516      2.5050      0.0770      8.7849     21.8375    124.0282
  1170.9000      7.9516      2.5010      0.0368      9.0305     21.7928    125.5616
  1171.0000      7.9520      2.4880      0.0458      9.8162     21.6330    122.5912
  1171.1000      7.9520      2.4738      0.0208     10.6810     21.4484    120.0829
