~Version Information
VERS.                      2.0: CWLS Log ASCII Standard - VERSION 2.0
WRAP.                       NO: One line per depth step
~Well Information Block
STRT.FT               620.0000: 
STOP.FT              3067.2000: 
STEP.FT                 0.1000: 
NULL.                -999.2500: 
COMP.          Pioneer Natural Resources: COMPANY
WELL.          Interceptor 43-13 Kv: WELL
FLD.           Purgatoire River: FIELD
LOC.           2073' FSL & 519' FEL--: LOCATION
PROV.                 Colorado: PROVINCE
CNTY.               Las Animas: COUNTRY
SRVC.                Patterson: SERVICE COMPANY
DATE.          Sat Jan 14 20:27:27 2006: LOG DATE
UWI.           05 071 08655 00: UNIQUE WELL ID
~Curve Information Block
DEPT.FT            0 000 00 00: Depth
DCAL.in                       : CDL Caliper
RHOB.g/cc                     : CDL Bulk Density
RHOC.g/cc                     : CDL Density Correction
DPOR.pu                       : CDL Density Porosity
NPOR.pu                       : Neutron Porosity
GR.GAPI                       : Gamma Ray
~Parameter Information Block
~A  Depth       DCAL        RHOB        RHOC        DPOR        NPOR         GR     
# ...
  2876.0000      8.0250      2.5276      0.0101      7.4158     26.0391    115.3655
  2876.1000      8.0250      2.5111      0.0341      8.4181     26.4349    107.5390
  2876.2000      8.0250      2.4665      0.0532     11.1187     27.4440    104.7481
  2876.3000      8.0286      2.3821      0.0293     16.2350     28.8217    107.7676
  2876.4000      8.0286      2.2797     -0.0345     22.4437     29.8362    112.3789
  2876.5000      8.0300      2.1817     -0.0436     28.3814     30.4567    115.2492
  2876.6000      8.0300      2.0766     -0.0894     34.7537     31.1005    116.5822
  2876.7000      8.0300      1.9364     -0.1047     43.2474     31.8199    116.0222
  2876.8000      8.0268      1.7684     -0.2350     53.4305     32.2564    110.4549
  2876.9000      8.0268      1.6294     -0.2586     61.8522     32.0820    101.2807
  2877.0000      8.0219      1.5562     -0.1660     66.2914     31.5853     96.5263
  2877.1000      8.0219      1.5281     -0.1501     67.9955     31.3232     97.4659
  2877.2000      8.0219      1.5235     -0.1274     68.2757     31.3618    100.5863
  2877.3000      8.0214      1.5626     -0.0922     65.9007     31.5468    106.4602
  2877.4000      8.0214      1.6690      0.0684     59.4516     31.6314    110.7587
  2877.5000      8.0347      1.8103      0.2005     50.8888     30.9798    107.4343
  2877.6000      8.0347      1.9363      0.2292     43.2544     29.2494     99.1723
  2877.7000      8.0347      2.0455      0.2481     36.6381     27.0550     95.5625
  2877.8000      8.0631      2.1549      0.3218     30.0042     25.4390    100.4192
  2877.9000      8.0631      2.2586      0.3613     23.7217     24.7200    109.8643
  2878.0000      8.0665      2.3564      0.2860     17.7922     24.2328    121.9108
  2878.1000      8.0665      2.4618      0.2428     11.4036     23.3646    132.2353
  2878.2000      8.0665      2.5590      0.2379      5.5174     22.2114    132.7642
  2878.3000      8.0225      2.6084      0.2027      2.5199     21.2629    127.5046
  2878.4000      8.0225      2.6038      0.0675      2.8000     20.8751    128.0339
  2878.5000      7.9863      2.5773      0.0387      4.4065     20.9332    135.1786
  2878.6000      7.9863      2.5575      0.0298      5.6078     21.0320    142.4007
  2878.7000      7.9863      2.5592      0.0253      5.5015     20.8650    143.7197
  2878.8000      7.9782      2.5785      0.0824      4.3326     20.6554    139.6332
  2878.9000      7.9782      2.5973      0.0336      3.1962     20.7562    137.7538
  2879.0000      7.9787      2.6099      0.0675      2.4313     20.9278    139.2867
  2879.1000      7.9787      2.6101      0.0806      2.4179     20.8358    139.0186
  2879.2000      7.9787      2.5949      0.0222      3.3401     20.5296    138.0020
  2879.3000      7.9782      2.5799      0.0249      4.2510     20.0865    139.8243
  2879.4000      7.9782      2.5703      0.0631      4.8279     19.8450    143.7188
  2879.5000      7.9781      2.5624      0.0128      5.3111     20.0574    143.9946
  2879.6000      7.9781      2.5649      0.0321      5.1550     20.5557    137.7070
  2879.7000      7.9781      2.5776      0.0631      4.3850     20.6975    130.8708
  2879.8000      7.9798      2.5854      0.0391      3.9181     20.1005    127.6748
  2879.9000      7.9798      2.5852      0.0288      3.9270     19.5680    126.8882
  2880.0000      7.9802      2.5831      0.0870      4.0563     19.6446    127.3891
  2880.1000      7.9802      2.5816      0.0118      4.1434     19.8813    128.8007
  2880.2000      7.9802      2.5811      0.0287      4.1742     19.7407    130.4839
  2880.3000      7.9791      2.5754      0.0312      4.5203     19.2418    132.6009
  2880.4000      7.9791      2.5690     -0.0084      4.9089     18.8724    136.1716
  2880.5000      7.9777      2.5748      0.0162      4.5552     18.7798    138.3303
  2880.6000      7.9777      2.5863      0.0592      3.8592     18.7424    135.7164
  2880.7000      7.9777      2.5925      0.0321      3.4862     18.7408    132.8239
  2880.8000      7.9779      2.6002      0.0251      3.0199     18.5303    131.3666
  2880.9000      7.9779      2.6122      0.0824      2.2921     18.0156    127.3824
  2881.0000      7.9802      2.6179      0.0608      1.9482     17.8035    120.2343
  2881.1000      7.9802      2.6122      0.0349      2.2912     17.8417    113.5839
  2881.2000      7.9802      2.6009      0.0222      2.9753     17.5123    111.7478
  2881.3000      7.9809      2.5962      0.0307      3.2595     17.0903    112.2105
  2881.4000      7.9809      2.6018      0.0428      2.9206     17.2020    109.2189
  2881.5000      7.9807      2.6082      0.0592      2.5352     17.7494    101.0390
  2881.6000      7.9807      2.6134      0.0315      2.2159     18.3315     89.0193
  2881.7000      7.9807      2.6259      0.0409      1.4615     18.6025     81.6271
  2881.8000      7.9828      2.6430      0.0758      0.4222     18.3513     86.0766
  2881.9000      7.9828      2.6496      0.0844      0.0214     17.8619     96.3300
  2882.0000      7.9873      2.6411      0.0488      0.5378     17.5772    104.3547
  2882.1000      7.9873      2.6332      0.0689      1.0153     17.8998    109.0319
  2882.2000      7.9873      2.6380      0.0554      0.7266     18.8592    113.9859
  2882.3000      7.9926      2.6431      0.0896      0.4188     19.9809    120.5923
  2882.4000      7.9926      2.6366      0.0439      0.8141     20.9773    124.0070
  2882.5000      7.9991      2.6266      0.0418      1.4168     21.7522    121.5336
  2882.6000      7.9991      2.6151      0.0589      2.1153     22.3106    122.5759
  2882.7000      7.9991      2.5964      0.0220      3.2469     22.8034    137.5727
  2882.8000      8.0055      2.5732      0.0346      4.6536     23.1911    157.2117
  2882.9000      8.0055      2.5556      0.0201      5.7208     23.7158    164.9537
  2883.0000      8.0080      2.5559      0.0134      5.7017     24.6863    162.4487
  2883.1000      8.0080      2.5628      0.0437      5.2821     25.7209    162.0376
  2883.2000      8.0080      2.5511      0.0264      5.9944     26.3834    167.1954
  2883.3000      8.0063      2.5254      0.0264      7.5499     27.1380    170.3085
  2883.4000      8.0063      2.5073      0.0372      8.6511     28.3032    167.1229
  2883.5000      8.0038      2.4997      0.0485      9.1103     29.4988    164.6863
  2883.6000      8.0038      2.4803      0.0608     10.2853     30.3879    170.1866
  2883.7000      8.0038      2.4201      0.0459     13.9321     30.7662    176.6518
  2883.8000      8.0036      2.3147     -0.0191     20.3218     30.7462    173.5199
  2883.9000      8.0036      2.1858     -0.0464     28.1350     30.8132    163.3284
  2884.0000      8.0046      2.0571     -0.1020     35.9343     31.1557    153.7225
  2884.1000      8.0046      1.9424     -0.1444     42.8852     31.6116    145.7755
  2884.2000      8.0046      1.8470     -0.1705     48.6681     32.0027    135.9993
  2884.3000      8.0072      1.7728     -0.1915     53.1648     32.2468    122.2591
  2884.4000      8.0072      1.7253     -0.1488     56.0417     32.2439    106.0501
  2884.5000      8.0137      1.7161     -0.0984     56.5998     31.8850     90.1310
  2884.6000      8.0137      1.7522     -0.0248     54.4141     31.2275     79.1598
  2884.7000      8.0137      1.8267      0.0686     49.8941     30.4937     75.6019
  2884.8000      8.0195      1.9312      0.1490     43.5643     29.8993     77.2019
  2884.9000      8.0195      2.0572      0.2326     35.9289     29.4818     83.5174
  2885.0000      8.0045      2.1845      0.2602     28.2124     28.8844     93.5475
  2885.1000      8.0045      2.2983      0.2186     21.3172     27.9891    103.6535
  2885.2000      8.0045      2.4011      0.2298     15.0876     27.3498    112.1757
  2885.3000      7.9657      2.4867      0.2263      9.8961     27.2728    118.9044
  2885.4000      7.9657      2.5367      0.1795      6.8664     27.4077    122.1088
  2885.5000      7.9411      2.5460      0.1585      6.3041     27.5284    120.5672
