~Version Information
VERS.                      2.0: CWLS Log ASCII Standard - VERSION 2.0
WRAP.                       NO: One line per depth step
~Well Information Block
STRT.FT                10.0000: 
STOP.FT              1187.0000: 
STEP.FT                 0.1000: 
NULL.                -999.2500: 
COMP.          Pioneer Natural Resources: COMPANY
WELL.          Whitecoat 14-36: WELL
FLD.           Purgatorie River: FIELD
LOC.           606' FSL & 260' FWL: LOCATION
PROV.                 Colorado: PROVINCE
CNTY.               Las Animas: COUNTRY
SRVC.                Patterson: SERVICE COMPANY
DATE.          Tue Dec 06 07:14:37 2005: LOG DATE
UWI.                          : UNIQUE WELL ID
~Curve Information Block
DEPT.FT            0 000 00 00: Depth
DCAL.in                       : CDL Caliper
RHOB.g/cc                     : CDL Bulk Density
RHOC.g/cc                     : CDL Density Correction
DPOR.pu                       : CDL Density Porosity
GR.GAPI                       : Gamma Ray
NPOR.pu                       : Neutron Porosity
~Parameter Information Block
~A  Depth       DCAL        RHOB        RHOC        DPOR         GR         NPOR    
# ...
   470.8000      7.9913      2.6494      0.0454      0.0378    162.7383     27.0734
   470.9000      7.9913      2.6103     -0.0268      2.4044    164.0994     26.8160
   471.0000      7.9867      2.5749     -0.0447      4.5492    162.4416     26.5680
   471.1000      7.9867      2.5497     -0.0608      6.0759    159.2269     26.2564
   471.2000      7.9867      2.5342      0.0034      7.0190    157.9885     25.9536
   471.3000      8.0074      2.5146      0.0668      8.2080    159.7726     25.6770
   471.4000      8.0074      2.4848      0.0017     10.0138    162.3839     25.3484
   471.5000      8.0617      2.4619     -0.0005     11.3975    164.5705     25.0231
   471.6000      8.0617      2.4613     -0.0108     11.4369    168.0554     24.9118
   471.7000      8.0617      2.4785      0.0295     10.3918    173.5523     24.9587
   471.8000      8.0680      2.5076      0.0206      8.6311    177.2389     25.1287
   471.9000      8.0680      2.5517      0.0592      5.9570    176.5210     25.6013
   472.0000      8.0411      2.5993      0.1214      3.0745    172.6151     26.0940
   472.1000      8.0411      2.6204      0.1532      1.7951    167.3871     26.2747
   472.2000      8.0411      2.6034      0.1165      2.8213    162.9868     26.5070
   472.3000      8.0826      2.5609      0.1257      5.3973    161.3013     27.0842
   472.4000      8.0826      2.5096      0.0739      8.5121    162.2062     27.6747
   472.5000      8.0508      2.4706     -0.0072     10.8727    163.9147     27.8348
   472.6000      8.0508      2.4590     -0.0084     11.5771    164.0696     27.5017
   472.7000      8.0508      2.4629      0.0160     11.3389    162.9504     26.9628
   472.8000      8.0625      2.4591      0.0471     11.5667    163.3868     26.4703
   472.9000      8.0625      2.4496     -0.0100     12.1430    166.2184     26.0693
   473.0000      8.0628      2.4551      0.0463     11.8135    169.1390     25.8658
   473.1000      8.0628      2.4819      0.0256     10.1860    168.9020     25.8846
   473.2000      8.0628      2.5229      0.1252      7.7024    166.6747     25.7998
   473.3000      8.0540      2.5610      0.1824      5.3936    167.0328     25.5570
   473.4000      8.0540      2.5896      0.1325      3.6611    169.7994     25.4816
   473.5000      8.0913      2.6225      0.1674      1.6692    170.4532     25.5714
   473.6000      8.0913      2.6617      0.2345     -0.7098    170.1141     25.4539
   473.7000      8.0913      2.6948      0.2278     -2.7134    173.0200     25.1040
   473.8000      8.0774      2.7111      0.2678     -3.7018    176.0563     25.0502
   473.9000      8.0774      2.7009      0.2005     -3.0861    175.2220     25.5257
   474.0000      8.1086      2.6660      0.1060     -0.9682    171.3739     26.0242
   474.1000      8.1086      2.6191      0.0822      1.8736    165.3377     26.0912
   474.2000      8.1086      2.5705      0.0379      4.8152    160.0243     25.9474
   474.3000      8.1273      2.5268      0.0158      7.4658    159.1630     25.8042
   474.4000      8.1273      2.4913      0.0382      9.6177    160.9254     25.4433
   474.5000      8.0983      2.4648      0.0912     11.2240    162.9352     24.8141
   474.6000      8.0983      2.4496      0.1255     12.1481    164.7198     24.1250
   474.7000      8.0983      2.4597      0.0767     11.5314    164.9176     23.4113
   474.8000      8.0991      2.5087      0.1421      8.5654    165.2742     22.7537
   474.9000      8.0991      2.5694      0.2922      4.8818    168.3487     22.3983
   475.0000      8.2016      2.5980      0.2740      3.1540    172.3001     22.3663
   475.1000      8.2016      2.5894      0.2838      3.6698    176.3645     22.3692
   475.2000      8.2016      2.5694      0.2520      4.8878    181.1377     22.2147
   475.3000      8.2796      2.5569      0.2052      5.6396    185.1581     21.8908
   475.4000      8.2796      2.5495      0.2183      6.0924    186.2912     21.4535
   475.5000      8.3368      2.5301      0.1457      7.2676    184.5776     21.1469
   475.6000      8.3368      2.4899      0.0937      9.7004    182.1223     21.2473
   475.7000      8.3368      2.4362      0.0445     12.9584    181.5375     21.6602
   475.8000      8.3502      2.3836     -0.0081     16.1444    181.9345     21.9606
   475.9000      8.3502      2.3369     -0.0176     18.9758    179.0382     21.8854
   476.0000      8.3834      2.2846     -0.0565     22.1430    173.7805     21.5212
   476.1000      8.3834      2.2136     -0.0544     26.4515    169.8017     21.1298
   476.2000      8.3834      2.1101     -0.0211     32.7207    165.8653     20.5237
   476.3000      8.3315      1.9764     -0.1087     40.8243    160.1534     19.4458
   476.4000      8.3315      1.8462     -0.1200     48.7163    155.1393     18.2842
   476.5000      8.2771      1.7506     -0.1475     54.5068    150.7648     17.3119
   476.6000      8.2771      1.6904     -0.0759     58.1570    144.1211     16.5575
   476.7000      8.2771      1.6530     -0.1094     60.4222    137.2417     16.1424
   476.8000      8.2821      1.6448     -0.1190     60.9200    130.6562     16.0757
   476.9000      8.2821      1.6842     -0.0402     58.5324    120.7116     16.2013
   477.0000      8.2174      1.7724      0.0536     53.1866    110.5825     16.3824
   477.1000      8.2174      1.8921      0.1447     45.9311    105.5890     16.7229
   477.2000      8.2174      2.0241      0.1822     37.9362    104.5470     17.4525
   477.3000      8.2109      2.1531      0.1918     30.1140    105.3159     18.5927
   477.4000      8.2109      2.2664      0.2430     23.2492    107.7273     19.7989
   477.5000      8.1450      2.3572      0.2264     17.7453    110.8338     20.8086
   477.6000      8.1450      2.4278      0.2017     13.4670    114.5175     21.6944
   477.7000      8.1450      2.4816      0.2253     10.2067    118.1169     22.5461
   477.8000      8.0636      2.5216      0.2165      7.7814    118.5279     23.2451
   477.9000      8.0636      2.5482      0.1908      6.1668    116.6559     23.5744
   478.0000      8.0670      2.5530      0.2079      5.8758    116.5861     23.5476
   478.1000      8.0670      2.5377      0.1357      6.8031    119.3096     23.3999
   478.2000      8.0670      2.5275      0.0972      7.4257    123.5022     23.3493
   478.3000      8.0647      2.5412      0.1354      6.5927    127.6771     23.6059
   478.4000      8.0647      2.5740      0.1266      4.6052    131.3148     24.0833
   478.5000      8.0828      2.6076      0.1483      2.5709    134.5083     24.4470
   478.6000      8.0828      2.6183      0.1787      1.9188    137.0917     24.5183
   478.7000      8.0828      2.6022      0.1177      2.8950    138.9806     24.3561
   478.8000      8.0972      2.5856      0.0944      3.9056    139.9469     24.2305
   478.9000      8.0972      2.5894      0.0857      3.6746    141.4191     24.3862
   479.0000      8.0899      2.6113      0.1282      2.3433    144.0464     24.8319
   479.1000      8.0899      2.6339      0.1596      0.9728    144.5322     25.4916
   479.2000      8.0899      2.6415      0.1508      0.5132    140.4814     26.2607
   479.3000      8.0876      2.6356      0.1364      0.8700    135.1389     26.9437
   479.4000      8.0876      2.6219      0.1267      1.7057    133.7085     27.3536
   479.5000      8.0698      2.6025      0.0620      2.8793    136.5348     27.3837
   479.6000      8.0698      2.5826      0.0836      4.0826    139.3372     27.1959
   479.7000      8.0698      2.5683      0.0432      4.9488    139.3848     27.0316
   479.8000      8.0611      2.5659      0.0470      5.0989    136.9383     26.7745
   479.9000      8.0611      2.5741      0.0409      4.6009    134.4824     26.3809
   480.0000      8.0499      2.5828      0.0883      4.0742    134.3113     26.0403
   480.1000      8.0499      2.5786      0.0807      4.3282    135.7437     25.8579
   480.2000      8.0499      2.5615      0.0365      5.3657    137.9204     25.7137
   480.3000      8.0293      2.5432      0.0644      6.4703    141.3488     25.4443
