~Version Information
VERS.                      2.0: CWLS Log ASCII Standard - VERSION 2.0
WRAP.                       NO: One line per depth step
~Well Information Block
STRT.FT               260.0000: 
STOP.FT              1230.0000: 
STEP.FT                 0.2500: 
NULL.                -999.2500: 
COMP.          Pioneer Natural Resources: COMPANY
WELL.             Mahalo 12-20: WELL
FLD.           Purgatoire River: FIELD
LOC.           1689' FNL & 479' FWL: LOCATION
CNTY.               Las Animas: COUNTY
SRVC.                Patterson: SERVICE COMPANY
DATE.          Thu Feb 23 20:25:01 2006: LOG DATE
UWI.           05 071 08700 00: UNIQUE WELL ID
STAT.                 Colorado: STATE
~Curve Information Block
DEPT.FT            0 000 00 00: Depth
SN.Ohm-m                      : IEL Short Normal
SP.mV                         : IEL Spontaneous Potential
DIR.Ohm-m                     : IEL Induction Resistivity
GR.GAPI                       : Gamma Ray
~Parameter Information Block
~A  Depth        SN          SP         DIR          GR     
# ...
   963.5000     14.4475     56.5290     12.8049     99.9183
   963.7500     14.2455     56.5839     12.7566    100.5459
   964.0000     14.0788     56.6883     12.7651    100.9831
   964.2500     13.9858     56.8316     12.8394    101.6368
   964.5000     13.9326     56.9904     12.9842    103.9085
   964.7500     13.9479     57.1336     13.2037    106.0576
   965.0000     14.0861     57.2298     13.5036    109.2438
   965.2500     14.3807     57.2568     13.8881    110.9064
   965.5000     14.8725     57.2105     14.3578    112.1469
   965.7500     15.5998     57.1064     14.9100    111.5871
   966.0000     16.5304     56.9732     15.5396    107.3631
   966.2500     17.5411     56.8396     16.2407    101.7324
   966.5000     18.5586     56.7245     17.0084     89.1824
   966.7500     19.6782     56.6348     17.8429     78.9366
   967.0000     21.0754     56.5686     18.7540     63.2945
   967.2500     22.8768     56.5191     19.7602     54.3687
   967.5000     25.1036     56.4781     20.8833     45.6697
   967.7500     27.6227     56.4385     22.1368     43.8712
   968.0000     30.1158     56.3936     23.5080     47.2407
   968.2500     32.2192     56.3376     24.9301     52.5410
   968.5000     33.7740     56.2688     26.2567     62.1999
   968.7500     34.8175     56.1946     27.2630     68.1975
   969.0000     35.3733     56.1291     27.7035     75.3197
   969.2500     35.4077     56.0881     27.4179     79.2874
   969.5000     34.9043     56.0865     26.4236     86.3013
   969.7500     33.8656     56.1400     24.9197     92.7849
   970.0000     32.2971     56.2640     23.1943    104.6118
   970.2500     30.2862     56.4661     21.5087    111.9576
   970.5000     28.0154     56.7337     20.0260    118.3760
   970.7500     25.6204     57.0313     18.7978    118.6028
   971.0000     23.1726     57.3111     17.7882    114.4161
   971.2500     20.8100     57.5307     16.9139    110.8369
   971.5000     18.7716     57.6681     16.0897    107.9154
   971.7500     17.2843     57.7272     15.2672    108.3331
   972.0000     16.3664     57.7364     14.4486    110.9263
   972.2500     15.7670     57.7373     13.6732    112.2899
   972.5000     15.2095     57.7694     12.9873    111.8075
   972.7500     14.6326     57.8568     12.4197    109.7355
   973.0000     14.1029     58.0015     11.9716    105.3849
   973.2500     13.6570     58.1855     11.6214    102.7837
   973.5000     13.3330     58.3781     11.3355    100.9882
   973.7500     13.1673     58.5469     11.0819    101.6874
   974.0000     13.1151     58.6703     10.8384    105.0659
   974.2500     13.0899     58.7446     10.5945    107.7725
   974.5000     13.0464     58.7842     10.3488    110.5289
   974.7500     13.0008     58.8122     10.1052    111.2039
   975.0000     12.9858     58.8475      9.8733    111.5964
   975.2500     12.9814     58.8947      9.6670    112.1477
   975.5000     12.9441     58.9456      9.5015    113.3140
   975.7500     12.8679     58.9872      9.3878    113.7466
   976.0000     12.7306     59.0102      9.3289    113.2116
   976.2500     12.5156     59.0119      9.3206    111.9643
   976.5000     12.2904     58.9955      9.3542    108.6213
   976.7500     12.0921     58.9650      9.4187    105.5463
   977.0000     11.8963     58.9188      9.5044    101.0210
   977.2500     11.7631     58.8457      9.6052     99.2187
   977.5000     11.7992     58.7294      9.7212     99.2243
   977.7500     12.0114     58.5605      9.8585    100.4839
   978.0000     12.3185     58.3481     10.0244    102.4344
   978.2500     12.6015     58.1215     10.2232    102.9181
   978.5000     12.7447     57.9201     10.4524    101.6827
   978.7500     12.7667     57.7772     10.7013     99.4280
   979.0000     12.8124     57.7074     10.9511     94.3246
   979.2500     12.9491     57.7032     11.1770     90.5591
   979.5000     13.1308     57.7423     11.3522     86.2904
   979.7500     13.3118     57.8004     11.4572     85.2056
   980.0000     13.4387     57.8634     11.4915     86.1787
   980.2500     13.4381     57.9309     11.4793     87.6796
   980.5000     13.3502     58.0126     11.4596     89.3284
   980.7500     13.2981     58.1211     11.4673     89.4209
   981.0000     13.2381     58.2655     11.5169     88.3906
   981.2500     12.9774     58.4472     11.6003     87.7052
   981.5000     12.4702     58.6577     11.6958     88.1915
   981.7500     11.9246     58.8807     11.7811     90.0502
   982.0000     11.6015     59.0929     11.8416     94.7342
   982.2500     11.6092     59.2653     11.8718     98.0210
   982.5000     11.8945     59.3684     11.8726    100.6817
   982.7500     12.3198     59.3837     11.8487    100.0325
   983.0000     12.7317     59.3162     11.8079     96.0750
   983.2500     13.0325     59.1942     11.7620     92.8864
   983.5000     13.2102     59.0541     11.7268     89.7659
   983.7500     13.3116     58.9196     11.7197     89.3963
   984.0000     13.4097     58.7924     11.7566     90.8329
   984.2500     13.5344     58.6581     11.8480     92.4067
   984.5000     13.6306     58.4987     11.9952     94.9247
   984.7500     13.6501     58.3043     12.1866     96.6859
   985.0000     13.6171     58.0780     12.3977     99.6195
   985.2500     13.5618     57.8379     12.5944    101.6202
   985.5000     13.4975     57.6117     12.7397    104.0084
   985.7500     13.4597     57.4245     12.8016    104.9088
   986.0000     13.4712     57.2853     12.7588    105.3507
   986.2500     13.4952     57.1798     12.6063    105.2730
   986.5000     13.5167     57.0777     12.3579    104.8266
   986.7500     13.5702     56.9521     12.0439    104.4470
   987.0000     13.5964     56.7997     11.7028    104.4030
   987.2500     13.4479     56.6439     11.3706    105.1300
   987.5000     13.1272     56.5183     11.0734    107.1572
   987.7500     12.8282     56.4442     10.8252    108.4047
   988.0000     12.6886     56.4205     10.6317    108.8999
   988.2500     12.6772     56.4274     10.4938    108.2582
   988.5000     12.7110     56.4387     10.4088    106.9252
   988.7500     12.7104     56.4359     10.3669    106.5784
   989.0000     12.5826     56.4168     10.3473    107.3360
   989.2500     12.3280     56.3941     10.3194    108.2095
   989.5000     12.0803     56.3883     10.2536    108.4899
   989.7500     11.9264     56.4214     10.1362    107.1931
   990.0000     11.8247     56.5110      9.9780    102.7068
   990.2500     11.6905     56.6654      9.8073     98.5633
   990.5000     11.4464     56.8809      9.6561     92.4131
   990.7500     11.1313     57.1412      9.5478     89.4809
   991.0000     10.9467     57.4185      9.4954     87.9725
   991.2500     11.0115     57.6802      9.5037     88.8024
   991.5000     11.2243     57.9004      9.5722     91.5732
   991.7500     11.4423     58.0706      9.6939     93.5471
   992.0000     11.6264     58.1996      9.8514     95.5746
   992.2500     11.7706     58.3058     10.0134     95.9596
   992.5000     11.8017     58.4068     10.1392     94.8377
   992.7500     11.6802     58.5119     10.1927     93.0077
   993.0000     11.5282     58.6196     10.1618     89.3733
   993.2500     11.4983     58.7208     10.0646     87.2173
   993.5000     11.6165     58.8062      9.9376     85.9987
   993.7500     11.8129     58.8709      9.8162     87.0719
   994.0000     11.9641     58.9126      9.7219     91.4063
   994.2500     11.9246     58.9250      9.6611     95.5990
   994.5000     11.6448     58.8954      9.6303    102.6051
   994.7500     11.2501     58.8087      9.6219    107.0808
   995.0000     10.9211     58.6561      9.6280    112.9540
   995.2500     10.7114     58.4417      9.6398    116.3036
   995.5000     10.5768     58.1865      9.6452    120.2731
   995.7500     10.5144     57.9236      9.6291    121.8429
   996.0000     10.5444     57.6893      9.5770    122.3371
   996.2500     10.6254     57.5127      9.4801    121.8495
   996.5000     10.6936     57.4090      9.3382    120.8924
   996.7500     10.7193     57.3750      9.1589    120.2205
