~Version Information
VERS.                      2.0: CWLS Log ASCII Standard - VERSION 2.0
WRAP.                       NO: One line per depth step
~Well Information Block
STRT.FT                -8.2500: 
STOP.FT              1580.5000: 
STEP.FT                 0.2500: 
NULL.                -999.2500: 
COMP.          Pioneer Natural Resources: COMPANY
WELL.          Daytona 31-14 Tr: WELL
FLD.           Purgatorie River: FIELD
LOC.           683' FNL & 1943' FEL--: LOCATION
CNTY.               Las Animas: COUNTY
SRVC.          Patterson Wireline: SERVICE COMPANY
DATE.          Thu Feb 02 08:47:22 2006: LOG DATE
UWI.           05 071 08681 00: UNIQUE WELL ID
STAT.                       CO: STATE
~Curve Information Block
DEPT.FT            0 000 00 00: Depth
CCL.                          : Casing Collar Locator
TT3.usec                      : CBL 3' Travel Time
AMP3.mV                       : CBL 3' Amplitude
GR.GAPI                       : Gamma Ray
~Parameter Information Block
~A  Depth       CCL         TT3         AMP3         GR     
# ...
   929.7500      0.0000    752.8579      3.0378     77.4755
   930.0000      0.0000    748.4678      2.7209     76.2092
   930.2500      0.0000    745.3593      2.4774     72.0186
   930.5000      0.0000    746.0117      2.3128     66.3545
   930.7500      0.0000    747.7809      2.2139     60.8249
   931.0000      0.0000    743.7904      2.1490     56.6502
   931.2500      0.0000    730.6376      2.0936     54.4865
   931.5000      0.0000    711.8430      2.0486     54.8093
   931.7500      0.0000    693.6763      2.0340     58.3882
   932.0000      0.0000    680.6454      2.0754     66.0360
   932.2500      0.0000    674.9995      2.1982     77.6934
   932.5000      0.0000    677.3326      2.4231     91.9053
   932.7500      0.0000    686.2808      2.7581    106.3475
   933.0000      0.0000    698.5937      3.1985    118.7369
   933.2500      0.0000    709.8591      3.7333    127.4149
   933.5000      0.0000    715.2967      4.3453    131.9122
   933.7500      0.0000    711.6102      5.0007    133.5578
   934.0000      0.0000    699.7240      5.6406    134.9393
   934.2500      0.0000    685.1075      6.1869    137.8916
   934.5000      0.0000    674.0651      6.5686    141.9790
   934.7500      0.0000    669.4076      6.7545    145.2989
   935.0000      0.0000    669.6872      6.7694    146.6055
   935.2500      0.0000    671.7921      6.6794    146.4513
   935.5000      0.0000    673.5862      6.5585    146.4345
   935.7500      0.0000    674.5185      6.4579    147.3471
   936.0000      0.0000    674.8317      6.3977    147.9467
   936.2500      0.0000    674.7639      6.3778    145.8050
   936.5000      0.0000    674.2339      6.3941    139.7226
   936.7500      0.0000    672.8080      6.4440    131.1218
   937.0000      0.0000    669.8071      6.5189    122.8442
   937.2500      0.0000    664.8355      6.5997    116.8467
   937.5000      0.0000    658.6014      6.6641    113.2324
   937.7500      0.0000    653.1127      6.6981    111.1113
   938.0000      0.0000    650.5626      6.6983    109.9226
   938.2500      0.0000    651.8639      6.6681    109.7840
   938.5000      0.0000    656.2964      6.6151    110.7301
   938.7500      0.0000    662.2117      6.5509    111.9912
   939.0000      0.0000    667.8569      6.4880    112.3792
   939.2500      0.0000    672.0126      6.4385    111.3750
   939.5000      0.0000    674.3558      6.4149    109.5160
   939.7500      0.0000    675.2719      6.4221    107.7226
   940.0000      0.0000    675.2231      6.4403    106.6237
   940.2500      0.0000    674.1690      6.4256    106.4123
   940.5000      0.0000    671.3642      6.3419    106.6411
   940.7500      0.0000    665.7247      6.1988    106.0011
   941.0000      0.0000    656.7748      6.0514    103.1370
   941.2500      0.0000    645.3328      5.9605     98.1288
   941.5000      0.0000    632.7218      5.9527     92.7638
   941.7500      0.0000    618.8525      6.0130     89.2427
   942.0000      0.0000    601.5640      6.1041     89.0117
   942.2500      0.0000    579.5212      6.1910     92.6345
   942.5000      0.0000    557.1870      6.2528    100.0554
   942.7500      0.0000    545.5510      6.2826    110.5044
   943.0000      0.0000    554.0120      6.2828    122.2210
   943.2500      0.0000    580.3715      6.2583    132.6664
   943.5000      0.0000    611.7535      6.2108    139.5005
   943.7500      0.0000    636.2348      6.1376    141.6682
   944.0000      0.0000    651.0566      6.0376    139.7448
   944.2500      0.0000    659.8476      5.9139    135.2807
   944.5000      0.0000    665.9641      5.7682    129.4483
   944.7500      0.0000    670.2559      5.5938    121.9298
   945.0000      0.0000    672.7936      5.3797    111.4088
   945.2500      0.0000    674.4003      5.1269     97.5367
   945.5000      0.0000    676.6397      4.8589     82.1344
   945.7500      0.0000    681.0052      4.6134     68.1738
   946.0000      0.0000    687.9473      4.4205     57.8741
   946.2500      0.0000    696.4382      4.2900     51.7760
   946.5000      0.0000    704.6079      4.2303     48.9795
   946.7500      0.0000    710.8284      4.2724     47.8934
   947.0000      0.0000    713.9583      4.4635     47.2528
   947.2500      0.0000    712.9703      4.8315     46.9586
   947.5000      0.0000    707.0413      5.3670     47.8970
   947.7500      0.0000    695.8247      6.0464     50.7732
   948.0000      0.0000    678.4385      6.8650     55.2671
   948.2500      0.0000    651.8070      7.8406     60.3434
   948.5000      0.0000    611.6981      8.9856     65.1823
   948.7500      0.0000    557.7320     10.2784     69.9289
   949.0000      0.0000    497.2426     11.6555     75.6000
   949.2500      0.0000    441.9901     13.0234     83.0631
   949.5000      0.0000    400.6763     14.2602     92.1018
   949.7500      0.0000    376.1994     15.2042    101.6067
   950.0000      0.0000    369.6566     15.6760    110.4612
   950.2500      0.0000    384.0587     15.5609    117.9137
   950.5000      0.0000    422.1550     14.8897    123.3219
   950.7500      0.0000    480.6008     13.8304    126.3586
   951.0000      0.0000    547.3033     12.6025    127.9070
   951.2500      0.0000    606.1355     11.3943    130.2384
   951.5000      0.0000    645.5814     10.3236    135.5362
   951.7500      0.0000    663.9248      9.4317    143.8389
   952.0000      0.0000    667.7900      8.7014    152.3249
   952.2500      0.0000    666.5652      8.0933    156.9061
   952.5000      0.0000    666.7579      7.5751    154.9653
   952.7500      0.0000    669.7211      7.1286    146.9971
   953.0000      0.0000    673.5814      6.7471    136.2168
   953.2500      0.0000    676.4922      6.4319    126.9405
   953.5000      0.0000    678.0551      6.1858    122.4235
   953.7500      0.0000    678.8421      6.0056    122.9833
   954.0000      0.0000    679.6599      5.8798    126.1161
   954.2500      0.0000    681.1432      5.7947    129.0154
   954.5000      0.0000    683.3352      5.7439    130.9407
   954.7500      0.0000    685.3510      5.7336    132.9577
   955.0000      0.0000    685.8356      5.7752    135.9688
   955.2500      0.0000    684.1895      5.8711    139.5450
   955.5000      0.0000    681.2340      6.0108    142.1803
   955.7500      0.0000    678.4247      6.1777    142.1428
   956.0000      0.0000    676.6185      6.3561    138.6965
   956.2500      0.0000    675.7532      6.5309    133.1901
   956.5000      0.0000    675.3751      6.6848    128.3825
   956.7500      0.0000    675.1564      6.8014    125.9443
   957.0000      0.0000    675.0195      6.8711    124.9582
   957.2500      0.0000    675.0294      6.8944    123.4062
   957.5000      0.0000    675.2642      6.8807    120.4834
   957.7500      0.0000    675.7303      6.8446    116.7924
   958.0000      0.0000    676.3297      6.8012    113.0682
   958.2500      0.0000    676.8383      6.7618    109.6427
   958.5000      0.0000    676.6874      6.7340    106.6356
   958.7500      0.0000    674.3572      6.7241    103.7930
   959.0000      0.0000    666.6083      6.7399    100.4771
   959.2500      0.0000    648.9646      6.7903     96.6457
   959.5000      0.0000    619.5971      6.8805     93.7011
   959.7500      0.0000    585.2266      7.0028     93.4983
   960.0000      0.0000    561.3856      7.1320     96.2887
   960.2500      0.0000    561.8051      7.2346    100.1189
   960.5000      0.0000    585.9781      7.2897    102.6066
   960.7500      0.0000    619.7144      7.3013    103.2445
   961.0000      0.0000    647.9535      7.2928    103.7961
   961.2500      0.0000    664.7177      7.2891    106.3693
   961.5000      0.0000    672.2047      7.3050    111.2970
   961.7500      0.0000    674.8420      7.3439    117.0624
   962.0000      0.0000    675.6347      7.4045    121.9607
   962.2500      0.0000    675.8515      7.4852    125.3309
   962.5000      0.0000    675.8611      7.5829    127.3468
   962.7500      0.0000    675.7794      7.6868    128.3957
   963.0000      0.0000    675.7100      7.7765    129.0984
