~Version Information
VERS.                      2.0: CWLS Log ASCII Standard - VERSION 2.0
WRAP.                       NO: One line per depth step
~Well Information Block
STRT.FT                -9.0000: 
STOP.FT              1754.0000: 
STEP.FT                 0.2500: 
NULL.                -999.2500: 
COMP.          Pioneer Natural Resources: COMPANY
WELL.          Touchstone 11-32 Tr: WELL
FLD.           Purgatorie River: FIELD
LOC.           782' FNL & 840' FWL--: LOCATION
CNTY.               Las Animas: COUNTY
SRVC.          Patterson Wireline: SERVICE COMPANY
DATE.          Mon Mar 06 09:18:09 2006: LOG DATE
UWI.           05 071 08626 00: UNIQUE WELL ID
STAT.                       CO: STATE
~Curve Information Block
DEPT.FT            0 000 00 00: Depth
CCL.                          : Casing Collar Locator
TT3.usec                      : CBL 3' Travel Time
AMP3.mV                       : CBL 3' Amplitude
GR.GAPI                       : Gamma Ray
~Parameter Information Block
~A  Depth       CCL         TT3         AMP3         GR     
# ...
   460.0000      0.0000    915.1362      6.0862    145.3361
   460.2500      0.0000    927.9753      6.0709    147.4426
   460.5000      0.0000    932.4144      6.1653    148.0550
   460.7500      0.0000    920.7231      6.4113    147.5316
   461.0000      0.0000    893.7982      6.7516    146.3436
   461.2500      0.0000    862.6247      7.0452    144.3851
   461.5000      0.0000    838.9865      7.1892    141.2820
   461.7500      0.0000    826.8694      7.2050    136.9092
   462.0000      0.0000    823.0874      7.1854    131.2517
   462.2500      0.0000    822.9156      7.1956    124.3001
   462.5000      0.0000    823.5456      7.2447    116.9916
   462.7500      0.0000    824.0590      7.3172    111.9982
   463.0000      0.0000    824.3124      7.3992    112.4107
   463.2500      0.0000    824.2431      7.4800    119.0424
   463.5000      0.0000    823.6469      7.5490    129.3194
   463.7500      0.0000    822.2847      7.5980    139.1264
   464.0000      0.0000    820.2497      7.6244    145.8053
   464.2500      0.0000    818.3122      7.6321    149.4062
   464.5000      0.0000    817.6199      7.6282    151.3587
   464.7500      0.0000    818.7202      7.6202    152.4592
   465.0000      0.0000    820.9615      7.6147    152.3104
   465.2500      0.0000    823.0374      7.6152    150.3425
   465.5000      0.0000    823.9648      7.6170    146.8793
   465.7500      0.0000    823.4118      7.6080    143.3252
   466.0000      0.0000    821.4584      7.5774    141.6604
   466.2500      0.0000    818.5598      7.5275    143.4129
   466.5000      0.0000    815.7768      7.4737    148.3874
   466.7500      0.0000    814.4867      7.4319    154.2890
   467.0000      0.0000    815.3592      7.4070    158.0391
   467.2500      0.0000    817.6967      7.3959    157.7438
   467.5000      0.0000    819.9738      7.3989    153.5495
   467.7500      0.0000    820.7936      7.4257    146.9855
   468.0000      0.0000    819.2128      7.4862    139.8496
   468.2500      0.0000    814.7098      7.5766    133.5602
   468.5000      0.0000    807.4489      7.6764    129.0200
   468.7500      0.0000    798.4806      7.7620    126.4931
   469.0000      0.0000    789.2120      7.8249    125.2491
   469.2500      0.0000    780.6902      7.8722    123.5918
   469.5000      0.0000    773.7043      7.9124    119.9669
   469.7500      0.0000    769.1949      7.9444    114.5484
   470.0000      0.0000    767.6121      7.9631    109.6540
   470.2500      0.0000    767.7297      7.9700    108.1849
   470.5000      0.0000    767.0281      7.9746    111.2886
   470.7500      0.0000    763.9362      7.9869    117.4623
   471.0000      0.0000    759.4055      8.0090    123.8690
   471.2500      0.0000    755.8447      8.0346    128.3219
   471.5000      0.0000    754.7919      8.0539    130.1793
   471.7500      0.0000    756.1539      8.0614    130.2894
   472.0000      0.0000    759.3889      8.0579    130.7231
   472.2500      0.0000    764.3191      8.0470    133.7916
   472.5000      0.0000    770.4592      8.0316    140.0699
   472.7500      0.0000    776.4798      8.0113    147.2628
   473.0000      0.0000    781.0006      7.9842    151.8699
   473.2500      0.0000    783.5882      7.9498    152.4343
   473.5000      0.0000    784.7178      7.9091    150.8405
   473.7500      0.0000    785.0884      7.8624    150.2276
   474.0000      0.0000    785.1664      7.8086    152.0186
   474.2500      0.0000    785.1556      7.7486    155.1636
   474.5000      0.0000    785.1151      7.6880    157.7414
   474.7500      0.0000    785.0131      7.6336    158.6649
   475.0000      0.0000    784.6893      7.5867    158.0238
   475.2500      0.0000    783.8192      7.5406    156.6292
   475.5000      0.0000    782.0507      7.4863    155.5288
   475.7500      0.0000    779.4015      7.4238    155.3416
   476.0000      0.0000    776.6349      7.3657    155.7151
   476.2500      0.0000    775.0228      7.3285    155.5661
   476.5000      0.0000    775.4824      7.3170    153.7522
   476.7500      0.0000    778.1036      7.3188    149.2874
   477.0000      0.0000    782.6644      7.3146    141.2899
   477.2500      0.0000    789.2026      7.2923    129.4050
   477.5000      0.0000    797.6526      7.2522    114.5268
   477.7500      0.0000    807.2120      7.1987     98.8810
   478.0000      0.0000    816.5413      7.1340     85.2152
   478.2500      0.0000    824.4500      7.0582     75.6740
   478.5000      0.0000    830.0723      6.9743     71.0627
   478.7500      0.0000    832.8434      6.8882     70.9218
   479.0000      0.0000    833.1523      6.8087     74.3559
   479.2500      0.0000    833.0342      6.7463     80.8011
   479.5000      0.0000    835.4798      6.7092     89.9159
   479.7500      0.0000    842.0433      6.6974    100.8294
   480.0000      0.0000    850.2764      6.7020    111.8321
   480.2500      0.0000    853.8997      6.7102    120.9745
   480.5000      0.0000    847.3469      6.7105    127.0475
   480.7500      0.0000    831.1490      6.6978    130.1633
   481.0000      0.0000    811.9736      6.6769    131.4953
   481.2500      0.0000    797.0932      6.6621    132.1766
   481.5000      0.0000    789.5706      6.6686    132.2244
   481.7500      0.0000    788.0596      6.7019    130.7544
   482.0000      0.0000    789.2074      6.7574    127.3939
   482.2500      0.0000    789.9084      6.8281    123.0711
   482.5000      0.0000    788.7278      6.9102    119.3720
   482.7500      0.0000    786.1625      7.0029    117.6585
   483.0000      0.0000    783.5644      7.1051    118.7180
   483.2500      0.0000    781.8207      7.2150    122.5173
   483.5000      0.0000    781.0879      7.3304    128.1086
   483.7500      0.0000    781.4405      7.4499    134.2079
   484.0000      0.0000    783.5190      7.5743    139.9895
   484.2500      0.0000    788.4680      7.7058    145.1106
   484.5000      0.0000    796.8541      7.8430    149.1145
   484.7500      0.0000    807.1445      7.9746    151.3714
   485.0000      0.0000    815.7405      8.0841    151.7133
   485.2500      0.0000    819.7058      8.1643    150.6989
   485.5000      0.0000    819.4383      8.2237    149.0272
   485.7500      0.0000    817.6935      8.2720    147.0634
   486.0000      0.0000    816.5672      8.3046    145.1743
   486.2500      0.0000    816.8062      8.3066    144.1071
   486.5000      0.0000    819.1046      8.2742    144.4628
   486.7500      0.0000    823.8838      8.2253    145.7498
   487.0000      0.0000    829.9699      8.1874    146.3564
   487.2500      0.0000    835.2014      8.1776    144.8139
   487.5000      0.0000    838.6171      8.1914    141.0386
   487.7500      0.0000    841.2563      8.2090    136.0826
   488.0000      0.0000    844.5867      8.2105    130.6982
   488.2500      0.0000    848.5992      8.1881    124.6036
   488.5000      0.0000    851.9229      8.1481    117.2659
   488.7500      0.0000    853.6256      8.1058    108.9623
   489.0000      0.0000    854.0716      8.0768    100.8537
   489.2500      0.0000    853.7920      8.0697     94.3550
   489.5000      0.0000    852.5439      8.0858     90.5182
   489.7500      0.0000    850.2106      8.1238     89.6434
   490.0000      0.0000    847.7878      8.1830     90.9948
   490.2500      0.0000    846.1469      8.2615     92.8379
   490.5000      0.0000    843.9175      8.3523     93.2762
   490.7500      0.0000    837.8713      8.4422     91.7503
   491.0000      0.0000    826.1351      8.5154     89.6690
   491.2500      0.0000    810.5726      8.5588     88.9602
   491.5000      0.0000    795.4577      8.5695     89.9241
   491.7500      0.0000    784.0664      8.5581     90.9238
   492.0000      0.0000    776.8154      8.5404     90.1234
   492.2500      0.0000    772.1552      8.5206     87.1770
   492.5000      0.0000    768.5723      8.4859     83.3582
   492.7500      0.0000    765.8147      8.4202     80.4550
   493.0000      0.0000    764.5944      8.3231     79.6359
   493.2500      0.0000    765.3149      8.2099     81.0403
