~Version Information
VERS.                      2.0: CWLS Log ASCII Standard - VERSION 2.0
WRAP.                       NO: One line per depth step
~Well Information Block
STRT.FT               845.0000: 
STOP.FT              2103.2000: 
STEP.FT                 0.1000: 
NULL.                -999.2500: 
COMP.          Petrogulf Corporation: COMPANY
WELL.               YWAM 7-32R: WELL
FLD.           Purgatorie River: FIELD
LOC.           2355' FNL & 2376' FEL: LOCATION
PROV.                 Colorado: PROVINCE
CNTY.               Las Animas: COUNTRY
SRVC.                Patterson: SERVICE COMPANY
DATE.          Thu Sep 29 23:12:08 2005: LOG DATE
UWI.                          : UNIQUE WELL ID
~Curve Information Block
DEPT.FT            0 000 00 00: Depth
SP.mV                         : DIL Spontaneous Potential
RILD.Ohm-m                    : DIL Deep Resistivity
RILM.Ohm-m                    : DIL Medium Resistivity
RLL3.Ohm-m                    : DIL Shallow Resistivity
GR.GAPI                       : Gamma Ray
~Parameter Information Block
~A  Depth        SP         RILD        RILM        RLL3         GR     
# ...
  1673.8000    196.0223      7.6940      7.7283      8.3861    161.8184
  1673.9000    196.0223      7.6940      7.7283      8.3861    160.9502
  1674.0000    195.6867      7.7877      7.7668      8.2887    159.9418
  1674.1000    195.6867      7.7877      7.7668      8.2887    158.8298
  1674.2000    195.6867      7.7877      7.7668      8.2887    157.6367
  1674.3000    195.4238      7.9052      7.8483      8.2365    156.3806
  1674.4000    195.4238      7.9052      7.8483      8.2365    155.0833
  1674.5000    195.2211      8.0451      7.9781      8.2857    153.7731
  1674.6000    195.2211      8.0451      7.9781      8.2857    152.4948
  1674.7000    195.2211      8.0451      7.9781      8.2857    151.2970
  1674.8000    195.0688      8.2047      8.1601      8.5018    150.2295
  1674.9000    195.0688      8.2047      8.1601      8.5018    149.3215
  1675.0000    194.9693      8.3800      8.3961      8.9297    148.5742
  1675.1000    194.9693      8.3800      8.3961      8.9297    147.9555
  1675.2000    194.9693      8.3800      8.3961      8.9297    147.4015
  1675.3000    194.9388      8.5651      8.6851      9.5620    146.8323
  1675.4000    194.9388      8.5651      8.6851      9.5620    146.1674
  1675.5000    194.9956      8.7530      9.0227     10.3172    145.3438
  1675.6000    194.9956      8.7530      9.0227     10.3172    144.3347
  1675.7000    194.9956      8.7530      9.0227     10.3172    143.1451
  1675.8000    195.1456      8.9352      9.3998     11.0642    141.8166
  1675.9000    195.1456      8.9352      9.3998     11.0642    140.4135
  1676.0000    195.3753      9.1030      9.8006     11.7224    139.0057
  1676.1000    195.3753      9.1030      9.8006     11.7224    137.6532
  1676.2000    195.3753      9.1030      9.8006     11.7224    136.4007
  1676.3000    195.6586      9.2479     10.2016     12.3790    135.2689
  1676.4000    195.6586      9.2479     10.2016     12.3790    134.2582
  1676.5000    195.9700      9.3621     10.5704     13.2862    133.3514
  1676.6000    195.9700      9.3621     10.5704     13.2862    132.5222
  1676.7000    195.9700      9.3621     10.5704     13.2862    131.7408
  1676.8000    196.2977      9.4408     10.8683     14.6633    130.9746
  1676.9000    196.2977      9.4408     10.8683     14.6633    130.1926
  1677.0000    196.6441      9.4827     11.0565     16.4152    129.3641
  1677.1000    196.6441      9.4827     11.0565     16.4152    128.4575
  1677.2000    196.6441      9.4827     11.0565     16.4152    127.4452
  1677.3000    197.0139      9.4908     11.1066     18.0109    126.3111
  1677.4000    197.0139      9.4908     11.1066     18.0109    125.0580
  1677.5000    197.3937      9.4697     11.0104     18.7033    123.7177
  1677.6000    197.3937      9.4697     11.0104     18.7033    122.3522
  1677.7000    197.3937      9.4697     11.0104     18.7033    121.0607
  1677.8000    197.7420      9.4233     10.7845     18.0000    119.9670
  1677.9000    197.7420      9.4233     10.7845     18.0000    119.2070
  1678.0000    197.9991      9.3532     10.4653     16.0212    118.9147
  1678.1000    197.9991      9.3532     10.4653     16.0212    119.2013
  1678.2000    197.9991      9.3532     10.4653     16.0212    120.1438
  1678.3000    198.1114      9.2595     10.0973     13.4346    121.7704
  1678.4000    198.1114      9.2595     10.0973     13.4346    124.0645
  1678.5000    198.0542      9.1418      9.7215     11.0370    126.9552
  1678.6000    198.0542      9.1418      9.7215     11.0370    130.3352
  1678.7000    198.0542      9.1418      9.7215     11.0370    134.0641
  1678.8000    197.8384      9.0000      9.3672      9.3458    137.9821
  1678.9000    197.8384      9.0000      9.3672      9.3458    141.9215
  1679.0000    197.5052      8.8342      9.0508      8.4660    145.7227
  1679.1000    197.5052      8.8342      9.0508      8.4660    149.2431
  1679.2000    197.5052      8.8342      9.0508      8.4660    152.3646
  1679.3000    197.1143      8.6463      8.7772      8.2098    155.0067
  1679.4000    197.1143      8.6463      8.7772      8.2098    157.1218
  1679.5000    196.7288      8.4422      8.5443      8.2943    158.7029
  1679.6000    196.7288      8.4422      8.5443      8.2943    159.7744
  1679.7000    196.7288      8.4422      8.5443      8.2943    160.3929
  1679.8000    196.4018      8.2327      8.3462      8.4820    160.6397
  1679.9000    196.4018      8.2327      8.3462      8.4820    160.6119
  1680.0000    196.1659      8.0315      8.1767      8.6362    160.4168
  1680.1000    196.1659      8.0315      8.1767      8.6362    160.1572
  1680.2000    196.1659      8.0315      8.1767      8.6362    159.9254
  1680.3000    196.0314      7.8521      8.0309      8.7168    159.7834
  1680.4000    196.0314      7.8521      8.0309      8.7168    159.7610
  1680.5000    195.9890      7.7042      7.9058      8.7426    159.8465
  1680.6000    195.9890      7.7042      7.9058      8.7426    159.9892
  1680.7000    195.9890      7.7042      7.9058      8.7426    160.1084
  1680.8000    196.0150      7.5914      7.8000      8.7458    160.1035
  1680.9000    196.0150      7.5914      7.8000      8.7458    159.8769
  1681.0000    196.0771      7.5120      7.7129      8.7392    159.3480
  1681.1000    196.0771      7.5120      7.7129      8.7392    158.4687
  1681.2000    196.0771      7.5120      7.7129      8.7392    157.2401
  1681.3000    196.1461      7.4607      7.6436      8.7146    155.7121
  1681.4000    196.1461      7.4607      7.6436      8.7146    153.9796
  1681.5000    196.2061      7.4310      7.5904      8.6694    152.1759
  1681.6000    196.2061      7.4310      7.5904      8.6694    150.4523
  1681.7000    196.2061      7.4310      7.5904      8.6694    148.9580
  1681.8000    196.2573      7.4172      7.5510      8.6287    147.8133
  1681.9000    196.2573      7.4172      7.5510      8.6287    147.0938
  1682.0000    196.3087      7.4158      7.5223      8.6322    146.8143
  1682.1000    196.3087      7.4158      7.5223      8.6322    146.9232
  1682.2000    196.3087      7.4158      7.5223      8.6322    147.3118
  1682.3000    196.3652      7.4244      7.5015      8.6922    147.8313
  1682.4000    196.3652      7.4244      7.5015      8.6922    148.3177
  1682.5000    196.4180      7.4420      7.4867      8.7678    148.6193
  1682.6000    196.4180      7.4420      7.4867      8.7678    148.6277
  1682.7000    196.4180      7.4420      7.4867      8.7678    148.2894
  1682.8000    196.4427      7.4671      7.4769      8.7948    147.6111
  1682.9000    196.4427      7.4671      7.4769      8.7948    146.6559
  1683.0000    196.4031      7.4989      7.4725      8.7486    145.5254
  1683.1000    196.4031      7.4989      7.4725      8.7486    144.3322
  1683.2000    196.4031      7.4989      7.4725      8.7486    143.1829
  1683.3000    196.2619      7.5374      7.4751      8.6718    142.1573
  1683.4000    196.2619      7.5374      7.4751      8.6718    141.2929
  1683.5000    195.9965      7.5841      7.4867      8.6343    140.5916
  1683.6000    195.9965      7.5841      7.4867      8.6343    140.0133
  1683.7000    195.9965      7.5841      7.4867      8.6343    139.4948
  1683.8000    195.6115      7.6422      7.5096      8.6731    138.9581
  1683.9000    195.6115      7.6422      7.5096      8.6731    138.3250
  1684.0000    195.1375      7.7155      7.5465      8.7716    137.5336
  1684.1000    195.1375      7.7155      7.5465      8.7716    136.5442
  1684.2000    195.1375      7.7155      7.5465      8.7716    135.3479
  1684.3000    194.6151      7.8088      7.6004      8.8854    133.9639
  1684.4000    194.6151      7.8088      7.6004      8.8854    132.4415
  1684.5000    194.0746      7.9275      7.6757      8.9772    130.8495
  1684.6000    194.0746      7.9275      7.6757      8.9772    129.2708
  1684.7000    194.0746      7.9275      7.6757      8.9772    127.7866
  1684.8000    193.5228      8.0774      7.7781      9.0319    126.4720
  1684.9000    193.5228      8.0774      7.7781      9.0319    125.3862
