~Version Information
VERS.                      2.0: CWLS Log ASCII Standard - VERSION 2.0
WRAP.                       NO: One line per depth step
~Well Information Block
STRT.FT               670.0000: 
STOP.FT              2110.0000: 
STEP.FT                 0.2500: 
NULL.                -999.2500: 
COMP.          Petrogulf Corporation: COMPANY
WELL.           Montoya 12-44R: WELL
FLD.           Purgatorie River: FIELD
LOC.           713' FSL & 798' FEL: LOCATION
PROV.                 Colorado: PROVINCE
CNTY.               Las Animas: COUNTRY
SRVC.                Patterson: SERVICE COMPANY
DATE.          Sun Oct 02 01:06:45 2005: LOG DATE
UWI.           05-071-08538               : UNIQUE WELL ID
~Curve Information Block
DEPT.FT            0 000 00 00: Depth
SP.mV                         : DIL Spontaneous Potential
RILD.Ohm-m                    : DIL Deep Resistivity
RILM.Ohm-m                    : DIL Medium Resistivity
RLL3.Ohm-m                    : DIL Shallow Resistivity
GR.GAPI                       : Gamma Ray
~Parameter Information Block
~A  Depth        SP         RILD        RILM        RLL3         GR     
# ...
  1594.0000    205.2579      7.5681      7.6405      9.0554    149.2937
  1594.2500    204.3414      7.6648      7.7450      9.6459    147.5346
  1594.5000    203.3442      7.7839      7.8640     10.2828    142.3488
  1594.7500    202.2561      7.9340      7.9971     10.8153    137.5863
  1595.0000    201.0962      8.1250      8.1474     11.1047    130.0735
  1595.2500    199.8988      8.3661      8.3229     11.0801    125.9373
  1595.5000    198.6944      8.6624      8.5358     10.7771    122.0912
  1595.7500    197.4996      9.0141      8.8018     10.3615    120.9816
  1596.0000    196.3240      9.4156      9.1374     10.1382    120.8853
  1596.2500    195.1832      9.8573      9.5583     10.5112    121.7366
  1596.5000    194.1073     10.3292     10.0773     11.8536    124.3561
  1596.7500    193.1380     10.8243     10.7030     14.2701    126.6731
  1597.0000    192.3152     11.3423     11.4399     17.3614    129.6614
  1597.2500    191.6609     11.8905     12.2900     20.2464    130.3886
  1597.5000    191.1705     12.4816     13.2555     22.0375    128.5920
  1597.7500    190.8190     13.1282     14.3423     22.5358    125.5122
  1598.0000    190.5792     13.8367     15.5614     22.5752    119.0575
  1598.2500    190.4389     14.5987     16.9257     23.7307    114.4799
  1598.5000    190.4058     15.3875     18.4401     27.6864    109.0410
  1598.7500    190.5023     16.1565     20.0838     35.5915    107.0017
  1599.0000    190.7533     16.8455     21.7876     47.3634    105.6942
  1599.2500    191.1761     17.3907     23.4157     61.0636    104.8092
  1599.5000    191.7728     17.7393     24.7668     73.1207    101.4963
  1599.7500    192.5276     17.8656     25.6157     79.8940     97.5093
  1600.0000    193.4093     17.7800     25.7936     79.6303     89.6019
  1600.2500    194.3764     17.5250     25.2652     73.1696     84.1423
  1600.5000    195.3825     17.1577     24.1474     62.9870     77.8181
  1600.7500    196.3818     16.7323     22.6551     51.6768     75.7426
  1601.0000    197.3357     16.2898     21.0166     41.0412     76.3782
  1601.2500    198.2231     15.8554     19.4141     31.9994     79.2331
  1601.5000    199.0499     15.4402     17.9629     24.8834     86.9339
  1601.7500    199.8488     15.0450     16.7195     19.7025     94.0471
  1602.0000    200.6645     14.6664     15.6992     16.2685    106.0843
  1602.2500    201.5321     14.3037     14.8925     14.2849    113.5008
  1602.5000    202.4594     13.9626     14.2771     13.4533    121.8357
  1602.7500    203.4223     13.6548     13.8261     13.5188    125.6408
  1603.0000    204.3714     13.3958     13.5127     14.2093    129.9038
  1603.2500    205.2503     13.2017     13.3144     15.1681    131.7653
  1603.5000    206.0157     13.0886     13.2152     16.0067    131.3338
  1603.7500    206.6518     13.0714     13.2081     16.4586    128.0059
  1604.0000    207.1684     13.1625     13.2952     16.4791    119.4712
  1604.2500    207.5875     13.3699     13.4866     16.2073    113.5287
  1604.5000    207.9334     13.6950     13.7974     15.8918    108.0350
  1604.7500    208.2280     14.1295     14.2444     15.9280    107.4363
  1605.0000    208.4902     14.6532     14.8406     16.9701    109.3816
  1605.2500    208.7347     15.2338     15.5900     19.8710    110.8640
  1605.5000    208.9720     15.8321     16.4805     25.2348    111.8218
  1605.7500    209.2106     16.4129     17.4780     32.7632    111.8601
  1606.0000    209.4568     16.9558     18.5241     40.9766    111.9516
  1606.2500    209.7101     17.4611     19.5407     47.7307    112.1131
  1606.5000    209.9590     17.9449     20.4453     51.2027    111.9257
  1606.7500    210.1807     18.4278     21.1729     50.6026    111.4952
  1607.0000    210.3434     18.9218     21.6933     46.3179    111.7613
  1607.2500    210.4116     19.4209     22.0157     39.7284    113.5209
  1607.5000    210.3552     19.8997     22.1767     32.7770    118.1680
  1607.7500    210.1603     20.3176     22.2220     27.2050    120.9767
  1608.0000    209.8378     20.6296     22.1901     23.7955    121.9627
  1608.2500    209.4214     20.7977     22.1050     22.2459    120.1361
  1608.5000    208.9560     20.7994     21.9762     21.7322    115.1585
  1608.7500    208.4851     20.6310     21.8032     21.5660    111.5124
  1609.0000    208.0446     20.3097     21.5816     21.4491    106.9536
  1609.2500    207.6660     19.8745     21.3072     21.3885    104.9013
  1609.5000    207.3790     19.3839     20.9798     21.5385    103.3382
  1609.7500    207.2060     18.9040     20.6047     22.0358    103.0666
  1610.0000    207.1550     18.4937     20.1945     22.7961    103.3284
  1610.2500    207.2181     18.1927     19.7691     23.4213    103.8247
  1610.5000    207.3763     18.0168     19.3554     23.4142    105.1509
  1610.7500    207.6057     17.9593     18.9840     22.5630    106.4358
  1611.0000    207.8818     17.9934     18.6849     21.0956    108.4603
  1611.2500    208.1803     18.0747     18.4811     19.4876    109.3060
  1611.5000    208.4759     18.1460     18.3824     18.2487    109.1820
  1611.7500    208.7382     18.1474     18.3795     17.9563    108.4130
  1612.0000    208.9331     18.0314     18.4397     19.3501    107.2261
  1612.2500    209.0295     17.7795     18.5069     23.0754    106.4707
  1612.5000    209.0068     17.4096     18.5097     29.0074    103.9950
  1612.7500    208.8549     16.9703     18.3790     35.7041    100.6939
  1613.0000    208.5715     16.5243     18.0728     40.7503     94.2283
  1613.2500    208.1609     16.1322     17.5949     42.0586     90.6910
  1613.5000    207.6359     15.8421     16.9964     39.1462     89.2035
  1613.7500    207.0156     15.6861     16.3578     33.2979     91.0583
  1614.0000    206.3221     15.6775     15.7642     26.5998     97.0920
  1614.2500    205.5804     15.8081     15.2874     20.7793    102.6932
  1614.5000    204.8247     16.0461     14.9785     16.6662    112.7390
  1614.7500    204.1020     16.3417     14.8695     14.3650    119.8259
  1615.0000    203.4697     16.6393     14.9776     13.7564    129.3374
  1615.2500    202.9868     16.8924     15.3089     14.9400    134.1668
  1615.5000    202.7061     17.0729     15.8589     18.4441    138.4378
  1615.7500    202.6644     17.1729     16.6093     25.1516    138.7950
  1616.0000    202.8734     17.2020     17.5221     35.8492    134.3882
  1616.2500    203.3149     17.1849     18.5335     50.3775    127.8993
  1616.5000    203.9466     17.1587     19.5509     66.8582    114.1647
  1616.7500    204.7160     17.1668     20.4611     81.8999    103.8280
  1617.0000    205.5734     17.2503     21.1528     91.9848     88.9974
  1617.2500    206.4763     17.4381     21.5494     94.8902     80.5619
  1617.5000    207.3877     17.7405     21.6352     90.0799     71.3342
  1617.7500    208.2721     18.1459     21.4603     78.5363     68.1875
  1618.0000    209.0901     18.6241     21.1193     62.7851     69.1490
  1618.2500    209.7969     19.1324     20.7208     46.5318     73.6700
  1618.5000    210.3473     19.6261     20.3620     33.2511     84.4605
  1618.7500    210.7081     20.0661     20.1165     24.6475     92.4379
  1619.0000    210.8703     20.4249     20.0349     20.3641    102.5998
  1619.2500    210.8545     20.6890     20.1490     18.9773    107.1331
  1619.5000    210.7088     20.8621     20.4786     19.2531    110.0716
  1619.7500    210.5028     20.9694     21.0359     20.8357    109.8813
  1620.0000    210.3155     21.0570     21.8273     24.1156    107.8036
  1620.2500    210.2199     21.1812     22.8539     29.4415    105.7406
  1620.5000    210.2670     21.3943     24.1098     36.2942    101.1135
  1620.7500    210.4746     21.7337     25.5801     43.2745     96.3354
  1621.0000    210.8295     22.2227     27.2375     49.0848     86.5309
  1621.2500    211.3036     22.8757     29.0404     53.4841     79.1976
  1621.5000    211.8709     23.6977     30.9300     57.0756     69.5064
  1621.7500    212.5137     24.6722     32.8291     60.2046     65.0647
