~Version Information
VERS.                      2.0: CWLS Log ASCII Standard - VERSION 2.0
WRAP.                       NO: One line per depth step
~Well Information Block
STRT.FT                -7.5000: 
STOP.FT               988.5000: 
STEP.FT                 0.2500: 
NULL.                -999.2500: 
COMP.          Pioneer Natural Resources: COMPANY
WELL.          Stags Leap 13-30: WELL
FLD.           Purgatorie River: FIELD
LOC.           1813' FSL & 117' FWL--: LOCATION
PROV.                       CO: PROVINCE
CNTY.               Las Animas: COUNTRY
SRVC.          Patterson Wireline: SERVICE COMPANY
DATE.          Tue Dec 13 11:29:26 2005: LOG DATE
UWI.           05 071 08595 00: UNIQUE WELL ID
~Curve Information Block
DEPT.FT            0 000 00 00: Depth
CCL.                          : Casing Collar Locator
TT3.usec                      : CBL 3' Travel Time
AMP3.mV                       : CBL 3' Amplitude
GR.GAPI                       : Gamma Ray
~Parameter Information Block
~A  Depth       CCL         TT3         AMP3         GR     
# ...
   763.0000      0.0000    767.5339     11.4393    115.5041
   763.2500      0.0000    780.4398     11.2353    115.2162
   763.5000      0.0000    797.6513     10.9820    109.0997
   763.7500      0.0000    812.9012     10.7562     99.5094
   764.0000      0.0000    823.0385     10.6004     90.4460
   764.2500      0.0000    828.3787     10.5134     84.7175
   764.5000      0.0000    830.4897     10.4876     82.5250
   764.7500      0.0000    830.3543     10.5343     82.2388
   765.0000      0.0000    828.0107     10.6691     82.1314
   765.2500      0.0000    823.1783     10.8833     81.4972
   765.5000      0.0000    816.1342     11.1527     80.7415
   765.7500      0.0000    808.0983     11.4759     80.8453
   766.0000      0.0000    800.6831     11.8877     82.5900
   766.2500      0.0000    794.8759     12.4160     85.7926
   766.5000      0.0000    790.5732     13.0222     88.9731
   766.7500      0.0000    786.9084     13.5964     89.8823
   767.0000      0.0000    782.9578     14.0211     86.8930
   767.2500      0.0000    778.6797     14.2486     80.5211
   767.5000      0.0000    775.7294     14.3278     73.6968
   767.7500      0.0000    776.8607     14.3645     70.0002
   768.0000      0.0000    783.5490     14.4432     71.0772
   768.2500      0.0000    794.2069     14.5723     75.6109
   768.5000      0.0000    805.4500     14.6972     80.7642
   768.7500      0.0000    815.0811     14.7638     84.4452
   769.0000      0.0000    823.2595     14.7601     86.2186
   769.2500      0.0000    830.8649     14.6995     86.5809
   769.5000      0.0000    837.6049     14.5836     86.1121
   769.7500      0.0000    842.1352     14.3933     85.4318
   770.0000      0.0000    843.2696     14.1124     85.3437
   770.2500      0.0000    840.3540     13.7542     86.3912
   770.5000      0.0000    832.7490     13.3687     88.1993
   770.7500      0.0000    819.8205     13.0200     89.5025
   771.0000      0.0000    801.6887     12.7497     89.0884
   771.2500      0.0000    779.9581     12.5615     86.9030
   771.5000      0.0000    758.5459     12.4387     84.2558
   771.7500      0.0000    744.1650     12.3620     82.8192
   772.0000      0.0000    743.4847     12.3062     83.4058
   772.2500      0.0000    757.0287     12.2367     85.6408
   772.5000      0.0000    777.0607     12.1259     88.5230
   772.7500      0.0000    793.6589     11.9699     91.1768
   773.0000      0.0000    802.1232     11.7890     93.3875
   773.2500      0.0000    803.9164     11.6203     95.7088
   773.5000      0.0000    802.4333     11.4982     98.7950
   773.7500      0.0000    799.3576     11.4262    102.2694
   774.0000      0.0000    794.2504     11.3692    104.5155
   774.2500      0.0000    785.9340     11.2863    104.0793
   774.5000      0.0000    772.4448     11.1714    101.2188
   774.7500      0.0000    749.3824     11.0533     97.7306
   775.0000      0.0000    711.0684     10.9575     95.3064
   775.2500      0.0000    656.9505     10.8770     94.3060
   775.5000      0.0000    596.9210     10.7800     93.9608
   775.7500      0.0000    547.3576     10.6396     93.2787
   776.0000      0.0000    520.5671     10.4514     91.7143
   776.2500      0.0000    518.2169     10.2246     89.5528
   776.5000      0.0000    532.6164      9.9577     88.0725
   776.7500      0.0000    551.8441      9.6270     88.8636
   777.0000      0.0000    566.1401      9.2142     92.3226
   777.2500      0.0000    574.5838      8.7467     96.9587
   777.5000      0.0000    586.4929      8.2912    100.5964
   777.7500      0.0000    613.7380      7.8939    101.9520
   778.0000      0.0000    659.9262      7.5556    100.7711
   778.2500      0.0000    716.6380      7.2879     97.2286
   778.5000      0.0000    770.5516      7.1500     91.9716
   778.7500      0.0000    813.8772      7.1767     86.3295
   779.0000      0.0000    845.8136      7.3035     81.6685
   779.2500     -2.0000    864.6957      7.4168     78.4816
   779.5000      2.0000    863.4025      7.4693     76.5412
   779.7500      0.0000    833.9853      7.5368     75.8390
   780.0000      0.0000    775.1663      7.7708     76.7311
   780.2500      0.0000    697.7465      8.2640     79.1837
   780.5000      0.0000    625.2793      8.9217     82.6473
   780.7500      0.0000    583.5761      9.5000     86.7903
   781.0000      0.0000    581.5417      9.8390     91.6269
   781.2500      0.0000    602.8907     10.0314     96.6496
   781.5000      0.0000    620.6064     10.3002    100.3532
   781.7500      0.0000    620.3782     10.7412    101.0040
   782.0000      0.0000    610.2629     11.2476     97.9902
   782.2500      0.0000    609.4788     11.6571     92.6412
   782.5000      0.0000    627.9559     11.9079     87.6777
   782.7500      0.0000    654.8679     12.0502     85.2954
   783.0000      0.0000    666.3839     12.1614     85.4893
   783.2500      0.0000    645.7856     12.2810     86.3997
   783.5000      0.0000    597.1613     12.4022     86.1376
   783.7500      0.0000    540.3535     12.4929     84.0771
   784.0000      0.0000    494.1348     12.5198     80.8588
   784.2500      0.0000    465.3385     12.4736     77.7710
   784.5000      0.0000    452.2936     12.3834     75.9393
   784.7500      0.0000    453.4405     12.3039     75.4749
   785.0000      0.0000    467.7878     12.2821     75.2678
   785.2500      0.0000    488.1153     12.3349     73.9902
   785.5000      0.0000    500.2045     12.4500     71.4380
   785.7500      0.0000    493.1533     12.5988     68.8626
   786.0000      0.0000    469.5604     12.7456     68.1245
   786.2500      0.0000    444.2968     12.8560     70.4165
   786.5000      0.0000    434.2162     12.9097     75.3771
   786.7500      0.0000    447.9822     12.9155     81.2823
   787.0000      0.0000    481.2480     12.9100     86.2702
   787.2500      0.0000    518.7430     12.9318     89.4890
   787.5000      0.0000    543.3738     12.9861     91.2754
   787.7500      0.0000    547.4518     13.0321     92.5367
   788.0000      0.0000    536.3373     13.0045     93.9091
   788.2500      0.0000    521.1838     12.8542     95.2117
   788.5000      0.0000    509.5100     12.5819     95.6954
   788.7500      0.0000    502.8027     12.2398     94.8719
   789.0000      0.0000    500.5563     11.9024     92.8648
   789.2500      0.0000    504.5717     11.6244     89.9953
   789.5000      0.0000    519.1747     11.4211     86.5947
   789.7500      0.0000    546.2407     11.2820     83.4075
   790.0000      0.0000    578.8076     11.1951     81.6037
   790.2500      0.0000    601.9210     11.1545     82.0852
   790.5000      0.0000    604.9484     11.1493     84.9233
   790.7500      0.0000    594.2028     11.1544     89.3813
   791.0000      0.0000    589.3033     11.1361     94.2249
   791.2500      0.0000    604.6044     11.0691     98.2267
   791.5000      0.0000    635.3867     10.9522    100.8398
   791.7500      0.0000    662.0898     10.8098    102.3276
   792.0000      0.0000    666.4161     10.6777    102.8671
   792.2500      0.0000    645.4843     10.5816    101.6984
   792.5000      0.0000    614.8530     10.5288     97.8450
   792.7500      0.0000    598.0255     10.5140     91.7979
   793.0000      0.0000    608.9898     10.5305     85.8931
   793.2500      0.0000    642.0668     10.5788     82.6411
   793.5000      0.0000    677.8786     10.6754     82.7635
   793.7500      0.0000    697.8024     10.8578     84.8798
   794.0000      0.0000    692.7974     11.1799     87.0092
   794.2500      0.0000    662.4401     11.6906     88.2611
   794.5000      0.0000    610.8615     12.4080     88.9769
   794.7500      0.0000    545.3660     13.3022     89.4284
   795.0000      0.0000    476.4717     14.2979     89.0356
   795.2500      0.0000    415.6746     15.2951     87.1503
   795.5000      0.0000    370.9695     16.1972     84.1140
   795.7500      0.0000    343.9189     16.9259     81.1465
   796.0000      0.0000    330.7611     17.4207     79.4639
   796.2500      0.0000    326.3984     17.6396     79.6491
