~Version Information
VERS.                      2.0: CWLS Log ASCII Standard - VERSION 2.0
WRAP.                       NO: One line per depth step
~Well Information Block
STRT.FT                -4.2500: 
STOP.FT               745.0000: 
STEP.FT                 0.2500: 
NULL.                -999.2500: 
COMP.          Pioneer Natural Resources: COMPANY
WELL.                Zed 11-23: WELL
FLD.           Purgatoire River: FIELD
LOC.           641' FNL & 952' FWL: LOCATION
CNTY.               Las Animas: COUNTY
SRVC.                         : SERVICE COMPANY
DATE.          Fri Mar 03 16:43:06 2006: LOG DATE
UWI.           05 071 08702 00: UNIQUE WELL ID
STAT.                       CO: STATE
~Curve Information Block
DEPT.FT            0 000 00 00: Depth
GR.GAPI                       : Gamma Ray
CCL.                          : Casing Collar Locator
TT3.usec                      : CBL 3' Travel Time
AMP3.mV                       : CBL 3' Amplitude
~Parameter Information Block
~A  Depth        GR         CCL         TT3         AMP3    
# ...
   263.7500     60.0083      0.0000    726.3514      9.8225
   264.0000     60.3199      0.0000    726.5571      9.7828
   264.2500     59.2282      0.0000    726.7969      9.7558
   264.5000     56.8956      0.0000    726.9896      9.7445
   264.7500     54.2409      0.0000    727.0255      9.7223
   265.0000     51.8999      0.0000    726.8718      9.6721
   265.2500     49.8028      0.0000    726.6683      9.6125
   265.5000     47.6666      0.0000    726.7719      9.5734
   265.7500     45.4748      0.0000    727.8024      9.5631
   266.0000     43.4611      0.0000    730.6177      9.5706
   266.2500     41.8678      0.0000    735.8968      9.5865
   266.5000     40.8067      0.0000    743.2822      9.6072
   266.7500     40.3237      0.0000    750.8267      9.6308
   267.0000     40.4712      0.0000    755.6662      9.6615
   267.2500     41.2385      0.0000    755.7167      9.7163
   267.5000     42.5540      0.0000    751.0476      9.8139
   267.7500     44.3928      0.0000    743.8011      9.9522
   268.0000     46.6978      0.0000    736.7493     10.0942
   268.2500     49.1423      0.0000    731.7227     10.1876
   268.5000     51.1652      0.0000    729.1445     10.2051
   268.7500     52.3428      0.0000    728.6883     10.1643
   269.0000     52.6175      0.0000    729.9538     10.1039
   269.2500     52.1671      0.0000    732.3710     10.0483
   269.5000     51.3120      0.0000    734.7660      9.9957
   269.7500     50.5851      0.0000    735.6490      9.9340
   270.0000     50.4735      0.0000    734.3219      9.8626
   270.2500     50.8161      0.0000    731.4965      9.7989
   270.5000     50.7713      0.0000    728.5214      9.7656
   270.7500     49.6787      0.0000    726.1063      9.7705
   271.0000     47.7813      0.0000    723.8308      9.8000
   271.2500     45.9789      0.0000    720.6140      9.8361
   271.5000     45.0674      0.0000    715.9244      9.8751
   271.7500     45.2068      0.0000    711.4096      9.9263
   272.0000     45.8809      0.0000    711.7188      9.9983
   272.2500     46.4295      0.0000    722.2634     10.0920
   272.5000     46.7615      0.0000    743.8193     10.2044
   272.7500     47.3385      0.0000    768.8895     10.3308
   273.0000     48.2991      0.0000    785.6524     10.4642
   273.2500     48.9650      0.0000    787.2325     10.5949
   273.5000     48.5924      0.0000    776.3061     10.7110
   273.7500     47.4019      0.0000    760.7324     10.8026
   274.0000     46.5277      0.0000    747.0051     10.8685
   274.2500     47.0085      0.0000    738.1696     10.9172
   274.5000     48.8843      0.0000    735.0405     10.9535
   274.7500     51.0732      0.0000    737.1497     10.9629
   275.0000     52.1398      0.0000    742.6382     10.9185
   275.2500     51.4301      0.0000    748.2941     10.8081
   275.5000     49.5109      0.0000    750.8185     10.6530
   275.7500     47.5188      0.0000    748.8856     10.4919
   276.0000     46.2449      0.0000    744.1882     10.3502
   276.2500     45.7565      0.0000    740.1477     10.2287
   276.5000     45.5610      0.0000    739.2584     10.1230
   276.7500     45.1301      0.0000    741.2166     10.0443
   277.0000     44.5012      0.0000    743.2574     10.0191
   277.2500     44.3676      0.0000    742.3937     10.0693
   277.5000     45.3866      0.0000    737.5229     10.1840
   277.7500     47.4028      0.0000    729.4677     10.3043
   278.0000     49.5135      0.0000    719.5546     10.3480
   278.2500     50.8901      0.0000    708.9782     10.2679
   278.5000     51.3662      0.0000    699.3894     10.0937
   278.7500     51.2763      0.0000    692.9691      9.9090
   279.0000     51.0299      0.0000    691.2347      9.7883
   279.2500     50.9015      0.0000    693.9829      9.7527
   279.5000     50.9565      0.0000    699.6468      9.7753
   279.7500     51.0618      0.0000    706.4663      9.8194
   280.0000     51.0796      0.0000    713.1292      9.8673
   280.2500     51.0254      0.0000    718.7053      9.9144
   280.5000     50.9937      0.0000    722.6352      9.9460
   280.7500     51.0338      0.0000    724.9124      9.9349
   281.0000     51.1252      0.0000    725.9894      9.8666
   281.2500     51.1352      0.0000    726.4173      9.7578
   281.5000     50.7818      0.0000    726.5876      9.6436
   281.7500     49.8608      0.0000    726.6891      9.5514
   282.0000     48.7064      0.0000    726.7610      9.4904
   282.2500     48.3346      0.0000    726.7737      9.4576
   282.5000     49.8119      0.0000    726.7192      9.4468
   282.7500     53.2865      0.0000    726.6518      9.4548
   283.0000     57.8485      0.0000    726.7114      9.4800
   283.2500     62.5660      0.0000    727.1740      9.5171
   283.5000     67.4386      0.0000    728.5403      9.5558
   283.7500     72.9785      0.0000    731.5396      9.5851
   284.0000     79.0378      0.0000    736.7944      9.5997
   284.2500     84.5820      0.0000    744.1385      9.6034
   284.5000     88.6981      0.0000    752.1946      9.6060
   284.7500     91.3236      0.0000    758.8903      9.6163
   285.0000     92.7966      0.0000    762.5170      9.6354
   285.2500     93.1970      0.0000    762.2834      9.6538
   285.5000     92.5335      0.0000    758.2190      9.6576
   285.7500     91.2642      0.0000    751.1154      9.6370
   286.0000     90.1583      0.0000    742.5401      9.5867
   286.2500     89.6560      0.0000    734.2602      9.4997
   286.5000     89.6061      0.0000    727.3682      9.3700
   286.7500     89.5884      0.0000    722.2930      9.2071
   287.0000     89.2343      0.0000    719.7672      9.0401
   287.2500     88.1808      0.0000    721.1439      8.9023
   287.5000     85.9843      0.0000    727.1100      8.8120
   287.7500     82.4830      0.0000    736.1183      8.7664
   288.0000     78.3471      0.0000    744.5826      8.7473
   288.2500     74.9949      0.0000    749.0330      8.7309
   288.5000     73.7144      0.0000    748.4996      8.7005
   288.7500     74.8177      0.0000    745.0864      8.6571
   289.0000     77.5838      0.0000    742.1654      8.6200
   289.2500     80.8301      0.0000    741.7809      8.6151
   289.5000     83.4200      0.0000    743.6854      8.6591
   289.7500     84.4074      0.0000    746.5921      8.7507
   290.0000     83.2737      0.0000    749.8001      8.8724
   290.2500     80.4392      0.0000    753.3911      9.0014
   290.5000     77.3094      0.0000    757.2992      9.1235
   290.7500     75.3282      0.0000    760.7181      9.2397
   291.0000     74.9342      0.0000    762.4463      9.3583
   291.2500     75.6117      0.0000    761.5416      9.4788
   291.5000     76.7107      0.0000    757.7900      9.5845
   291.7500     77.9051      0.0000    752.0073      9.6509
   292.0000     79.0835      0.0000    745.9263      9.6570
   292.2500     80.1888      0.0000    740.9481      9.5856
   292.5000     81.0609      0.0000    736.8247      9.4274
   292.7500     81.3472      0.0000    732.7511      9.1990
   293.0000     80.7956      0.0000    731.0397      8.9425
   293.2500     79.6131      0.0000    738.5084      8.6802
   293.5000     78.3630      0.0000    761.3329      8.3899
   293.7500     77.6181      0.0000    796.8823      8.0631
   294.0000     77.6671      0.0000    832.0914      7.7607
   294.2500     78.2601      0.0000    852.7853      7.5639
   294.5000     78.9229      0.0000    855.4999      7.4871
   294.7500     80.0034      0.0000    849.1580      7.4804
   295.0000     82.9083      0.0000    845.1953      7.5088
   295.2500     88.5215      0.0000    847.1097      7.6217
   295.5000     95.5723      0.0000    848.4921      7.9490
   295.7500    101.2148      0.0000    839.9385      8.5974
   296.0000    103.3033      0.0000    818.9193      9.4920
   296.2500    101.8137      0.0000    792.8936     10.3366
   296.5000     98.0976      0.0000    772.0709     10.8159
   296.7500     93.4105      0.0000    760.8506     10.8511
   297.0000     88.5733      0.0000    757.2944     10.6128
