~Version Information
VERS.                      2.0: CWLS Log ASCII Standard - VERSION 2.0
WRAP.                       NO: One line per depth step
~Well Information Block
STRT.FT                -7.0000: 
STOP.FT              3030.2500: 
STEP.FT                 0.2500: 
NULL.                -999.2500: 
COMP.          Pioneer Natural Resources: COMPANY
WELL.            Cleaver 24-12: WELL
FLD.           Purgatorie River: FIELD
LOC.           204' FSL & 2351' FWL--: LOCATION
CNTY.               Las Animas: COUNTY
SRVC.          Patterson Wireline: SERVICE COMPANY
DATE.          Thu Feb 02 12:17:57 2006: LOG DATE
UWI.           05 071 08634 00: UNIQUE WELL ID
STAT.                       CO: STATE
~Curve Information Block
DEPT.FT            0 000 00 00: Depth
CCL.                          : Casing Collar Locator
TT3.usec                      : CBL 3' Travel Time
AMP3.mV                       : CBL 3' Amplitude
GR.GAPI                       : Gamma Ray
~Parameter Information Block
~A  Depth       CCL         TT3         AMP3         GR     
# ...
  1400.0000      0.0000    506.6711     14.3669     63.8138
  1400.2500      0.0000    535.3701     14.2982     61.7032
  1400.5000      0.0000    575.8900     14.2796     59.9503
  1400.7500      0.0000    610.0189     14.3013     58.9459
  1401.0000      0.0000    629.9694     14.3288     58.0415
  1401.2500      0.0000    642.9767     14.3249     56.7776
  1401.5000      0.0000    659.0133     14.2700     55.8167
  1401.7500      0.0000    678.7609     14.1638     56.5786
  1402.0000      0.0000    695.6156     14.0172     60.1914
  1402.2500      0.0000    704.9159     13.8467     66.8633
  1402.5000      0.0000    707.7328     13.6728     75.9498
  1402.7500      0.0000    707.6489     13.5163     86.3073
  1403.0000      0.0000    706.8604     13.3916     96.6592
  1403.2500      0.0000    705.2870     13.3017    105.8708
  1403.5000      0.0000    702.1253     13.2394    113.0254
  1403.7500      0.0000    697.6342     13.1962    117.4449
  1404.0000      0.0000    693.5483     13.1680    118.8898
  1404.2500      0.0000    691.9739     13.1513    117.7769
  1404.5000      0.0000    694.0929     13.1357    115.0408
  1404.7500      0.0000    699.5019     13.1093    111.8313
  1405.0000      0.0000    706.2822     13.0737    109.3515
  1405.2500      0.0000    711.7506     13.0510    108.5766
  1405.5000      0.0000    713.3453     13.0684    109.6353
  1405.7500      0.0000    708.7887     13.1367    111.4567
  1406.0000      0.0000    695.2958     13.2435    112.3639
  1406.2500      0.0000    669.0757     13.3676    111.3279
  1406.5000      0.0000    627.3873     13.4975    108.6139
  1406.7500      0.0000    573.6260     13.6377    105.1368
  1407.0000      0.0000    521.1681     13.8015    101.5358
  1407.2500      0.0000    489.6841     13.9999     98.0510
  1407.5000      0.0000    493.9612     14.2358     94.6909
  1407.7500      0.0000    533.5594     14.5065     91.1316
  1408.0000      0.0000    592.1752     14.8078     86.9077
  1408.2500      0.0000    647.8740     15.1324     82.0494
  1408.5000      0.0000    685.9553     15.4634     77.2151
  1408.7500      0.0000    704.2862     15.7704     73.0544
  1409.0000      0.0000    709.3807     16.0186     69.7264
  1409.2500      0.0000    709.5303     16.1844     67.0422
  1409.5000      0.0000    710.2714     16.2621     64.7773
  1409.7500      0.0000    713.1023     16.2618     63.0476
  1410.0000      0.0000    716.3777     16.2055     62.8366
  1410.2500      0.0000    716.7897     16.1210     65.9951
  1410.5000      0.0000    709.6921     16.0323     74.1515
  1410.7500      0.0000    688.8199     15.9476     87.2187
  1411.0000      0.0000    648.8839     15.8544    102.8221
  1411.2500      0.0000    591.9019     15.7294    117.5100
  1411.5000      0.0000    531.5177     15.5553    128.8238
  1411.7500      0.0000    487.8476     15.3309    136.0330
  1412.0000      0.0000    475.0960     15.0721    139.1130
  1412.2500      0.0000    493.3282     14.8075    138.1083
  1412.5000      0.0000    531.3939     14.5720    133.7583
  1412.7500      0.0000    575.4272     14.3961    127.7783
  1413.0000      0.0000    614.1035     14.2926    122.0243
  1413.2500      0.0000    640.6101     14.2451    117.8114
  1413.5000      0.0000    655.2205     14.2112    115.9598
  1413.7500      0.0000    665.0751     14.1465    116.7255
  1414.0000      0.0000    677.2917     14.0347    119.2844
  1414.2500      0.0000    692.1033     13.8987    121.7557
  1414.5000      0.0000    703.9289     13.7807    122.5940
  1414.7500      0.0000    706.9929     13.7135    122.2081
  1415.0000      0.0000    698.7925     13.7060    122.5354
  1415.2500      0.0000    681.6122     13.7466    124.7368
  1415.5000      0.0000    663.6293     13.8124    127.9721
  1415.7500      0.0000    655.6638     13.8789    130.5773
  1416.0000      0.0000    662.7675     13.9278    131.6284
  1416.2500      0.0000    679.4641     13.9461    131.2226
  1416.5000      0.0000    695.3655     13.9239    130.1216
  1416.7500      0.0000    704.2835     13.8622    129.3604
  1417.0000      0.0000    706.6891     13.7832    129.5053
  1417.2500      0.0000    705.4545     13.7219    130.0244
  1417.5000      0.0000    701.4339     13.7012    129.6716
  1417.7500      0.0000    693.1292     13.7152    127.6993
  1418.0000      0.0000    680.1248     13.7357    124.6953
  1418.2500      0.0000    666.3847     13.7331    122.2226
  1418.5000      0.0000    658.4521     13.6944    121.4817
  1418.7500      0.0000    659.0556     13.6270    122.3120
  1419.0000      0.0000    663.7983     13.5447    123.6637
  1419.2500      0.0000    665.6041     13.4487    124.7900
  1419.5000      0.0000    662.0256     13.3312    125.4551
  1419.7500      0.0000    657.7874     13.2020    125.2639
  1420.0000      0.0000    660.2984     13.1032    123.6689
  1420.2500      0.0000    672.4133     13.0852    120.6708
  1420.5000      0.0000    689.7580     13.1660    116.9402
  1420.7500      0.0000    705.2055     13.3197    113.2900
  1421.0000      0.0000    714.6824     13.5019    110.3521
  1421.2500      0.0000    718.2460     13.6736    108.4112
  1421.5000      0.0000    717.4632     13.8065    107.3145
  1421.7500      0.0000    713.5326     13.8812    106.9052
  1422.0000      0.0000    707.5839     13.8942    107.4955
  1422.2500      0.0000    701.4580     13.8650    109.5420
  1422.5000      0.0000    697.2147     13.8283    113.0872
  1422.7500      0.0000    695.8206     13.8159    117.9166
  1423.0000      0.0000    696.7382     13.8386    123.8887
  1423.2500      0.0000    698.8313     13.8802    130.6575
  1423.5000      0.0000    701.0173     13.9082    137.2313
  1423.7500      0.0000    702.0991     13.8958    142.3409
  1424.0000      0.0000    700.8798     13.8405    145.4980
  1424.2500      0.0000    696.5529     13.7656    147.2619
  1424.5000      0.0000    687.4977     13.7058    148.0639
  1424.7500      0.0000    669.2987     13.6942    147.1210
  1425.0000      0.0000    636.7798     13.7527    143.0193
  1425.2500      0.0000    591.9017     13.8819    135.2856
  1425.5000      0.0000    549.6549     14.0539    125.0142
  1425.7500      0.0000    531.4675     14.2250    113.9309
  1426.0000      0.0000    548.8035     14.3625    103.1985
  1426.2500      0.0000    593.3542     14.4606     93.1779
  1426.5000      0.0000    644.2962     14.5291     83.9262
  1426.7500      0.0000    684.1287     14.5710     75.7330
  1427.0000      0.0000    707.4162     14.5755     69.2629
  1427.2500      0.0000    717.9344     14.5292     64.9810
  1427.5000      0.0000    721.6506     14.4282     62.3393
  1427.7500      0.0000    722.7097     14.2730     60.0862
  1428.0000      0.0000    723.1495     14.0547     57.5886
  1428.2500      0.0000    723.9606     13.7479     55.3293
  1428.5000      0.0000    725.7401     13.3235     53.9957
  1428.7500      0.0000    728.2923     12.7696     53.5985
  1429.0000      0.0000    729.5428     12.1018     53.6368
  1429.2500      0.0000    725.3427     11.3726     53.7223
  1429.5000      0.0000    712.4825     10.6863     53.8700
  1429.7500      0.0000    694.7916     10.1600     54.3301
  1430.0000      0.0000    686.4517      9.8063     55.1614
  1430.2500      0.0000    704.9484      9.4815     55.9608
  1430.5000      0.0000    755.6801      9.0306     56.1550
  1430.7500      0.0000    822.9783      8.4630     55.6551
  1431.0000      0.0000    879.1111      7.9208     55.2280
  1431.2500      2.0000    904.0874      7.5127     56.1287
  1431.5000      0.0000    897.4130      7.2486     59.1655
  1431.7500      0.0000    871.9916      7.1006     63.8239
  1432.0000      0.0000    839.1578      7.0697     68.2491
  1432.2500      0.0000    801.4398      7.1846     70.4545
  1432.5000      0.0000    758.6669      7.4366     69.8271
  1432.7500      0.0000    717.6776      7.7129     67.4162
  1433.0000      0.0000    692.0266      7.8452     64.8141
  1433.2500      0.0000    689.9179      7.7800     62.9952
