~Version Information
VERS.                      2.0: CWLS Log ASCII Standard - VERSION 2.0
WRAP.                       NO: One line per depth step
~Well Information Block
STRT.FT                -7.5000: 
STOP.FT              1517.5000: 
STEP.FT                 0.2500: 
NULL.                -999.2500: 
COMP.          Pioneer Natural Resources: COMPANY
WELL.          McClaren 13-34 Tr: WELL
FLD.           Purgatorie River: FIELD
LOC.           1934' FSL & 826' WL--: LOCATION
PROV.                       CO: PROVINCE
CNTY.               Las Animas: COUNTRY
SRVC.          Patterson Wireline: SERVICE COMPANY
DATE.          Fri Jul 15 13:10:35 2005: LOG DATE
UWI.           05 071 08437 00: UNIQUE WELL ID
~Curve Information Block
DEPT.FT            0 000 00 00: Depth
CCL.                          : Casing Collar Locator
TT3.usec                      : CBL 3' Travel Time
AMP3.mV                       : CBL 3' Amplitude
GR.GAPI                       : Gamma Ray
~Parameter Information Block
~A  Depth       CCL         TT3         AMP3         GR     
# ...
   796.5000      0.0000    584.4485     13.9947    137.4979
   796.7500      0.0000    495.7606     15.2229    140.1046
   797.0000      0.0000    414.5288     16.1994    140.7273
   797.2500      0.0000    357.0142     16.8472    139.9039
   797.5000      0.0000    325.5186     17.1870    138.5260
   797.7500      0.0000    312.1836     17.3199    137.2367
   798.0000      0.0000    307.8461     17.3557    136.5326
   798.2500      0.0000    306.8026     17.3522    136.8496
   798.5000      0.0000    306.6707     17.3055    138.3249
   798.7500      0.0000    306.7398     17.1892    140.6454
   799.0000      0.0000    306.8564     17.0144    143.1768
   799.2500      0.0000    306.9644     16.8540    145.0692
   799.5000      0.0000    307.0294     16.7984    145.3154
   799.7500      0.0000    307.0359     16.8802    143.2213
   800.0000      0.0000    307.0130     17.0506    139.3110
   800.2500      0.0000    307.0184     17.2298    135.5347
   800.5000      0.0000    307.0911     17.3700    133.9809
   800.7500      0.0000    307.2153     17.4740    135.2390
   801.0000      0.0000    307.3328     17.5590    138.2170
   801.2500      0.0000    307.3997     17.6054    141.4365
   801.5000      0.0000    307.4290     17.5566    144.2276
   801.7500      0.0000    307.4655     17.3795    146.7771
   802.0000      0.0000    307.5224     17.1101    149.2749
   802.2500      0.0000    307.5668     16.8259    151.0885
   802.5000      0.0000    307.5641     16.5960    150.9386
   802.7500      0.0000    307.5102     16.4667    148.2221
   803.0000      0.0000    307.4195     16.4581    143.9108
   803.2500      0.0000    307.3109     16.5502    139.5054
   803.5000      0.0000    307.2111     16.6960    135.2845
   803.7500      0.0000    307.1485     16.8589    130.2097
   804.0000      0.0000    307.1352     17.0198    123.5269
   804.2500      0.0000    307.1620     17.1528    116.0191
   804.5000      0.0000    307.2023     17.2168    109.6651
   804.7500      0.0000    307.2215     17.1684    106.1616
   805.0000      0.0000    307.2014     16.9848    105.6095
   805.2500      0.0000    307.1535     16.7014    106.5398
   805.5000      0.0000    307.0943     16.4261    107.3303
   805.7500      0.0000    307.0219     16.2757    107.6373
   806.0000      0.0000    306.9357     16.2860    108.3194
   806.2500      0.0000    306.8562     16.4007    110.0850
   806.5000      0.0000    306.8040     16.5360    112.6537
   806.7500      0.0000    306.7759     16.6356    115.3601
   807.0000      0.0000    306.7528     16.6803    118.0452
   807.2500      0.0000    306.7179     16.6739    120.9989
   807.5000      0.0000    306.6653     16.6237    124.3258
   807.7500      0.0000    306.6052     16.5382    127.5832
   808.0000      0.0000    306.5501     16.4487    129.9865
   808.2500      0.0000    306.4868     16.4116    130.9791
   808.5000      0.0000    306.3844     16.4667    130.6815
   808.7500      0.0000    306.2476     16.5942    129.5683
   809.0000      0.0000    306.1415     16.7201    127.6099
   809.2500      0.0000    306.1772     16.7648    124.2399
   809.5000      0.0000    306.4877     16.6938    119.7418
   809.7500      0.0000    307.4741     16.5350    116.2009
   810.0000      0.0000    310.3730     16.3520    116.0215
   810.2500      0.0000    317.8289     16.1894    119.5612
   810.5000      0.0000    332.9056     16.0366    125.1157
   810.7500      0.0000    355.1931     15.8579    130.9464
   811.0000      0.0000    376.9529     15.6584    136.0817
   811.2500      0.0000    386.1613     15.4996    139.1957
   811.5000      0.0000    376.7691     15.4493    138.4032
   811.7500      0.0000    354.8170     15.5347    133.1467
   812.0000      0.0000    332.3873     15.7388    125.4496
   812.2500      0.0000    317.3148     16.0216    118.4927
   812.5000      0.0000    310.0366     16.3366    114.5351
   812.7500      0.0000    307.3951     16.6267    114.5126
   813.0000      0.0000    306.6096     16.8230    118.7154
   813.2500      0.0000    306.3874     16.8689    126.7791
   813.5000      0.0000    306.3797     16.7493    136.9859
   813.7500      0.0000    306.5425     16.4917    146.2320
   814.0000      0.0000    306.8111     16.1604    151.4772
   814.2500      0.0000    307.0968     15.8534    151.7439
   814.5000      0.0000    307.3263     15.6650    148.4768
   814.7500      0.0000    307.4777     15.6215    143.6354
   815.0000      0.0000    307.5759     15.6644    137.9126
   815.2500      0.0000    307.6584     15.7104    131.2510
   815.5000      0.0000    307.7399     15.7181    124.4215
   815.7500      0.0000    307.8052     15.6987    119.2235
   816.0000      0.0000    307.8382     15.6759    117.0872
   816.2500      0.0000    307.8789     15.6483    117.7857
   816.5000      0.0000    308.0576     15.6010    119.6950
   816.7500      0.0000    308.8542     15.5424    121.3529
   817.0000      0.0000    311.6766     15.5027    122.5693
   817.2500      0.0000    319.7408     15.4947    123.7501
   817.5000      0.0000    337.9746     15.4936    124.5585
   817.7500      0.0000    370.5588     15.4498    123.9725
   818.0000      0.0000    417.4802     15.3124    121.5962
   818.2500      0.0000    474.0691     15.0695    118.1981
   818.5000      0.0000    533.8986     14.7803    114.8624
   818.7500      0.0000    590.5573     14.5392    112.0937
   819.0000      0.0000    637.4691     14.3930    109.7531
   819.2500      0.0000    669.3271     14.3121    107.5480
   819.5000      0.0000    684.3840     14.2387    105.6328
   819.7500      0.0000    683.5841     14.1272    104.8770
   820.0000      0.0000    668.2379     13.9277    106.1099
   820.2500      0.0000    641.2196     13.5547    108.7412
   820.5000      0.0000    610.0885     12.9324    110.5477
   820.7500      0.0000    585.8550     12.1228    109.4795
   821.0000      0.0000    577.3688     11.3640    105.5795
   821.2500      0.0000    588.5478     10.8741    100.7721
   821.5000      0.0000    619.1593     10.6260     97.1017
   821.7500      0.0000    663.6718     10.4171     95.5580
   822.0000      0.0000    710.3722     10.1218     96.0298
   822.2500      0.0000    747.1138      9.7770     97.7653
   822.5000      0.0000    769.5273      9.4777     99.9517
   822.7500     -2.0000    781.8022      9.2975    102.0964
   823.0000      0.0000    789.2034      9.2763    104.0196
   823.2500      0.0000    790.6391      9.4220    105.8373
   823.5000      0.0000    779.4000      9.7250    108.1116
   823.7500      0.0000    752.0244     10.1415    111.7036
   824.0000      0.0000    716.6771     10.5174    117.0891
   824.2500      0.0000    690.3332     10.6045    123.7306
   824.5000      0.0000    684.8777     10.2699    130.1012
   824.7500      0.0000    697.2704      9.6542    134.3383
   825.0000      0.0000    714.9350      9.0245    135.0772
   825.2500      0.0000    728.1221      8.5181    131.9326
   825.5000      0.0000    735.1068      8.1088    125.3982
   825.7500      0.0000    739.0102      7.7535    116.5270
   826.0000      0.0000    743.4510      7.4690    106.8074
   826.2500      0.0000    750.5900      7.2819     98.2256
   826.5000      0.0000    760.7842      7.1869     92.9368
   826.7500      0.0000    772.9555      7.1800     92.2925
   827.0000      0.0000    785.2595      7.2911     95.9570
   827.2500      0.0000    795.0800      7.5668    102.1921
   827.5000      0.0000    798.8160      8.0422    109.0619
   827.7500      0.0000    793.0477      8.7350    115.1641
   828.0000      0.0000    777.1508      9.6316    119.4699
   828.2500      0.0000    754.8169     10.6632    121.3965
   828.5000      0.0000    732.3486     11.7120    121.4113
   828.7500      0.0000    714.5969     12.6530    121.0132
   829.0000      0.0000    701.8536     13.3918    121.7984
   829.2500      0.0000    689.8181     13.8856    124.4874
   829.5000      0.0000    672.4714     14.1523    128.2946
   829.7500      0.0000    646.6397     14.2553    130.8705
