~Version Information
VERS.                      2.0: CWLS Log ASCII Standard - VERSION 2.0
WRAP.                       NO: One line per depth step
~Well Information Block
STRT.FT               830.0000: 
STOP.FT              1782.5000: 
STEP.FT                 0.1000: 
NULL.                -999.2500: 
COMP.          Pioneer Natural Resources: COMPANY
WELL.          Manville 42-14 Tr: WELL
FLD.           Purgatoire River: FIELD
LOC.           2018 FNL & 562' FEL: LOCATION
STAT.                 Colorado: State
CNTY.               Las Animas: COUNTY
CTRY. USA : Country
SECT. 14 : Section
TOWN. 32S : Township
RANG. 66W : Range
SRVC.                Patterson: SERVICE COMPANY
DATE.          Mon Sep 19 09:44:06 2005: LOG DATE
API.           05 071 08522 00: UNIQUE WELL ID
~Curve Information Block
DEPT.FT            0 000 00 00: Depth
DCAL.in                       : CDL Caliper
RHOB.g/cc                     : CDL Bulk Density
RHOC.g/cc                     : CDL Density Correction
DPOR.pu                       : CDL Density Porosity
GR.GAPI                       : Gamma Ray
NPOR.pu                       : Neutron Porosity
~Parameter Information Block
~A  Depth       DCAL        RHOB        RHOC        DPOR         GR         NPOR    
# ...
  1271.6000      8.1106      2.5006      0.0107      9.0546    121.6054     24.1864
  1271.7000      8.1106      2.5059      0.0185      8.7342    121.8118     24.3892
  1271.8000      8.1125      2.5293      0.0498      7.3177    126.3420     24.6535
  1271.9000      8.1125      2.5374      0.0252      6.8254    130.7700     25.0999
  1272.0000      8.1050      2.5227     -0.0181      7.7179    133.3157     26.0226
  1272.1000      8.1050      2.5161     -0.0618      8.1155    134.3814     26.6945
  1272.2000      8.1050      2.5313      0.0119      7.1964    135.7969     25.9630
  1272.3000      8.0980      2.5444      0.0137      6.4006    140.8504     24.5292
  1272.4000      8.0980      2.5477      0.0203      6.2020    146.2913     23.7604
  1272.5000      8.1192      2.5617      0.0097      5.3489    144.0202     23.1067
  1272.6000      8.1192      2.5859      0.0602      3.8862    135.1680     22.1579
  1272.7000      8.1192      2.5924      0.0423      3.4884    128.5105     21.3981
  1272.8000      8.1362      2.5786      0.0070      4.3289    128.7654     20.8099
  1272.9000      8.1362      2.5732     -0.0451      4.6574    132.9791     20.5480
  1273.0000      8.1459      2.5867      0.0097      3.8343    135.9209     21.1438
  1273.1000      8.1459      2.5978      0.0446      3.1659    134.7577     21.9782
  1273.2000      8.1459      2.5970      0.0082      3.2103    131.2781     22.0260
  1273.3000      8.1464      2.5976     -0.0154      3.1770    127.3958     21.8443
  1273.4000      8.1464      2.6020      0.0104      2.9119    122.1735     22.2311
  1273.5000      8.1434      2.6020      0.0435      2.9081    116.8609     22.5553
  1273.6000      8.1434      2.6008      0.0120      2.9814    112.7603     22.0746
  1273.7000      8.1434      2.6021      0.0377      2.9011    109.5887     21.6330
  1273.8000      8.1323      2.5998     -0.0202      3.0449    107.0396     21.8821
  1273.9000      8.1323      2.5987      0.0159      3.1094    103.7713     22.1592
  1274.0000      8.1302      2.6006      0.0305      2.9950    102.3769     22.3792
  1274.1000      8.1302      2.5880      0.0535      3.7581    105.2260     22.6501
  1274.2000      8.1302      2.5607      0.0026      5.4124    106.4435     22.3767
  1274.3000      8.1030      2.5376      0.0451      6.8099    103.6108     21.8861
  1274.4000      8.1030      2.5268      0.0278      7.4652    102.1597     21.8481
  1274.5000      8.1085      2.5330      0.0114      7.0895    103.6492     21.8755
  1274.6000      8.1085      2.5532      0.0442      5.8662    104.7565     21.6703
  1274.7000      8.1085      2.5696      0.0310      4.8708    105.8441     21.7967
  1274.8000      8.1019      2.5825     -0.0170      4.0899    109.5855     22.6698
  1274.9000      8.1019      2.6105      0.0263      2.3933    113.3684     23.4770
  1275.0000      8.1096      2.6486      0.0752      0.0838    110.4608     23.0783
  1275.1000      8.1096      2.6762      0.0666     -1.5858    100.9702     21.9751
  1275.2000      8.1096      2.6970      0.0292     -2.8496     95.1314     21.4007
  1275.3000      8.0759      2.7204      0.0752     -4.2673     96.8596     21.4415
  1275.4000      8.0759      2.7341      0.0779     -5.0968     98.6065     21.3777
  1275.5000      8.0570      2.7317      0.0657     -4.9531     95.7631     21.2180
  1275.6000      8.0570      2.7208      0.0953     -4.2901     93.5595     21.5219
  1275.7000      8.0570      2.7007      0.0481     -3.0703     94.5657     22.0271
  1275.8000      8.0474      2.6728      0.0104     -1.3811     95.4276     21.9165
  1275.9000      8.0474      2.6458      0.0183      0.2546     96.9810     21.4739
  1276.0000      8.0553      2.6177      0.0158      1.9596    100.9085     21.6376
  1276.1000      8.0553      2.5864     -0.0215      3.8563    105.0631     21.9188
  1276.2000      8.0553      2.5680     -0.0266      4.9691    105.6449     21.5526
  1276.3000      8.0704      2.5766      0.0019      4.4501    102.0935     20.9541
  1276.4000      8.0704      2.5991      0.0402      3.0843     99.1224     20.7924
  1276.5000      8.1391      2.6122      0.0374      2.2928    100.0158     21.4781
  1276.6000      8.1391      2.6091      0.0381      2.4783    101.4131     22.2374
  1276.7000      8.1391      2.6056     -0.0439      2.6938     99.2104     22.1807
  1276.8000      8.1456      2.6145     -0.0078      2.1493     95.5734     21.9049
  1276.9000      8.1456      2.6269      0.0013      1.3982     94.3814     21.8474
  1277.0000      8.1244      2.6328      0.0345      1.0425     96.6260     21.5237
  1277.1000      8.1244      2.6315      0.0168      1.1189    100.2622     20.7452
  1277.2000      8.1244      2.6238     -0.0225      1.5895    102.3278     20.1315
  1277.3000      8.1340      2.6090     -0.0033      2.4844    102.3159     20.3643
  1277.4000      8.1340      2.5858     -0.0162      3.8897    100.7532     21.2489
  1277.5000      8.1108      2.5652     -0.0843      5.1375     98.5172     21.7919
  1277.6000      8.1108      2.5641     -0.0097      5.2036     97.3141     21.4158
  1277.7000      8.1108      2.5789      0.0148      4.3088     97.7484     20.6545
  1277.8000      8.0925      2.5945     -0.0191      3.3613     96.9996     20.0616
  1277.9000      8.0925      2.5976      0.0444      3.1736     95.0833     19.7784
  1278.0000      8.0849      2.5858     -0.0151      3.8900     96.1264     19.9047
  1278.1000      8.0849      2.5784     -0.0265      4.3381     96.7163     20.1183
  1278.2000      8.0849      2.5812      0.0298      4.1715     91.4193     19.9852
  1278.3000      8.0953      2.5752      0.0207      4.5328     86.9784     19.6521
  1278.4000      8.0953      2.5593      0.0013      5.4977     90.6681     19.5745
  1278.5000      8.0801      2.5469      0.0128      6.2486     97.8356     19.8411
  1278.6000      8.0801      2.5433     -0.0206      6.4683    101.0603     20.0222
  1278.7000      8.0801      2.5515     -0.0221      5.9701     97.9863     20.3580
  1278.8000      8.0710      2.5710      0.0249      4.7871     90.4062     21.4845
  1278.9000      8.0710      2.5929      0.0617      3.4621     84.8447     22.8045
  1279.0000      8.0530      2.6082      0.0636      2.5356     85.6846     23.4168
  1279.1000      8.0530      2.6172      0.0192      1.9871     89.6681     23.3028
  1279.2000      8.0530      2.6225      0.0533      1.6641     92.5301     23.1981
  1279.3000      8.0668      2.6253      0.0301      1.4976     94.2844     23.4827
  1279.4000      8.0668      2.6308      0.0510      1.1610     95.0860     23.6737
  1279.5000      8.0650      2.6328      0.1113      1.0449     95.2604     23.3539
  1279.6000      8.0650      2.6222      0.0476      1.6834     97.7446     22.8625
  1279.7000      8.0650      2.6060      0.0348      2.6670    100.8568     22.8951
  1279.8000      8.0583      2.5848      0.0315      3.9490     99.3616     23.4372
  1279.9000      8.0583      2.5599     -0.0071      5.4591     94.6210     23.8372
  1280.0000      8.0570      2.5480     -0.0371      6.1800     95.5513     23.5135
  1280.1000      8.0570      2.5576      0.0313      5.6025    103.4970     22.3371
  1280.2000      8.0570      2.5726      0.0558      4.6880    110.3196     21.1924
  1280.3000      8.0605      2.5726      0.0708      4.6918    110.7603     20.6418
  1280.4000      8.0605      2.5602      0.0559      5.4400    104.3974     20.2940
  1280.5000      8.0632      2.5622      0.0295      5.3212     97.1718     20.2385
  1280.6000      8.0632      2.5868      0.0851      3.8302     95.1849     20.9232
  1280.7000      8.0632      2.6208      0.0343      1.7721     96.2457     21.6703
  1280.8000      8.0601      2.6536      0.0755     -0.2188     95.6475     21.7103
  1280.9000      8.0601      2.6687      0.0808     -1.1360     94.7672     21.7124
  1281.0000      8.0695      2.6601      0.0676     -0.6131     96.2211     22.1648
  1281.1000      8.0695      2.6482      0.0313      0.1091    100.2229     22.7304
