~Version Information
VERS.                      2.0: CWLS Log ASCII Standard - VERSION 2.0
WRAP.                       NO: One line per depth step
~Well Information Block
STRT.FT                10.0000: 
STOP.FT               743.5000: 
STEP.FT                 0.1000: 
NULL.                -999.2500: 
COMP.          Pioneer Natural Resources: COMPANY
WELL.                Mia 21-18: WELL
FLD.           Purgatorie River: FIELD
LOC.           1067' FNL & 1824' FWL: LOCATION
PROV.                 Colorado: PROVINCE
CNTY.               Las Animas: COUNTRY
SRVC.                Patterson: SERVICE COMPANY
DATE.          Tue Nov 22 15:40:03 2005: LOG DATE
UWI.           05-071-08559               : UNIQUE WELL ID
~Curve Information Block
DEPT.FT            0 000 00 00: Depth
DCAL.in                       : CDL Caliper
RHOB.g/cc                     : CDL Bulk Density
RHOC.g/cc                     : CDL Density Correction
DPOR.pu                       : CDL Density Porosity
GR.GAPI                       : Gamma Ray
NPOR.pu                       : Neutron Porosity
~Parameter Information Block
~A  Depth       DCAL        RHOB        RHOC        DPOR         GR         NPOR    
# ...
   202.0000     -3.1029      2.3051      2.4706     -0.0069    116.4206     19.8143
   202.1000     -3.1029      2.3024      2.4844     -0.0070    115.9404     19.8914
   202.2000     -3.1029      2.2969      2.4881     -0.0071    112.8430     20.2882
   202.3000     -3.1029      2.2953      2.4949     -0.0071    112.0743     20.5980
   202.4000     -3.1029      2.3017      2.5157     -0.0070    112.7066     20.6156
   202.5000     -3.1029      2.3123      2.5114     -0.0068    111.8992     20.4717
   202.6000     -3.1029      2.3256      2.5077     -0.0065    110.3533     20.2095
   202.7000     -3.1029      2.3370      2.5290     -0.0063    107.7379     20.0726
   202.8000     -3.1029      2.3408      2.5039     -0.0062    104.2637     20.1835
   202.9000     -3.1029      2.3411      2.5161     -0.0062    102.8342     20.3299
   203.0000     -3.1029      2.3422      2.5289     -0.0062    105.3102     20.4758
   203.1000     -3.1029      2.3438      2.5057     -0.0061    109.3431     20.5980
   203.2000     -3.1029      2.3462      2.4908     -0.0061    111.4306     20.6323
   203.3000     -3.1029      2.3498      2.5043     -0.0060    111.6033     20.6283
   203.4000     -3.1029      2.3554      2.5068     -0.0059    109.9241     20.4796
   203.5000     -3.1029      2.3638      2.5067     -0.0057    107.4686     20.1877
   203.6000     -3.1029      2.3755      2.5066     -0.0055    108.8679     20.1073
   203.7000     -3.1029      2.3873      2.5201     -0.0053    111.9725     20.5955
   203.8000     -3.1029      2.3883      2.5436     -0.0052    110.9477     21.4316
   203.9000     -3.1029      2.3744      2.4962     -0.0055    108.7541     21.8762
   204.0000     -3.1029      2.3603      2.4949     -0.0058    108.5261     21.8361
   204.1000     -3.1029      2.3577      2.4968     -0.0058    107.9374     21.6676
   204.2000     -3.1029      2.3592      2.5279     -0.0058    108.4052     21.4043
   204.3000     -3.1029      2.3555      2.4853     -0.0059    113.4871     21.1916
   204.4000     -3.1029      2.3519      2.5103     -0.0060    119.5350     21.1262
   204.5000     -3.1029      2.3506      2.4985     -0.0060    119.5376     21.0967
   204.6000     -3.1029      2.3504      2.4814     -0.0060    114.5901     21.0632
   204.7000     -3.1029      2.3540      2.4976     -0.0059    110.3735     20.8756
   204.8000     -3.1029      2.3562      2.5090     -0.0059    107.7824     20.5051
   204.9000     -3.1029      2.3483      2.5167     -0.0060    106.3785     20.2290
   205.0000     -3.1029      2.3357      2.4842     -0.0063    106.9763     20.2772
   205.1000     -3.1029      2.3289      2.5001     -0.0064    109.0358     20.4811
   205.2000     -3.1029      2.3268      2.5079     -0.0065    110.3727     20.5456
   205.3000     -3.1029      2.3232      2.4855     -0.0065    109.6199     20.5795
   205.4000     -3.1029      2.3187      2.4860     -0.0066    108.7498     20.8105
   205.5000     -3.1029      2.3214      2.4733     -0.0066    109.6092     21.3428
   205.6000     -3.1029      2.3374      2.4778     -0.0063    110.2797     21.9574
   205.7000     -3.1029      2.3575      2.5188     -0.0059    107.6160     22.1651
   205.8000     -3.1029      2.3668      2.5145     -0.0057    103.6206     21.9085
   205.9000     -3.1029      2.3663      2.5105     -0.0057    104.7194     21.6341
   206.0000     -3.1029      2.3625      2.5070     -0.0058    110.9404     21.6302
   206.1000     -3.1029      2.3524      2.5137     -0.0060    115.2567     21.7756
   206.2000     -3.1029      2.3335      2.4889     -0.0063    114.7451     21.7136
   206.3000     -3.1029      2.3157      2.4587     -0.0067    112.1904     21.3825
   206.4000     -3.1029      2.3147      2.4691     -0.0067    110.3820     21.1688
   206.5000     -3.1029      2.3311      2.5124     -0.0064    111.1470     21.3048
   206.6000     -3.1029      2.3463      2.5222     -0.0061    114.2709     21.5533
   206.7000     -3.1029      2.3473      2.5143     -0.0061    115.4068     21.7265
   206.8000     -3.1029      2.3371      2.5033     -0.0063    113.8104     21.7081
   206.9000     -3.1029      2.3218      2.4995     -0.0066    114.0673     21.4176
   207.0000     -3.1029      2.3087      2.4669     -0.0068    116.5857     21.2937
   207.1000     -3.1029      2.3074      2.4754     -0.0069    118.4033     21.4979
   207.2000     -3.1029      2.3164      2.5079     -0.0067    118.2555     21.4093
   207.3000     -3.1029      2.3191      2.4965     -0.0066    117.7357     20.8767
   207.4000     -3.1029      2.3077      2.4967     -0.0069    119.1466     20.7954
   207.5000     -3.1029      2.2913      2.4781     -0.0072    120.4164     21.6099
   207.6000     -3.1029      2.2884      2.4486     -0.0072    119.3311     22.4725
   207.7000     -3.1029      2.3074      2.4957     -0.0069    118.1063     22.4641
   207.8000     -3.1029      2.3313      2.5420     -0.0064    118.6121     21.8936
   207.9000     -3.1029      2.3459      2.4895     -0.0061    119.8550     21.6483
   208.0000     -3.1029      2.3592      2.5069     -0.0058    120.2206     21.7193
   208.1000     -3.1029      2.3703      2.5282     -0.0056    119.4701     21.6061
   208.2000     -3.1029      2.3694      2.4984     -0.0056    118.6443     21.4430
   208.3000     -3.1029      2.3616      2.5293     -0.0058    117.4764     21.4071
   208.4000     -3.1029      2.3543      2.5042     -0.0059    116.1876     21.2130
   208.5000     -3.1029      2.3466      2.5162     -0.0061    117.5473     20.8511
   208.6000     -3.1029      2.3393      2.4672     -0.0062    122.3844     20.6728
   208.7000     -3.1029      2.3376      2.4809     -0.0063    126.4209     20.6965
   208.8000     -3.1029      2.3381      2.5369     -0.0062    125.7644     20.6382
   208.9000     -3.1029      2.3391      2.4661     -0.0062    121.3015     20.6044
   209.0000     -3.1029      2.3474      2.5054     -0.0061    115.9489     20.8318
   209.1000     -3.1029      2.3565      2.5329     -0.0059    113.0403     21.0204
   209.2000     -3.1029      2.3550      2.5041     -0.0059    115.5056     21.0321
   209.3000     -3.1029      2.3520      2.4987     -0.0060    119.4487     21.2873
   209.4000     -3.1029      2.3608      2.4916     -0.0058    118.2749     21.8004
   209.5000     -3.1029      2.3752      2.5281     -0.0055    114.0350     22.2050
   209.6000     -3.1029      2.3807      2.5361     -0.0054    113.8347     22.2591
   209.7000     -3.1029      2.3755      2.5026     -0.0055    120.4049     22.0842
   209.8000     -3.1029      2.3677      2.5041     -0.0056    128.3695     22.1364
   209.9000     -3.1029      2.3647      2.4838     -0.0057    130.7344     22.3044
   210.0000     -3.1029      2.3698      2.5205     -0.0056    127.9342     21.9131
   210.1000     -3.1029      2.3793      2.5280     -0.0054    127.4105     21.0352
   210.2000     -3.1029      2.3876      2.5172     -0.0052    131.6705     20.4179
   210.3000     -3.1029      2.3887      2.5364     -0.0052    133.4711     20.4478
   210.4000     -3.1029      2.3773      2.5185     -0.0055    128.7341     21.0390
   210.5000     -3.1029      2.3669      2.4767     -0.0057    122.7556     21.8252
   210.6000     -3.1029      2.3760      2.4969     -0.0055    120.4065     22.1506
   210.7000     -3.1029      2.3984      2.5360     -0.0050    121.7586     21.8199
   210.8000     -3.1029      2.4132      2.5557     -0.0047    123.9933     21.4970
   210.9000     -3.1029      2.4099      2.5506     -0.0048    123.9935     21.6200
   211.0000     -3.1029      2.3949      2.5382     -0.0051    123.7530     21.7630
   211.1000     -3.1029      2.3808      2.5184     -0.0054    126.7792     21.5952
   211.2000     -3.1029      2.3718      2.5095     -0.0056    131.7060     21.3719
   211.3000     -3.1029      2.3640      2.5015     -0.0057    133.4581     21.4618
   211.4000     -3.1029      2.3553      2.5018     -0.0059    127.8971     21.9926
   211.5000     -3.1029      2.3491      2.4999     -0.0060    118.7565     22.3856
