~Version Information
VERS.                      2.0: CWLS Log ASCII Standard - VERSION 2.0
WRAP.                       NO: One line per depth step
~Well Information Block
STRT.FT                 0.0000: 
STOP.FT               683.5000: 
STEP.FT                 0.2500: 
NULL.                -999.2500: 
COMP.          Pioneer Natural Resources: COMPANY
WELL.           Belvedere 14-7: WELL
FLD.           Purgatorie River: FIELD
LOC.           786' FSL & 1283' FWL: LOCATION
PROV.                 Colorado: PROVINCE
CNTY.               Las Animas: COUNTRY
SRVC.                Patterson: SERVICE COMPANY
DATE.          Fri Dec 02 12:52:31 2005: LOG DATE
UWI.           05-071-08557               : UNIQUE WELL ID
~Curve Information Block
DEPT.FT            0 000 00 00: Depth
CCL.                          : Casing Collar Locator
TT3.usec                      : CBL 3' Travel Time
AMP3.mV                       : CBL 3' Amplitude
GR.GAPI                       : Gamma Ray
~Parameter Information Block
~A  Depth       CCL         TT3         AMP3         GR     
# ...
   368.5000      0.0000    695.6366      8.3423    112.6901
   368.7500      0.0000    693.0621      8.3308    111.9471
   369.0000      0.0000    688.7908      8.2151    109.5779
   369.2500      0.0000    683.4329      8.0128    106.2702
   369.5000      0.0000    679.7666      7.8188    103.8836
   369.7500      0.0000    678.4343      7.6930    104.3760
   370.0000      0.0000    679.4172      7.6331    108.6834
   370.2500      0.0000    684.1656      7.6332    116.0006
   370.5000      0.0000    693.6549      7.7066    124.0293
   370.7500      0.0000    704.6096      7.8591    130.2168
   371.0000      0.0000    710.7816      8.0646    132.9274
   371.2500      0.0000    709.6611      8.2566    131.7976
   371.5000      0.0000    704.6287      8.3651    127.6009
   371.7500      0.0000    699.7426      8.3835    121.8481
   372.0000      0.0000    697.5016      8.3680    116.0569
   372.2500      0.0000    700.2684      8.3769    111.0886
   372.5000      0.0000    706.1304      8.4354    107.1673
   372.7500      0.0000    706.8262      8.5346    104.3493
   373.0000      0.0000    696.4147      8.6565    102.6243
   373.2500      0.0000    679.0681      8.7872    101.5417
   373.5000      0.0000    664.3933      8.8949    100.1321
   373.7500      0.0000    657.4935      8.9406     97.6235
   374.0000      0.0000    657.4447      8.9332     94.3455
   374.2500      0.0000    661.0447      8.9186     91.7837
   374.5000      0.0000    662.1774      8.8986     91.4932
   374.7500      0.0000    651.8747      8.8340     93.7398
   375.0000      0.0000    627.1805      8.7228     97.1302
   375.2500      0.0000    595.9845      8.6015     99.6470
   375.5000      0.0000    564.5562      8.5228    100.1511
   375.7500      0.0000    533.3284      8.5447     98.9538
   376.0000      0.0000    510.4409      8.6591     97.0818
   376.2500      0.0000    507.6245      8.7738     95.2215
   376.5000      0.0000    520.2635      8.8198     93.4338
   376.7500      0.0000    526.1907      8.8136     91.4400
   377.0000      0.0000    515.6981      8.8128     88.7728
   377.2500      0.0000    514.3004      8.8625     84.9674
   377.5000      0.0000    551.9441      8.9533     80.0606
   377.7500      0.0000    619.1147      9.0142     74.7590
   378.0000      0.0000    678.5724      8.9915     69.8969
   378.2500      0.0000    710.0104      8.9116     65.9547
   378.5000      0.0000    720.3682      8.8389     63.0559
   378.7500      0.0000    722.5027      8.8110     61.0500
   379.0000      0.0000    722.7669      8.8046     59.5901
   379.2500      0.0000    722.7679      8.7552     58.4377
   379.5000      0.0000    722.7533      8.6384     57.6367
   379.7500      0.0000    722.7867      8.4915     57.2650
   380.0000      0.0000    722.8712      8.3490     57.1640
   380.2500      0.0000    722.7687      8.2251     56.9462
   380.5000      0.0000    721.6821      8.1330     56.0981
   380.7500      0.0000    718.5572      8.0684     54.1482
   381.0000      0.0000    714.0635      8.0120     51.1229
   381.2500      0.0000    711.7165      7.9679     47.9589
   381.5000      0.0000    713.9020      7.9488     46.0978
   381.7500      0.0000    718.3099      7.9386     46.3446
   382.0000      0.0000    721.5396      7.9237     48.1814
   382.2500      0.0000    722.9016      7.9253     50.3112
   382.5000      0.0000    723.0643      7.9626     51.7020
   382.7500      0.0000    721.8770      8.0243     52.0211
   383.0000      0.0000    718.3029      8.0857     51.4323
   383.2500      0.0000    712.1827      8.1342     50.3971
   383.5000      0.0000    705.1750      8.1728     49.5821
   383.7500      0.0000    698.3837      8.1897     49.5730
   384.0000      0.0000    691.7277      8.1663     50.5309
   384.2500      0.0000    686.9318      8.1245     52.2856
   384.5000      0.0000    686.5595      8.1050     54.7274
   384.7500      0.0000    689.7099      8.1122     57.7293
   385.0000      0.0000    691.6335      8.1231     60.6856
   385.2500      0.0000    689.0743      8.1183     62.6999
   385.5000      0.0000    684.1008      8.0915     63.4694
   385.7500      0.0000    680.3134      8.0638     63.5123
   386.0000      0.0000    678.6528      8.0760     63.2614
   386.2500      0.0000    678.2839      8.1401     62.3962
   386.5000      0.0000    678.4130      8.2262     60.3925
   386.7500      0.0000    678.6155      8.3076     57.3422
   387.0000      0.0000    678.6996      8.4034     53.9245
   387.2500      0.0000    678.6571      8.5592     50.8405
   387.5000      0.0000    678.6093      8.7686     48.4903
   387.7500      0.0000    678.7191      8.9533     46.9745
   388.0000      0.0000    679.0573      9.0372     46.1754
   388.2500      0.0000    679.4947      9.0054     45.9024
   388.5000      0.0000    679.8190      8.8987     46.0635
   388.7500      0.0000    679.9542      8.7952     46.8185
   389.0000      0.0000    679.9529      8.7715     48.6830
   389.2500      0.0000    679.8572      8.8476     52.3855
   389.5000      0.0000    679.7252      8.9718     58.4816
   389.7500      0.0000    679.6766      9.0561     67.1110
   390.0000      0.0000    679.7304      9.0335     78.0162
   390.2500      0.0000    679.7227      8.8931     90.3597
   390.5000      0.0000    679.5712      8.6583    102.4212
   390.7500      0.0000    679.6602      8.3645    112.0219
   391.0000      0.0000    680.9586      8.0627    117.7431
   391.2500      0.0000    684.4370      7.7901    119.7098
   391.5000      0.0000    689.1508      7.5328    119.2244
   391.7500      0.0000    691.3508      7.2839    117.8794
   392.0000      0.0000    688.6458      7.1037    116.9663
   392.2500      0.0000    683.6302      7.0378    117.2169
   392.5000      0.0000    680.0885      7.0377    118.5481
   392.7500      0.0000    679.0572      7.0258    120.0386
   393.0000      0.0000    680.4377      6.9847    120.4362
   393.2500      0.0000    685.1685      6.9567    118.8949
   393.5000      0.0000    693.5703      6.9828    115.5309
   393.7500      0.0000    702.3132      7.0466    111.5110
   394.0000      0.0000    707.2840      7.0934    108.3645
   394.2500      0.0000    709.5338      7.1145    106.8377
   394.5000      0.0000    712.0925      7.1599    106.5915
   394.7500      0.0000    713.3632      7.2523    107.0682
   395.0000      0.0000    710.5182      7.3520    108.0128
   395.2500      0.0000    704.6999      7.4197    108.8118
   395.5000      0.0000    697.9860      7.4578    108.2475
   395.7500      0.0000    690.7985      7.4857    105.6729
   396.0000      0.0000    684.3801      7.5199    101.9172
   396.2500      0.0000    680.4120      7.5774     98.4363
   396.5000      0.0000    678.7710      7.6523     95.8493
   396.7500      0.0000    678.3039      7.7085     93.5954
   397.0000      0.0000    678.2228      7.7387     90.8321
   397.2500      0.0000    678.3151      7.7681     87.5238
   397.5000      0.0000    678.8351      7.7782     84.6664
   397.7500      0.0000    680.6550      7.7085     83.4613
   398.0000      0.0000    685.4192      7.5489     84.3614
   398.2500      0.0000    693.7745      7.3713     86.9149
   398.5000      0.0000    702.3485      7.2537     90.2924
   398.7500      0.0000    706.0279      7.2252     93.8927
   399.0000      0.0000    703.8737      7.2740     97.7329
   399.2500      0.0000    698.1449      7.3496    102.3825
   399.5000      0.0000    690.7213      7.3905    108.2522
   399.7500      0.0000    684.0715      7.3821    114.6802
   400.0000      0.0000    680.5612      7.3547    119.8602
   400.2500      0.0000    680.6151      7.3432    122.0618
   400.5000      0.0000    683.7061      7.3519    121.0433
   400.7500      0.0000    688.2047      7.3518    118.0606
   401.0000      0.0000    690.3094      7.3419    114.6669
   401.2500      0.0000    687.3546      7.3486    111.7900
   401.5000      0.0000    680.6740      7.3274    109.6146
   401.7500      0.0000    671.9424      7.1323    107.8298
