~Version Information
VERS.                      2.0: CWLS Log ASCII Standard - VERSION 2.0
WRAP.                       NO: One line per depth step
~Well Information Block
STRT.FT                -8.2500: 
STOP.FT              1653.2500: 
STEP.FT                 0.2500: 
NULL.                -999.2500: 
COMP.          Pioneer Natural Resources: COMPANY
WELL.            Relay 12-7 Tr: WELL
FLD.           Purgatorie River: FIELD
LOC.           2025' FNL & 790' FWL--: LOCATION
PROV.                       CO: PROVINCE
CNTY.               Las Animas: COUNTRY
SRVC.          Patterson Wireline: SERVICE COMPANY
DATE.          Tue Jan 24 10:25:08 2006: LOG DATE
UWI.           05 071 08603 00: UNIQUE WELL ID
~Curve Information Block
DEPT.FT            0 000 00 00: Depth
CCL.                          : Casing Collar Locator
TT3.usec                      : CBL 3' Travel Time
AMP3.mV                       : CBL 3' Amplitude
GR.GAPI                       : Gamma Ray
~Parameter Information Block
~A  Depth       CCL         TT3         AMP3         GR     
    -8.2500   -999.2500   -999.2500   -999.2500     67.1971
    -8.0000   -999.2500   -999.2500   -999.2500     67.5119
    -7.7500   -999.2500   -999.2500   -999.2500     67.8028
    -7.5000   -999.2500   -999.2500   -999.2500     68.4396
    -7.2500   -999.2500   -999.2500   -999.2500     69.2303
    -7.0000   -999.2500   -999.2500   -999.2500     69.5821
    -6.7500   -999.2500   -999.2500   -999.2500     69.2094
    -6.5000   -999.2500   -999.2500   -999.2500     68.2462
    -6.2500   -999.2500   -999.2500   -999.2500     66.6625
    -6.0000   -999.2500   -999.2500   -999.2500     64.1654
    -5.7500   -999.2500   -999.2500   -999.2500     60.9867
    -5.5000   -999.2500   -999.2500   -999.2500     58.2900
    -5.2500   -999.2500   -999.2500   -999.2500     57.2776
    -5.0000   -999.2500   -999.2500   -999.2500     57.9476
    -4.7500   -999.2500   -999.2500   -999.2500     58.9991
    -4.5000   -999.2500   -999.2500   -999.2500     58.9942
    -4.2500   -999.2500   -999.2500   -999.2500     57.5975
    -4.0000   -999.2500   -999.2500   -999.2500     55.8115
    -3.7500   -999.2500   -999.2500   -999.2500     55.0768
    -3.5000   -999.2500   -999.2500   -999.2500     56.0694
    -3.2500   -999.2500   1161.0000      0.9457     58.3010
    -3.0000   -999.2500   1161.0000      0.9441     60.7502
    -2.7500   -999.2500   1161.0000      0.9480     62.5475
    -2.5000   -999.2500   1161.0000      0.9522     62.9655
    -2.2500   -999.2500   1161.0000      0.9551     61.2964
    -2.0000   -999.2500   1161.0000      0.9584     57.3960
    -1.7500   -999.2500   1161.0000      0.9619     52.2511
    -1.5000   -999.2500   1161.0000      0.9618     47.4254
    -1.2500   -999.2500   1161.0000      0.9552     43.7721
    -1.0000   -999.2500   1161.0000      0.9433     40.9096
    -0.7500   -999.2500   1161.0000      0.9308     37.9730
    -0.5000   -999.2500   1161.0000      0.9215     34.6858
    -0.2500   -999.2500   1161.0000      0.9166     31.6318
     0.0000   -999.2500   1161.0000      0.9157     29.5759
     0.2500   -999.2500   1161.0000      0.9263     28.5153
     0.5000   -999.2500   1161.0000      0.9394     28.7883
     0.7500   -999.2500   1161.0000      0.9550     29.7439
     1.0000   -999.2500   1161.0000      0.9672     31.7269
     1.2500   -999.2500   1161.0000      0.9707     34.4621
     1.5000   -999.2500   1161.0000      0.9647     37.1111
     1.7500   -999.2500   1161.0000      0.9528     39.1968
     2.0000   -999.2500   1161.0000      0.9411     41.2289
     2.2500      0.0000   1161.0000      0.9355     44.1485
     2.5000      0.0000   1161.0000      0.9381     48.2100
     2.7500      0.0000   1161.0000      0.9460     52.6943
     3.0000      0.0000   1161.0000      0.9552     56.7385
     3.2500      0.0000   1161.0000      0.9646     60.1242
     3.5000      0.0000   1160.9799      0.9744     63.0693
     3.7500      0.0000   1160.8461      0.9830     65.5437
     4.0000      0.0000   1160.1250      0.9919     67.1551
     4.2500      0.0000   1157.1569      1.0261     67.6753
     4.5000      0.0000   1147.4481      1.2051     67.3938
     4.7500      0.0000   1121.9907      1.9129     66.7964
     5.0000      0.0000   1067.9304      4.0622     65.9632
     5.2500      0.0000    974.0113      9.1652     64.3611
     5.5000      0.0000    839.5583     18.6644     61.3000
     5.7500      0.0000    680.6788     32.5183     56.8168
     6.0000      0.0000    526.4040     48.3435     52.1812
     6.2500      0.0000    404.4023     62.5109     49.3174
     6.5000      0.0000    326.6503     72.4719     49.5353
     6.7500      0.0000    287.1023     77.9961     52.6682
     7.0000      0.0000    271.1693     80.4337     57.0846
     7.2500      0.0000    266.1087     81.3012     60.5477
     7.5000      0.0000    264.8384     81.5469     61.5669
     7.7500      0.0000    264.5785     81.5787     60.1805
     8.0000      0.0000    264.5223     81.5322     57.4248
     8.2500      0.0000    264.5054     81.4629     54.4462
     8.5000      0.0000    264.4960     81.4248     52.3564
     8.7500      0.0000    264.4979     81.4643     52.1957
     9.0000      0.0000    264.5114     81.5893     54.1264
     9.2500      0.0000    264.5327     81.7621     56.7558
     9.5000      0.0000    264.5547     81.9271     57.9860
     9.7500      0.0000    264.5701     82.0420     56.8442
    10.0000      0.0000    264.5746     82.0871     54.2507
    10.2500      0.0000    264.5690     82.0619     51.9269
    10.5000      0.0000    264.5569     81.9848     50.8840
    10.7500      0.0000    264.5433     81.8953     51.1997
    11.0000      0.0000    264.5315     81.8418     52.8581
    11.2500      0.0000    264.5229     81.8516     56.2867
    11.5000      0.0000    264.5164     81.9096     61.8680
    11.7500      0.0000    264.5101     81.9724     68.8851
    12.0000      0.0000    264.5036     82.0004     75.0942
    12.2500      0.0000    264.4996     81.9566     77.8582
    12.5000      0.0000    264.5079     81.7603     76.1349
    12.7500      0.0000    264.5607     81.2336     71.2631
    13.0000      0.0000    264.7413     80.1135     65.6908
    13.2500      0.0000    265.2053     78.1263     61.1455
    13.5000      0.0000    266.1328     75.0292     57.9248
    13.7500      0.0000    267.6192     70.6133     55.3430
    14.0000      0.0000    269.6429     64.8438     52.5923
    14.2500      0.0000    272.2657     58.1078     49.4704
    14.5000      0.0000    275.9243     51.1606     46.4731
    14.7500      0.0000    281.3552     44.6676     44.1877
    15.0000      0.0000    289.2824     38.8653     42.7364
    15.2500      2.0000    300.6993     33.6759     41.9572
    15.5000      0.0000    318.2780     28.9810     41.8552
    15.7500      0.0000    347.0125     24.7430     42.5082
    16.0000      0.0000    391.0727     20.9950     43.6073
    16.2500      0.0000    447.9956     17.7926     44.5408
    16.5000      0.0000    506.5664     15.1510     45.0961
    16.7500      0.0000    552.5975     13.0215     45.7941
    17.0000      0.0000    578.3892     11.3578     47.2947
    17.2500      0.0000    587.6616     10.1630     49.5654
    17.5000      0.0000    591.4038      9.4257     51.7292
    17.7500      0.0000    597.6189      9.0455     52.7537
    18.0000      0.0000    604.8529      8.8692     52.3954
    18.2500      0.0000    606.0974      8.7751     51.5046
    18.5000      0.0000    597.7035      8.7015     51.2706
    18.7500      0.0000    584.2332      8.6265     52.2316
    19.0000      0.0000    576.3108      8.5479     54.1722
    19.2500      0.0000    583.0389      8.4765     56.7910
    19.5000      0.0000    604.1992      8.4253     60.0008
    19.7500      0.0000    629.1942      8.4002     63.4575
    20.0000      0.0000    644.1385      8.3971     66.1912
    20.2500      0.0000    640.2499      8.4061     67.0842
    20.5000      0.0000    616.8365      8.4189     65.7015
    20.7500      0.0000    578.8026      8.4324     62.5368
    21.0000      0.0000    532.9200      8.4472     58.5873
    21.2500      0.0000    486.2581      8.4633     54.8928
    21.5000      0.0000    445.7997      8.4786     52.2564
    21.7500      0.0000    416.5574      8.4917     50.9769
    22.0000      0.0000    399.3105      8.5025     50.7846
    22.2500      0.0000    391.0653      8.5122     51.2099
    22.5000      0.0000    387.8253      8.5223     51.9915
    22.7500      0.0000    386.7437      8.5349     53.1251
    23.0000      0.0000    386.4690      8.5515     54.5597
    23.2500      0.0000    386.5529      8.5681     55.7701
    23.5000      0.0000    386.9471      8.5736     55.6826
    23.7500      0.0000    387.8065      8.5546     53.4676
    24.0000      0.0000    389.5759      8.5038     49.6851
    24.2500      0.0000    393.0250      8.4260     46.3107
    24.5000      0.0000    398.8813      8.3355     45.1619
    24.7500      0.0000    407.0316      8.2490     46.3115
    25.0000      0.0000    416.0578      8.1769     48.2814
