~Version Information
VERS.                      2.0: CWLS Log ASCII Standard - VERSION 2.0
WRAP.                       NO: One line per depth step
~Well Information Block
STRT.FT               260.0000: 
STOP.FT               713.2000: 
STEP.FT                 0.1000: 
NULL.                -999.2500: 
COMP.          Pioneer Natural Resources: COMPANY
WELL.           Quintessa 23-7: WELL
FLD.           Purgatoire River: FIELD
LOC.           1964' FSL & 2589' FWL--: LOCATION
PROV.                 Colorado: PROVINCE
CNTY.               Las Animas: COUNTRY
SRVC.                Patterson: SERVICE COMPANY
DATE.          Sat Nov 19 09:15:07 2005: LOG DATE
UWI.           05 071 08558 00: UNIQUE WELL ID
~Curve Information Block
DEPT.FT            0 000 00 00: Depth
DCAL.in                       : CDL Caliper
RHOB.g/cc                     : CDL Bulk Density
RHOC.g/cc                     : CDL Density Correction
DPOR.pu                       : CDL Density Porosity
NPOR.pu                       : Neutron Porosity
GR.GAPI                       : Gamma Ray
~Parameter Information Block
~A  Depth       DCAL        RHOB        RHOC        DPOR        NPOR         GR     
# ...
   432.8000      7.9666      2.5489      0.0453      6.1265     24.8095     88.6489
   432.9000      7.9666      2.5626      0.0333      5.2981     24.3336     90.2052
   433.0000      7.9701      2.5750      0.0933      4.5475     23.9395     97.7496
   433.1000      7.9701      2.5744      0.0334      4.5802     23.7046    108.1711
   433.2000      7.9701      2.5702      0.0653      4.8363     23.3870    116.3960
   433.3000      7.9754      2.5779      0.0558      4.3712     22.7378    120.2049
   433.4000      7.9754      2.6035      0.0665      2.8180     21.7471    115.1336
   433.5000      7.9718      2.6364      0.1024      0.8260     21.0353    102.3845
   433.6000      7.9718      2.6507      0.1309     -0.0440     21.2224     93.1414
   433.7000      7.9718      2.6311      0.0807      1.1431     22.2639     94.0101
   433.8000      7.9637      2.5958      0.0503      3.2824     23.5980     99.9593
   433.9000      7.9637      2.5716      0.0616      4.7545     24.4814    104.8962
   434.0000      7.9622      2.5629      0.0414      5.2815     24.9209    107.5627
   434.1000      7.9622      2.5618      0.0448      5.3447     25.5735    106.6679
   434.2000      7.9622      2.5617      0.0343      5.3491     26.5963    104.5740
   434.3000      7.9729      2.5558      0.0571      5.7065     27.4732    104.0194
   434.4000      7.9729      2.5443      0.0286      6.4089     27.6857    103.4340
   434.5000      7.9984      2.5299      0.0702      7.2774     27.4227    106.4964
   434.6000      7.9984      2.5132      0.0131      8.2910     27.3656    114.0463
   434.7000      7.9984      2.5010      0.0379      9.0277     27.6664    117.4849
   434.8000      8.0299      2.4965      0.0414      9.3046     27.6770    118.1019
   434.9000      8.0299      2.4995      0.0202      9.1215     27.2028    122.7818
   435.0000      8.0493      2.5088      0.0523      8.5591     27.3231    127.6593
   435.1000      8.0493      2.5157      0.0471      8.1375     28.4702    128.7463
   435.2000      8.0493      2.5156      0.0497      8.1439     29.2974    127.3272
   435.3000      8.0584      2.5124      0.0352      8.3365     28.9886    126.0349
   435.4000      8.0584      2.5103      0.0354      8.4655     28.2149    127.7405
   435.5000      8.0682      2.5072      0.0442      8.6570     27.7141    132.5802
   435.6000      8.0682      2.5017      0.0134      8.9881     27.6208    140.2010
   435.7000      8.0682      2.4949      0.0207      9.4023     27.8219    148.8682
   435.8000      8.0766      2.4872      0.0166      9.8653     28.2684    154.8037
   435.9000      8.0766      2.4849      0.0331     10.0073     28.8749    155.2991
   436.0000      8.0740      2.4869      0.0548      9.8822     29.4132    147.6042
   436.1000      8.0740      2.4794      0.0543     10.3379     29.4520    135.3317
   436.2000      8.0740      2.4570      0.0385     11.6966     28.8112    125.6753
   436.3000      8.0565      2.4337     -0.0149     13.1101     28.0578    123.2711
   436.4000      8.0565      2.4260      0.0091     13.5734     27.8441    128.1991
   436.5000      8.0438      2.4380      0.0070     12.8499     28.0557    130.4655
   436.6000      8.0438      2.4641      0.0259     11.2658     28.3511    126.8093
   436.7000      8.0438      2.4898      0.0527      9.7109     28.6892    123.1511
   436.8000      8.0445      2.4968      0.0665      9.2868     28.8470    119.7694
   436.9000      8.0445      2.4825      0.0237     10.1497     28.6353    115.6362
   437.0000      8.0470      2.4616      0.0287     11.4202     28.3942    112.9905
   437.1000      8.0470      2.4459      0.0270     12.3722     28.5298    113.8001
   437.2000      8.0470      2.4408      0.0153     12.6783     28.8832    121.6701
   437.3000      8.0474      2.4444      0.0167     12.4632     29.2197    133.2421
   437.4000      8.0474      2.4404      0.0458     12.7020     29.8194    140.3202
   437.5000      8.0495      2.4154     -0.0031     14.2209     30.7517    142.6656
   437.6000      8.0495      2.3705      0.0101     16.9383     31.3202    141.1996
   437.7000      8.0495      2.3079     -0.0148     20.7349     31.4244    132.8005
   437.8000      8.0569      2.2283     -0.0507     25.5572     31.7686    118.5913
   437.9000      8.0569      2.1412     -0.0998     30.8345     32.1745    105.7541
   438.0000      8.0661      2.0630     -0.1213     35.5776     32.1522     97.0212
   438.1000      8.0661      2.0005     -0.0941     39.3656     32.0596     90.0567
   438.2000      8.0661      1.9396     -0.0682     43.0529     32.3949     88.3330
   438.3000      8.0715      1.8617     -0.0826     47.7736     33.0931     95.5867
   438.4000      8.0715      1.7639     -0.0767     53.7059     33.9268    106.3993
   438.5000      8.0802      1.6613     -0.1285     59.9227     34.6731    110.0042
   438.6000      8.0802      1.5739     -0.1154     65.2168     35.0914    100.7421
   438.7000      8.0802      1.5080     -0.0896     69.2113     35.2647     86.2521
   438.8000      8.1033      1.4564     -0.0731     72.3372     35.3435     76.9222
   438.9000      8.1033      1.4154     -0.0700     74.8235     35.1009     71.7952
   439.0000      8.1481      1.3908     -0.0517     76.3175     34.4534     66.7856
   439.1000      8.1481      1.3885     -0.0177     76.4575     33.8741     61.9404
   439.2000      8.1481      1.4077      0.0105     75.2932     34.1371     57.0727
   439.3000      8.2023      1.4375      0.0566     73.4824     35.1643     52.7714
   439.4000      8.2023      1.4628      0.0566     71.9536     36.1052     50.3885
   439.5000      8.2334      1.4788      0.0381     70.9841     36.7442     48.3746
   439.6000      8.2334      1.4908      0.0571     70.2549     37.0378     47.9064
   439.7000      8.2334      1.5005      0.0644     69.6656     36.3579     51.6219
   439.8000      8.2346      1.5063      0.0433     69.3157     34.6857     56.2609
   439.9000      8.2346      1.5083      0.0342     69.1925     33.1301     55.6382
   440.0000      8.2112      1.5049      0.0270     69.4002     32.5171     50.2178
   440.1000      8.2112      1.4925      0.0053     70.1497     32.8862     48.3873
   440.2000      8.2112      1.4717     -0.0120     71.4131     33.5984     52.1151
   440.3000      8.1760      1.4501     -0.0309     72.7213     33.9575     55.2579
   440.4000      8.1760      1.4417     -0.0170     73.2309     33.8507     54.1949
   440.5000      8.1669      1.4623     -0.0145     71.9811     33.3797     48.6013
   440.6000      8.1669      1.5183      0.0528     68.5872     32.3219     42.2545
   440.7000      8.1669      1.5974      0.0905     63.7943     30.9404     40.4533
   440.8000      8.1893      1.6863      0.0999     58.4059     30.1471     42.7448
   440.9000      8.1893      1.7871      0.1275     52.2966     30.2049     47.2115
   441.0000      8.2147      1.9039      0.1715     45.2162     30.6451     56.1551
   441.1000      8.2147      2.0247      0.2528     37.8972     30.9445     69.8125
   441.2000      8.2147      2.1298      0.2394     31.5243     30.7339     83.0671
   441.3000      8.2198      2.2172      0.2202     26.2318     30.4900     92.7142
   441.4000      8.2198      2.2924      0.2192     21.6702     30.8527     98.7448
   441.5000      8.1790      2.3437      0.2031     18.5630     31.1621    103.8358
   441.6000      8.1790      2.3551      0.1216     17.8710     30.5658    111.0095
   441.7000      8.1790      2.3346      0.0272     19.1173     29.6135    113.9441
   441.8000      8.1117      2.3025      0.0197     21.0583     29.1858    109.5089
   441.9000      8.1117      2.2763     -0.0276     22.6495     29.3369    109.9099
   442.0000      8.0580      2.2634      0.0065     23.4287     29.9794    119.7872
   442.1000      8.0580      2.2518      0.0236     24.1347     30.9889    126.8564
   442.2000      8.0580      2.2276      0.0168     25.5984     31.5231    121.9266
   442.3000      8.0314      2.2010     -0.0061     27.2097     31.2487    112.6123
