~Version Information
VERS.                      2.0: CWLS Log ASCII Standard - VERSION 2.0
WRAP.                       NO: One line per depth step
~Well Information Block
STRT.FT                 0.0000: 
STOP.FT              2792.7500: 
STEP.FT                 0.2500: 
NULL.                -999.2500: 
COMP.          Pioneer Natural Resources: COMPANY
WELL.          Black Cat 13-32: WELL
FLD.           Purgatorie River: FIELD
LOC.           1865' FSL & 1120' FWL: LOCATION
PROV.                 Colorado: PROVINCE
CNTY.               Las Animas: COUNTRY
SRVC.                Patterson: SERVICE COMPANY
DATE.          Fri Aug 19 09:19:21 2005: LOG DATE
UWI.                          : UNIQUE WELL ID
~Curve Information Block
DEPT.FT            0 000 00 00: Depth
CCL.                          : Casing Collar Locator
TT3.usec                      : CBL 3' Travel Time
AMP3.mV                       : CBL 3' Amplitude
GR.GAPI                       : Gamma Ray
~Parameter Information Block
~A  Depth       CCL         TT3         AMP3         GR     
# ...
  2211.0000      0.0000    678.6741      7.0796     60.4730
  2211.2500      0.0000    679.0936      6.0622     61.0877
  2211.5000      0.0000    678.8887      5.2312     60.9094
  2211.7500      0.0000    677.4136      4.6028     59.5434
  2212.0000      0.0000    674.9537      4.1637     57.0031
  2212.2500      0.0000    672.7515      3.8843     53.8816
  2212.5000      0.0000    671.8519      3.7104     50.9923
  2212.7500      0.0000    672.2092      3.6028     48.8763
  2213.0000      0.0000    673.2283      3.5725     47.5659
  2213.2500      0.0000    675.0988      3.6487     46.6521
  2213.5000      0.0000    679.1378      3.8344     45.6996
  2213.7500      0.0000    685.4885      4.0867     44.7767
  2214.0000      0.0000    690.3540      4.2968     44.4583
  2214.2500      0.0000    689.2284      4.3189     45.1822
  2214.5000      0.0000    684.0222      4.1296     46.6187
  2214.7500      0.0000    682.4963      3.8890     47.7201
  2215.0000      0.0000    689.6586      3.7084     47.4532
  2215.2500      0.0000    702.7407      3.5406     45.6431
  2215.5000     -2.0000    715.8109      3.3512     43.2405
  2215.7500      2.0000    727.0843      3.1788     41.7453
  2216.0000      0.0000    737.5164      3.0516     42.2179
  2216.2500     -2.0000    743.5961      2.9797     44.6964
  2216.5000      0.0000    739.0983      2.9945     48.3954
  2216.7500      0.0000    725.3181      3.0962     52.2264
  2217.0000      0.0000    711.4402      3.1936     55.1797
  2217.2500      0.0000    702.8455      3.2490     56.6781
  2217.5000      0.0000    698.2974      3.3837     56.7998
  2217.7500      0.0000    699.8503      3.6968     55.9437
  2218.0000      0.0000    712.4783      4.1593     54.2507
  2218.2500      0.0000    731.1464      4.7201     51.6656
  2218.5000      0.0000    742.4814      5.3570     48.5505
  2218.7500      0.0000    742.0176      6.0265     45.8189
  2219.0000      0.0000    738.3605      6.6453     44.2163
  2219.2500      0.0000    741.6310      7.1356     43.6545
  2219.5000      0.0000    754.3509      7.4364     43.4914
  2219.7500      0.0000    769.0654      7.5093     43.4111
  2220.0000      0.0000    773.9313      7.4218     43.8060
  2220.2500      0.0000    764.9709      7.3538     45.2665
  2220.5000      0.0000    750.7527      7.4384     47.8444
  2220.7500      0.0000    743.9015      7.6832     50.8759
  2221.0000      0.0000    750.0070      8.0611     53.4392
  2221.2500      0.0000    762.5508      8.5617     54.8833
  2221.5000      0.0000    767.6188      9.1654     55.0111
  2221.7500      0.0000    757.8159      9.8911     54.0523
  2222.0000      0.0000    739.9380     10.8729     52.5662
  2222.2500      0.0000    725.2232     12.2223     51.2470
  2222.5000      0.0000    717.7902     13.7482     50.6556
  2222.7500      0.0000    715.4235     15.0185     50.9193
  2223.0000      0.0000    715.3422     15.7292     51.5878
  2223.2500      0.0000    716.7089     15.8337     51.9738
  2223.5000      0.0000    720.0746     15.4374     51.7534
  2223.7500      0.0000    724.6226     14.6952     51.0911
  2224.0000      0.0000    726.0350     13.7312     50.1542
  2224.2500      0.0000    720.1705     12.6377     48.8564
  2224.5000      0.0000    709.3377     11.5465     47.3010
  2224.7500      0.0000    702.8057     10.6493     46.1280
  2225.0000      0.0000    710.3068     10.1104     45.9652
  2225.2500      0.0000    732.1978      9.9951     46.6463
  2225.5000      0.0000    755.6545     10.3212     47.3893
  2225.7500      0.0000    764.4151     11.1274     47.8143
  2226.0000      0.0000    748.8169     12.4242     48.4688
  2226.2500      0.0000    701.3763     14.1000     50.2179
  2226.5000      0.0000    619.8727     15.8593     53.3047
  2226.7500      0.0000    531.9189     17.2440     57.1730
  2227.0000      0.0000    491.5334     17.8743     61.0213
  2227.2500      0.0000    525.9935     17.7061     64.2730
  2227.5000      0.0000    602.8981     16.9247     66.5834
  2227.7500      0.0000    666.9279     15.6674     67.9004
  2228.0000      0.0000    694.3681     14.0098     68.9127
  2228.2500      0.0000    696.3546     12.1069     71.2718
  2228.5000      0.0000    691.2953     10.1829     76.7791
  2228.7500      0.0000    692.4766      8.4254     85.9189
  2229.0000      0.0000    706.5651      6.9392     97.0400
  2229.2500      0.0000    729.6741      5.7591    107.0159
  2229.5000      0.0000    749.7783      4.8688    112.9479
  2229.7500      0.0000    760.1073      4.2192    113.7300
  2230.0000      0.0000    760.7303      3.7552    110.5813
  2230.2500      0.0000    748.7485      3.4468    106.4200
  2230.5000      0.0000    725.6841      3.2937    104.5521
  2230.7500      0.0000    703.8066      3.2798    107.3718
  2231.0000      0.0000    692.5186      3.3413    115.5349
  2231.2500      0.0000    691.2855      3.4036    127.6577
  2231.5000      0.0000    696.8077      3.4344    140.5878
  2231.7500      0.0000    706.8240      3.4546    150.5408
  2232.0000      0.0000    717.1361      3.5048    154.9436
  2232.2500      0.0000    721.3940      3.5940    153.8646
  2232.5000      0.0000    716.6588      3.6893    149.6929
  2232.7500      0.0000    706.7334      3.7652    145.2603
  2233.0000      0.0000    698.0130      3.8305    142.2958
  2233.2500      0.0000    693.3969      3.9017    141.3760
  2233.5000      0.0000    691.7677      3.9792    142.3914
  2233.7500      0.0000    691.2835      4.0467    144.5564
  2234.0000      0.0000    691.0870      4.0938    146.5804
  2234.2500      0.0000    691.2540      4.1386    147.4662
  2234.5000      0.0000    692.7947      4.2037    147.1264
  2234.7500      0.0000    697.4716      4.2855    146.2333
  2235.0000      0.0000    705.7517      4.3674    145.5470
  2235.2500      0.0000    713.7206      4.4327    145.1101
  2235.5000      0.0000    714.3658      4.4577    143.9869
  2235.7500      0.0000    705.2228      4.4272    141.1542
  2236.0000      0.0000    693.7932      4.3658    136.8656
  2236.2500      0.0000    690.0822      4.3152    132.9606
  2236.5000      0.0000    693.9177      4.2847    131.5364
  2236.7500      0.0000    697.4115      4.2527    133.0345
  2237.0000      0.0000    697.0640      4.1995    135.5927
  2237.2500      0.0000    694.9891      4.1214    136.6013
  2237.5000      0.0000    693.1661      4.0259    135.0552
  2237.7500      0.0000    691.9526      3.9274    132.1129
  2238.0000      0.0000    691.1643      3.8563    129.4747
  2238.2500      0.0000    690.7905      3.8706    127.7699
  2238.5000      0.0000    691.7387      4.0352    126.6526
  2238.7500      0.0000    696.0867      4.3744    125.9259
  2239.0000      0.0000    705.1757      4.8687    125.8977
  2239.2500      0.0000    716.7107      5.5033    126.5128
  2239.5000      0.0000    726.0494      6.2687    126.7084
  2239.7500      0.0000    731.0975      7.1200    125.2323
  2240.0000      0.0000    733.1560      8.0039    122.0929
  2240.2500      0.0000    733.5623      8.9278    118.8189
  2240.5000      0.0000    731.8601     10.0155    117.0764
  2240.7500      0.0000    725.3633     11.5080    117.0523
  2241.0000      0.0000    707.3126     13.5507    117.2469
  2241.2500      0.0000    665.8690     15.9349    115.9164
  2241.5000      0.0000    595.1768     18.1970    112.7097
  2241.7500      0.0000    518.3856     19.8917    108.8505
  2242.0000      0.0000    483.5047     20.6893    105.7985
  2242.2500      0.0000    515.7021     20.4357    103.9513
  2242.5000      0.0000    586.6774     19.2867    102.9100
  2242.7500      0.0000    647.2283     17.6919    102.6865
  2243.0000      0.0000    676.9032     16.0932    103.7018
  2243.2500      0.0000    686.2556     14.6417    105.2604
  2243.5000      0.0000    689.7541     13.2674    104.9656
  2243.7500      0.0000    694.5250     11.9067    100.6153
  2244.0000      0.0000    702.5523     10.5947     92.5364
  2244.2500      0.0000    711.6811      9.4092     83.4625
