~Version Information
VERS.                      2.0: CWLS Log ASCII Standard - VERSION 2.0
WRAP.                       NO: One line per depth step
~Well Information Block
STRT.FT                -4.7500: 
STOP.FT              2723.2500: 
STEP.FT                 0.2500: 
NULL.                -999.2500: 
COMP.          Pioneer Natural Resources: COMPANY
WELL.           Dolzanie 34-12: WELL
FLD.           Purgatorie River: FIELD
LOC.           1001' FSL & 1750' FEL: LOCATION
PROV.                 Colorado: PROVINCE
CNTY.               Las Animas: COUNTRY
SRVC.                Patterson: SERVICE COMPANY
DATE.          Wed Jul 27 14:23:29 2005: LOG DATE
UWI.                          : UNIQUE WELL ID
~Curve Information Block
DEPT.FT            0 000 00 00: Depth
GR.GAPI                       : Gamma Ray
CCL.                          : Casing Collar Locator
TT3.usec                      : CBL 3' Travel Time
AMP3.mV                       : CBL 3' Amplitude
~Parameter Information Block
~A  Depth        GR         CCL         TT3         AMP3    
# ...
  1603.2500    127.9640      0.0000    750.8469      8.4365
  1603.5000    127.3576      0.0000    750.7376      8.6413
  1603.7500    126.6730      0.0000    765.7019      8.8391
  1604.0000    127.1041      0.0000    785.2313      9.0185
  1604.2500    128.5246      0.0000    800.5256      9.2131
  1604.5000    129.4495      0.0000    808.0374      9.3913
  1604.7500    128.2076      0.0000    806.6672      9.4762
  1605.0000    124.3740      0.0000    798.0714      9.4560
  1605.2500    119.0647      0.0000    785.5116      9.3888
  1605.5000    113.9198      0.0000    773.0269      9.3181
  1605.7500    109.9717      0.0000    765.0990      9.2421
  1606.0000    107.2550      0.0000    761.7157      9.1567
  1606.2500    105.0233      0.0000    755.2627      9.0615
  1606.5000    102.2970      0.0000    738.6874      8.9418
  1606.7500     98.6458      0.0000    716.6959      8.8037
  1607.0000     94.6340      0.0000    702.7234      8.6916
  1607.2500     91.2610      0.0000    704.6928      8.6466
  1607.5000     88.9211      0.0000    718.5024      8.6622
  1607.7500     87.1909      0.0000    733.4365      8.7242
  1608.0000     85.5714      0.0000    739.7850      8.8740
  1608.2500     83.9918      0.0000    734.3295      9.1197
  1608.5000     82.4462      0.0000    721.1795      9.3269
  1608.7500     80.6280      0.0000    705.9747      9.3195
  1609.0000     78.3775      0.0000    690.9848      9.0461
  1609.2500     76.2320      0.0000    678.6650      8.6071
  1609.5000     74.9729      0.0000    675.4415      8.1715
  1609.7500     74.5996      0.0000    686.4324      7.8485
  1610.0000     74.2483      0.0000    707.9808      7.6230
  1610.2500     73.3627      0.0000    728.8491      7.4287
  1610.5000     72.5636      0.0000    739.6767      7.2249
  1610.7500     73.0032      0.0000    739.8664      7.0110
  1611.0000     75.0032      0.0000    734.1970      6.8183
  1611.2500     77.5807      0.0000    724.1114      6.6637
  1611.5000     79.2380      0.0000    709.4833      6.5159
  1611.7500     79.1037      0.0000    698.2983      6.3489
  1612.0000     77.4932      0.0000    698.2220      6.1934
  1612.2500     75.7083      0.0000    703.9574      6.0962
  1612.5000     75.3943      0.0000    708.4167      6.0649
  1612.7500     77.7584      0.0000    712.8589      6.0743
  1613.0000     82.8429      0.0000    719.5275      6.0950
  1613.2500     89.3446      0.0000    725.9564      6.1150
  1613.5000     95.3256      0.0000    728.8221      6.1518
  1613.7500     99.2434      0.0000    728.4481      6.2197
  1614.0000    100.4547      0.0000    729.5886      6.2822
  1614.2500     99.2188      0.0000    737.6859      6.2773
  1614.5000     96.6732      0.0000    746.9619      6.1899
  1614.7500     94.7275      0.0000    737.1172      6.0532
  1615.0000     95.3613      0.0000    700.5416      5.8849
  1615.2500     99.3280      0.0000    665.2953      5.6751
  1615.5000    105.2793      0.0000    661.3059      5.4532
  1615.7500    110.3667      0.0000    679.6669      5.3294
  1616.0000    111.9902      0.0000    695.9052      5.4007
  1616.2500    109.1226      0.0000    707.5131      5.6103
  1616.5000    102.2343      0.0000    727.1413      5.7708
  1616.7500     92.4317      0.0000    754.3396      5.7574
  1617.0000     80.9718      0.0000    773.5153      5.6242
  1617.2500     69.4096      0.0000    778.3141      5.4957
  1617.5000     59.7181      0.0000    774.0450      5.4197
  1617.7500     53.8992      0.0000    761.5001      5.3835
  1618.0000     53.2567      0.0000    739.3701      5.3917
  1618.2500     57.7820      0.0000    714.1595      5.4797
  1618.5000     65.9588      0.0000    698.1594      5.6975
  1618.7500     75.0337      0.0000    698.2656      6.0576
  1619.0000     81.7835      0.0000    710.8417      6.4531
  1619.2500     83.8565      0.0000    728.0646      6.6726
  1619.5000     81.0918      0.0000    739.4324      6.5847
  1619.7500     75.5818      0.0000    733.9475      6.3228
  1620.0000     70.2204      0.0000    716.3961      6.1685
  1620.2500     67.0867      0.0000    708.2496      6.2367
  1620.5000     67.0546      0.0000    720.6711      6.4143
  1620.7500     70.4569      0.0000    741.7201      6.5779
  1621.0000     77.6012      0.0000    754.0089      6.7317
  1621.2500     88.4386      0.0000    752.3181      6.9581
  1621.5000    101.8962      0.0000    742.5625      7.2967
  1621.7500    115.7508      0.0000    733.2718      7.6752
  1622.0000    127.3878      0.0000    727.4122      7.9587
  1622.2500    135.0649      0.0000    718.9445      8.0513
  1622.5000    138.7287      0.0000    698.4954      7.9716
  1622.7500    139.6463      0.0000    658.0366      7.8555
  1623.0000    139.2749      0.0000    595.4570      7.8284
  1623.2500    138.4893      0.0000    524.3672      7.8797
  1623.5000    137.5706      0.0000    468.3442      7.9327
  1623.7500    136.4846      0.0000    438.2134      7.9545
  1624.0000    134.9843      0.0000    427.9126      7.9403
  1624.2500    132.6651      0.0000    431.7286      7.8804
  1624.5000    129.4867      0.0000    454.1063      7.7771
  1624.7500    126.4431      0.0000    500.5192      7.6512
  1625.0000    125.1084      0.0000    564.0391      7.5157
  1625.2500    126.0293      0.0000    629.8813      7.3638
  1625.5000    127.9333      0.0000    686.3966      7.2049
  1625.7500    128.8375      0.0000    724.7941      7.0944
  1626.0000    127.6845      0.0000    741.4585      7.0696
  1626.2500    124.8890      0.0000    739.9048      7.0837
  1626.5000    121.7119      0.0000    725.9476      7.0492
  1626.7500    119.1746      0.0000    707.4562      6.9225
  1627.0000    117.2933      0.0000    694.5827      6.7382
  1627.2500    115.3541      0.0000    694.0052      6.5832
  1627.5000    112.9811      0.0000    704.0610      6.5194
  1627.7500    110.7914      0.0000    713.6797      6.5434
  1628.0000    110.0078      0.0000    707.9833      6.6276
  1628.2500    111.5799      0.0000    679.5457      6.7615
  1628.5000    115.6205      0.0000    634.1248      6.9355
  1628.7500    121.3377      0.0000    589.8928      7.1081
  1629.0000    127.0415      0.0000    569.4890      7.1930
  1629.2500    130.2058      0.0000    580.8560      7.0705
  1629.5000    128.2453      0.0000    606.8145      6.6286
  1629.7500    120.2448      0.0000    624.2318      5.8954
  1630.0000    108.3390      0.0000    631.6777      5.1808
  1630.2500     96.8964      0.0000    645.6514      4.8014
  1630.5000     89.6365      0.0000    671.0547      4.6412
  1630.7500     87.3617      0.0000    687.8730      4.4776
  1631.0000     88.5150      0.0000    670.7568      4.4504
  1631.2500     91.4554      0.0000    620.6879      4.6865
  1631.5000     95.6234      0.0000    571.2964      4.9997
  1631.7500    100.6287     -2.0000    556.9120      5.1825
  1632.0000    105.0966     -2.0000    586.5375      5.1923
  1632.2500    107.2227      0.0000    644.1333      5.0742
  1632.5000    106.4706      0.0000    695.9318      4.9682
  1632.7500    104.1539      0.0000    717.8337      5.1832
  1633.0000    102.2767      0.0000    717.0092      5.8808
  1633.2500    102.2831      0.0000    711.1876      6.6491
  1633.5000    104.8159      0.0000    706.2729      7.0077
  1633.7500    109.7760      0.0000    701.1273      7.0827
  1634.0000    116.0907      0.0000    690.7217      7.1696
  1634.2500    121.8400      0.0000    662.0895      7.2636
  1634.5000    125.1748      0.0000    610.5061      7.3126
  1634.7500    125.3694      0.0000    563.7993      7.3945
  1635.0000    123.1351      0.0000    558.0510      7.5653
  1635.2500    120.0047      0.0000    582.7384      7.7678
  1635.5000    117.3605      0.0000    599.3864      7.9188
  1635.7500    115.7295      0.0000    607.0722      7.9993
  1636.0000    114.6012      0.0000    624.8727      8.0426
  1636.2500    112.8942      0.0000    635.4747      8.0769
  1636.5000    109.8855      0.0000    611.8292      8.1096
