~Version Information
VERS.                      2.0: CWLS Log ASCII Standard - VERSION 2.0
WRAP.                       NO: One line per depth step
~Well Information Block
STRT.FT               525.0000: 
STOP.FT              2377.2000: 
STEP.FT                 0.1000: 
NULL.                -999.2500: 
COMP.          Pioneer Natural Resources: COMPANY
WELL.          Sparrowhawk 22-12: WELL
FLD.           Purgatoire River: FIELD
LOC.           2049' FNL & 2060' FWL--: LOCATION
CNTY.               Las Animas: COUNTY
SRVC.                Patterson: SERVICE COMPANY
DATE.          Thu Mar 23 13:24:48 2006: LOG DATE
UWI.           05 071 08484 00: UNIQUE WELL ID
STAT.                 Colorado: STATE
~Curve Information Block
DEPT.FT            0 000 00 00: Depth
DCAL.in                       : CDL Caliper
RHOB.g/cc                     : CDL Bulk Density
RHOC.g/cc                     : CDL Density Correction
DPOR.pu                       : CDL Density Porosity
NPOR.pu                       : Neutron Porosity
GR.GAPI                       : Gamma Ray
~Parameter Information Block
~A  Depth       DCAL        RHOB        RHOC        DPOR        NPOR         GR     
# ...
  1254.6000      8.0806      2.4148     -0.0088     14.2547     26.1462    114.2529
  1254.7000      8.0806      2.4112      0.0288     14.4702     25.9423    117.3116
  1254.8000      8.0876      2.4172      0.0360     14.1069     25.6756    122.4276
  1254.9000      8.0876      2.4287      0.0929     13.4120     25.6716    124.7289
  1255.0000      8.0880      2.4468      0.0673     12.3139     25.9412    124.8535
  1255.1000      8.0880      2.4716      0.1189     10.8106     26.2273    123.9568
  1255.2000      8.0880      2.4881      0.0816      9.8136     26.3044    122.2445
  1255.3000      8.0827      2.4866      0.0857      9.9013     25.7992    118.6718
  1255.4000      8.0827      2.4822      0.0349     10.1718     24.8976    115.5460
  1255.5000      8.0824      2.4882      0.0559      9.8057     24.4021    117.6641
  1255.6000      8.0824      2.4935      0.0565      9.4841     24.4543    122.5707
  1255.7000      8.0824      2.4891      0.0110      9.7494     24.7048    123.4011
  1255.8000      8.0890      2.4831      0.0399     10.1142     24.8660    118.8319
  1255.9000      8.0890      2.4742      0.0631     10.6552     24.7585    111.0316
  1256.0000      8.0900      2.4576      0.0254     11.6618     24.6525    105.2295
  1256.1000      8.0900      2.4401      0.0179     12.7198     24.9556    107.6964
  1256.2000      8.0900      2.4229      0.0285     13.7617     25.3639    117.0377
  1256.3000      8.0727      2.4107     -0.0305     14.5060     25.2108    126.6176
  1256.4000      8.0727      2.4211     -0.0132     13.8732     24.5447    131.6759
  1256.5000      8.0456      2.4544      0.0312     11.8538     23.9723    134.9539
  1256.6000      8.0456      2.4898      0.0211      9.7062     23.8174    139.2490
  1256.7000      8.0456      2.5140      0.0522      8.2418     23.8771    140.5280
  1256.8000      8.0284      2.5345      0.0417      7.0007     23.9809    138.3585
  1256.9000      8.0284      2.5667      0.0895      5.0471     24.2647    136.7828
  1257.0000      8.0206      2.6070      0.0911      2.6032     24.3626    135.6003
  1257.1000      8.0206      2.6415      0.1108      0.5148     23.8626    134.3039
  1257.2000      8.0206      2.6597      0.1173     -0.5853     23.3742    130.0591
  1257.3000      8.0156      2.6543      0.0823     -0.2592     23.0817    121.7909
  1257.4000      8.0156      2.6318      0.0615      1.1052     22.4621    118.2204
  1257.5000      8.0148      2.6138      0.0210      2.1940     21.9074    121.4619
  1257.6000      8.0148      2.6155      0.0450      2.0901     22.2229    122.7385
  1257.7000      8.0148      2.6260      0.0561      1.4551     22.9952    122.4098
  1257.8000      8.0177      2.6323      0.0221      1.0711     23.2090    124.8247
  1257.9000      8.0177      2.6410      0.0534      0.5429     22.8605    124.8551
  1258.0000      8.0212      2.6524      0.0593     -0.1464     22.3846    116.6165
  1258.1000      8.0212      2.6527      0.0919     -0.1629     21.8587    106.5779
  1258.2000      8.0212      2.6324      0.0742      1.0685     21.8054    102.2283
  1258.3000      8.0194      2.6024      0.0367      2.8843     22.5599    101.0451
  1258.4000      8.0194      2.5891      0.0171      3.6924     23.2649    100.4386
  1258.5000      8.0051      2.6063      0.0361      2.6484     23.2641    102.5926
  1258.6000      8.0051      2.6327      0.1130      1.0481     23.3176    106.5023
  1258.7000      8.0051      2.6354      0.1147      0.8825     23.9093    111.0495
  1258.8000      7.9753      2.6179      0.0699      1.9459     24.1765    119.3008
  1258.9000      7.9753      2.6108      0.0493      2.3763     23.7119    126.6271
  1259.0000      7.9422      2.6259      0.0891      1.4630     23.4272    123.1719
  1259.1000      7.9422      2.6566      0.0770     -0.3999     23.6214    112.1213
  1259.2000      7.9422      2.6928      0.1287     -2.5965     23.6602    108.1226
  1259.3000      7.9327      2.7081      0.1608     -3.5236     23.5042    115.9091
  1259.4000      7.9327      2.6861      0.1087     -2.1867     23.7488    126.7950
  1259.5000      7.9521      2.6426      0.1024      0.4480     24.4311    132.1607
  1259.6000      7.9521      2.5999      0.0200      3.0386     25.0120    131.3771
  1259.7000      7.9521      2.5708      0.0321      4.7991     25.3061    130.1099
  1259.8000      7.9871      2.5634      0.0037      5.2501     25.5005    131.4492
  1259.9000      7.9871      2.5898     -0.0289      3.6460     25.5935    133.5290
  1260.0000      8.0295      2.6579      0.0345     -0.4761     25.4303    132.9402
  1260.1000      8.0295      2.7618      0.0938     -6.7784     25.4027    127.5133
  1260.2000      8.0295      2.8913      0.1229    -14.6262     25.8644    123.1020
  1260.3000      8.0620      3.0151      0.2509    -22.1274     26.2035    125.7533
  1260.4000      8.0620      3.0879      0.2706    -26.5414     26.0659    129.2798
  1260.5000      8.0724      3.1038      0.2345    -27.5041     25.9868    125.8492
  1260.6000      8.0724      3.0909      0.1568    -26.7224     26.1630    116.4146
  1260.7000      8.0724      3.0622      0.0986    -24.9791     26.0377    104.9354
  1260.8000      8.0669      3.0059      0.1016    -21.5723     25.4876     97.7858
  1260.9000      8.0669      2.9146     -0.0285    -16.0342     25.0964    101.2137
  1261.0000      8.0576      2.8144     -0.1095     -9.9627     25.2438    112.2477
  1261.1000      8.0576      2.7479     -0.1252     -5.9361     25.8033    122.7996
  1261.2000      8.0576      2.7136     -0.0079     -3.8545     26.3828    127.8308
  1261.3000      8.0599      2.6717      0.0066     -1.3165     26.6306    128.1561
  1261.4000      8.0599      2.6155      0.0015      2.0901     26.6336    127.2543
  1261.5000      8.0733      2.5681      0.0697      4.9613     26.6582    126.3928
  1261.6000      8.0733      2.5378      0.1098      6.8021     26.6597    124.3186
  1261.7000      8.0733      2.5184      0.0862      7.9759     26.5782    120.4562
  1261.8000      8.0854      2.5038      0.1044      8.8636     26.4667    114.6356
  1261.9000      8.0854      2.4913      0.0670      9.6204     26.3098    107.8433
  1262.0000      8.0960      2.4897      0.0350      9.7162     26.1611    103.4896
  1262.1000      8.0960      2.5038      0.0903      8.8614     26.3042    105.5800
  1262.2000      8.0960      2.5127      0.1670      8.3216     26.6448    114.9904
  1262.3000      8.1056      2.5017      0.0632      8.9890     26.6090    126.6388
  1262.4000      8.1056      2.4921      0.0341      9.5688     26.2706    130.7383
  1262.5000      8.1033      2.4984      0.0646      9.1856     26.1862    125.7890
  1262.6000      8.1033      2.5106      0.0632      8.4506     26.3660    119.8661
  1262.7000      8.1033      2.5176      0.0542      8.0267     26.5914    116.0406
  1262.8000      8.0881      2.5163      0.0873      8.1033     26.7244    114.0210
  1262.9000      8.0881      2.5093      0.0714      8.5299     26.4960    117.0114
  1263.0000      8.0822      2.4961      0.1013      9.3275     26.0208    126.7973
  1263.1000      8.0822      2.4760      0.0531     10.5434     25.8965    138.4072
  1263.2000      8.0822      2.4599      0.0087     11.5191     26.4498    147.5237
  1263.3000      8.0892      2.4584      0.0565     11.6135     27.3489    151.7931
  1263.4000      8.0892      2.4596      0.0756     11.5379     27.7620    149.6465
  1263.5000      8.0946      2.4456      0.0314     12.3877     27.2192    142.5157
  1263.6000      8.0946      2.4247      0.0144     13.6529     26.1963    134.2967
  1263.7000      8.0946      2.4249     -0.0073     13.6408     25.6311    129.1086
  1263.8000      8.0953      2.4504      0.0662     12.0971     26.0173    127.7367
  1263.9000      8.0953      2.4724      0.1003     10.7619     26.8035    127.5537
  1264.0000      8.0926      2.4728      0.0809     10.7372     27.1312    127.1148
  1264.1000      8.0926      2.4619      0.0662     11.4028     26.9942    128.3559
