~Version Information
VERS.                      2.0: CWLS Log ASCII Standard - VERSION 2.0
WRAP.                       NO: One line per depth step
~Well Information Block
STRT.FT               335.0000: 
STOP.FT              1154.7000: 
STEP.FT                 0.1000: 
NULL.                -999.2500: 
COMP.          Pioneer Natural Resources: COMPANY
WELL.             Croc 42-9 Tr: WELL
FLD.           Purgatoire River: FIELD
LOC.           2429' FNL & 315' FEL--: LOCATION
STAT.                 Colorado: State
CNTY.               Las Animas: COUNTY
CTRY. USA : Country
SECT. 9 : Section
TOWN. 32S : Township
RANG. 66W : Range
SRVC.                Patterson: SERVICE COMPANY
DATE.          Fri Oct 14 07:56:23 2005: LOG DATE
API.           05 071 08550 00: UNIQUE WELL ID
~Curve Information Block
DEPT.FT            0 000 00 00: Depth
DCAL.in                       : CDL Caliper
RHOB.g/cc                     : CDL Bulk Density
RHOC.g/cc                     : CDL Density Correction
DPOR.pu                       : CDL Density Porosity
NPOR.pu                       : Neutron Porosity
GR.GAPI                       : Gamma Ray
~Parameter Information Block
~A  Depth       DCAL        RHOB        RHOC        DPOR        NPOR         GR     
# ...
   968.6000      7.8615      2.5761      0.0358      4.4767     26.4948     91.6866
   968.7000      7.8615      2.5909      0.0502      3.5818     27.1058     87.1653
   968.8000      7.8680      2.6140      0.0352      2.1838     27.0902     85.3156
   968.9000      7.8680      2.6350      0.0892      0.9084     26.3305     86.1525
   969.0000      7.8725      2.6362      0.1012      0.8342     25.8440     91.0273
   969.1000      7.8725      2.6145      0.0702      2.1526     26.2449     99.4717
   969.2000      7.8725      2.5948      0.0300      3.3435     26.7920    105.6376
   969.3000      7.8737      2.5985      0.0508      3.1227     26.4736    105.8650
   969.4000      7.8737      2.6125      0.0836      2.2725     25.9811    103.7368
   969.5000      7.8733      2.6118      0.0701      2.3171     26.6125    104.1530
   969.6000      7.8733      2.5930      0.0428      3.4526     28.1020    109.0051
   969.7000      7.8733      2.5719      0.0577      4.7307     29.0890    113.2407
   969.8000      7.8714      2.5649      0.0209      5.1571     28.9361    110.9945
   969.9000      7.8714      2.5733      0.0435      4.6464     28.2502    106.8387
   970.0000      7.8669      2.5765      0.0735      4.4535     27.8175    107.0850
   970.1000      7.8669      2.5590      0.0275      5.5169     27.5208    110.7289
   970.2000      7.8669      2.5343     -0.0124      7.0151     27.0921    116.3570
   970.3000      7.8629      2.5238      0.0257      7.6492     27.1974    120.9978
   970.4000      7.8629      2.5319      0.0068      7.1574     28.3198    123.4017
   970.5000      7.8615      2.5482      0.0628      6.1699     29.3527    127.7021
   970.6000      7.8615      2.5603      0.0405      5.4338     29.3954    132.2458
   970.7000      7.8615      2.5644      0.0781      5.1857     28.9762    132.5571
   970.8000      7.8613      2.5613      0.0312      5.3761     28.5916    130.0737
   970.9000      7.8613      2.5567      0.0551      5.6527     28.4336    128.6396
   971.0000      7.8602      2.5536      0.0657      5.8434     28.6097    127.5966
   971.1000      7.8602      2.5456      0.0653      6.3299     28.8535    125.1934
   971.2000      7.8602      2.5213      0.0719      7.8002     29.0379    123.8861
   971.3000      7.8558      2.4819      0.0428     10.1893     29.1714    124.6492
   971.4000      7.8558      2.4532     -0.0168     11.9288     29.0299    122.8674
   971.5000      7.8445      2.4571      0.0382     11.6884     28.7373    116.5169
   971.6000      7.8445      2.4882      0.0097      9.8071     28.7263    108.1075
   971.7000      7.8445      2.5266      0.0924      7.4767     28.7776    100.1032
   971.8000      7.8319      2.5613      0.0869      5.3766     28.2862     94.1270
   971.9000      7.8319      2.5972      0.1434      3.1987     27.4199     90.2409
   972.0000      7.8271      2.6315      0.1962      1.1232     26.8555     86.9480
   972.1000      7.8271      2.6534      0.1660     -0.2064     26.5568     82.0922
   972.2000      7.8271      2.6676      0.1661     -1.0650     26.0145     75.4143
   972.3000      7.8315      2.6853      0.1795     -2.1365     25.2609     69.2323
   972.4000      7.8315      2.7090      0.1114     -3.5744     24.6682     64.7190
   972.5000      7.8435      2.7285      0.1067     -4.7562     24.2426     62.4998
   972.6000      7.8435      2.7301      0.0693     -4.8571     23.7303     62.2605
   972.7000      7.8435      2.7208      0.0125     -4.2922     23.0353     61.1645
   972.8000      7.8556      2.7179      0.0051     -4.1129     22.3448     57.4563
   972.9000      7.8556      2.7231      0.0247     -4.4275     22.1672     54.8257
   973.0000      7.8611      2.7320      0.0059     -4.9702     22.5924     57.6632
   973.1000      7.8611      2.7479      0.0027     -5.9353     22.8306     62.5478
   973.2000      7.8611      2.7688      0.0508     -7.1993     22.4222     64.2824
   973.3000      7.8649      2.7860      0.0339     -8.2437     21.7509     64.2394
   973.4000      7.8649      2.8015      0.0360     -9.1793     21.2209     63.5157
   973.5000      7.8691      2.8210      0.0519    -10.3666     20.8289     61.6662
   973.6000      7.8691      2.8363      0.0993    -11.2879     20.3110     61.8051
   973.7000      7.8691      2.8395      0.0675    -11.4852     19.7822     65.2258
   973.8000      7.8692      2.8410      0.0209    -11.5772     19.5316     68.6382
   973.9000      7.8692      2.8422      0.0507    -11.6470     19.3615     70.8657
   974.0000      7.8659      2.8339      0.0318    -11.1456     18.9360     71.8753
   974.1000      7.8659      2.8188      0.0239    -10.2329     18.3755     70.1743
   974.2000      7.8659      2.7979      0.0467     -8.9644     18.2937     68.3853
   974.3000      7.8625      2.7724      0.0103     -7.4175     19.1030     69.9428
   974.4000      7.8625      2.7634     -0.0410     -6.8699     20.4647     72.1885
   974.5000      7.8600      2.7817      0.0279     -7.9808     21.3843     70.2841
   974.6000      7.8600      2.8059      0.0380     -9.4487     21.1349     65.5764
   974.7000      7.8600      2.8147      0.0525     -9.9826     20.1329     64.0505
   974.8000      7.8590      2.8101      0.0241     -9.7012     19.4698     66.7869
   974.9000      7.8590      2.8107     -0.0006     -9.7391     19.5648     68.4047
   975.0000      7.8618      2.8206      0.0586    -10.3396     20.0177     65.1801
   975.1000      7.8618      2.8228      0.0697    -10.4727     20.4048     60.6299
   975.2000      7.8618      2.8183      0.0116    -10.2017     20.4264     58.9476
   975.3000      7.8681      2.8242      0.0453    -10.5591     19.9086     59.1269
   975.4000      7.8681      2.8335      0.0528    -11.1242     19.2031     60.1131
   975.5000      7.8732      2.8325      0.0043    -11.0585     18.7682     63.0948
   975.6000      7.8732      2.8252      0.0320    -10.6166     18.4825     67.0279
   975.7000      7.8732      2.8242      0.0124    -10.5559     18.2116     68.7246
   975.8000      7.8759      2.8353      0.0050    -11.2291     18.3236     67.1975
   975.9000      7.8759      2.8449      0.0246    -11.8104     18.9260     65.6280
   976.0000      7.8783      2.8417      0.0106    -11.6203     19.5169     65.8426
   976.1000      7.8783      2.8402      0.0224    -11.5248     19.6006     65.2113
   976.2000      7.8783      2.8493     -0.0030    -12.0774     19.2207     61.6202
   976.3000      7.8793      2.8494      0.0652    -12.0830     18.8304     57.8973
   976.4000      7.8793      2.8273     -0.0098    -10.7448     18.8527     58.4393
   976.5000      7.8789      2.7998      0.0004     -9.0764     19.2462     61.1723
   976.6000      7.8789      2.7836     -0.0357     -8.0950     19.4017     62.0297
   976.7000      7.8789      2.7786     -0.0199     -7.7961     19.1783     63.3774
   976.8000      7.8787      2.7733     -0.0172     -7.4725     19.3554     67.0876
   976.9000      7.8787      2.7669      0.0012     -7.0848     19.9236     71.4125
   977.0000      7.8772      2.7688     -0.0017     -7.1977     19.9364     74.8387
   977.1000      7.8772      2.7748      0.0359     -7.5656     19.5169     74.4827
   977.2000      7.8772      2.7816     -0.0056     -7.9754     19.1939     70.5145
   977.3000      7.8709      2.7940      0.0329     -8.7299     18.8816     67.8436
   977.4000      7.8709      2.8032      0.0314     -9.2822     18.7236     67.1276
   977.5000      7.8633      2.7996      0.0339     -9.0656     18.9187     66.3030
   977.6000      7.8633      2.7881      0.0427     -8.3723     19.2094     66.8898
   977.7000      7.8633      2.7788      0.0259     -7.8041     19.5750     69.4354
   977.8000      7.8577      2.7793      0.0034     -7.8383     20.1985     72.4821
   977.9000      7.8577      2.7854      0.0546     -8.2043     20.7042     74.4011
   978.0000      7.8510      2.7828      0.0767     -8.0493     21.0273     73.9385
   978.1000      7.8510      2.7677      0.0518     -7.1308     21.6696     70.5840
