~Version Information
VERS.                      2.0: CWLS Log ASCII Standard - VERSION 2.0
WRAP.                       NO: One line per depth step
~Well Information Block
STRT.FT               -10.0000: 
STOP.FT              1703.5000: 
STEP.FT                 0.2500: 
NULL.                -999.2500: 
COMP.          Pioneer Natural Resources: COMPANY
WELL.          Parrothead 31-31 Tr: WELL
FLD.           Purgatoire River: FIELD
LOC.           496' FNL & 1546' FEL--: LOCATION
PROV.                       CO: PROVINCE
CNTY.               Las Animas: COUNTRY
SRVC.          Patterson Wireline: SERVICE COMPANY
DATE.          Mon Nov 14 09:44:02 2005: LOG DATE
UWI.           05 071 08610 00: UNIQUE WELL ID
~Curve Information Block
DEPT.FT            0 000 00 00: Depth
CCL.                          : Casing Collar Locator
TT3.usec                      : CBL 3' Travel Time
AMP3.mV                       : CBL 3' Amplitude
GR.GAPI                       : Gamma Ray
~Parameter Information Block
~A  Depth       CCL         TT3         AMP3         GR     
# ...
   559.5000      0.0000    756.4732     11.9476    125.3437
   559.7500      0.0000    756.0323     11.8980    127.5978
   560.0000      0.0000    755.7499     11.7254    128.1261
   560.2500      0.0000    755.9442     11.4961    126.1390
   560.5000      0.0000    757.0172     11.2582    121.9692
   560.7500      0.0000    759.0891     11.0282    116.3830
   561.0000      0.0000    761.6266     10.8024    110.2482
   561.2500      0.0000    763.8375     10.5761    104.4268
   561.5000      0.0000    765.7602     10.3524     99.7223
   561.7500      0.0000    768.5901     10.1380     96.6315
   562.0000      0.0000    773.3530      9.9378     95.0809
   562.2500      0.0000    779.4285      9.7649     94.6197
   562.5000      0.0000    784.8258      9.6464     94.9310
   562.7500      0.0000    788.1116      9.5854     96.0841
   563.0000      0.0000    790.3375      9.5015     98.2715
   563.2500      0.0000    795.7672      9.2501    101.4521
   563.5000      0.0000    810.3574      8.7667    105.4096
   563.7500      0.0000    837.3683      8.2014    110.0172
   564.0000      0.0000    873.1539      7.8500    115.0348
   564.2500      0.0000    908.8713      7.9070    119.5561
   564.5000      0.0000    937.6707      8.3043    122.1716
   564.7500     -2.0000    958.5906      8.8043    121.9283
   565.0000      0.0000    972.7908      9.2098    118.9062
   565.2500      0.0000    978.4979      9.4674    114.1083
   565.5000      0.0000    969.5161      9.6553    109.5626
   565.7500      0.0000    937.4901      9.9479    108.2810
   566.0000      0.0000    879.7487     10.5358    112.8687
   566.2500      0.0000    808.3705     11.4572    123.4577
   566.5000      0.0000    745.3020     12.5002    137.2246
   566.7500      0.0000    702.8324     13.3617    150.1609
   567.0000      0.0000    672.9878     13.9159    159.1035
   567.2500      0.0000    639.4087     14.2690    162.4913
   567.5000      0.0000    593.8889     14.5762    160.4720
   567.7500      0.0000    539.1385     14.8839    154.9095
   568.0000      0.0000    483.0877     15.1429    148.5132
   568.2500      0.0000    434.7467     15.2954    143.1391
   568.5000      0.0000    401.1489     15.3184    138.6612
   568.7500      0.0000    385.0583     15.2180    133.4460
   569.0000      0.0000    387.0178     15.0160    126.2511
   569.2500      0.0000    409.6870     14.7421    117.8503
   569.5000      0.0000    457.0911     14.4305    110.2420
   569.7500      0.0000    527.2433     14.1166    104.0951
   570.0000      0.0000    606.6209     13.8360     98.0414
   570.2500      0.0000    675.6983     13.6175     90.8826
   570.5000      0.0000    721.5590     13.4685     83.3717
   570.7500      0.0000    744.3776     13.3666     77.2205
   571.0000      0.0000    752.5447     13.2737     73.3181
   571.2500      0.0000    754.3680     13.1618     71.5944
   571.5000      0.0000    754.3333     13.0241     71.8780
   571.7500      0.0000    753.9445     12.8654     74.0754
   572.0000      0.0000    753.5302     12.6904     77.7128
   572.2500      0.0000    753.1671     12.5047     81.7375
   572.5000      0.0000    752.9011     12.3197     84.9148
   572.7500      0.0000    752.7385     12.1561     86.4378
   573.0000      0.0000    752.6559     12.0358     86.1849
   573.2500      0.0000    752.6199     11.9660     84.5368
   573.5000      0.0000    752.6125     11.9304     82.0929
   573.7500      0.0000    752.6471     11.9011     79.4049
   574.0000      0.0000    752.7560     11.8593     76.6714
   574.2500      0.0000    752.9637     11.8016     73.7167
   574.5000      0.0000    753.2742     11.7338     70.5534
   574.7500      0.0000    753.6765     11.6632     67.8255
   575.0000      0.0000    754.1458     11.5940     66.2038
   575.2500      0.0000    754.6307     11.5224     65.3335
   575.5000      0.0000    755.0486     11.4413     63.8948
   575.7500      0.0000    755.3124     11.3564     60.8471
   576.0000      0.0000    755.3734     11.2940     56.3703
   576.2500      0.0000    755.2430     11.2874     51.6224
   576.5000      0.0000    754.9763     11.3532     47.9302
   576.7500      0.0000    754.6337     11.4821     46.1906
   577.0000      0.0000    754.2526     11.6485     46.6364
   577.2500      0.0000    753.8542     11.8291     48.8833
   577.5000      0.0000    753.4691     12.0148     52.2534
   577.7500      0.0000    753.1409     12.2041     56.1732
   578.0000      0.0000    752.8985     12.3869     60.3826
   578.2500      0.0000    752.7325     12.5346     64.9877
   578.5000      0.0000    752.6099     12.6115     70.3743
   578.7500      0.0000    752.5115     12.5986     76.8250
   579.0000      0.0000    752.4568     12.5046     84.0852
   579.2500      0.0000    752.4850     12.3541     91.4894
   579.5000      0.0000    752.6223     12.1726     98.5739
   579.7500      0.0000    752.8737     11.9888    105.3376
   580.0000      0.0000    753.2216     11.8411    111.7965
   580.2500      0.0000    753.5940     11.7656    117.5549
   580.5000      0.0000    753.8401     11.7687    122.0699
   580.7500      0.0000    753.8033     11.8157    125.2652
   581.0000      0.0000    753.4481     11.8519    127.6810
   581.2500      0.0000    752.8951     11.8374    129.9185
   581.5000      0.0000    752.3229     11.7664    132.0719
   581.7500      0.0000    751.8538     11.6600    133.8158
   582.0000      0.0000    751.5177     11.5411    134.8724
   582.2500      0.0000    751.2812     11.4171    135.2177
   582.5000      0.0000    751.0942     11.2858    135.0778
   582.7500      0.0000    750.9297     11.1514    135.1686
   583.0000      0.0000    750.8013     11.0219    136.7118
   583.2500      0.0000    750.7528     10.8954    140.4099
   583.5000      0.0000    750.8253     10.7608    145.0582
   583.7500      0.0000    751.0168     10.6145    147.6822
   584.0000      0.0000    751.2618     10.4702    145.6276
   584.2500      0.0000    751.4585     10.3496    138.7771
   584.5000      0.0000    751.5394     10.2674    130.0521
   584.7500      0.0000    751.5215     10.2288    123.7995
   585.0000      0.0000    751.4755     10.2348    122.9604
   585.2500      0.0000    751.4467     10.2827    126.9592
   585.5000      0.0000    751.4144     10.3607    132.3311
   585.7500      0.0000    751.3247     10.4502    135.7752
   586.0000      0.0000    751.1480     10.5368    136.7887
   586.2500      0.0000    750.8992     10.6213    137.3907
   586.5000      0.0000    750.6192     10.7158    139.5447
   586.7500      0.0000    750.3517     10.8295    143.2209
   587.0000      0.0000    750.1420     10.9551    147.0505
   587.2500      0.0000    750.0515     11.0674    150.4510
   587.5000      0.0000    750.1880     11.1348    154.3091
   587.7500      0.0000    750.7709     11.1339    159.2036
   588.0000      0.0000    752.2169     11.0592    163.6270
   588.2500      0.0000    755.1118     10.9301    164.9800
   588.5000      0.0000    759.8137     10.7924    162.2958
   588.7500      0.0000    765.8447     10.7022    157.3091
   589.0000      0.0000    771.8636     10.6934    152.9810
   589.2500      0.0000    776.5997     10.7556    151.3583
   589.5000      0.0000    779.6036     10.8462    152.3460
   589.7500      0.0000    780.7229     10.9270    153.9077
   590.0000      0.0000    779.3615     10.9879    153.8906
   590.2500      0.0000    775.0843     11.0315    152.2352
   590.5000      0.0000    768.7560     11.0412    151.2836
   590.7500      0.0000    762.3387     10.9779    153.6170
   591.0000      0.0000    757.4853     10.8168    159.5084
   591.2500      0.0000    754.6422     10.5850    166.2861
   591.5000      0.0000    753.3435     10.3565    169.9514
   591.7500      0.0000    752.9085     10.2060    167.8060
   592.0000      0.0000    752.8120     10.1654    160.4712
   592.2500      0.0000    752.7394     10.2188    151.8818
   592.5000      0.0000    752.5599     10.3301    146.6357
   592.7500      0.0000    752.2880     10.4704    146.3374
