~Version Information
 VERS.                                  2.0 : CWLS LAS VERSION
 WRAP.                                   NO : WRAPING MODE
 SWARE .                 MController 2.5.0N : SOFTWARE VERSION
~Well Information
 WELL.                          Gough 14-29 : WELL
 COMP.    Pioneer Natural Resouces USA Inc. : COMPANY
 FLD.                      Purgatoire River : FIELD
 LOC.             SW/SW Sec 29, T33S, R65W  : LOCATION
 DATE.                             12/22/05 : DATE(S) LOGGED
 SRVC.       BLANCO Geological Services LLC : SERVICE COMPANY
 STAT.                                   CO : STATE
 CNTY.                           Las Animas : COUNTY
 CTRY.                                  USA : COUNTRY
 API.                          05-071-08612 : API NUMBER
 STRT.FT                             190.00 : START DEPTH
 STOP.FT                            1026.00 : STOP DEPTH
 STEP.FT                               1.00 : DEPTH INCREMENT
 NULL.                                -9999 : NULL VALUE
~Curve information
 DEPTH.FT                                   :
 ROP.MIN/FT                                 :
 GAS.UNITS                                  :
~ASCII Log data
# ...
       790.0         0.30         95.4 
       791.0         0.25         26.7 
       792.0         0.23         15.8 
       793.0         0.23         19.3 
       794.0         0.30        917.0 
       795.0         0.37        907.3 
       796.0         0.30        550.3 
       797.0         0.27        440.0 
       798.0         0.27        207.0 
       799.0         0.50        254.9 
       800.0         0.10        236.4 
       801.0         3.98        239.0 
       802.0         0.48        170.0 
       803.0         0.37        105.5 
       804.0         0.40        157.9 
       805.0         0.37        190.5 
       806.0         0.30        197.0 
       807.0         0.37        198.5 
       808.0         0.37        190.3 
       809.0         0.33        172.7 
       810.0         0.37        166.0 
       811.0         0.38        158.2 
       812.0         0.37        153.0 
       813.0         0.47        143.0 
       814.0         0.30        133.4 
       815.0         0.23        130.5 
       816.0         0.20        125.9 
       817.0         0.23         98.7 
       818.0         0.23         81.5 
       819.0         0.33         82.5 
       820.0         0.40         89.7 
       821.0         0.38         93.4 
       822.0         0.33         41.0 
       823.0         0.37         12.6 
       824.0         0.40         16.6 
       825.0         0.37       1201.2 
       826.0         0.33       1085.5 
       827.0         0.33        549.0 
       828.0         0.37        440.0 
       829.0         0.33        260.7 
       830.0         0.55        314.6 
       831.0         4.82        273.6 
       832.0         0.37        126.4 
       833.0         0.40        126.6 
       834.0         0.37        156.1 
       835.0         0.37        170.3 
       836.0         0.32        170.2 
       837.0         0.20        149.4 
       838.0         0.27        141.1 
       839.0         0.27        136.6 
       840.0         0.27        140.4 
       841.0         0.20        131.5 
       842.0         0.23        126.8 
       843.0         0.23         93.7 
       844.0         0.23         85.3 
       845.0         0.40        104.8 
       846.0         0.30         98.9 
       847.0         0.27         89.6 
       848.0         0.20         44.3 
       849.0         0.22         15.3 
       850.0         0.17         15.3 
       851.0         0.23         11.9 
       852.0         0.33        398.7 
       853.0         0.33       1022.4 
       854.0         0.27        608.9 
       855.0         0.23        580.2 
       856.0         0.33        440.0 
       857.0         0.37        222.2 
       858.0         0.47        275.8 
       859.0         0.13        275.8 
       860.0         0.17        272.7 
       861.0         4.80        228.8 
       862.0         0.33        185.2 
       863.0         0.37        163.9 
       864.0         0.30        147.1 
       865.0         0.27        139.1 
       866.0         0.27        136.9 
       867.0         0.30        135.1 
       868.0         0.35        129.9 
       869.0         0.33        130.5 
       870.0         0.33        145.9 
       871.0         0.33        357.2 
       872.0         0.30        445.9 
       873.0         0.30        746.5 
       874.0         0.40        887.4 
       875.0         0.37        885.1 
       876.0         0.40        534.1 
       877.0         0.40        188.3 
       878.0         0.42       1063.3 
       879.0         0.43       1344.0 
       880.0         0.43       1220.9 
       881.0         0.40        714.9 
       882.0         0.47        918.6 
       883.0         1.58       1403.3 
       884.0         0.27        649.8 
       885.0         0.40        643.1 
       886.0         0.13        615.4 
       887.0         0.27        593.8 
       888.0         0.27        630.5 
       889.0         0.27        624.1 
       890.0         0.27        572.2 
       891.0        10.25       4767.1 
       892.0       151.18       9510.5 
       893.0         5.50        483.9 
       894.0         0.93        491.9 
       895.0         0.98        493.2 
       896.0         0.93        495.8 
       897.0         0.90        477.8 
       898.0         1.00        483.2 
       899.0         0.95        483.2 
       900.0         1.07        483.6 
       901.0         0.70        489.7 
       902.0         0.88        478.4 
       903.0         1.60        487.7 
       904.0         0.90        475.2 
       905.0         1.32        490.6 
       906.0         1.57        494.2 
       907.0         1.00        491.9 
       908.0         0.92        491.6 
       909.0         0.97        492.6 
       910.0         1.10        494.5 
       911.0         1.32        498.7 
       912.0         1.47        495.2 
       913.0         1.32        508.4 
       914.0         1.60        498.1 
       915.0         1.65        491.9 
       916.0         1.00        496.4 
       917.0         0.60        495.5 
       918.0         1.23        493.9 
       919.0         1.45         92.6 
       920.0         1.70       4403.3 
       921.0         8.15       1414.6 
       922.0         0.73        531.6 
       923.0         0.73        518.4 
       924.0         0.73        534.1 
       925.0         0.75        553.8 
       926.0         0.83        557.0 
       927.0         0.73        568.0 
       928.0         0.73        575.1 
       929.0         0.82        584.4 
       930.0         1.33        587.0 
       931.0         3.32        590.5 
       932.0         2.12        594.1 
       933.0         0.93        608.9 
       934.0         0.83        504.5 
       935.0         0.80         14.8 
       936.0         0.88         15.0 
       937.0         0.93         14.3 
       938.0         0.87         14.0 
       939.0         0.90         14.6 
       940.0         1.02         14.1 
       941.0         0.97         13.8 
       942.0         1.10        179.5 
       943.0         1.72        208.3 
       944.0         3.15        183.0 
       945.0         1.30        165.5 
       946.0         0.97        163.5 
       947.0         1.02       1338.2 
       948.0         1.07       3294.7 
       949.0         1.13        678.5 
       950.0         0.10        605.0 
       951.0         6.43        628.9 
       952.0         0.07        596.7 
       953.0         0.27        601.2 
       954.0         0.28        603.1 
       955.0         0.60        601.5 
       956.0         0.53        601.8 
       957.0         0.57        599.2 
       958.0         0.53        612.8 
       959.0         0.57        615.7 
       960.0         1.12        610.5 
       961.0         1.13        610.5 
       962.0         1.13        612.5 
       963.0         1.18        581.2 
       964.0         1.17        597.0 
       965.0         1.10        609.9 
       966.0         1.15        600.5 
       967.0         1.13        609.9 
       968.0         1.00        606.0 
       969.0         1.05        597.0 
       970.0         1.20        590.2 
       971.0         1.27        602.8 
       972.0         1.15        600.5 
       973.0         1.17        603.1 
       974.0         1.07        599.6 
       975.0         1.08        598.0 
       976.0         1.20        584.1 
       977.0         1.07        597.0 
       978.0         1.42        590.5 
       979.0         1.53        605.4 
       980.0         1.52        599.9 
       981.0         5.87       1980.2 
       982.0         0.50        660.5 
       983.0         1.70        656.6 
       984.0         1.42        633.1 
       985.0         1.50        617.0 
       986.0         2.88        618.9 
       987.0         1.50        612.8 
       988.0         5.50        620.8 
       989.0         2.28        616.0 
