~Version Information
VERS.                      2.0: CWLS Log ASCII Standard - VERSION 2.0
WRAP.                       NO: One line per depth step
~Well Information Block
STRT.FT               555.0000: 
STOP.FT              1159.0000: 
STEP.FT                 0.2500: 
NULL.                -999.2500: 
COMP.          Pioneer Natural Resources: COMPANY
WELL.              Draco 31-21: WELL
FLD.           Purgatoire River: FIELD
LOC.           491' FNL & 2446' FEL: LOCATION
CNTY.               Las Animas: COUNTY
SRVC.                Patterson: SERVICE COMPANY
DATE.          Tue Jan 31 17:48:38 2006: LOG DATE
UWI.           05 071 08672 00: UNIQUE WELL ID
STAT.                 Colorado: STATE
~Curve Information Block
DEPT.FT            0 000 00 00: Depth
SN.Ohm-m                      : IEL Short Normal
SP.mV                         : IEL Spontaneous Potential
DIR.Ohm-m                     : IEL Induction Resistivity
GR.GAPI                       : Gamma Ray
~Parameter Information Block
~A  Depth        SN          SP         DIR          GR     
# ...
   756.0000     21.8289    -28.2778     19.6740    102.6265
   756.2500     21.9593    -27.7648     19.8997    101.5372
   756.5000     22.3833    -27.1676     20.0885    100.4658
   756.7500     22.9402    -26.5008     20.2617     99.4650
   757.0000     23.4837    -25.7856     20.4945     96.6785
   757.2500     23.9439    -25.0431     20.8661     93.9180
   757.5000     24.3849    -24.2929     21.4224     89.2799
   757.7500     24.9417    -23.5508     22.1698     86.6423
   758.0000     25.6528    -22.8216     23.0882     84.3745
   758.2500     26.4551    -22.0930     24.1392     84.0586
   758.5000     27.3431    -21.3423     25.2609     84.5654
   758.7500     28.3769    -20.5534     26.3598     84.7738
   759.0000     29.5076    -19.7308     27.3201     83.6932
   759.2500     30.6006    -18.8993     28.0394     81.6525
   759.5000     31.6015    -18.0932     28.4649     76.3991
   759.7500     32.5027    -17.3427     28.6028     71.5645
   760.0000     33.2498    -16.6638     28.4944     63.2432
   760.2500     33.7699    -16.0534     28.1856     57.9695
   760.5000     33.9819    -15.4943     27.7095     52.4633
   760.7500     33.7692    -14.9671     27.0875     51.4246
   761.0000     33.0577    -14.4620     26.3417     54.8635
   761.2500     31.9142    -13.9845     25.5049     60.4634
   761.5000     30.4524    -13.5511     24.6149     72.5703
   761.7500     28.7114    -13.1800     23.6989     81.8816
   762.0000     26.7789    -12.8802     22.7644     95.4810
   762.2500     24.8826    -12.6482     21.8088    103.3138
   762.5000     23.2186    -12.4717     20.8380    112.4844
   762.7500     21.8306    -12.3368     19.8781    116.9894
   763.0000     20.6903    -12.2358     18.9729    121.8602
   763.2500     19.7777    -12.1712     18.1683    124.0473
   763.5000     19.0994    -12.1544     17.4931    125.9255
   763.7500     18.6371    -12.1958     16.9472    126.4087
   764.0000     18.2732    -12.2930     16.5040    126.2389
   764.2500     17.8823    -12.4242     16.1292    125.6184
   764.5000     17.4975    -12.5546     15.8019    124.2984
   764.7500     17.2519    -12.6518     15.5214    123.5636
   765.0000     17.1597    -12.7017     15.2976    123.1853
   765.2500     17.0813    -12.7156     15.1374    123.3699
   765.5000     16.9177    -12.7253     15.0373    123.8257
   765.7500     16.7424    -12.7675     14.9842    124.0172
   766.0000     16.6687    -12.8694     14.9599    123.9509
   766.2500     16.6621    -13.0407     14.9472    123.5289
   766.5000     16.6006    -13.2722     14.9348    121.9434
   766.7500     16.4834    -13.5383     14.9165    120.3378
   767.0000     16.4271    -13.8078     14.8871    118.4304
   767.2500     16.4521    -14.0588     14.8392    118.5181
   767.5000     16.4302    -14.2885     14.7672    121.1781
   767.7500     16.2762    -14.5089     14.6727    123.8679
   768.0000     16.0686    -14.7329     14.5634    127.3385
   768.2500     15.9402    -14.9643     14.4470    128.6006
   768.5000     15.9116    -15.1967     14.3283    128.9911
   768.7500     15.8431    -15.4204     14.2128    128.6548
   769.0000     15.5852    -15.6313     14.1116    127.6493
   769.2500     15.2429    -15.8309     14.0391    126.5621
   769.5000     15.1303    -16.0193     14.0049    124.1989
   769.7500     15.3442    -16.1877     14.0061    122.3195
   770.0000     15.6433    -16.3190     14.0260    119.5511
   770.2500     15.7951    -16.3990     14.0418    117.9635
   770.5000     15.7700    -16.4245     14.0350    116.2297
   770.7500     15.6151    -16.4010     13.9980    115.6062
   771.0000     15.3214    -16.3346     13.9345    115.5185
   771.2500     14.8553    -16.2285     13.8523    115.9966
   771.5000     14.3237    -16.0852     13.7566    117.3640
   771.7500     14.0414    -15.9083     13.6454    118.5065
   772.0000     14.2286    -15.7049     13.5128    119.9595
   772.2500     14.7108    -15.4881     13.3555    120.3603
   772.5000     15.1533    -15.2784     13.1760    119.8986
   772.7500     15.3915    -15.0959     12.9814    119.0764
   773.0000     15.4295    -14.9463     12.7781    117.1544
   773.2500     15.3407    -14.8151     12.5695    115.0839
   773.5000     15.1904    -14.6770     12.3574    110.7006
   773.7500     14.9803    -14.5134     12.1459    107.7502
   774.0000     14.6224    -14.3219     11.9423    105.2019
   774.2500     14.0408    -14.1156     11.7534    105.1273
   774.5000     13.3884    -13.9176     11.5801    106.5628
   774.7500     12.9700    -13.7571     11.4165    107.9337
   775.0000     12.8757    -13.6666     11.2536    110.4622
   775.2500     12.8868    -13.6740     11.0856    112.6961
   775.5000     12.7710    -13.7926     10.9120    116.8517
   775.7500     12.5237    -14.0141     10.7363    119.7507
   776.0000     12.2912    -14.3116     10.5642    123.4629
   776.2500     12.1874    -14.6478     10.4024    125.2110
   776.5000     12.1935    -14.9833     10.2580    126.5922
   776.7500     12.2211    -15.2862     10.1381    126.8417
   777.0000     12.2609    -15.5430     10.0474    126.8809
   777.2500     12.3363    -15.7629      9.9858    127.0962
   777.5000     12.3894    -15.9725      9.9469    127.8278
   777.7500     12.3588    -16.2033      9.9202    128.2211
   778.0000     12.2876    -16.4771      9.8975    127.8397
   778.2500     12.2692    -16.7946      9.8794    126.7846
   778.5000     12.3334    -17.1358      9.8768    124.6112
   778.7500     12.4300    -17.4730      9.9068    123.3451
   779.0000     12.4970    -17.7846      9.9840    122.3156
   779.2500     12.5372    -18.0584     10.1132    122.1816
   779.5000     12.6199    -18.2874     10.2849    122.3833
   779.7500     12.7817    -18.4651     10.4765    122.4903
   780.0000     12.9215    -18.5829     10.6585    121.9593
   780.2500     12.8727    -18.6266     10.8043    120.5441
   780.5000     12.6370    -18.5766     10.8986    115.5827
   780.7500     12.4312    -18.4151     10.9401    110.0526
   781.0000     12.4481    -18.1364     10.9406     99.7201
   781.2500     12.6818    -17.7553     10.9213     93.2701
   781.5000     13.0263    -17.3056     10.9089     87.2802
   781.7500     13.3702    -16.8300     10.9299     86.3635
   782.0000     13.5476    -16.3671     11.0041     88.4038
   782.2500     13.5068    -15.9408     11.1389     90.7917
   782.5000     13.4842    -15.5557     11.3256     94.2747
   782.7500     13.6759    -15.1999     11.5401     96.0875
   783.0000     13.9784    -14.8573     11.7483     97.9463
   783.2500     14.2355    -14.5216     11.9151     98.8413
   783.5000     14.4355    -14.2031     12.0144    100.2913
   783.7500     14.6463    -13.9216     12.0371    101.5422
   784.0000     14.9062    -13.6940     11.9946    103.4982
   784.2500     15.1089    -13.5238     11.9156    104.2693
   784.5000     15.0839    -13.4001     11.8361    103.6164
   784.7500     14.8597    -13.3034     11.7866    101.8417
   785.0000     14.6467    -13.2131     11.7841     98.0866
   785.2500     14.5732    -13.1119     11.8306     95.7726
   785.5000     14.6562    -12.9901     11.9156     93.8769
   785.7500     14.8595    -12.8477     12.0211     93.9631
   786.0000     15.0454    -12.6945     12.1271     95.8984
   786.2500     15.1209    -12.5455     12.2190     97.9463
   786.5000     15.1954    -12.4139     12.2933    100.8868
   786.7500     15.3840    -12.3082     12.3587    101.8624
   787.0000     15.6060    -12.2323     12.4310    100.9161
   787.2500     15.7084    -12.1863     12.5259     99.0013
   787.5000     15.6755    -12.1664     12.6511     96.0627
   787.7500     15.6036    -12.1669     12.8040     95.1451
   788.0000     15.5301    -12.1834     12.9756     95.8302
   788.2500     15.4583    -12.2130     13.1602     97.0814
   788.5000     15.4473    -12.2537     13.3592     98.6404
   788.7500     15.5037    -12.3056     13.5781     98.8599
   789.0000     15.6017    -12.3715     13.8177     97.6489
   789.2500     15.8363    -12.4509     14.0694     95.8141
