~Version Information
 VERS.                                  2.0 : CWLS LAS VERSION
 WRAP.                                   NO : WRAPING MODE
 SWARE .                 MController 2.5.3A : SOFTWARE VERSION
~Well Information
 WELL.                           Ryan 41-17 : WELL
 COMP.  Pioneer Natural Resources USA, Inc. : COMPANY
 FLD.                      Purgatoire River : FIELD
 LOC.             NE/NE Sec. 17, T33S, R65W : LOCATION
 DATE.                           03/16/2006 : DATE(S) LOGGED
 SRVC.                  Entrada GeoSciences : SERVICE COMPANY
 STAT.                             Colorado : STATE
 CNTY.                           Las Animas : COUNTY
 CTRY.                        United States : COUNTRY
 API.                       05-071-08719-00 : API NUMBER
 STRT.FT                             250.00 : START DEPTH
 STOP.FT                            1155.00 : STOP DEPTH
 STEP.FT                               1.00 : DEPTH INCREMENT
 NULL.                                -9999 : NULL VALUE
~Curve information
 DEPTH.FT                                   :
 ROP.MIN/FT                                 :
 GAS.UNITS                                  :
~ASCII Log data
      250.00        51.97        141.6 
      251.00         1.37          5.3 
      252.00         0.17          4.7 
      253.00         0.43          4.7 
      254.00         0.33          3.9 
      255.00         0.27          4.5 
      256.00         0.55          5.1 
      257.00         0.23          3.7 
      258.00         0.27          4.8 
      259.00         0.53          5.2 
      260.00         0.27          4.2 
      261.00         0.27          5.7 
      262.00         0.30          5.7 
      263.00         0.17          5.3 
      264.00         0.33          5.1 
      265.00         0.27          4.5 
      266.00         0.27          4.7 
      267.00         0.42          5.1 
      268.00         0.27          4.5 
      269.00         0.43          4.1 
      270.00         0.27          4.6 
      271.00         0.27          4.6 
      272.00         0.27          5.0 
      273.00         0.27          5.1 
      274.00         0.27          4.2 
      275.00         0.27          5.4 
      276.00         0.10          5.4 
      277.00         0.27          4.8 
      278.00         0.27          5.9 
      279.00         0.25          5.2 
      280.00         0.27          5.1 
      281.00         0.27          5.2 
      282.00         0.28          4.5 
      283.00         0.23          4.8 
      284.00         0.23          4.7 
      285.00         0.23          5.6 
      286.00         0.17          5.3 
      287.00         0.23          5.7 
      288.00         0.23          5.7 
      289.00         0.30          6.6 
      290.00         0.43         86.1 
      291.00         0.30         43.8 
      292.00         0.27         15.3 
      293.00         0.78          7.1 
      294.00         0.27          5.3 
      295.00         0.27          4.7 
      296.00         0.33          5.5 
      297.00         0.40          6.0 
      298.00         0.53          6.1 
      299.00         0.27          6.4 
      300.00         0.33          4.9 
      301.00         0.27          5.7 
      302.00         0.55          7.7 
      303.00         0.53          5.1 
      304.00         0.37          3.8 
      305.00         0.33          5.5 
      306.00         0.53          6.0 
      307.00         0.53          6.3 
      308.00         0.53          5.5 
      309.00         0.65          6.6 
      310.00         0.40          6.9 
      311.00         0.90          6.3 
      312.00         0.30          6.6 
      313.00         0.40          6.3 
      314.00         0.27          5.6 
      315.00         0.18          5.6 
      316.00         0.30          5.2 
      317.00         0.30          6.6 
      318.00         0.27          6.6 
      319.00         0.27          6.5 
      320.00         0.30          6.2 
      321.00         0.17          6.6 
      322.00         0.17          6.0 
      323.00         0.23          6.9 
      324.00         0.23          6.9 
      325.00         0.23          5.9 
      326.00         0.20          5.4 
      327.00         0.27          6.7 
      328.00         0.23          6.7 
      329.00         0.32          6.1 
      330.00         0.20          6.4 
      331.00         0.23          6.6 
      332.00         0.27          5.1 
      333.00         0.07          5.1 
      334.00         0.30          5.3 
      335.00         0.27          5.6 
      336.00         0.07          5.6 
      337.00         0.27          6.8 
      338.00         0.27          7.4 
      339.00         0.27          7.2 
      340.00         0.27          9.5 
      341.00         0.58         11.8 
      342.00         0.27         12.0 
      343.00         0.30         12.1 
      344.00         0.30         12.0 
      345.00         0.30         12.0 
      346.00         0.33         12.3 
      347.00         0.27         11.9 
      348.00         0.30         12.6 
      349.00         0.27         12.4 
      350.00         0.27         11.9 
      351.00         0.30         11.8 
      352.00         0.27         12.0 
      353.00         0.05         12.0 
      354.00         0.13         13.1 
      355.00         0.13         13.5 
      356.00         0.13         13.0 
      357.00         0.17         12.7 
      358.00         0.20         12.4 
      359.00         0.23         11.6 
      360.00         0.20         11.9 
      361.00         0.23         11.9 
      362.00         0.20         12.4 
      363.00         0.27         12.6 
      364.00         0.27         17.3 
      365.00         0.33         22.9 
      366.00         0.27         26.6 
      367.00         0.27         51.4 
      368.00         0.27         16.5 
      369.00         0.32         17.4 
      370.00         0.23         18.9 
      371.00         0.23         17.8 
      372.00         0.33         15.5 
      373.00         0.33         13.8 
      374.00         0.33         11.9 
      375.00         0.35         11.7 
      376.00         0.23         10.7 
      377.00         0.30         11.4 
      378.00         0.23         11.2 
      379.00         0.27         10.4 
      380.00         0.27         10.1 
      381.00         0.30         11.1 
      382.00         0.27         11.8 
      383.00         0.23         11.5 
      384.00         0.23         12.3 
      385.00         0.20         12.9 
      386.00         0.20         19.3 
      387.00         0.27         22.8 
      388.00         0.30         21.5 
      389.00         0.12         21.5 
      390.00         0.17         20.6 
      391.00         0.30         20.4 
      392.00         0.30         20.6 
      393.00         0.27         20.2 
      394.00         0.27         20.6 
      395.00         0.33         20.3 
      396.00         0.23         20.4 
      397.00         0.30         19.6 
      398.00         0.27        131.1 
      399.00         0.27         22.9 
      400.00         0.27         21.5 
      401.00         0.27         19.4 
      402.00         0.40         18.4 
      403.00         0.30         17.8 
      404.00         0.38         17.9 
      405.00         0.33         17.8 
      406.00         0.30         17.8 
      407.00         0.23         17.4 
      408.00         0.27         17.6 
      409.00         0.27         17.5 
      410.00         0.03         17.5 
      411.00         0.30         17.6 
      412.00         0.27         17.4 
      413.00         0.30         17.3 
      414.00         0.30         17.3 
      415.00         0.27         17.1 
      416.00         0.28         16.8 
      417.00         0.27         16.8 
      418.00         0.20         17.0 
      419.00         0.20         17.0 
      420.00         0.27         17.2 
      421.00         0.20         17.2 
      422.00         0.30         19.7 
      423.00         0.27         18.3 
      424.00         0.20         18.3 
      425.00         0.23         17.6 
      426.00         0.27         17.3 
      427.00         0.27         16.0 
      428.00         0.23        145.3 
      429.00         0.27         29.8 
      430.00         0.28         25.1 
      431.00         0.27         21.6 
      432.00         0.27         18.8 
      433.00         0.27         17.5 
      434.00         0.27         17.0 
      435.00         0.27         16.8 
      436.00         0.27         16.7 
      437.00         0.27         17.1 
      438.00         0.30         16.8 
      439.00         0.30         16.6 
      440.00         0.30         16.3 
      441.00         0.30         16.7 
      442.00         0.30         16.5 
      443.00         0.28         16.6 
      444.00         0.30         15.8 
      445.00         0.27         16.0 
      446.00         0.27         15.7 
      447.00         0.27         15.8 
      448.00         0.27         16.0 
      449.00         0.27         16.4 
