~Version Information
VERS.                      2.0: CWLS Log ASCII Standard - VERSION 2.0
WRAP.                       NO: One line per depth step
~Well Information Block
STRT.FT                10.0000: 
STOP.FT               715.0000: 
STEP.FT                 0.1000: 
NULL.                -999.2500: 
COMP.          Pioneer Natural Resources: COMPANY
WELL.           Belvedere 14-7: WELL
FLD.           Purgatorie River: FIELD
LOC.           786' FSL & 1283' FWL: LOCATION
PROV.                 Colorado: PROVINCE
CNTY.               Las Animas: COUNTRY
SRVC.                Patterson: SERVICE COMPANY
DATE.          Mon Nov 28 07:30:54 2005: LOG DATE
UWI.           05-071-08557               : UNIQUE WELL ID
~Curve Information Block
DEPT.FT            0 000 00 00: Depth
DCAL.in                       : CDL Caliper
RHOB.g/cc                     : CDL Bulk Density
RHOC.g/cc                     : CDL Density Correction
DPOR.pu                       : CDL Density Porosity
GR.GAPI                       : Gamma Ray
NPOR.pu                       : Neutron Porosity
~Parameter Information Block
~A  Depth       DCAL        RHOB        RHOC        DPOR         GR         NPOR    
# ...
   192.4000      2.7444      2.0850      2.5639     -0.0113     79.5663     23.0511
   192.5000      2.7444      2.1517      2.5917     -0.0100     80.7634     23.5376
   192.6000      2.7444      2.2025      2.6043     -0.0090     79.2657     23.6824
   192.7000      2.7444      2.2437      2.6398     -0.0081     75.0522     23.3359
   192.8000      2.7444      2.2749      2.6312     -0.0075     73.6735     22.9570
   192.9000      2.7444      2.2998      2.6243     -0.0070     74.9324     23.0211
   193.0000      2.7444      2.3374      2.5877     -0.0063     74.3333     23.1288
   193.1000      2.7444      2.4018      2.6026     -0.0050     71.2041     22.7504
   193.2000      2.7444      2.4747      2.6303     -0.0035     69.5367     22.2114
   193.3000      2.7444      2.5186      2.6597     -0.0026     70.4568     21.8439
   193.4000      2.7444      2.5068      2.6172     -0.0029     70.9414     21.7067
   193.5000      2.7444      2.4287      2.5828     -0.0044     71.3003     21.7270
   193.6000      2.7444      2.2831      2.4764     -0.0073     73.5605     21.7003
   193.7000      2.7444      2.0817      2.3449     -0.0114     77.0494     21.6349
   193.8000      2.7444      1.8524      2.1796     -0.0160     78.9482     21.6267
   193.9000      2.7444      1.6449      1.9954     -0.0201     79.3716     21.6169
   194.0000      2.7444      1.5080      2.0018     -0.0229     81.8996     21.5400
   194.1000      2.7444      1.4522      2.0364     -0.0240     87.5153     21.4454
   194.2000      2.7444      1.4630      2.0904     -0.0238     94.2898     21.4062
   194.3000      2.7444      1.5204      2.2182     -0.0226    101.4970     21.5614
   194.4000      2.7444      1.5991      2.3506     -0.0210    107.6303     22.0851
   194.5000      2.7444      1.6797      2.4207     -0.0194    109.7262     22.9065
   194.6000      2.7444      1.7566      2.5130     -0.0179    108.4015     23.5886
   194.7000      2.7444      1.8386      2.5020     -0.0162    106.5657     23.8962
   194.8000      2.7444      1.9461      2.5452     -0.0141    105.2628     24.0623
   194.9000      2.7444      2.0921      2.5652     -0.0112    104.4631     24.2676
   195.0000      2.7444      2.2739      2.5895     -0.0075    102.7536     24.5940
   195.1000      2.7444      2.4810      2.6385     -0.0034     99.2358     25.0459
   195.2000      2.7444      2.6924      2.7243      0.0008     97.3612     25.7537
   195.3000      2.7444      2.8702      2.8062      0.0044     97.6363     26.6404
   195.4000      2.7444      2.9785      2.8258      0.0066     95.7474     26.8661
   195.5000      2.7444      3.0038      2.7984      0.0071     92.1104     26.1759
   195.6000      2.7444      2.9432      2.7114      0.0059     90.1452     25.4750
   195.7000      2.7444      2.8057      2.4495      0.0031     88.3112     25.1211
   195.8000      2.7444      2.6366      2.2072     -0.0003     85.6600     24.7676
   195.9000      2.7444      2.4889      2.0183     -0.0032     85.6477     24.5000
   196.0000      2.7444      2.3809      1.9456     -0.0054     89.1474     24.4180
   196.1000      2.7444      2.3026      1.8424     -0.0070     93.0627     24.2771
   196.2000      2.7444      2.2356      1.8296     -0.0083     94.6876     23.9597
   196.3000      2.7444      2.1616      1.7546     -0.0098     92.6992     23.5924
   196.4000      2.7444      2.0841      1.6410     -0.0113     89.7816     23.3057
   196.5000      2.7444      2.0253      1.5867     -0.0125     89.9688     23.0273
   196.6000      2.7444      1.9933      1.5668     -0.0131     92.8496     22.7900
   196.7000      2.7444      1.9777      1.5276     -0.0135     94.8721     22.9282
   196.8000      2.7444      1.9654      1.5451     -0.0137     94.6539     23.3954
   196.9000      2.7444      1.9514      1.4975     -0.0140     95.6565     23.7480
   197.0000      2.7444      1.9470      1.4577     -0.0141    100.8534     24.0717
   197.1000      2.7444      1.9579      1.4956     -0.0138    107.4759     24.7122
   197.2000      2.7444      1.9715      1.5076     -0.0136    111.8435     25.5231
   197.3000      2.7444      1.9822      1.5056     -0.0134    114.8384     26.1619
   197.4000      2.7444      1.9903      1.5173     -0.0132    117.0883     26.3381
   197.5000      2.7444      1.9816      1.5684     -0.0134    117.6259     26.0704
   197.6000      2.7444      1.9482      1.4833     -0.0140    117.1842     25.7706
   197.7000      2.7444      1.9165      1.4427     -0.0147    116.3402     25.6757
   197.8000      2.7444      1.9164      1.4227     -0.0147    114.2932     25.6388
   197.9000      2.7444      1.9378      1.4688     -0.0143    110.4200     25.5948
   198.0000      2.7444      1.9425      1.5078     -0.0142    106.4461     25.6836
   198.1000      2.7444      1.9211      1.4463     -0.0146    106.5547     25.9585
   198.2000      2.7444      1.9018      1.4478     -0.0150    110.5467     26.1833
   198.3000      2.7444      1.9025      1.4614     -0.0150    112.6576     26.2033
   198.4000      2.7444      1.9239      1.4318     -0.0145    110.7962     26.3182
   198.5000      2.7444      1.9524      1.5099     -0.0140    109.2307     26.7762
   198.6000      2.7444      1.9643      1.5048     -0.0137    110.5148     27.3331
   198.7000      2.7444      1.9591      1.4620     -0.0138    112.0130     27.4749
   198.8000      2.7444      1.9542      1.4691     -0.0139    112.5643     27.2387
   198.9000      2.7444      1.9559      1.5108     -0.0139    114.5524     27.0579
   199.0000      2.7444      1.9604      1.5069     -0.0138    117.5707     27.1104
   199.1000      2.7444      1.9636      1.5032     -0.0137    117.5277     27.5092
   199.2000      2.7444      1.9727      1.4388     -0.0136    113.7744     27.9008
   199.3000      2.7444      1.9891      1.4865     -0.0132    110.9300     27.7689
   199.4000      2.7444      1.9930      1.5414     -0.0131    111.3417     27.2928
   199.5000      2.7444      1.9840      1.4121     -0.0133    112.1026     26.8982
   199.6000      2.7444      1.9827      1.4847     -0.0134    111.6027     26.8157
   199.7000      2.7444      1.9876      1.4951     -0.0133    109.8205     26.9204
   199.8000      2.7444      1.9946      1.4667     -0.0131    107.4772     26.8649
   199.9000      2.7444      2.0050      1.5373     -0.0129    106.7243     26.4227
   200.0000      2.7444      1.9979      1.5404     -0.0130    106.6938     25.9060
   200.1000      2.7444      1.9530      1.5232     -0.0139    106.8001     25.8895
   200.2000      2.7444      1.8877      1.3841     -0.0153    109.6024     26.3418
   200.3000      2.7444      1.8424      1.4004     -0.0162    112.0247     26.8219
   200.4000      2.7444      1.8351      1.4202     -0.0163    111.5566     27.1417
   200.5000      2.7444      1.8600      1.3739     -0.0158    112.0575     27.3125
   200.6000      2.7444      1.9034      1.4152     -0.0149    113.8749     27.3791
   200.7000      2.7444      1.9365      1.5420     -0.0143    114.1329     27.3898
   200.8000      2.7444      1.9412      1.4113     -0.0142    112.5048     27.2059
   200.9000      2.7444      1.9322      1.5078     -0.0144    111.1270     26.8819
   201.0000      2.7444      1.9258      1.4510     -0.0145    112.2704     26.9249
   201.1000      2.7444      1.9303      1.4703     -0.0144    114.9215     27.4748
   201.2000      2.7444      1.9477      1.3830     -0.0141    116.1200     28.1468
   201.3000      2.7444      1.9614      1.5271     -0.0138    116.7155     28.6258
   201.4000      2.7444      1.9463      1.4502     -0.0141    117.7846     28.8957
   201.5000      2.7444      1.9121      1.4720     -0.0148    117.5519     28.9369
   201.6000      2.7444      1.9024      1.2879     -0.0150    113.7781     28.6749
   201.7000      2.7444      1.9411      1.3984     -0.0142    109.0265     28.1537
   201.8000      2.7444      1.9944      1.5358     -0.0131    108.0820     27.5340
   201.9000      2.7444      2.0208      1.5380     -0.0126    109.5117     27.0584
