~Version Information
VERS.                      2.0: CWLS Log ASCII Standard - VERSION 2.0
WRAP.                       NO: One line per depth step
~Well Information Block
STRT.FT                -6.5000: 
STOP.FT              1773.5000: 
STEP.FT                 0.2500: 
NULL.                -999.2500: 
COMP.          Pioneer Natural Resources: COMPANY
WELL.           Lynch 43-30 Tr: WELL
FLD.           Purgatorie River: FIELD
LOC.           1431' FSL & 296' FEL--: LOCATION
PROV.                       CO: PROVINCE
CNTY.               Las Animas: COUNTRY
SRVC.          Patterson Wireline: SERVICE COMPANY
DATE.          Tue Aug 02 09:28:21 2005: LOG DATE
UWI.           05 071 08447 00: UNIQUE WELL ID
~Curve Information Block
DEPT.FT            0 000 00 00: Depth
CCL.                          : Casing Collar Locator
TT3.usec                      : CBL 3' Travel Time
AMP3.mV                       : CBL 3' Amplitude
GR.GAPI                       : Gamma Ray
~Parameter Information Block
MINAMPL.mV              1.0000: Minimum Amplitude
~A  Depth       CCL         TT3         AMP3         GR     
# ...
    94.0000      0.0000    300.7375     25.3322     52.9919
    94.2500      0.0000    300.5748     25.5952     50.3071
    94.5000      0.0000    300.3867     25.8929     50.4994
    94.7500      0.0000    300.2002     26.1535     52.8289
    95.0000      0.0000    300.0490     26.3256     55.4192
    95.2500      0.0000    299.9430     26.4149     56.2486
    95.5000      0.0000    299.8701     26.4678     54.5343
    95.7500      0.0000    299.8205     26.5181     51.4146
    96.0000      0.0000    299.8015     26.5540     48.8097
    96.2500      0.0000    299.8290     26.5343     47.3985
    96.5000      0.0000    299.9115     26.4275     46.2106
    96.7500      0.0000    300.0462     26.2289     44.2640
    97.0000      0.0000    300.2256     25.9550     41.9170
    97.2500      0.0000    300.4380     25.6339     40.3961
    97.5000      0.0000    300.6643     25.3009     40.4779
    97.7500      0.0000    300.8752     24.9994     41.8485
    98.0000      0.0000    301.0312     24.7859     43.5624
    98.2500      0.0000    301.0941     24.7166     44.9995
    98.5000      0.0000    301.0589     24.7991     46.3178
    98.7500      0.0000    300.9805     24.9492     47.9771
    99.0000      0.0000    300.9544     25.0205     49.9725
    99.2500      0.0000    301.0515     24.9011     51.6317
    99.5000      0.0000    301.2703     24.5874     52.1411
    99.7500      0.0000    301.5500     24.1683     51.3021
   100.0000      0.0000    301.8213     23.7534     49.7909
   100.2500      0.0000    302.0503     23.4123     48.5773
   100.5000      0.0000    302.2807     23.1555     48.0568
   100.7500      0.0000    302.7024     22.9508     47.8498
   101.0000      0.0000    303.7570     22.7536     47.4816
   101.2500      0.0000    306.1584     22.5229     47.0899
   101.5000      0.0000    310.5783     22.2214     47.3011
   101.7500      0.0000    316.9863     21.8260     48.4498
   102.0000      0.0000    324.2589     21.3586     50.0802
   102.2500      0.0000    330.7180     20.8942     51.2886
   102.5000      0.0000    335.2299     20.5222     51.4593
   102.7500      0.0000    337.7522     20.2948     50.5736
   103.0000      0.0000    338.9372     20.2128     48.9973
   103.2500      0.0000    339.4592     20.2473     47.3280
   103.5000      0.0000    339.7099     20.3607     46.3965
   103.7500      0.0000    339.8573     20.5153     46.9342
   104.0000      0.0000    339.9668     20.6803     49.0459
   104.2500      0.0000    340.0422     20.8366     52.1376
   104.5000      0.0000    340.0347     20.9744     55.1915
   104.7500      0.0000    339.8883     21.0910     56.9133
   105.0000      0.0000    339.6088     21.1956     56.1859
   105.2500      0.0000    339.2956     21.3073     52.9352
   105.5000      0.0000    339.1447     21.4358     48.2972
   105.7500      0.0000    339.6488     21.5639     43.7206
   106.0000      0.0000    342.3404     21.6582     40.1590
   106.2500      0.0000    350.9028     21.6958     38.0793
   106.5000      0.0000    371.4763     21.6736     37.8208
   106.7500      0.0000    409.8121     21.5996     39.6626
   107.0000      0.0000    465.8814     21.4859     43.4025
   107.2500      0.0000    531.7618     21.3528     47.8859
   107.5000      0.0000    596.9919     21.2279     51.2618
   107.7500      0.0000    654.3654     21.1348     52.1369
   108.0000      0.0000    698.3204     21.0783     50.5578
   108.2500      0.0000    722.8538     21.0278     47.8171
   108.5000      0.0000    727.0511     20.9092     45.5036
   108.7500      0.0000    719.2744     20.6131     44.8110
   109.0000      0.0000    712.3590     20.0293     46.3323
   109.2500      0.0000    719.7881     19.1089     49.9417
   109.5000      0.0000    756.1512     17.9290     54.6431
   109.7500      0.0000    828.9817     16.7021     58.7208
   110.0000      0.0000    925.4435     15.6912     60.4577
   110.2500      0.0000   1016.3397     15.0787     59.1938
   110.5000      0.0000   1078.0938     14.8851     55.8570
   110.7500      0.0000   1106.5181     14.9866     52.2150
   111.0000      0.0000   1109.2557     15.2085     49.4813
   111.2500      0.0000   1089.5122     15.4317     47.8735
   111.5000     -2.0000   1038.8956     15.6531     47.3478
   111.7500      0.0000    945.4678     16.0080     48.2130
   112.0000      0.0000    810.7535     16.7439     50.9438
   112.2500      0.0000    659.8779     18.0693     55.6465
   112.5000      0.0000    532.0545     19.8993     61.4685
   112.7500      0.0000    457.0075     21.7728     66.3349
   113.0000      0.0000    436.9058     23.1574     67.8516
   113.2500      0.0000    447.0243     23.8486     65.1476
   113.5000      0.0000    454.0615     24.0179     59.7530
   113.7500      0.0000    439.2947     23.9422     54.3392
   114.0000      0.0000    407.5785     23.7911     50.6764
   114.2500      0.0000    375.4707     23.6199     48.9266
   114.5000      0.0000    354.2053     23.4464     48.4590
   114.7500      0.0000    344.6168     23.2897     48.7382
   115.0000      0.0000    342.6349     23.1620     49.3942
   115.2500      0.0000    344.9040     23.0596     49.9295
   115.5000      0.0000    350.6279     22.9735     49.7927
   115.7500      0.0000    361.8252     22.9068     48.8878
   116.0000      0.0000    382.1140     22.8686     47.8848
   116.2500      0.0000    411.4449     22.8586     47.7510
   116.5000      0.0000    440.0211     22.8618     48.8057
   116.7500      0.0000    451.6149     22.8597     50.4012
   117.0000      0.0000    437.8721     22.8398     51.6938
   117.2500      0.0000    407.8452     22.7945     52.5747
   117.5000      0.0000    380.8047     22.7138     53.6556
   117.7500      0.0000    372.7674     22.5845     55.6491
   118.0000      0.0000    390.5635     22.4019     59.1026
   118.2500      0.0000    430.9052     22.1868     64.3385
   118.5000      0.0000    479.7263     21.9877     71.0200
   118.7500      0.0000    517.7745     21.8594     77.8584
   119.0000      0.0000    532.8864     21.8400     83.2557
   119.2500      0.0000    524.7279     21.9493     86.3485
   119.5000      0.0000    497.7700     22.2007     87.1187
   119.7500      0.0000    457.3571     22.5926     85.5838
   120.0000      0.0000    412.8552     23.0809     81.4612
   120.2500      0.0000    375.8793     23.5768     74.8453
   120.5000      0.0000    352.5543     23.9944     66.8643
   120.7500      0.0000    340.7778     24.3127     59.3789
   121.0000      0.0000    334.6615     24.5894     53.9559
   121.2500      0.0000    329.4382     24.9078     51.0832
   121.5000      0.0000    323.1342     25.3016     50.2753
   121.7500      0.0000    316.1747     25.7224     50.7777
   122.0000      0.0000    310.0486     26.0742     52.0346
   122.2500      0.0000    305.8493     26.2778     53.6180
   122.5000      0.0000    303.7004     26.3076     55.0707
   122.7500      0.0000    303.1218     26.1798     55.9651
   123.0000      0.0000    303.6922     25.9289     56.0637
   123.2500      0.0000    305.2476     25.5974     55.5045
   123.5000      0.0000    307.5257     25.2311     54.8543
   123.7500      0.0000    309.7502     24.8660     54.7959
   124.0000      0.0000    310.8334     24.5167     55.5924
   124.2500      0.0000    310.2271     24.1806     56.9041
   124.5000      0.0000    308.4624     23.8507     58.1111
   124.7500      0.0000    306.6390     23.5289     58.7246
   125.0000      0.0000    305.4880     23.2364     58.5646
   125.2500      0.0000    305.0341     23.0136     57.7731
   125.5000      0.0000    304.9357     22.8994     56.6193
   125.7500      0.0000    304.9018     22.9032     55.2416
   126.0000      0.0000    304.8147     23.0019     53.7363
   126.2500      0.0000    304.6425     23.1664     52.4969
   126.5000      0.0000    304.3639     23.3822     52.2195
   126.7500      0.0000    303.9810     23.6373     53.4274
   127.0000      0.0000    303.5576     23.8979     56.1158
   127.2500      0.0000    303.1918     24.1117     59.9090
