~Version Information
VERS.                      2.0: CWLS Log ASCII Standard - VERSION 2.0
WRAP.                       NO: One line per depth step
~Well Information Block
STRT.FT               485.0000: 
STOP.FT              1030.5000: 
STEP.FT                 0.1000: 
NULL.                -999.2500: 
COMP.          Pioneer Natural Resources: COMPANY
WELL.          Red Raider 22-15: WELL
FLD.           Purgatoire River: FIELD
LOC.           1809' FNL & 2107' FWL: LOCATION
CNTY.               Las Animas: COUNTY
SRVC.                Patterson: SERVICE COMPANY
DATE.          Tue Apr 11 10:06:17 2006: LOG DATE
UWI.           05 071 08718 00: UNIQUE WELL ID
STAT.                 Colorado: STATE
~Curve Information Block
DEPT.FT            0 000 00 00: Depth
DCAL.in                       : CDL Caliper
RHOB.g/cc                     : CDL Bulk Density
RHOC.g/cc                     : CDL Density Correction
DPOR.pu                       : CDL Density Porosity
GR.GAPI                       : Gamma Ray
NPOR.pu                       : Neutron Porosity
~Parameter Information Block
~A  Depth       DCAL        RHOB        RHOC        DPOR         GR         NPOR    
# ...
   811.4000      7.9168      2.5926     -0.0272      3.4773     66.8247     23.6126
   811.5000      7.9268      2.5761     -0.0133      4.4777     70.1792     22.9681
   811.6000      7.9268      2.5828      0.0204      4.0730     72.4737     22.8071
   811.7000      7.9268      2.6015      0.0120      2.9414     73.9192     22.5946
   811.8000      7.9261      2.6271      0.0049      1.3895     76.3997     21.7609
   811.9000      7.9261      2.6556      0.0752     -0.3416     78.6737     20.6156
   812.0000      7.9237      2.6671      0.1189     -1.0387     79.0394     19.7373
   812.1000      7.9237      2.6497      0.0840      0.0178     79.1913     19.3863
   812.2000      7.9237      2.6193      0.0440      1.8616     79.5026     19.5432
   812.3000      7.9271      2.5935      0.0830      3.4215     79.0395     19.9457
   812.4000      7.9271      2.5758      0.0045      4.4981     79.5924     20.2485
   812.5000      7.9328      2.5661      0.0348      5.0872     82.8207     20.3981
   812.6000      7.9328      2.5562      0.0096      5.6876     87.1096     20.6608
   812.7000      7.9328      2.5440     -0.0373      6.4225     90.2667     20.9931
   812.8000      7.9358      2.5371     -0.0042      6.8429     90.8539     21.0697
   812.9000      7.9358      2.5340     -0.0049      7.0294     90.7885     21.0935
   813.0000      7.9347      2.5328      0.0355      7.1004     93.6147     21.4101
   813.1000      7.9347      2.5379     -0.0042      6.7960     96.1363     21.8359
   813.2000      7.9347      2.5518      0.0193      5.9506     93.5112     22.0554
   813.3000      7.9324      2.5650      0.0363      5.1486     87.9457     22.0091
   813.4000      7.9324      2.5667      0.0466      5.0492     84.4895     22.0317
   813.5000      7.9325      2.5686     -0.0069      4.9309     86.2618     22.3580
   813.6000      7.9325      2.5849      0.0453      3.9428     93.4704     22.6365
   813.7000      7.9325      2.5976      0.0556      3.1728     99.7342     22.6076
   813.8000      7.9342      2.5856      0.0565      3.9004     99.5573     22.3720
   813.9000      7.9342      2.5606      0.0203      5.4152     96.2053     21.9838
   814.0000      7.9359      2.5440      0.0006      6.4217     92.7000     21.6697
   814.1000      7.9359      2.5320      0.0015      7.1540     86.2481     21.5909
   814.2000      7.9359      2.5135      0.0189      8.2715     77.9281     21.6265
   814.3000      7.9367      2.4983     -0.0169      9.1939     73.7501     21.6627
   814.4000      7.9367      2.5011     -0.0187      9.0244     75.7546     21.7304
   814.5000      7.9373      2.5199      0.0255      7.8873     81.0586     21.9721
   814.6000      7.9373      2.5362      0.0788      6.8995     87.3443     22.5276
   814.7000      7.9373      2.5396      0.0341      6.6939     95.1839     22.9906
   814.8000      7.9372      2.5347      0.0986      6.9858    102.3311     23.1521
   814.9000      7.9372      2.5306      0.0157      7.2376    104.6463     23.4628
   815.0000      7.9358      2.5419      0.0385      6.5541    102.7799     23.7286
   815.1000      7.9358      2.5651      0.0698      5.1484     97.3087     23.4505
   815.2000      7.9358      2.5796      0.0798      4.2650     87.5974     22.7725
   815.3000      7.9348      2.5803      0.0246      4.2226     78.6409     22.1226
   815.4000      7.9348      2.5786      0.0278      4.3250     77.8374     21.6598
   815.5000      7.9356      2.5814      0.0584      4.1554     83.9646     21.3278
   815.6000      7.9356      2.5849      0.0650      3.9477     87.5810     21.2573
   815.7000      7.9356      2.5836      0.0869      4.0249     84.9191     21.3903
   815.8000      7.9369      2.5771      0.0548      4.4152     79.6180     21.5858
   815.9000      7.9369      2.5708      0.0287      4.7975     73.8817     21.8287
   816.0000      7.9371      2.5607      0.0464      5.4149     69.9712     21.9444
   816.1000      7.9371      2.5396      0.0049      6.6927     68.8157     21.8238
   816.2000      7.9371      2.5267     -0.0518      7.4750     68.2159     21.4159
   816.3000      7.9379      2.5381      0.0531      6.7794     66.5568     21.0269
   816.4000      7.9379      2.5562      0.0469      5.6850     63.2956     21.3150
   816.5000      7.9389      2.5660      0.0020      5.0923     61.2346     21.9843
   816.6000      7.9389      2.5702      0.0327      4.8392     66.1867     22.1648
   816.7000      7.9389      2.5704      0.0005      4.8247     76.5628     21.9011
   816.8000      7.9382      2.5717      0.0297      4.7445     83.3943     21.7156
   816.9000      7.9382      2.5783      0.0013      4.3464     82.8243     21.7753
   817.0000      7.9373      2.5863      0.0221      3.8614     77.0215     21.9970
   817.1000      7.9373      2.5846      0.0679      3.9656     68.6115     22.2866
   817.2000      7.9373      2.5692      0.0078      4.8998     62.3542     22.4436
   817.3000      7.9361      2.5524      0.0219      5.9167     63.4078     22.0567
   817.4000      7.9361      2.5464     -0.0088      6.2797     67.7641     21.3863
   817.5000      7.9348      2.5563      0.0072      5.6805     68.0144     21.2474
   817.6000      7.9348      2.5786      0.0043      4.3271     63.2155     21.4708
   817.7000      7.9348      2.5999      0.0736      3.0340     58.1954     21.2517
   817.8000      7.9345      2.6036      0.0739      2.8112     58.7616     20.6422
   817.9000      7.9345      2.5877      0.0243      3.7782     62.5997     20.3410
   818.0000      7.9345      2.5708     -0.0076      4.7993     64.3060     20.4266
   818.1000      7.9345      2.5672      0.0234      5.0207     64.9646     20.4899
   818.2000      7.9345      2.5676      0.0303      4.9937     66.3098     20.3206
   818.3000      7.9339      2.5600      0.0332      5.4524     66.9242     20.0659
   818.4000      7.9339      2.5472      0.0257      6.2325     64.7488     19.7745
   818.5000      7.9331      2.5340      0.0408      7.0288     61.6097     19.4105
   818.6000      7.9331      2.5205      0.0328      7.8464     62.3371     19.1988
   818.7000      7.9331      2.5119      0.0035      8.3680     67.2429     18.8765
   818.8000      7.9335      2.5108      0.0168      8.4369     71.1811     17.7996
   818.9000      7.9335      2.5078     -0.0101      8.6192     69.7731     16.2110
   819.0000      7.9341      2.4809      0.0322     10.2469     64.7534     14.7538
   819.1000      7.9341      2.4011     -0.0097     15.0846     61.2660     13.6974
   819.2000      7.9341      2.2724     -0.0394     22.8837     60.4523     13.1593
   819.3000      7.9364      2.1296     -0.0808     31.5385     60.9331     12.9760
   819.4000      7.9364      1.9895     -0.1043     40.0329     60.8890     12.8063
   819.5000      7.9445      1.8490     -0.1414     48.5460     57.1337     12.4575
   819.6000      7.9445      1.7152     -0.2180     56.6538     50.5465     12.1814
   819.7000      7.9445      1.6006     -0.1765     63.6004     47.3843     12.3159
   819.8000      7.9563      1.5125     -0.1783     68.9392     48.4050     12.8987
   819.9000      7.9563      1.4649     -0.1364     71.8233     47.9685     14.1148
   820.0000      7.9594      1.4698     -0.0485     71.5259     47.0043     16.0355
   820.1000      7.9594      1.5237      0.0702     68.2631     50.3776     18.0404
   820.2000      7.9594      1.6187      0.1147     62.5027     55.7216     19.3136
   820.3000      7.9519      1.7574      0.1306     54.0993     57.4807     19.8663
   820.4000      7.9519      1.9291      0.2460     43.6892     58.2168     20.6734
   820.5000      7.9437      2.0985      0.2895     33.4226     64.3936     22.2906
   820.6000      7.9437      2.2451      0.3180     24.5387     74.1822     24.0296
   820.7000      7.9437      2.3729      0.3575     16.7916     80.1852     25.3862
   820.8000      7.9395      2.4770      0.3734     10.4877     81.1938     26.5780
   820.9000      7.9395      2.5351      0.3498      6.9635     81.7545     27.4885
