~Version Information
VERS.                      2.0: CWLS Log ASCII Standard - VERSION 2.0
WRAP.                       NO: One line per depth step
~Well Information Block
STRT.FT               400.0000: 
STOP.FT              1577.5000: 
STEP.FT                 0.1000: 
NULL.                -999.2500: 
COMP.          Pioneer Natural Resources: COMPANY
WELL.          Lorencito 10-36-33-67: WELL
FLD.           Purgatoire River: FIELD
LOC.           2130' FSL & 2362' FEL: LOCATION
STAT.                 Colorado: State
CNTY.               Las Animas: COUNTY
CTRY. USA : Country
SECT. 36 : Section
TOWN. 33S : Township
RANG. 67W : Range
SRVC.                Patterson: SERVICE COMPANY
DATE.          Mon Aug 29 07:03:31 2005: LOG DATE
API.           05 071 08501 00: UNIQUE WELL ID
~Curve Information Block
DEPT.FT            0 000 00 00: Depth
DCAL.in                       : CDL Caliper
RHOB.g/cc                     : CDL Bulk Density
RHOC.g/cc                     : CDL Density Correction
DPOR.pu                       : CDL Density Porosity
GR.GAPI                       : Gamma Ray
NPOR.pu                       : Neutron Porosity
~Parameter Information Block
~A  Depth       DCAL        RHOB        RHOC        DPOR         GR         NPOR    
# ...
   476.8000      8.1412      2.6005      0.0191      3.0009     95.4873     23.7819
   476.9000      8.1412      2.6094     -0.0059      2.4582     94.8482     23.6785
   477.0000      8.1345      2.6019      0.0082      2.9156     95.1404     23.8354
   477.1000      8.1345      2.5911     -0.0288      3.5682     95.7378     23.7438
   477.2000      8.1345      2.5921     -0.0175      3.5076     97.8035     23.3704
   477.3000      8.1277      2.6021      0.0088      2.9009    100.8952     23.0492
   477.4000      8.1277      2.6040      0.0287      2.7865    102.9428     22.8540
   477.5000      8.1032      2.5909      0.0080      3.5831    102.6870     22.6716
   477.6000      8.1032      2.5707     -0.0131      4.8043    101.9570     22.5893
   477.7000      8.1032      2.5547     -0.0331      5.7771    103.0695     22.6549
   477.8000      8.1193      2.5506     -0.0144      6.0229    104.3091     22.5742
   477.9000      8.1193      2.5587     -0.0185      5.5350    106.5400     22.4214
   478.0000      8.1305      2.5687      0.0172      4.9257    112.2581     22.8072
   478.1000      8.1305      2.5619      0.0488      5.3374    115.1323     23.7566
   478.2000      8.1305      2.5351     -0.0048      6.9643    110.7230     24.4391
   478.3000      8.1396      2.5126     -0.0142      8.3259    109.7589     24.3291
   478.4000      8.1396      2.5033      0.0322      8.8881    117.9090     23.6481
   478.5000      8.1402      2.4884      0.0046      9.7969    125.4369     23.0112
   478.6000      8.1402      2.4682     -0.0209     11.0156    126.4061     23.0104
   478.7000      8.1402      2.4639     -0.0333     11.2775    125.4965     23.5540
   478.8000      8.1586      2.4737      0.0175     10.6834    127.4826     23.9549
   478.9000      8.1586      2.4804      0.0270     10.2764    133.0429     23.8971
   479.0000      8.1741      2.4814      0.0107     10.2160    139.5482     23.7772
   479.1000      8.1741      2.4750      0.0623     10.6086    141.4063     24.0072
   479.2000      8.1741      2.4558      0.0791     11.7680    137.3324     24.6434
   479.3000      8.1751      2.4446     -0.0405     12.4460    131.5156     25.4957
   479.4000      8.1751      2.4619      0.0883     11.4020    128.4465     26.1398
   479.5000      8.1955      2.4905      0.0565      9.6683    131.7198     25.9506
   479.6000      8.1955      2.5158      0.1082      8.1341    137.9940     25.1716
   479.7000      8.1955      2.5380      0.1068      6.7905    143.4706     24.8648
   479.8000      8.2490      2.5530      0.0936      5.8814    148.9604     25.0650
   479.9000      8.2490      2.5577      0.0914      5.5938    151.9156     25.2590
   480.0000      8.2947      2.5457      0.1433      6.3195    152.1121     25.4476
   480.1000      8.2947      2.5097      0.1230      8.5009    153.9131     25.5938
   480.2000      8.2947      2.4684      0.0390     11.0042    154.5690     25.5644
   480.3000      8.2989      2.4426      0.1073     12.5686    149.3190     25.2124
   480.4000      8.2989      2.4225      0.0460     13.7891    141.8806     24.2144
   480.5000      8.3659      2.4036     -0.0148     14.9358    139.5692     22.9291
   480.6000      8.3659      2.3944      0.0712     15.4887    144.1911     22.1705
   480.7000      8.3659      2.3929      0.0958     15.5813    147.5910     21.6914
   480.8000      8.4187      2.4016      0.0549     15.0551    147.4883     20.9449
   480.9000      8.4187      2.4243      0.1561     13.6813    149.7254     20.0796
   481.0000      8.4662      2.4479      0.1572     12.2505    152.5011     19.2936
   481.1000      8.4662      2.4582      0.1975     11.6221    154.3433     18.8051
   481.2000      8.4662      2.4521      0.2008     11.9945    159.1101     18.8429
   481.3000      8.5752      2.4328      0.1604     13.1632    163.9303     19.0570
   481.4000      8.5752      2.4034      0.1758     14.9438    163.5986     19.1212
   481.5000      8.8954      2.3575      0.1737     17.7303    159.4020     19.2218
   481.6000      8.8954      2.2912      0.1245     21.7433    152.7680     19.3957
   481.7000      8.8954      2.2248      0.0400     25.7717    145.3968     19.5571
   481.8000      9.1544      2.1875     -0.0074     28.0300    139.7295     19.8110
   481.9000      9.1544      2.1825      0.0449     28.3335    138.1348     20.1545
   482.0000      8.8898      2.1869      0.0245     28.0677    143.1723     20.6503
   482.1000      8.8898      2.1851      0.0437     28.1775    150.4309     21.3838
   482.2000      8.8898      2.1716      0.1066     28.9933    148.9169     21.9239
   482.3000      8.5977      2.1505      0.0553     30.2719    136.5304     21.7478
   482.4000      8.5977      2.1428      0.0770     30.7396    126.9531     21.1031
   482.5000      8.5303      2.1590      0.1341     29.7595    129.1900     20.4838
   482.6000      8.5303      2.1815      0.1490     28.3954    138.6268     20.0995
   482.7000      8.5303      2.1879      0.0887     28.0073    148.4529     19.9962
   482.8000      8.5402      2.1812      0.0287     28.4098    153.7551     20.2372
   482.9000      8.5402      2.1910      0.0355     27.8200    156.2177     20.7286
   483.0000      8.5744      2.2460      0.1522     24.4841    161.6224     20.9483
   483.1000      8.5744      2.3406      0.3273     18.7485    169.1380     20.6520
   483.2000      8.5744      2.4355      0.4322     12.9995    174.1022     20.3811
   483.3000      8.6009      2.4985      0.4413      9.1825    174.3121     20.6331
   483.4000      8.6009      2.5228      0.4281      7.7104    173.4376     21.1282
   483.5000      8.5054      2.5212      0.3444      7.8034    175.4924     21.2559
   483.6000      8.5054      2.5169      0.3296      8.0648    174.2474     20.8834
   483.7000      8.5054      2.5279      0.2666      7.3999    165.8697     20.3481
   483.8000      8.3755      2.5524      0.2842      5.9139    162.4100     19.9365
   483.9000      8.3755      2.5630      0.2985      5.2733    169.8788     19.7379
   484.0000      8.3194      2.5412      0.1813      6.5946    178.1302     19.8237
   484.1000      8.3194      2.5035      0.1365      8.8764    182.8755     20.0373
   484.2000      8.3194      2.4666      0.1415     11.1169    184.1891     20.0786
   484.3000      8.3511      2.4184      0.1465     14.0383    178.9827     19.8771
   484.4000      8.3511      2.3402      0.0840     18.7730    168.8396     19.3703
   484.5000      8.3134      2.2363      0.0623     25.0715    156.0937     18.5574
   484.6000      8.3134      2.1185     -0.0092     32.2100    142.1501     17.4954
   484.7000      8.3134      1.9875     -0.0466     40.1537    129.7098     16.1594
   484.8000      8.3594      1.8475     -0.0833     48.6392    116.7766     14.6202
   484.9000      8.3594      1.7146     -0.1193     56.6910    106.0474     13.0590
   485.0000      8.5351      1.5948     -0.1134     63.9502    105.3268     11.7594
   485.1000      8.5351      1.4807     -0.1280     70.8645    110.7580     10.9042
   485.2000      8.5351      1.3844     -0.1491     76.7015    111.3682     10.5857
   485.3000      8.6405      1.3403     -0.0737     79.3749    105.6052     10.9734
   485.4000      8.6405      1.3656      0.1073     77.8401    100.2864     11.9691
   485.5000      8.7659      1.4465      0.1958     72.9384     98.1827     13.1920
   485.6000      8.7659      1.5604      0.2848     66.0340     96.8514     14.3938
   485.7000      8.7659      1.6899      0.3664     58.1852     93.1842     15.6151
   485.8000      9.0277      1.8247      0.3692     50.0177     87.0529     17.0726
   485.9000      9.0277      1.9552      0.4197     42.1070     85.6524     18.8501
   486.0000      9.4502      2.0744      0.3606     34.8853     94.7745     20.8858
   486.1000      9.4502      2.1836      0.3780     28.2676    110.2324     22.8474
   486.2000      9.4502      2.2762      0.3302     22.6551    126.7067     24.2854
   486.3000      9.2351      2.3429      0.2710     18.6151    141.4568     25.2577
