~Version Information
VERS.                      2.0: CWLS Log ASCII Standard - VERSION 2.0
WRAP.                       NO: One line per depth step
~Well Information Block
STRT.FT               550.0000: 
STOP.FT              1664.0000: 
STEP.FT                 0.2500: 
NULL.                -999.2500: 
COMP.          Pioneer Natural Resources: COMPANY
WELL.          Stock Canyon 34-33: WELL
FLD.           Purgatorie River: FIELD
LOC.           980' FSL & 2191' FEL: LOCATION
PROV.                 Colorado: PROVINCE
CNTY.               Las Animas: COUNTRY
SRVC.                Patterson: SERVICE COMPANY
DATE.          Mon Dec 05 09:58:03 2005: LOG DATE
UWI.                          : UNIQUE WELL ID
~Curve Information Block
DEPT.FT            0 000 00 00: Depth
SN.Ohm-m                      : IEL Short Normal
SP.mV                         : IEL Spontaneous Potential
DIR.Ohm-m                     : IEL Induction Resistivity
GR.GAPI                       : Gamma Ray
~Parameter Information Block
~A  Depth        SN          SP         DIR          GR     
# ...
  1488.0000     10.8371    324.2849     10.5569     93.2460
  1488.2500     10.8893    324.0829     10.7272     91.8189
  1488.5000     10.9312    323.8885     10.8984     89.2764
  1488.7500     10.9654    323.7056     11.0811     87.2512
  1489.0000     11.0104    323.5338     11.2976     84.2789
  1489.2500     11.1003    323.3685     11.5736     82.7889
  1489.5000     11.2774    323.2049     11.9291     81.5443
  1489.7500     11.5809    323.0416     12.3725     81.1573
  1490.0000     12.0321    322.8783     12.9020     80.5363
  1490.2500     12.6272    322.7031     13.5108     79.6524
  1490.5000     13.3385    322.4825     14.1915     77.2702
  1490.7500     14.1267    322.1633     14.9315     75.2005
  1491.0000     14.9577    321.6916     15.7040     72.1324
  1491.2500     15.8152    321.0385     16.4646     70.3457
  1491.5000     16.7027    320.2156     17.1664     67.9410
  1491.7500     17.6348    319.2701     17.7855     66.5127
  1492.0000     18.6227    318.2649     18.3342     65.0536
  1492.2500     19.6637    317.2572     18.8497     64.7513
  1492.5000     20.7386    316.2881     19.3679     65.0757
  1492.7500     21.8174    315.3778     19.9029     65.4493
  1493.0000     22.8674    314.5332     20.4364     65.5478
  1493.2500     23.8596    313.7643     20.9129     64.9189
  1493.5000     24.7702    313.0981     21.2385     62.7612
  1493.7500     25.5796    312.5709     21.2960     60.9426
  1494.0000     26.2705    312.2025     20.9860     58.6226
  1494.2500     26.8286    311.9833     20.2818     57.4093
  1494.5000     27.2440    311.8829     19.2597     55.3006
  1494.7500     27.5152    311.8612     18.0738     53.3519
  1495.0000     27.6505    311.8653     16.8941     49.9188
  1495.2500     27.6683    311.8220     15.8581     47.8423
  1495.5000     27.5930    311.6450     15.0604     46.0534
  1495.7500     27.4495    311.2567     14.5772     46.1032
  1496.0000     27.2568    310.6096     14.5128     47.8414
  1496.2500     27.0233    309.6959     15.0700     49.5211
  1496.5000     26.7446    308.5462     16.6910     51.8505
  1496.7500     26.4049    307.2205     20.4836     53.1657
  1497.0000     25.9805    305.7893     30.1590     55.0009
  1497.2500     25.4460    304.3088     70.4027     55.9249
  1497.5000     24.7822    302.8076 100000.0000     55.8912
  1497.7500     23.9845    301.2968 100000.0000     54.6463
  1498.0000     23.0708    299.7915 100000.0000     51.7619
  1498.2500     22.0831    298.3191 100000.0000     50.0452
  1498.5000     21.0815    296.9083 100000.0000     48.8943
  1498.7500     20.1300    295.5713 100000.0000     49.3209
  1499.0000     19.2800    294.2946 100000.0000     51.8542
  1499.2500     18.5600    293.0392 100000.0000     54.8084
  1499.5000     17.9762    291.7454 100000.0000     60.9040
  1499.7500     17.5227    290.3392 100000.0000     65.7037
  1500.0000     17.1928    288.7374    690.9130     72.9109
  1500.2500     16.9844    286.8515    904.0229     76.8483
  1500.5000     16.8970    284.5947 100000.0000     79.9581
  1500.7500     16.9252    281.8875 100000.0000     79.7957
  1501.0000     17.0553    278.6572 100000.0000     77.1932
  1501.2500     17.2681    274.8255 100000.0000     75.1235
  1501.5000     17.5466    270.2913 100000.0000     73.1361
  1501.7500     17.8815    264.9168 100000.0000     72.7092
  1502.0000     18.2696    258.5173 100000.0000     73.0029
  1502.2500     18.7075    250.8471 100000.0000     73.6566
  1502.5000     19.1814    241.5759 100000.0000     74.8000
  1502.7500     19.6627    230.2713 100000.0000     74.8863
  1503.0000     20.1078    216.4116 100000.0000     72.5918
  1503.2500     20.4616    199.4299 100000.0000     69.4398
  1503.5000     20.6597    178.7694      3.0713     63.8773
  1503.7500     20.6271    153.9321      1.1870     60.5934
  1504.0000     20.2774    124.4940      0.6606     56.6856
  1504.2500     19.5199     90.0516      0.4405     54.4452
  1504.5000     18.2814     50.1386      0.3412     51.3521
  1504.7500     16.5398      4.2642      0.3105     49.6757
  1505.0000     14.3540    -47.7989      0.3357     48.2648
  1505.2500     11.8733   -105.5074      0.4278     48.1753
  1505.5000      9.3141   -166.9653      0.6287     48.9774
  1505.7500      6.9086   -228.5149      1.0510     49.7271
  1506.0000      4.8462   -285.0034      1.9987     50.5114
  1506.2500      3.2333   -331.2188      4.1539     50.5824
  1506.5000      2.0837   -364.0648      7.7397     49.7742
  1506.7500      1.3393   -383.9079      9.8080     48.4378
  1507.0000      0.9052   -393.9246      9.9860     44.9777
  1507.2500      0.6834   -398.0938     11.9398     41.8528
  1507.5000      0.5939   -399.5089     25.5648     36.8968
  1507.7500      0.5837   -399.8903 100000.0000     34.1006
  1508.0000      0.6284   -399.9321 100000.0000     31.2920
  1508.2500      0.7328   -399.7503 100000.0000     30.2869
  1508.5000      0.9338   -399.0496 100000.0000     29.8265
  1508.7500      1.3047   -397.0318 100000.0000     30.2098
  1509.0000      1.9521   -392.3488 100000.0000     31.5976
  1509.2500      2.9957   -383.5008 100000.0000     32.5815
  1509.5000      4.5231   -369.7439 100000.0000     33.4801
  1509.7500      6.5269   -351.8624 100000.0000     34.0253
  1510.0000      8.8485   -331.9679 100000.0000     36.2147
  1510.2500     11.1672   -312.3615 100000.0000     39.0288
  1510.5000     13.0609   -294.4241     10.4875     44.4818
  1510.7500     14.1301   -278.2695      1.9975     48.0771
  1511.0000     14.1372   -262.9642      0.9371     52.4693
  1511.2500     13.0962   -246.7502      0.5723     54.5319
  1511.5000     11.2681   -227.0483      0.4102     56.1446
  1511.7500      9.0675   -200.4669      0.3372     56.2197
  1512.0000      6.9279   -163.3324      0.3150     55.2452
  1512.2500      5.1876   -113.2003      0.3287     54.3925
  1512.5000      4.0351    -50.9637      0.3730     53.9437
  1512.7500      3.5144     18.0523      0.4461     54.7731
  1513.0000      3.5652     85.5565      0.5452     58.1105
  1513.2500      4.0679    143.8090      0.6630     61.5524
  1513.5000      4.8787    188.6779      0.7866     67.8266
  1513.7500      5.8544    220.2133      0.9060     72.2575
  1514.0000      6.8710    241.0656      1.0269     78.3494
  1514.2500      7.8394    254.5011      1.1774     81.6241
  1514.5000      8.7145    263.2320      1.4097     85.5094
  1514.7500      9.4971    269.1337      1.8169     87.9515
  1515.0000     10.2261    273.4052      2.6062     91.6836
  1515.2500     10.9628    276.8015      4.4047     93.4771
  1515.5000     11.7710    279.7813     10.3763     93.1727
  1515.7500     12.6959    282.5673    595.4232     90.3988
  1516.0000     13.7496    285.1869 100000.0000     83.2749
  1516.2500     14.9069    287.5416 100000.0000     78.0173
  1516.5000     16.1162    289.5096 100000.0000     72.4777
  1516.7500     17.3189    291.0356 100000.0000     71.6608
  1517.0000     18.4710    292.1577 100000.0000     74.8709
  1517.2500     19.5562    292.9689 100000.0000     78.9506
  1517.5000     20.5864    293.5584 100000.0000     85.7626
  1517.7500     21.5907    293.9738 100000.0000     89.6418
  1518.0000     22.6000    294.2192 100000.0000     92.8140
  1518.2500     23.6325    294.2776 100000.0000     92.4790
  1518.5000     24.6858    294.1397 100000.0000     88.3426
  1518.7500     25.7361    293.8247 100000.0000     84.0117
  1519.0000     26.7435    293.3813 100000.0000     77.1936
  1519.2500     27.6604    292.8687 100000.0000     73.3445
  1519.5000     28.4410    292.3341 100000.0000     69.2603
  1519.7500     29.0497    291.8036 100000.0000     67.6915
  1520.0000     29.4666    291.2939 100000.0000     66.7768
  1520.2500     29.6890    290.8253    682.0005     66.7327
  1520.5000     29.7309    290.4192    127.8349     66.7046
  1520.7500     29.6187    290.0880     71.4302     66.4550
  1521.0000     29.3861    289.8300     48.9015     65.8609
  1521.2500     29.0684    289.6369     36.6444     65.5794
