~Version Information
VERS.                      2.0: CWLS Log ASCII Standard - VERSION 2.0
WRAP.                       NO: One line per depth step
~Well Information Block
STRT.FT               795.0000: 
STOP.FT              2276.0000: 
STEP.FT                 0.1000: 
NULL.                -999.2500: 
COMP.          Pioneer Natural Resources: COMPANY
WELL.            Wildcard 31-5: WELL
FLD.           Purgatoire River: FIELD
LOC.           624' FNL & 1852' FEL--: LOCATION
CNTY.               Las Animas: COUNTY
SRVC.                Patterson: SERVICE COMPANY
DATE.          Tue Mar 07 07:04:10 2006: LOG DATE
UWI.           05 071 08707 00: UNIQUE WELL ID
STAT.                 Colorado: STATE
~Curve Information Block
DEPT.FT            0 000 00 00: Depth
DCAL.in                       : CDL Caliper
DPOR.pu                       : CDL Density Porosity
NPOR.pu                       : Neutron Porosity
RHOB.g/cc                     : CDL Bulk Density
RHOC.g/cc                     : CDL Density Correction
GR.GAPI                       : Gamma Ray
~Parameter Information Block
~A  Depth       DCAL        DPOR        NPOR        RHOB        RHOC         GR     
# ...
  1476.6000      7.9517      2.8793     24.0217      2.6025      0.1014    123.6202
  1476.7000      7.9517      2.9510     24.2138      2.6013      0.1205    134.5658
  1476.8000      7.9487      3.7255     24.1756      2.5885      0.0275    130.9319
  1476.9000      7.9487      4.6779     24.2816      2.5728      0.0592    117.7470
  1477.0000      7.9441      5.6964     24.7178      2.5560      0.0308    115.4510
  1477.1000      7.9441      6.2570     25.2366      2.5468     -0.0174    129.6864
  1477.2000      7.9441      5.8874     25.2765      2.5529      0.0262    141.3240
  1477.3000      7.9421      5.6377     24.7627      2.5570      0.0475    136.2995
  1477.4000      7.9421      6.4138     24.2065      2.5442      0.0484    123.1091
  1477.5000      7.9380      7.0373     23.7080      2.5339      0.0039    119.5631
  1477.6000      7.9380      6.4874     23.2496      2.5430      0.0489    130.5997
  1477.7000      7.9380      5.8827     23.3072      2.5529      0.0673    139.6496
  1477.8000      7.9317      5.6620     23.8071      2.5566      0.0026    135.2065
  1477.9000      7.9317      4.7656     23.9454      2.5714      0.0506    126.8498
  1478.0000      7.9245      3.5129     23.5320      2.5920      0.0525    128.1612
  1478.1000      7.9245      3.5697     23.0549      2.5911      0.1212    136.3089
  1478.2000      7.9245      5.3330     22.8432      2.5620      0.0600    139.6988
  1478.3000      7.9155      7.3972     22.7928      2.5279      0.0816    138.7124
  1478.4000      7.9155      8.5196     22.3759      2.5094      0.0138    136.0752
  1478.5000      7.9077      8.5117     21.6723      2.5096      0.0203    127.4276
  1478.6000      7.9077      8.1379     21.4398      2.5157      0.0510    118.2149
  1478.7000      7.9077      7.6423     21.4955      2.5239     -0.0138    115.2150
  1478.8000      7.9031      6.6528     21.1672      2.5402      0.0599    110.7529
  1478.9000      7.9031      6.2000     20.6383      2.5477      0.0537    102.5172
  1479.0000      7.9005      7.3673     20.3635      2.5284      0.0200     94.0757
  1479.1000      7.9005      9.0194     20.3110      2.5012     -0.0397     87.2203
  1479.2000      7.9005      9.4212     20.3161      2.4946     -0.0049     86.6068
  1479.3000      7.9015      8.4868     20.6566      2.5100      0.0273     90.3847
  1479.4000      7.9015      6.9740     21.5005      2.5349      0.0212     94.7760
  1479.5000      7.9050      5.6568     22.1867      2.5567      0.0638     98.9373
  1479.6000      7.9050      5.2868     22.0456      2.5628      0.0436    102.2325
  1479.7000      7.9050      5.6138     21.3963      2.5574      0.0371    101.1569
  1479.8000      7.9063      5.7753     21.0563      2.5547      0.1056     91.7245
  1479.9000      7.9063      5.8573     21.1560      2.5534      0.1027     78.5539
  1480.0000      7.9074      6.0759     21.1106      2.5497      0.0495     72.6768
  1480.1000      7.9074      6.0756     20.7929      2.5498      0.0502     75.8989
  1480.2000      7.9074      5.9433     20.8191      2.5519      0.0786     79.5034
  1480.3000      7.9121      6.0400     21.3313      2.5503      0.0773     77.4579
  1480.4000      7.9121      6.1818     21.5274      2.5480      0.0708     68.9497
  1480.5000      7.9172      6.0453     20.9045      2.5503      0.0577     62.3070
  1480.6000      7.9172      5.7979     20.1291      2.5543      0.0761     70.9034
  1480.7000      7.9172      5.6423     19.8196      2.5569      0.0945     85.9204
  1480.8000      7.9178      5.3376     19.6347      2.5619      0.0795     88.5945
  1480.9000      7.9178      5.1443     19.1310      2.5651      0.1082     78.1219
  1481.0000      7.9156      5.6370     18.8559      2.5570      0.0792     65.9463
  1481.1000      7.9156      6.3623     19.3524      2.5450      0.0526     60.4458
  1481.2000      7.9156      6.3641     20.2415      2.5450      0.0308     61.3002
  1481.3000      7.9150      5.4176     21.0566      2.5606      0.0493     65.5532
  1481.4000      7.9150      4.9070     21.4588      2.5690      0.1151     71.1822
  1481.5000      7.9141      5.9566     21.3046      2.5517      0.0449     76.8127
  1481.6000      7.9141      7.2523     21.0787      2.5303     -0.0016     83.3557
  1481.7000      7.9141      7.5481     21.3613      2.5255      0.0447     90.6709
  1481.8000      7.9119      7.6707     21.9846      2.5234      0.0288     92.9375
  1481.9000      7.9119      8.2292     22.2613      2.5142      0.0264     85.8835
  1482.0000      7.9105      8.5262     21.9864      2.5093      0.0604     77.5859
  1482.1000      7.9105      7.9692     21.6774      2.5185      0.0690     76.8667
  1482.2000      7.9105      7.0484     21.7594      2.5337      0.0935     80.1786
  1482.3000      7.9091      6.7834     22.1703      2.5381      0.0896     83.6110
  1482.4000      7.9091      7.5229     22.9374      2.5259      0.0401     89.8320
  1482.5000      7.9072      9.0122     23.7975      2.5013      0.0706     91.8896
  1482.6000      7.9072     10.6485     24.1726      2.4743      0.0006     81.2881
  1482.7000      7.9072     11.4582     24.2600      2.4609      0.0069     69.6480
  1482.8000      7.9063     11.1407     24.6730      2.4662      0.0099     68.7164
  1482.9000      7.9063     10.4164     25.4410      2.4781      0.0314     74.4233
  1483.0000      7.9064     10.3789     26.0771      2.4787      0.0521     82.6371
  1483.1000      7.9064     11.3210     26.5238      2.4632      0.0207     99.2675
  1483.2000      7.9064     12.0286     26.8859      2.4515      0.0018    125.5991
  1483.3000      7.9115     11.1400     26.7901      2.4662      0.0052    144.8837
  1483.4000      7.9115      9.0288     26.1701      2.5010      0.0765    148.2272
  1483.5000      7.9192      7.3365     25.5746      2.5289      0.1088    146.4783
  1483.6000      7.9192      6.5244     25.4041      2.5423      0.0937    143.7524
  1483.7000      7.9192      5.5569     25.4453      2.5583      0.0633    135.1821
  1483.8000      7.9182      4.2756     25.3927      2.5795      0.1373    125.3578
  1483.9000      7.9182      4.1224     25.2101      2.5820      0.1698    126.8294
  1484.0000      7.9056      5.9756     24.9727      2.5514      0.1430    135.4224
  1484.1000      7.9056      8.8857     24.6843      2.5034      0.1243    134.9649
  1484.2000      7.9056     11.0755     24.4324      2.4673      0.0516    125.8549
  1484.3000      7.8931     11.4814     24.4746      2.4606      0.0236    117.8252
  1484.4000      7.8931     10.5178     25.1264      2.4765      0.0437    114.2312
  1484.5000      7.8904      9.2184     26.2528      2.4979      0.0431    112.5103
  1484.6000      7.8904      8.6427     27.0350      2.5074      0.1207    113.1592
  1484.7000      7.8904      9.4055     27.0244      2.4948      0.0623    120.7900
  1484.8000      7.8995     10.9162     26.7679      2.4699      0.1140    129.7932
  1484.9000      7.8995     12.2234     26.9124      2.4483      0.1009    135.0033
  1485.0000      7.9205     12.8256     27.3879      2.4384      0.1347    143.2782
  1485.1000      7.9205     12.9341     27.6578      2.4366      0.1176    159.7314
  1485.2000      7.9205     13.0436     27.6078      2.4348      0.1360    176.8354
  1485.3000      7.9461     13.0012     27.6449      2.4355      0.1134    180.1228
  1485.4000      7.9461     12.0852     27.9104      2.4506      0.1260    171.6290
  1485.5000      7.9647     10.5522     28.0612      2.4759      0.1434    167.6474
  1485.6000      7.9647      9.6852     27.6575      2.4902      0.1880    165.4839
  1485.7000      7.9647      9.9334     26.6858      2.4861      0.1926    151.5552
  1485.8000      7.9809     10.5075     25.4993      2.4766      0.1604    127.9421
  1485.9000      7.9809     10.8585     24.4556      2.4708      0.1708    111.4816
  1486.0000      7.9986     11.1606     23.9403      2.4659      0.1250    110.7606
  1486.1000      7.9986     11.6113     23.6928      2.4584      0.1501    120.4846
