~Version Information
 VERS.                                  2.0 : CWLS LAS VERSION
 WRAP.                                   NO : WRAPING MODE
 SWARE .                 MController 2.5.0N : SOFTWARE VERSION
~Well Information
 WELL.                            Mac 22-36 : WELL
 COMP.    Pioneer Natural Resouces USA Inc. : COMPANY
 FLD.                      Purgatoire River : FIELD
 LOC.            SE/NW Sec 36 , T34S, R65W  : LOCATION
 DATE.                             12/04/05 : DATE(S) LOGGED
 SRVC.       BLANCO Geological Services LLC : SERVICE COMPANY
 STAT.                                   CO : STATE
 CNTY.                           Las Animas : COUNTY
 CTRY.                                  USA : COUNTRY
 API.                          05-071-08594 : API NUMBER
 STRT.FT                             168.00 : START DEPTH
 STOP.FT                            1055.00 : STOP DEPTH
 STEP.FT                               1.00 : DEPTH INCREMENT
 NULL.                                -9999 : NULL VALUE
~Curve information
 DEPTH.FT                                   :
 ROP.MIN/FT                                 :
 GAS.UNITS                                  :
~ASCII Log data
# ...
       568.0         0.20         29.8 
       569.0         0.17         27.3 
       570.0         0.17         23.4 
       571.0         0.23         16.4 
       572.0         0.23         15.7 
       573.0         0.43         13.4 
       574.0         0.23         13.3 
       575.0         0.27         12.1 
       576.0         0.23         12.3 
       577.0         0.27         11.2 
       578.0         0.30         10.9 
       579.0         0.28         11.1 
       580.0         0.30         12.7 
       581.0         0.27         31.5 
       582.0         0.30         35.3 
       583.0         0.23         82.9 
       584.0         0.30        166.4 
       585.0         0.23        207.5 
       586.0         0.27        291.7 
       587.0         0.27        297.0 
       588.0         0.27        262.5 
       589.0         0.27        222.1 
       590.0         0.85        173.4 
       591.0         2.37       2072.0 
       592.0         0.40        560.3 
       593.0         0.42        496.4 
       594.0         0.43        521.9 
       595.0         0.47        491.9 
       596.0         0.53        476.1 
       597.0         0.47        471.3 
       598.0         0.40        446.8 
       599.0         0.40        452.6 
       600.0         0.33        440.0 
       601.0         0.42        260.5 
       602.0         0.30        232.1 
       603.0         0.37        251.0 
       604.0         0.33        252.7 
       605.0         0.23        252.7 
       606.0         0.20        252.7 
       607.0         0.23        270.1 
       608.0         0.23        257.8 
       609.0         0.30        242.2 
       610.0         0.27        239.4 
       611.0         0.43        209.4 
       612.0         0.35        217.2 
       613.0         0.30        246.1 
       614.0         0.30        253.1 
       615.0         0.27        279.6 
       616.0         0.27        285.5 
       617.0         0.27        249.3 
       618.0         0.33        239.7 
       619.0         0.37        218.0 
       620.0         0.37        194.7 
       621.0         4.07       1598.6 
       622.0         0.47        648.2 
       623.0         0.40        713.7 
       624.0         0.30        802.9 
       625.0         0.20        812.3 
       626.0         0.27        771.7 
       627.0         0.40        738.1 
       628.0         0.33        736.2 
       629.0         0.23        734.6 
       630.0         0.27        767.5 
       631.0         0.23        767.5 
       632.0         0.25        784.5 
       633.0         0.27        773.3 
       634.0         0.23        752.3 
       635.0         0.30        895.4 
       636.0         0.27        960.2 
       637.0         0.27        925.7 
       638.0         0.23        906.7 
       639.0         0.27        901.9 
       640.0         0.23        935.7 
       641.0         0.20        891.9 
       642.0         0.23        860.3 
       643.0         0.20        860.3 
       644.0         0.23        839.3 
       645.0         0.22        839.0 
       646.0         0.20        854.8 
       647.0         0.20        811.6 
       648.0         0.23        811.6 
       649.0         0.23        790.0 
       650.0         0.27        647.6 
       651.0         3.72       2581.8 
       652.0         0.33        908.0 
       653.0         0.53        815.2 
       654.0         0.53        731.1 
       655.0         0.40        710.8 
       656.0         0.42        706.6 
       657.0         0.37        707.2 
       658.0         0.40        704.3 
       659.0         0.37        693.0 
       660.0         0.37        515.5 
       661.0         0.40        158.2 
       662.0         0.37        455.9 
       663.0         0.37        453.8 
       664.0         0.38        479.8 
       665.0         0.33        684.0 
       666.0         0.37        681.7 
       667.0         0.33        676.9 
       668.0         0.37        648.9 
       669.0         0.33        657.3 
       670.0         0.33        663.1 
       671.0         0.33        652.7 
       672.0         0.37        649.2 
       673.0         0.33        655.3 
       674.0         0.38        651.1 
       675.0         0.40        612.8 
       676.0         0.43        634.4 
       677.0         0.37        637.6 
       678.0         0.57        559.6 
       679.0         0.67        461.0 
       680.0         0.27        130.0 
       681.0         2.72       2154.2 
       682.0         0.67        707.2 
       683.0         0.55        628.3 
       684.0         0.40        584.1 
       685.0         0.40        554.8 
       686.0         0.40        523.5 
       687.0         0.37        529.0 
       688.0         0.47        516.1 
       689.0         0.43        527.1 
       690.0         0.37        534.8 
       691.0         0.42        534.8 
       692.0         0.50        541.2 
       693.0         0.43        525.8 
       694.0         0.47        536.1 
       695.0         0.43        530.3 
       696.0         0.53        517.7 
       697.0         0.47        519.3 
       698.0         0.52        502.2 
       699.0         0.50        522.9 
       700.0         0.40        534.5 
       701.0         0.43        525.4 
       702.0         0.47        504.5 
       703.0         0.53        488.1 
       704.0         0.40        493.9 
       705.0         0.33        482.6 
       706.0         0.38        492.9 
       707.0         0.37        493.2 
       708.0         0.37        482.6 
       709.0         0.40        458.7 
       710.0         0.43        184.6 
       711.0         3.85       2047.2 
       712.0         0.40        706.6 
       713.0         0.50        551.6 
       714.0         0.38        467.4 
       715.0         0.33        440.0 
       716.0         0.37        227.8 
       717.0         0.33        235.3 
       718.0         0.37        230.6 
       719.0         0.33        226.1 
       720.0         0.37        222.7 
       721.0         0.33        218.0 
       722.0         0.40        235.0 
       723.0         0.38        234.0 
       724.0         0.33        230.7 
       725.0         0.37        220.6 
       726.0         0.37        222.0 
       727.0         0.40        219.8 
       728.0         0.47        183.8 
       729.0         0.30        242.5 
       730.0         0.30        255.8 
       731.0         0.27        260.2 
       732.0         0.33        261.9 
       733.0         0.35        217.9 
       734.0         0.37        232.2 
       735.0         0.37        231.0 
       736.0         0.37        222.6 
       737.0         0.33        204.2 
       738.0         0.33        198.9 
       739.0         0.37        147.1 
       740.0         0.37        116.5 
       741.0         4.30       1670.1 
       742.0         0.50        410.1 
       743.0         0.50        225.7 
       744.0         0.37        227.3 
       745.0         0.37        315.0 
       746.0         0.27        375.6 
       747.0         0.23        390.2 
       748.0         0.27        375.2 
       749.0         0.37        332.3 
       750.0         0.32        302.7 
       751.0         0.23        338.0 
       752.0         0.23        402.6 
       753.0         0.23        399.4 
       754.0         0.23        336.1 
       755.0         0.30        345.6 
       756.0         0.23        371.3 
       757.0         0.23        382.7 
       758.0         0.23        384.1 
       759.0         0.30        344.9 
       760.0         0.43        341.5 
       761.0         0.43        315.8 
       762.0         0.25        333.4 
       763.0         0.23        315.9 
       764.0         0.23        306.2 
       765.0         0.30        298.7 
       766.0         0.27        322.7 
       767.0         0.27        325.9 
