~Version Information
VERS.                      2.0: CWLS Log ASCII Standard - VERSION 2.0
WRAP.                       NO: One line per depth step
~Well Information Block
STRT.FT                10.0000: 
STOP.FT              1063.0000: 
STEP.FT                 0.1000: 
NULL.                -999.2500: 
COMP.          Pioneer Natural Resources: COMPANY
WELL.                Mac 22-36: WELL
FLD.           Purgatorie River: FIELD
LOC.           2545' FNL & 1398' FWL: LOCATION
PROV.                 Colorado: PROVINCE
CNTY.               Las Animas: COUNTRY
SRVC.                Patterson: SERVICE COMPANY
DATE.          Mon Dec 05 10:55:42 2005: LOG DATE
UWI.                          : UNIQUE WELL ID
~Curve Information Block
DEPT.FT            0 000 00 00: Depth
DCAL.in                       : CDL Caliper
RHOB.g/cc                     : CDL Bulk Density
RHOC.g/cc                     : CDL Density Correction
DPOR.pu                       : CDL Density Porosity
GR.GAPI                       : Gamma Ray
NPOR.pu                       : Neutron Porosity
~Parameter Information Block
~A  Depth       DCAL        RHOB        RHOC        DPOR         GR         NPOR    
# ...
   835.6000      7.8808      1.9050      0.1671     45.1486     74.9900     21.0132
   835.7000      7.8808      1.9916      0.2196     39.9054     77.1877     21.5525
   835.8000      7.8274      2.0517      0.1823     36.2621     80.9050     22.0270
   835.9000      7.8274      2.0903      0.1466     33.9197     87.5075     22.6122
   836.0000      7.8007      2.1239      0.0879     31.8876     93.3822     23.3759
   836.1000      7.8007      2.1586      0.1137     29.7826     97.7583     24.0942
   836.2000      7.8007      2.1951      0.0602     27.5712    101.7276     24.4566
   836.3000      7.8398      2.2394      0.0408     24.8849    104.8934     24.5740
   836.4000      7.8398      2.2927      0.0910     21.6564    107.2402     24.5447
   836.5000      7.8595      2.3454      0.1776     18.4588    109.7011     24.2576
   836.6000      7.8595      2.3915      0.2466     15.6690    112.6221     23.7934
   836.7000      7.8595      2.4262      0.3308     13.5647    114.4761     23.5027
   836.8000      7.7860      2.4422      0.3099     12.5916    112.7483     23.5318
   836.9000      7.7860      2.4429      0.2376     12.5505    109.2893     23.6134
   837.0000      7.8020      2.4376      0.2017     12.8700    108.2097     23.6859
   837.1000      7.8020      2.4289      0.1104     13.3986    109.7279     23.9287
   837.2000      7.8020      2.4198      0.1248     13.9523    111.2585     24.2358
   837.3000      7.9541      2.4186      0.1187     14.0249    110.4862     24.3248
   837.4000      7.9541      2.4310      0.1729     13.2713    108.7108     24.2316
   837.5000      7.9219      2.4461      0.1682     12.3586    109.0910     24.2149
   837.6000      7.9219      2.4494      0.1330     12.1557    112.2642     24.2259
   837.7000      7.9219      2.4476      0.0931     12.2660    116.5531     24.3225
   837.8000      7.8314      2.4528      0.1252     11.9496    119.1026     24.7492
   837.9000      7.8314      2.4632      0.1068     11.3188    117.4893     25.3075
   838.0000      7.7962      2.4701      0.1525     10.9010    112.8302     25.5869
   838.1000      7.7962      2.4694      0.1553     10.9444    109.4949     25.5059
   838.2000      7.7962      2.4699      0.1372     10.9134    109.1945     25.0981
   838.3000      7.7867      2.4798      0.1342     10.3156    109.8414     24.5474
   838.4000      7.7867      2.4909      0.1161      9.6425    109.7080     24.2300
   838.5000      7.8229      2.4914      0.1181      9.6112    108.5138     24.2774
   838.6000      7.8229      2.4838      0.0842     10.0699    106.1583     24.5723
   838.7000      7.8229      2.4821      0.0798     10.1743    104.2353     25.1107
   838.8000      7.8943      2.4910      0.1238      9.6379    105.2969     25.8819
   838.9000      7.8943      2.5043      0.1291      8.8304    107.1918     26.4681
   839.0000      7.9112      2.5210      0.1167      7.8188    105.6855     26.4109
   839.1000      7.9112      2.5396      0.1516      6.6932    102.8192     25.9076
   839.2000      7.9112      2.5495      0.1564      6.0934    100.6390     25.4042
   839.3000      7.7927      2.5476      0.1309      6.2052     96.9684     25.0828
   839.4000      7.7927      2.5418      0.1559      6.5596     93.4685     24.8437
   839.5000      7.7805      2.5354      0.1539      6.9426     92.4933     24.5968
   839.6000      7.7805      2.5281      0.1582      7.3891     91.3652     24.2909
   839.7000      7.7805      2.5213      0.1819      7.8017     88.5599     23.8787
   839.8000      7.7466      2.5228      0.1178      7.7112     86.4194     23.5642
   839.9000      7.7466      2.5333      0.1416      7.0700     86.2290     23.5108
   840.0000      7.7567      2.5382      0.1191      6.7788     87.8572     23.5148
   840.1000      7.7567      2.5387      0.0629      6.7481     90.0545     23.3672
   840.2000      7.7567      2.5523      0.1079      5.9189     91.0372     23.3050
   840.3000      7.8045      2.5699      0.2193      4.8566     91.2985     23.4486
   840.4000      7.8045      2.5722      0.1658      4.7130     92.1851     23.3940
   840.5000      7.7870      2.5628      0.1972      5.2834     93.9667     22.9063
   840.6000      7.7870      2.5493      0.1572      6.1055     96.6838     22.3344
   840.7000      7.7870      2.5342      0.1489      7.0162     99.8634     22.1662
   840.8000      7.7697      2.5165      0.1219      8.0938    102.1507     22.4449
   840.9000      7.7697      2.4932      0.0972      9.5040    101.4884     22.8311
   841.0000      7.7991      2.4680      0.1011     11.0303     99.2099     23.0196
   841.1000      7.7991      2.4500      0.1001     12.1206     99.2668     23.0522
   841.2000      7.7991      2.4507      0.0335     12.0772    101.6403     23.2392
   841.3000      7.8090      2.4782      0.0841     10.4102    103.7415     23.5639
   841.4000      7.8090      2.5198      0.1081      7.8935    104.5179     23.7431
   841.5000      7.7975      2.5475      0.1266      6.2150    104.6393     23.7691
   841.6000      7.7975      2.5510      0.1443      5.9976    105.0250     23.6971
   841.7000      7.7975      2.5511      0.0948      5.9931    104.5331     23.6266
   841.8000      7.7890      2.5630      0.1597      5.2740    102.0649     23.7831
   841.9000      7.7890      2.5738      0.1408      4.6211     98.9334     24.2345
   842.0000      7.8024      2.5739      0.1093      4.6120     96.6433     24.8195
   842.1000      7.8024      2.5690      0.1012      4.9107     94.7486     25.2406
   842.2000      7.8024      2.5617      0.0924      5.3531     91.4799     25.2594
   842.3000      7.8395      2.5478      0.0926      6.1923     88.1544     24.8961
   842.4000      7.8395      2.5320      0.0390      7.1510     87.4715     24.6883
   842.5000      7.8242      2.5341      0.0350      7.0237     87.2396     25.0456
   842.6000      7.8242      2.5599      0.0788      5.4580     84.6377     25.5548
   842.7000      7.8242      2.5864      0.0998      3.8522     82.1215     25.6833
   842.8000      7.7989      2.5932      0.0514      3.4415     83.0470     25.2743
   842.9000      7.7989      2.5851      0.0684      3.9306     85.8935     24.4071
   843.0000      7.7901      2.5750      0.0873      4.5446     85.8931     23.4809
   843.1000      7.7901      2.5696      0.0467      4.8738     81.6678     22.8201
   843.2000      7.7901      2.5691      0.0714      4.9029     77.4623     22.2252
   843.3000      7.8066      2.5592      0.0979      5.5048     78.4073     21.6460
   843.4000      7.8066      2.5245      0.0878      7.6074     84.1049     21.4525
   843.5000      7.8105      2.4770      0.0550     10.4859     88.9035     21.7004
   843.6000      7.8105      2.4499      0.0083     12.1276     89.1615     22.0480
   843.7000      7.8105      2.4550      0.0819     11.8198     86.9026     22.3745
   843.8000      7.8317      2.4718      0.0711     10.8009     85.7531     22.8575
   843.9000      7.8317      2.4902      0.0605      9.6827     85.8096     23.5655
   844.0000      7.9070      2.5164      0.0698      8.0960     85.8846     24.1763
   844.1000      7.9070      2.5414      0.1587      6.5840     86.2180     24.3108
   844.2000      7.9070      2.5448      0.1550      6.3763     85.0795     24.0158
   844.3000      7.9178      2.5213      0.1510      7.8024     81.0494     23.7235
   844.4000      7.9178      2.4867      0.1001      9.8976     76.0294     23.7450
   844.5000      7.8503      2.4637      0.0758     11.2909     73.1685     23.8247
   844.6000      7.8503      2.4572      0.0576     11.6875     73.8308     23.5746
   844.7000      7.8503      2.4556      0.0364     11.7796     76.3651     23.0626
   844.8000      7.8376      2.4512      0.0680     12.0489     79.6299     22.4298
   844.9000      7.8376      2.4478      0.0406     12.2570     83.4948     21.9172
   845.0000      7.7904      2.4511      0.1089     12.0529     86.0398     21.7660
   845.1000      7.7904      2.4612      0.1014     11.4412     86.3781     21.7910
