~Version Information
VERS.                      2.0: CWLS Log ASCII Standard - VERSION 2.0
WRAP.                       NO: One line per depth step
~Well Information Block
STRT.FT               240.0000: 
STOP.FT              1159.2500: 
STEP.FT                 0.2500: 
NULL.                -999.2500: 
COMP.          Pioneer Natural Resources: COMPANY
WELL.               Ryan 41-17: WELL
FLD.           Purgatoire River: FIELD
LOC.           822' FNL & 532' FEL--: LOCATION
CNTY.               Las Animas: COUNTY
SRVC.                Patterson: SERVICE COMPANY
DATE.          Thu Mar 16 16:50:09 2006: LOG DATE
UWI.           05 071 08719 00: UNIQUE WELL ID
STAT.                 Colorado: STATE
~Curve Information Block
DEPT.FT            0 000 00 00: Depth
SN.Ohm-m                      : IEL Short Normal
SP.mV                         : IEL Spontaneous Potential
DIR.Ohm-m                     : IEL Induction Resistivity
GR.GAPI                       : Gamma Ray
~Parameter Information Block
~A  Depth        SN          SP         DIR          GR     
# ...
   307.0000   2000.0000   2000.0000     11.9081    122.0014
   307.2500   2000.0000   2000.0000     11.6524    123.8825
   307.5000   2000.0000   2000.0000     11.4175    126.0388
   307.7500   2000.0000   2000.0000     11.1815    126.8694
   308.0000   2000.0000   2000.0000     10.9246    127.1738
   308.2500   2000.0000   2000.0000     10.6371    127.0065
   308.5000   2000.0000   2000.0000     10.3236    126.9515
   308.7500   2000.0000   2000.0000      9.9990    127.3081
   309.0000   2000.0000   2000.0000      9.6799    128.1667
   309.2500   2000.0000   2000.0000      9.3786    128.6166
   309.5000   2000.0000   2000.0000      9.1011    129.0024
   309.7500   2000.0000   2000.0000      8.8496    129.3193
   310.0000   2000.0000   2000.0000      8.6244    130.1027
   310.2500   2000.0000   2000.0000      8.4245    130.5946
   310.5000   2000.0000   2000.0000      8.2473    130.8900
   310.7500   2000.0000   2000.0000      8.0889    131.0133
   311.0000   2000.0000   2000.0000      7.9447    131.9561
   311.2500   2000.0000   2000.0000      7.8116    133.2475
   311.5000   2000.0000   2000.0000      7.6875    135.4088
   311.7500   2000.0000   2000.0000      7.5720    136.4410
   312.0000   2000.0000   2000.0000      7.4655    137.2364
   312.2500   2000.0000   2000.0000      7.3685    137.6013
   312.5000   2000.0000   2000.0000      7.2818    138.3298
   312.7500   2000.0000   2000.0000      7.2062    138.8062
   313.0000   2000.0000   2000.0000      7.1431    138.7103
   313.2500   2000.0000   2000.0000      7.0943    137.6393
   313.5000   2000.0000   2000.0000      7.0624    134.5744
   313.7500   2000.0000   2000.0000      7.0493    132.2597
   314.0000   2000.0000   2000.0000      7.0565    129.8810
   314.2500   2000.0000   2000.0000      7.0833    129.3613
   314.5000   2000.0000   2000.0000      7.1267    129.5018
   314.7500   2000.0000   2000.0000      7.1802    129.6185
   315.0000   2000.0000   2000.0000      7.2344    129.5504
   315.2500   2000.0000   2000.0000      7.2784    129.5411
   315.5000   2000.0000   2000.0000      7.3027    129.7129
   315.7500   2000.0000   2000.0000      7.3014    129.7950
   316.0000   2000.0000   2000.0000      7.2733    129.7776
   316.2500   2000.0000   2000.0000      7.2212    129.8943
   316.5000   2000.0000   2000.0000      7.1505    130.7557
   316.7500   2000.0000   2000.0000      7.0669    131.8363
   317.0000   2000.0000   2000.0000      6.9755    133.6610
   317.2500   2000.0000   2000.0000      6.8809    134.5126
   317.5000   2000.0000   2000.0000      6.7881    134.7680
   317.7500   2000.0000   2000.0000      6.7037    134.3662
   318.0000   2000.0000   2000.0000      6.6348    133.3405
   318.2500   2000.0000   2000.0000      6.5878    132.6175
   318.5000   2000.0000   2000.0000      6.5662    132.0175
   318.7500   2000.0000   2000.0000      6.5710    132.2424
   319.0000   2000.0000   2000.0000      6.6012    133.3089
   319.2500   2000.0000   2000.0000      6.6553    133.8497
   319.5000   2000.0000   2000.0000      6.7327    133.2174
   319.7500   2000.0000   2000.0000      6.8329    131.6855
   320.0000   2000.0000   2000.0000      6.9537    128.5429
   320.2500   2000.0000   2000.0000      7.0901    126.5133
   320.5000   2000.0000   2000.0000      7.2350    124.0545
   320.7500   2000.0000   2000.0000      7.3809    122.7982
   321.0000   2000.0000   2000.0000      7.5219    121.5752
   321.2500   2000.0000   2000.0000      7.6547    121.3188
   321.5000   2000.0000   2000.0000      7.7774    121.6352
   321.7500   2000.0000   2000.0000      7.8897    122.0562
   322.0000   2000.0000   2000.0000      7.9927    122.8032
   322.2500   2000.0000   2000.0000      8.0890    123.4511
   322.5000   2000.0000   2000.0000      8.1808    124.6380
   322.7500   2000.0000   2000.0000      8.2689    125.3643
   323.0000   2000.0000   2000.0000      8.3515    126.0037
   323.2500   2000.0000   2000.0000      8.4250    126.1520
   323.5000   2000.0000   2000.0000      8.4849    126.3802
   323.7500   2000.0000   2000.0000      8.5270    126.7608
   324.0000   2000.0000   2000.0000      8.5476    127.6009
   324.2500   2000.0000   2000.0000      8.5449    128.0089
   324.5000   2000.0000   2000.0000      8.5187    127.5915
   324.7500   2000.0000   2000.0000      8.4713    126.2559
   325.0000   2000.0000   2000.0000      8.4067    122.8001
   325.2500   2000.0000   2000.0000      8.3303    120.2593
   325.5000   2000.0000   2000.0000      8.2483    118.0260
   325.7500   2000.0000   2000.0000      8.1660    118.5005
   326.0000   2000.0000   2000.0000      8.0862    122.3985
   326.2500   2000.0000   2000.0000      8.0090    126.3717
   326.5000   2000.0000   2000.0000      7.9330    132.1646
   326.7500   2000.0000   2000.0000      7.8583    134.6392
   327.0000   2000.0000   2000.0000      7.7884    135.1115
   327.2500   2000.0000   2000.0000      7.7300    133.4396
   327.5000   2000.0000   2000.0000      7.6912    129.3823
   327.7500   2000.0000   2000.0000      7.6789    126.6393
   328.0000   2000.0000   2000.0000      7.6988    123.6500
   328.2500   2000.0000   2000.0000      7.7552    122.7371
   328.5000   2000.0000   2000.0000      7.8528    123.1120
   328.7500   2000.0000   2000.0000      7.9962    124.2460
   329.0000   2000.0000   2000.0000      8.1887    126.0117
   329.2500   2000.0000   2000.0000      8.4291    126.3571
   329.5000   2000.0000   2000.0000      8.7101    124.7906
   329.7500   2000.0000   2000.0000      9.0193    122.3532
   330.0000   2000.0000   2000.0000      9.3440    117.0926
   330.2500   2000.0000   2000.0000      9.6764    113.0981
   330.5000   2000.0000   2000.0000     10.0146    107.8570
   330.7500   2000.0000   2000.0000     10.3597    105.5886
   331.0000   2000.0000   2000.0000     10.7071    104.2860
   331.2500   2000.0000   2000.0000     11.0397    104.5876
   331.5000   2000.0000   2000.0000     11.3263    106.4554
   331.7500   2000.0000   2000.0000     11.5286    108.4762
   332.0000   2000.0000   2000.0000     11.6158    112.0811
   332.2500   2000.0000   2000.0000     11.5781    114.4411
   332.5000   2000.0000   2000.0000     11.4308    117.5135
   332.7500   2000.0000   2000.0000     11.2054    119.2832
   333.0000   2000.0000   2000.0000     10.9353    121.7937
   333.2500   2000.0000   2000.0000     10.6470    123.4852
   333.5000   2000.0000   2000.0000     10.3584    126.0303
   333.7500   2000.0000   2000.0000     10.0830    127.6199
   334.0000   2000.0000   2000.0000      9.8330    129.4460
   334.2500   2000.0000   2000.0000      9.6204    129.8736
   334.5000   2000.0000   2000.0000      9.4559    128.6382
   334.7500   2000.0000   2000.0000      9.3479    126.6230
   335.0000   2000.0000   2000.0000      9.3009    122.9725
   335.2500   2000.0000   2000.0000      9.3148    120.8982
   335.5000   2000.0000   2000.0000      9.3850    118.6803
   335.7500   2000.0000   2000.0000      9.5022    117.3377
   336.0000   2000.0000   2000.0000      9.6540    114.4442
   336.2500   2000.0000   2000.0000      9.8248    111.6573
   336.5000   2000.0000   2000.0000      9.9978    106.8628
   336.7500   2000.0000   2000.0000     10.1568    104.1905
   337.0000   2000.0000   2000.0000     10.2876    102.5373
   337.2500   2000.0000   2000.0000     10.3788    103.2897
   337.5000   2000.0000   2000.0000     10.4211    106.3797
   337.7500   2000.0000   2000.0000     10.4071    108.9429
   338.0000   2000.0000   2000.0000     10.3336    112.3227
   338.2500   2000.0000   2000.0000     10.2030    113.6917
   338.5000   2000.0000   2000.0000     10.0235    113.8736
   338.7500   2000.0000   2000.0000      9.8076    113.0269
   339.0000   2000.0000   2000.0000      9.5696    111.7632
   339.2500   2000.0000   2000.0000      9.3226    111.6844
   339.5000   2000.0000   2000.0000      9.0762    112.7364
   339.7500   2000.0000   2000.0000      8.8372    113.6769
   340.0000   2000.0000   2000.0000      8.6102    114.8355
   340.2500   2000.0000   2000.0000      8.3994    115.5321
