~Version Information
VERS.                      2.0: CWLS Log ASCII Standard - VERSION 2.0
WRAP.                       NO: One line per depth step
~Well Information Block
STRT.FT               196.3000: 
STOP.FT              1631.0000: 
STEP.FT                 0.1000: 
NULL.                -999.2500: 
COMP.          Petrogulf Corporation: COMPANY
WELL.             State 16-44R: WELL
FLD.           Purgatoire River: FIELD
LOC.           632' FSL & 223' FEL--: LOCATION
PROV.                 Colorado: PROVINCE
CNTY.               Las Animas: COUNTRY
SRVC.                Patterson: SERVICE COMPANY
DATE.          Fri Oct 21 14:20:18 2005: LOG DATE
UWI.           05 071 08457 00: UNIQUE WELL ID
~Curve Information Block
DEPT.FT            0 000 00 00: Depth
DCAL.in                       : CDL Caliper
RHOB.g/cc                     : CDL Bulk Density
RHOC.g/cc                     : CDL Density Correction
DPOR.pu                       : CDL Density Porosity
NPOR.pu                       : Neutron Porosity
GR.GAPI                       : Gamma Ray
~Parameter Information Block
~A  Depth       DCAL        RHOB        RHOC        DPOR        NPOR         GR     
# ...
   388.3000      8.0680      2.5153      0.0427      8.1625     25.6944    123.4636
   388.4000      8.0680      2.5117      0.0162      8.3789     25.6861    126.6555
   388.5000      8.0676      2.5147      0.0801      8.1998     25.3605    130.0835
   388.6000      8.0676      2.5099      0.0312      8.4901     25.1190    132.3175
   388.7000      8.0676      2.4984      0.0412      9.1852     25.3175    131.2273
   388.8000      8.0663      2.4921      0.0361      9.5674     25.5583    127.7496
   388.9000      8.0663      2.4991     -0.0058      9.1436     25.3639    124.3791
   389.0000      8.0654      2.5173      0.0682      8.0396     24.8076    122.0862
   389.1000      8.0654      2.5295      0.0750      7.3052     24.4177    119.3719
   389.2000      8.0654      2.5288      0.0451      7.3469     24.4466    115.1857
   389.3000      8.0669      2.5229      0.0199      7.7025     24.4015    111.5705
   389.4000      8.0669      2.5084      0.0736      8.5824     24.0621    113.0874
   389.5000      8.0701      2.4819      0.0029     10.1884     24.0175    118.5479
   389.6000      8.0701      2.4609      0.0190     11.4613     24.3478    121.9160
   389.7000      8.0701      2.4544      0.0288     11.8543     24.6133    121.8064
   389.8000      8.0716      2.4520      0.0102     12.0000     25.0665    119.6042
   389.9000      8.0716      2.4494      0.0162     12.1600     25.6727    118.3555
   390.0000      8.0710      2.4478      0.0214     12.2531     25.6146    122.1088
   390.1000      8.0710      2.4428      0.0291     12.5596     24.9850    128.5119
   390.2000      8.0710      2.4331      0.0041     13.1441     24.6976    133.0703
   390.3000      8.0704      2.4255      0.0025     13.6068     24.9697    137.4069
   390.4000      8.0704      2.4275     -0.0159     13.4820     25.1631    139.5169
   390.5000      8.0706      2.4379      0.0262     12.8566     24.6689    132.7366
   390.6000      8.0706      2.4425      0.0602     12.5735     23.6088    120.5183
   390.7000      8.0706      2.4392      0.0396     12.7774     22.7105    112.9147
   390.8000      8.0708      2.4381      0.0465     12.8409     22.3594    111.8658
   390.9000      8.0708      2.4388      0.0454     12.7987     22.1572    113.4253
   391.0000      8.0707      2.4432      0.0290     12.5358     21.8452    116.7319
   391.1000      8.0707      2.4653      0.0762     11.1942     21.7059    119.8307
   391.2000      8.0707      2.5011      0.0830      9.0237     21.8436    117.4422
   391.3000      8.0704      2.5275      0.1279      7.4214     22.0473    110.6490
   391.4000      8.0704      2.5335      0.1217      7.0581     22.2132    106.1998
   391.5000      8.0700      2.5243      0.1180      7.6166     22.4982    104.0272
   391.6000      8.0700      2.5103      0.0759      8.4676     22.7361    102.7920
   391.7000      8.0700      2.5048      0.1038      8.8007     22.5975    105.3033
   391.8000      8.0698      2.5095      0.0782      8.5130     22.5457    109.6964
   391.9000      8.0698      2.5092      0.1062      8.5316     23.1576    111.2848
   392.0000      8.0718      2.4922      0.0738      9.5636     24.1918    109.2140
   392.1000      8.0718      2.4660      0.0208     11.1511     25.2235    105.7599
   392.2000      8.0718      2.4440      0.0255     12.4825     26.0643    102.6688
   392.3000      8.0815      2.4341     -0.0034     13.0863     26.4798     99.3971
   392.4000      8.0815      2.4357      0.0131     12.9892     26.4491     97.9683
   392.5000      8.1004      2.4397      0.0490     12.7442     26.2839    102.8783
   392.6000      8.1004      2.4382      0.0744     12.8386     26.1600    111.7055
   392.7000      8.1004      2.4286      0.0685     13.4193     25.8133    116.7715
   392.8000      8.1182      2.4154      0.0341     14.2206     25.0759    115.2373
   392.9000      8.1182      2.4057      0.0372     14.8048     24.2417    113.3724
   393.0000      8.1252      2.3947      0.0770     15.4746     23.6710    118.0628
   393.1000      8.1252      2.3664      0.1154     17.1862     23.5050    127.1588
   393.2000      8.1252      2.3243      0.0752     19.7370     23.7135    131.2028
   393.3000      8.1266      2.2934      0.0820     21.6118     23.9569    126.0800
   393.4000      8.1266      2.2858      0.0923     22.0740     23.6985    120.0044
   393.5000      8.1260      2.2948      0.1254     21.5284     23.0114    120.9739
   393.6000      8.1260      2.3144      0.1633     20.3422     22.4208    125.1316
   393.7000      8.1260      2.3459      0.1573     18.4319     22.0340    126.8946
   393.8000      8.1227      2.3867      0.2019     15.9573     21.4248    128.4997
   393.9000      8.1227      2.4224      0.2246     13.7941     20.4351    129.9533
   394.0000      8.1174      2.4403      0.2859     12.7100     19.4940    129.3905
   394.1000      8.1174      2.4373      0.2641     12.8925     18.9161    128.2101
   394.2000      8.1174      2.4263      0.1731     13.5592     18.6805    126.3809
   394.3000      8.1096      2.4313      0.1122     13.2527     18.6677    124.7849
   394.4000      8.1096      2.4576      0.1473     11.6615     18.8388    127.4537
   394.5000      8.1012      2.4831      0.1465     10.1161     19.3685    132.6939
   394.6000      8.1012      2.4900      0.1499      9.6944     20.2120    134.5710
   394.7000      8.1012      2.4824      0.0902     10.1573     21.0813    132.5603
   394.8000      8.0964      2.4788      0.0413     10.3749     21.8363    128.7000
   394.9000      8.0964      2.4909      0.0828      9.6412     22.4379    123.8921
   395.0000      8.0969      2.5084      0.1151      8.5803     22.7218    117.4899
   395.1000      8.0969      2.5219      0.0880      7.7609     22.5804    109.2949
   395.2000      8.0969      2.5347      0.1049      6.9894     22.0286    103.3154
   395.3000      8.0995      2.5461      0.0992      6.2985     21.3125    103.2202
   395.4000      8.0995      2.5507      0.0791      6.0187     21.0886    103.9115
   395.5000      8.0999      2.5450      0.0937      6.3642     21.6256     99.1963
   395.6000      8.0999      2.5302      0.0697      7.2619     22.2080     93.3359
   395.7000      8.0999      2.5127      0.0725      8.3233     22.1565     92.8697
   395.8000      8.0971      2.5048      0.0404      8.7981     21.8267     96.6165
   395.9000      8.0971      2.5188      0.0253      7.9543     21.8058     98.5506
   396.0000      8.0925      2.5460      0.0771      6.3055     22.1196     97.5291
   396.1000      8.0925      2.5658      0.0837      5.1008     22.5775     97.1811
   396.2000      8.0925      2.5711      0.0676      4.7844     23.0756     98.4314
   396.3000      8.0894      2.5641      0.0785      5.2032     23.3623    100.0084
   396.4000      8.0894      2.5499      0.0631      6.0662     23.3586    101.2264
   396.5000      8.0895      2.5374      0.0532      6.8264     23.6810    101.7966
   396.6000      8.0895      2.5335      0.0289      7.0626     24.6855     99.2612
   396.7000      8.0895      2.5372      0.0249      6.8338     25.9072     92.6584
   396.8000      8.0905      2.5467      0.0058      6.2599     26.8971     88.4659
   396.9000      8.0905      2.5575     -0.0078      5.6032     27.4371     92.6529
   397.0000      8.0905      2.5566      0.0462      5.6619     27.4348    104.2198
   397.1000      8.0905      2.5395      0.0052      6.6964     27.3391    115.9572
   397.2000      8.0905      2.5169      0.0597      8.0696     27.5890    120.3961
   397.3000      8.0920      2.4901      0.0096      9.6886     27.9017    119.7550
   397.4000      8.0920      2.4595      0.0271     11.5457     27.7863    120.5704
   397.5000      8.0952      2.4392     -0.0035     12.7785     27.2806    124.9747
   397.6000      8.0952      2.4450     -0.0077     12.4261     26.7625    129.7008
   397.7000      8.0952      2.4667      0.0473     11.1066     26.2725    129.8673
   397.8000      8.1054      2.4808      0.0458     10.2537     25.6376    126.2971
