~Version Information
VERS.                      2.0: CWLS Log ASCII Standard - VERSION 2.0
WRAP.                       NO: One line per depth step
~Well Information Block
STRT.FT                10.0000: 
STOP.FT              1380.7500: 
STEP.FT                 0.2500: 
NULL.                -999.2500: 
COMP.          Pioneer Natural Resources: COMPANY
WELL.          Baa Baa 34-1 Tr: WELL
FLD.           Purgatoire River: FIELD
LOC.           785' FSL & 2304' FEL: LOCATION
CNTY.               Las Animas: COUNTY
SRVC.                Patterson: SERVICE COMPANY
DATE.          Tue Mar 07 13:08:19 2006: LOG DATE
UWI.           05 071 08710 00: UNIQUE WELL ID
STAT.                 Colorado: STATE
~Curve Information Block
DEPT.FT            0 000 00 00: Depth
GR.GAPI                       : Gamma Ray
CCL.                          : Casing Collar Locator
TT3.usec                      : CBL 3' Travel Time
AMP3.mV                       : CBL 3' Amplitude
~Parameter Information Block
~A  Depth        GR         CCL         TT3         AMP3    
# ...
   177.5000     76.4982      0.0000    834.9216     14.2383
   177.7500     75.3329      0.0000    832.8169     14.2655
   178.0000     75.2008      0.0000    830.4272     14.3749
   178.2500     75.2912      0.0000    828.9962     14.5296
   178.5000     75.2575      0.0000    828.0081     14.6807
   178.7500     75.2601      0.0000    826.4302     14.7866
   179.0000     75.4565      0.0000    824.2193     14.8211
   179.2500     75.6423      0.0000    822.2116     14.7849
   179.5000     75.4037      0.0000    821.1021     14.7158
   179.7500     74.5897      0.0000    821.0621     14.6798
   180.0000     73.7025      0.0000    822.1899     14.7425
   180.2500     73.6447      0.0000    824.9426     14.9395
   180.5000     74.8171      0.0000    829.8967     15.2579
   180.7500     76.5281      0.0000    836.9255     15.6339
   181.0000     77.5153      0.0000    844.6509     15.9845
   181.2500     77.0149      0.0000    850.9564     16.2622
   181.5000     75.2452      0.0000    854.2761     16.4855
   181.7500     72.9416      0.0000    854.5255     16.7166
   182.0000     70.6278      0.0000    852.9547     17.0233
   182.2500     68.4793      0.0000    850.9750     17.4643
   182.5000     66.8134      0.0000    848.7379     18.0764
   182.7500     66.3233      0.0000    844.8703     18.8322
   183.0000     67.5023      0.0000    837.9141     19.5969
   183.2500     70.0172      0.0000    827.9651     20.1536
   183.5000     73.0844      0.0000    816.8594     20.3140
   183.7500     76.3592      0.0000    807.2407     20.0413
   184.0000     79.9590      0.0000    801.5559     19.4833
   184.2500     83.5256      0.0000    801.0026     18.8785
   184.5000     85.8239      0.0000    804.6775     18.4093
   184.7500     85.6711      0.0000    810.0602     18.1240
   185.0000     83.0409      0.0000    814.7841     17.9770
   185.2500     79.0066      0.0000    817.9135     17.9179
   185.5000     74.8329      0.0000    819.7496     17.9292
   185.7500     71.3724      0.0000    821.0141     17.9934
   186.0000     69.1596      0.0000    822.4550     18.0554
   186.2500     68.6588      0.0000    824.8095     18.0426
   186.5000     70.1730      0.0000    828.4520     17.9247
   186.7500     73.4963      0.0000    832.6708     17.7513
   187.0000     77.7466      0.0000    835.5626     17.6299
   187.2500     81.6594      0.0000    835.3201     17.6657
   187.5000     84.1349      0.0000    831.8316     17.9057
   187.7500     84.6625      0.0000    826.6864     18.3232
   188.0000     83.5187      0.0000    821.5724     18.8435
   188.2500     81.5999      0.0000    817.0207     19.3819
   188.5000     79.7989      0.0000    812.7058     19.8636
   188.7500     78.5113      0.0000    808.4129     20.2309
   189.0000     78.0019      0.0000    804.2318     20.4572
   189.2500     79.0714      0.0000    800.0423     20.5576
   189.5000     82.6374      0.0000    795.7004     20.5765
   189.7500     88.2787      0.0000    792.0793     20.5605
   190.0000     93.5948      0.0000    791.1182     20.5373
   190.2500     95.8005      0.0000    794.0916     20.5003
   190.5000     94.4189      0.0000    800.1019     20.4044
   190.7500     92.0266      0.0000    806.7216     20.1909
   191.0000     91.8722      0.0000    811.9079     19.8293
   191.2500     94.8520      0.0000    815.0710     19.3338
   191.5000     99.0310      0.0000    816.6924     18.7381
   191.7500    101.7728      0.0000    817.4868     18.0681
   192.0000    101.8605      0.0000    817.9416     17.3474
   192.2500     99.7743      0.0000    818.2811     16.6168
   192.5000     96.6418      0.0000    818.5742     15.9344
   192.7500     93.3389      0.0000    818.8226     15.3534
   193.0000     90.3303      0.0000    818.9996     14.9001
   193.2500     87.8070      0.0000    819.1274     14.5638
   193.5000     85.7329      0.0000    819.4269     14.3044
   193.7500     83.9454      0.0000    820.4409     14.0704
   194.0000     82.3554      0.0000    822.8369     13.8029
   194.2500     81.0547      0.0000    826.8373     13.4213
   194.5000     80.2725      0.0000    832.0579     12.8238
   194.7500     80.2733      0.0000    838.4652     11.9360
   195.0000     81.1266      0.0000    847.1562     10.7780
   195.2500     82.3681      0.0000    859.0399      9.5003
   195.5000     83.0616      0.0000    873.1669      8.3548
   195.7500     82.4862      0.0000    887.4750      7.5835
   196.0000     80.7945      0.0000    899.5677      7.2794
   196.2500     78.9512      0.0000    905.0156      7.3486
   196.5000     78.0875     -3.0000    898.3322      7.6210
   196.7500     78.8244     -3.0000    879.8128      8.0038
   197.0000     80.8816      0.0000    858.8094      8.5624
   197.2500     83.2312      0.0000    845.4405      9.4762
   197.5000     84.8128      0.0000    840.2776     10.8693
   197.7500     85.2652      0.0000    835.6970     12.6207
   198.0000     85.0643      0.0000    825.8301     14.3526
   198.2500     85.0671      0.0000    811.7386     15.6470
   198.5000     85.8759      0.0000    797.9037     16.2880
   198.7500     87.4039      0.0000    787.2933     16.3250
   199.0000     88.9388      0.0000    780.3622     15.9736
   199.2500     89.8050      0.0000    776.3909     15.4723
   199.5000     90.0140      0.0000    774.4542     14.9833
   199.7500     90.0269      0.0000    773.7004     14.5709
   200.0000     89.8646      0.0000    773.4997     14.2404
   200.2500     88.8174      0.0000    773.5089     13.9893
   200.5000     86.2123      0.0000    773.6078     13.8333
   200.7500     82.3083      0.0000    773.8392     13.7994
   201.0000     78.3017      0.0000    774.4481     13.8970
   201.2500     75.4240      0.0000    776.0163     14.0960
   201.5000     74.0445      0.0000    779.5575     14.3320
   201.7500     73.6992      0.0000    786.2920     14.5413
   202.0000     73.8412      0.0000    796.9933     14.6989
   202.2500     74.2872      0.0000    811.2947     14.8345
   202.5000     74.9647      0.0000    827.6715     15.0056
   202.7500     75.5869      0.0000    844.3631     15.2433
   203.0000     75.8844      0.0000    861.0223     15.5100
   203.2500     76.0714      0.0000    880.2708     15.7141
   203.5000     76.7289      0.0000    907.7214     15.7748
   203.7500     77.9515      0.0000    947.8775     15.6799
   204.0000     78.8091      0.0000    995.9988     15.4872
   204.2500     78.0421      0.0000   1034.3018     15.2802
   204.5000     75.3925      0.0000   1042.4536     15.1244
   204.7500     72.1484      0.0000   1015.6566     15.0487
   205.0000     70.2814      0.0000    969.1443     15.0500
   205.2500     70.8201      0.0000    923.7540     15.1000
   205.5000     72.8484      0.0000    891.3707     15.1476
   205.7500     74.2399      0.0000    873.6091     15.1258
   206.0000     73.6451      0.0000    867.1016     14.9859
   206.2500     71.7366      0.0000    867.0151     14.7494
   206.5000     70.4282      0.0000    869.0343     14.5230
   206.7500     71.0471      0.0000    870.6179     14.4347
   207.0000     73.4014      0.0000    870.8669     14.5404
   207.2500     76.3341      0.0000    870.2430     14.7926
   207.5000     78.8283      0.0000    870.7090     15.0912
   207.7500     80.6820      0.0000    874.3026     15.3519
   208.0000     82.5047      0.0000    880.4885     15.5243
   208.2500     84.9658      0.0000    885.7041     15.5715
   208.5000     87.7438      0.0000    886.6513     15.4670
   208.7500     89.4222      0.0000    884.4333     15.2233
   209.0000     88.8230      0.0000    885.9984     14.9090
   209.2500     86.3822      0.0000    900.6622     14.6127
   209.5000     83.9651      0.0000    931.3452     14.3773
   209.7500     83.3158      0.0000    966.3007     14.1762
   210.0000     84.7352      0.0000    983.2916     13.9616
   210.2500     87.1138      0.0000    967.9633     13.7330
   210.5000     89.0133      0.0000    927.3198     13.5442
   210.7500     89.7340      0.0000    881.9594     13.4452
