~Version Information
VERS.                      2.0: CWLS Log ASCII Standard - VERSION 2.0
WRAP.                       NO: One line per depth step
~Well Information Block
STRT.FT               410.0000: 
STOP.FT              1252.0000: 
STEP.FT                 0.2500: 
NULL.                -999.2500: 
COMP.          Petrogulf Corporation: COMPANY
WELL.           Parsons 15-23R: WELL
FLD.           Purgatorie River: FIELD
LOC.           2244' FSL & 1932' FWL: LOCATION
PROV.                 Colorado: PROVINCE
CNTY.               Las Animas: COUNTRY
SRVC.                Patterson: SERVICE COMPANY
DATE.          Mon Sep 12 10:30:11 2005: LOG DATE
UWI.                          : UNIQUE WELL ID
~Curve Information Block
DEPT.FT            0 000 00 00: Depth
SP.mV                         : DIL Spontaneous Potential
RILD.Ohm-m                    : DIL Deep Resistivity
RILM.Ohm-m                    : DIL Medium Resistivity
RLL3.Ohm-m                    : DIL Shallow Resistivity
GR.GAPI                       : Gamma Ray
~Parameter Information Block
~A  Depth        SP         RILD        RILM        RLL3         GR     
# ...
  1054.0000    221.6917     10.1399     11.6057     14.1404    130.8282
  1054.2500    222.1504      9.7865     11.1367     14.4120    135.9621
  1054.5000    222.3570      9.4535     10.7561     13.4848    133.3168
  1054.7500    222.7167      9.4532     10.5804     12.6377    163.6624
  1055.0000    222.8731      9.3577     10.1280     12.3261    155.4854
  1055.2500    222.9533      9.1462      9.7734     11.0573    150.5878
  1055.5000    222.8381      8.9721      9.3164      9.2394    145.7870
  1055.7500    222.5361      8.9804      9.1504      8.4922    146.5735
  1056.0000    222.0723      8.8743      9.0055      9.7588    160.4023
  1056.2500    221.5674      8.9250      8.6351     11.6459    151.5095
  1056.5000    220.8134      9.1524      8.4185     11.1436    165.9027
  1056.7500    220.1123      9.3597      8.3859      8.8433    163.8506
  1057.0000    219.2303      9.4231      8.3495      7.1730    151.7923
  1057.2500    218.3146      9.3353      8.5920      6.9102    162.3984
  1057.5000    217.4745      9.5585      9.2491      7.9406    134.8073
  1057.7500    216.8557      9.7417     10.1457     11.0024    129.8865
  1058.0000    216.4115      9.8754     11.1508     18.1115     96.6397
  1058.2500    216.3682      9.9046     12.1134     27.9662     95.6439
  1058.5000    216.3445      9.8730     12.7336     30.9349     89.7357
  1058.7500    216.5112      9.6200     13.1180     29.4731     94.2993
  1059.0000    216.8739      9.5798     13.1470     29.4631     94.7097
  1059.2500    217.1227      9.6178     12.7907     27.3037    109.0602
  1059.5000    217.1147      9.8558     12.2141     22.7253    131.3041
  1059.7500    216.9735     10.1262     11.6641     16.4654    152.0338
  1060.0000    216.6732     10.0689     11.1505     11.5154    159.4272
  1060.2500    216.1477     10.0297     10.7893      9.4294    170.2492
  1060.5000    215.7425      9.8926     10.3359      9.3197    161.3682
  1060.7500    214.9857      9.5772     10.0158      9.5304    149.4181
  1061.0000    214.4337      9.4008      9.7901      9.4565    180.1339
  1061.2500    213.7620      9.0234      9.3195      9.4681    179.9822
  1061.5000    212.9760      8.7035      8.9744      9.3862    161.4669
  1061.7500    212.2430      8.2310      8.6335      9.2099    165.7642
  1062.0000    211.7336      8.1024      8.2681      8.7338    168.7462
  1062.2500    211.6032      7.8459      8.0462      8.4057    171.3727
  1062.5000    211.7201      7.6471      7.9464      8.0001    180.6523
  1062.7500    212.0234      7.5267      7.9112      8.2319    171.0720
  1063.0000    212.3574      7.3310      7.8275      9.3684    162.9599
  1063.2500    212.9962      7.3261      7.7096      9.9961    156.1694
  1063.5000    213.8619      7.2118      7.5365      9.6052    177.1270
  1063.7500    214.2076      7.1674      7.4792      9.0185    169.1799
  1064.0000    214.1318      7.1330      7.3386      8.7390    168.7730
  1064.2500    213.8199      7.0626      7.2291      8.7602    164.6564
  1064.5000    213.6078      7.1100      7.2501      8.8486    169.0623
  1064.7500    213.4544      7.1703      7.1762      8.6783    166.3995
  1065.0000    213.2967      7.2194      7.1733      8.5886    152.6308
  1065.2500    213.1019      7.2585      7.2022      8.3188    165.8601
  1065.5000    212.8089      7.1905      7.3576      7.9052    173.0892
  1065.7500    212.6125      7.1775      7.3183      7.7108    168.8316
  1066.0000    212.5916      7.0343      7.4760      8.0603    180.8729
  1066.2500    212.8652      7.0608      7.5532      9.0384    178.8820
  1066.5000    213.4302      7.0120      7.6220      9.5186    153.8272
  1066.7500    214.1747      6.9655      7.7025      9.8731    173.6272
  1067.0000    214.8876      6.8768      7.5471     10.2564    166.8187
  1067.2500    215.4432      6.8967      7.4420      9.6442    147.9678
  1067.5000    216.0951      6.8934      7.2713      9.0465    159.7940
  1067.7500    216.5893      6.9541      7.0530      8.3366    148.3883
  1068.0000    217.0759      7.0412      6.9658      7.9170    178.8680
  1068.2500    217.5058      7.0672      6.9262      7.5713    156.5462
  1068.5000    217.7191      7.0272      6.8943      7.8941    168.6088
  1068.7500    217.6237      7.1052      6.9105      7.7482    175.0159
  1069.0000    217.4572      7.1038      6.9424      7.6238    179.2043
  1069.2500    216.8839      7.0900      7.0677      7.9528    164.7972
  1069.5000    216.1414      7.2960      7.2114      8.2254    162.8925
  1069.7500    215.2567      7.3565      7.4192      8.6344    148.3817
  1070.0000    214.2197      7.3655      7.5516      8.8878    146.7448
  1070.2500    213.2623      7.5417      7.7403      9.1801    161.0973
  1070.5000    212.3560      7.7598      7.8710      9.8720    145.0373
  1070.7500    211.7996      7.9173      8.1467     10.0452    152.7473
  1071.0000    211.4037      8.1702      8.3331      9.5791    130.2221
  1071.2500    210.8402      8.4648      8.6281      9.1103    126.8763
  1071.5000    210.4272      8.6524      8.8648      9.0511    133.6466
  1071.7500    210.1732      8.8806      9.2628      9.8854    129.1621
  1072.0000    209.8312      9.0961      9.6706     10.8136    115.6937
  1072.2500    209.4454      9.2016     10.4075     12.1220    125.6519
  1072.5000    209.3029      9.2927     10.8468     13.8802    118.8860
  1072.7500    209.4966      9.2911     11.1210     16.9760    106.9147
  1073.0000    209.3224      9.3055     10.9867     19.1617    117.6208
  1073.2500    209.1434      9.5297     10.4212     16.2424    141.2747
  1073.5000    208.5842      9.6624     10.0739     11.8560    123.2791
  1073.7500    208.0040      9.8663      9.9460      9.7238    125.5321
  1074.0000    207.1758     10.2492      9.8393      8.6935    156.1009
  1074.2500    206.1269     10.7993     10.0955      8.0819    157.8618
  1074.5000    205.1197     11.2376     10.5497      8.0512    149.9646
  1074.7500    204.3394     11.2716     11.3307      8.8656    126.0818
  1075.0000    203.4771     11.3616     12.1688     11.6218    114.5736
  1075.2500    202.6124     11.4347     13.3129     17.4441     92.7916
  1075.5000    201.8534     11.2364     14.1358     25.8646     80.5947
  1075.7500    201.6035     11.2049     14.8391     35.9239     91.6160
  1076.0000    201.7375     11.3927     15.3197     41.2196     91.6954
  1076.2500    201.6350     11.4594     15.1717     41.8824     99.3951
  1076.5000    201.7956     11.4407     15.1056     40.3122    102.5498
  1076.7500    201.8399     11.4490     15.0309     31.1498    109.9265
  1077.0000    201.9774     11.4819     14.3514     19.9288    139.1543
  1077.2500    202.2864     11.4188     13.8706     15.0165    140.5322
  1077.5000    202.1595     11.5489     13.3354     14.2201    155.3165
  1077.7500    201.9779     11.1775     12.5793     13.6794    166.0248
  1078.0000    201.7559     11.3294     11.8165     12.9730    170.1703
  1078.2500    201.5313     11.4626     10.9889     11.8782    154.5228
  1078.5000    201.3081     11.3860     10.4467      9.9321    159.6079
  1078.7500    201.2718     11.3062     10.1984      8.5398    175.9006
  1079.0000    201.0920     11.4487     10.1427      7.7910    190.9699
  1079.2500    200.9638     11.3765     10.5080      7.8974    159.8050
  1079.5000    200.6686     11.3179     10.8924      9.0497    152.3898
  1079.7500    200.7249     11.3157     11.5647     11.5560    133.0831
  1080.0000    201.0695     11.3494     12.3314     14.6262    114.1851
  1080.2500    201.9996     11.5441     12.9622     17.5147    107.6821
  1080.5000    203.1240     11.7128     13.6442     20.1195    117.6248
  1080.7500    204.3059     11.7042     14.1150     21.5803    116.0668
  1081.0000    205.5058     11.9719     14.8988     18.8400    121.4799
  1081.2500    206.5204     12.1603     15.4104     17.0428    135.4168
  1081.5000    207.7101     12.4018     16.3373     18.3749    114.3869
  1081.7500    208.6544     12.5771     16.5560     21.6164    106.5536
