~Version Information
VERS.                      2.0: CWLS Log ASCII Standard - VERSION 2.0
WRAP.                       NO: One line per depth step
~Well Information Block
STRT.FT               233.8000: 
STOP.FT              1692.5000: 
STEP.FT                 0.1000: 
NULL.                -999.2500: 
COMP.          Pioneer Natural Resources: COMPANY
WELL.            Relay 12-7 Tr: WELL
FLD.           Purgatoire River: FIELD
LOC.           2025' FNL & 790' FWL: LOCATION
PROV.                 Colorado: PROVINCE
CNTY.               Las Animas: COUNTRY
SRVC.                Patterson: SERVICE COMPANY
DATE.          Mon Jan 16 13:23:17 2006: LOG DATE
UWI.           05 071 08603 00: UNIQUE WELL ID
~Curve Information Block
DEPT.FT            0 000 00 00: Depth
DCAL.in                       : CDL Caliper
RHOB.g/cc                     : CDL Bulk Density
RHOC.g/cc                     : CDL Density Correction
DPOR.pu                       : CDL Density Porosity
GR.GAPI                       : Gamma Ray
~Parameter Information Block
~A  Depth       DCAL        RHOB        RHOC        DPOR         GR     
# ...
   637.0000      8.0067      2.5616      0.0661      5.3546    105.2254
   637.1000      8.0067      2.5523      0.0336      5.9191    106.3698
   637.2000      8.0067      2.5498      0.1291      6.0730    107.0348
   637.3000      8.0042      2.5423      0.0676      6.5281    107.7669
   637.4000      8.0042      2.5345      0.0382      6.9997    108.7202
   637.5000      8.0011      2.5444      0.0527      6.3999    111.6074
   637.6000      8.0011      2.5634      0.1051      5.2501    117.4032
   637.7000      8.0011      2.5703      0.0694      4.8314    124.6684
   637.8000      7.9999      2.5655      0.1433      5.1218    133.6403
   637.9000      7.9999      2.5588      0.1063      5.5300    145.2016
   638.0000      8.0038      2.5569      0.1156      5.6440    156.5514
   638.1000      8.0038      2.5546      0.1749      5.7840    160.3244
   638.2000      8.0038      2.5314      0.1287      7.1905    153.0267
   638.3000      8.0264      2.4842      0.0759     10.0495    144.6437
   638.4000      8.0264      2.4448     -0.0283     12.4367    143.3186
   638.5000      8.0298      2.4346      0.0200     13.0517    143.9498
   638.6000      8.0298      2.4355      0.0172     12.9989    142.3090
   638.7000      8.0298      2.4280      0.0035     13.4559    139.4631
   638.8000      8.0305      2.4148      0.0118     14.2567    137.1589
   638.9000      8.0305      2.4132      0.0391     14.3490    136.0412
   639.0000      8.0393      2.4375      0.0303     12.8778    134.5850
   639.1000      8.0393      2.4750      0.1123     10.6032    135.3425
   639.2000      8.0393      2.4937      0.1490      9.4699    140.7851
   639.3000      8.0513      2.4770      0.1590     10.4866    145.8306
   639.4000      8.0513      2.4400      0.1200     12.7261    147.7496
   639.5000      8.0679      2.4148      0.0755     14.2564    148.2528
   639.6000      8.0679      2.4141      0.0782     14.2945    148.3350
   639.7000      8.0679      2.4204      0.1274     13.9169    151.2368
   639.8000      8.0990      2.4202      0.0382     13.9246    157.1512
   639.9000      8.0990      2.4261      0.0464     13.5716    158.1030
   640.0000      8.0563      2.4440      0.0991     12.4850    150.9194
   640.1000      8.0563      2.4605      0.1258     11.4833    142.9075
   640.2000      8.0563      2.4700      0.1362     10.9109    137.2920
   640.3000      8.0321      2.4748      0.2120     10.6160    133.0016
   640.4000      8.0321      2.4673      0.2060     11.0740    135.5858
   640.5000      8.0447      2.4498      0.1547     12.1335    142.2946
   640.6000      8.0447      2.4383      0.1731     12.8298    145.5280
   640.7000      8.0447      2.4338      0.1187     13.1003    150.0071
   640.8000      8.0579      2.4341      0.0954     13.0831    156.2221
   640.9000      8.0579      2.4457      0.1262     12.3815    154.8803
   641.0000      8.0626      2.4685      0.1484     10.9987    146.3641
   641.1000      8.0626      2.4917      0.1715      9.5945    138.1180
   641.2000      8.0626      2.5076      0.1729      8.6297    134.9775
   641.3000      8.0710      2.5194      0.1601      7.9161    137.2927
   641.4000      8.0710      2.5245      0.2496      7.6085    144.0282
   641.5000      8.0831      2.5165      0.2494      8.0931    153.2027
   641.6000      8.0831      2.5081      0.2074      8.5976    160.1120
   641.7000      8.0831      2.5177      0.1669      8.0179    159.1138
   641.8000      8.0671      2.5419      0.2148      6.5501    149.1047
   641.9000      8.0671      2.5645      0.1840      5.1795    136.9878
   642.0000      8.0733      2.5763      0.1629      4.4681    128.7513
   642.1000      8.0733      2.5769      0.1911      4.4320    124.7977
   642.2000      8.0733      2.5820      0.1503      4.1193    122.3223
   642.3000      8.0726      2.6060      0.2420      2.6675    119.7456
   642.4000      8.0726      2.6319      0.2585      1.0991    120.1319
   642.5000      8.0715      2.6328      0.2564      1.0418    125.3716
   642.6000      8.0715      2.5984      0.1921      3.1277    131.0639
   642.7000      8.0715      2.5415      0.0989      6.5756    132.1413
   642.8000      8.0653      2.4867      0.0288      9.8956    128.8325
   642.9000      8.0653      2.4472      0.0063     12.2924    122.4990
   643.0000      8.0634      2.4286     -0.0041     13.4202    115.8571
   643.1000      8.0634      2.4288      0.0331     13.4045    114.2555
   643.2000      8.0634      2.4381     -0.0056     12.8448    119.6740
   643.3000      8.0590      2.4547      0.0386     11.8391    128.5711
   643.4000      8.0590      2.4759      0.0426     10.5535    133.5348
   643.5000      8.0525      2.4929      0.0418      9.5188    129.6975
   643.6000      8.0525      2.5009      0.0667      9.0368    122.1017
   643.7000      8.0525      2.5016      0.0786      8.9960    116.9040
   643.8000      8.0378      2.5084      0.0246      8.5803    112.5998
   643.9000      8.0378      2.5281      0.0922      7.3869    109.7101
   644.0000      8.0224      2.5434      0.0980      6.4589    110.4653
   644.1000      8.0224      2.5419      0.1003      6.5514    110.8015
   644.2000      8.0224      2.5322      0.0568      7.1372    107.9340
   644.3000      8.0124      2.5190      0.0622      7.9387    107.0731
   644.4000      8.0124      2.4959      0.0233      9.3405    110.6386
   644.5000      7.9975      2.4713     -0.0086     10.8294    111.9913
   644.6000      7.9975      2.4623      0.0169     11.3729    107.8551
   644.7000      7.9975      2.4709     -0.0054     10.8561    103.7835
   644.8000      7.9999      2.4840      0.0312     10.0609    102.9048
   644.9000      7.9999      2.4878      0.0196      9.8314    103.1486
   645.0000      7.9989      2.4824      0.0223     10.1551    106.0754
   645.1000      7.9989      2.4767      0.0614     10.5009    112.2966
   645.2000      7.9989      2.4816      0.0028     10.2035    116.9457
   645.3000      8.0027      2.5022      0.0771      8.9602    117.6744
   645.4000      8.0027      2.5265      0.0250      7.4854    116.2727
   645.5000      7.9888      2.5396      0.0980      6.6890    115.6618
   645.6000      7.9888      2.5401      0.0559      6.6583    118.8997
   645.7000      7.9888      2.5388      0.0686      6.7423    124.5842
   645.8000      7.9711      2.5387      0.0928      6.7476    127.4799
   645.9000      7.9711      2.5359      0.0314      6.9179    126.9457
   646.0000      7.9732      2.5255      0.0323      7.5480    124.3716
   646.1000      7.9732      2.5066      0.0034      8.6939    118.0848
   646.2000      7.9732      2.4939     -0.0634      9.4590    110.0548
   646.3000      7.9707      2.4973      0.0169      9.2532    104.4792
   646.4000      7.9707      2.5075     -0.0002      8.6363    100.3636
   646.5000      7.9688      2.5197      0.0291      7.8999     96.7054
   646.6000      7.9688      2.5294      0.0616      7.3117     95.5785
   646.7000      7.9688      2.5299      0.0712      7.2774     96.7490
   646.8000      7.9707      2.5215      0.0792      7.7887     96.8360
   646.9000      7.9707      2.5045      0.0808      8.8188     95.9928
   647.0000      7.9699      2.4762      0.0466     10.5353     95.2020
   647.1000      7.9699      2.4400      0.0086     12.7248     93.3774
   647.2000      7.9699      2.4125      0.0282     14.3909     92.5371
   647.3000      7.9719      2.4073      0.0239     14.7099     94.0024
   647.4000      7.9719      2.4209      0.0664     13.8831     95.3359
   647.5000      7.9690      2.4424      0.0499     12.5813     94.6041
   647.6000      7.9690      2.4593      0.1066     11.5591     93.0619
   647.7000      7.9690      2.4567      0.0986     11.7162     94.2498
   647.8000      7.9562      2.4424      0.0521     12.5794     97.5672
   647.9000      7.9562      2.4440      0.0882     12.4850     98.1764
   648.0000      7.9542      2.4683      0.1120     11.0140     95.6246
   648.1000      7.9542      2.5046      0.0952      8.8126     94.4453
