~Version Information
VERS.                      2.0: CWLS Log ASCII Standard - VERSION 2.0
WRAP.                       NO: One line per depth step
~Well Information Block
STRT.FT               645.0000: 
STOP.FT              1320.0000: 
STEP.FT                 0.1000: 
NULL.                -999.2500: 
COMP.          Pioneer Natural Resources: COMPANY
WELL.          Rockfish 11-30 Tr: WELL
FLD.           Purgatoire River: FIELD
LOC.           1063' FNL & 1068' FWL: LOCATION
STAT.                 Colorado: State
CNTY.               Las Animas: COUNTY
CTRY. USA : Country
SECT. 30 : Section
TOWN. 32S : Township
RANG. 65W : Range
SRVC.                Patterson: SERVICE COMPANY
DATE.          Wed Nov 16 07:46:07 2005: LOG DATE
API.           05 071 08585 00: UNIQUE WELL ID
~Curve Information Block
DEPT.FT            0 000 00 00: Depth
DCAL.in                       : CDL Caliper
RHOB.g/cc                     : CDL Bulk Density
RHOC.g/cc                     : CDL Density Correction
DPOR.pu                       : CDL Density Porosity
GR.GAPI                       : Gamma Ray
NPOR.pu                       : Neutron Porosity
~Parameter Information Block
~A  Depth       DCAL        RHOB        RHOC        DPOR         GR         NPOR    
# ...
   817.8000      8.0928      2.3842      0.0980     16.1113    151.9389     25.9057
   817.9000      8.0928      2.4295      0.0564     13.3631    153.8024     25.6027
   818.0000      8.0407      2.4714      0.1321     10.8244    157.3525     25.3735
   818.1000      8.0407      2.4994      0.2195      9.1243    159.6383     25.7502
   818.2000      8.0407      2.5026      0.1893      8.9351    156.1897     26.4039
   818.3000      8.0142      2.4862      0.2252      9.9284    148.9864     26.7438
   818.4000      8.0142      2.4642      0.2264     11.2616    144.7565     26.6982
   818.5000      7.9996      2.4452      0.1335     12.4120    145.7007     26.4517
   818.6000      7.9996      2.4297      0.0832     13.3523    145.0845     26.1743
   818.7000      7.9996      2.4168      0.0665     14.1322    139.0185     26.1214
   818.8000      7.9897      2.4228     -0.0105     13.7714    131.5630     26.3271
   818.9000      7.9897      2.4613      0.0637     11.4361    124.2402     26.5023
   819.0000      8.0176      2.5101      0.0907      8.4813    116.9161     26.6215
   819.1000      8.0176      2.5374      0.1385      6.8222    114.9645     26.8180
   819.2000      8.0176      2.5343      0.0911      7.0144    119.8503     26.8471
   819.3000      8.0956      2.5037      0.1386      8.8680    124.1678     26.3713
   819.4000      8.0956      2.4500      0.0891     12.1207    125.0592     25.4983
   819.5000      8.0424      2.3820      0.0969     16.2416    127.7425     24.3248
   819.6000      8.0424      2.2995      0.0506     21.2436    133.5728     22.8492
   819.7000      8.0424      2.1913      0.0043     27.8015    135.0600     21.4495
   819.8000      7.9914      2.0599     -0.0293     35.7607    128.6041     20.4452
   819.9000      7.9914      1.9277     -0.1219     43.7757    121.3135     19.5980
   820.0000      8.0360      1.8047     -0.0513     51.2318    117.9813     18.6078
   820.1000      8.0360      1.6793     -0.1045     58.8300    117.1077     17.7027
   820.2000      8.0360      1.5629     -0.1197     65.8830    116.5504     17.2068
   820.3000      8.0013      1.4881     -0.0961     70.4206    116.2102     17.0298
   820.4000      8.0013      1.4654     -0.0294     71.7960    116.5278     17.1576
   820.5000      8.0221      1.4824      0.0302     70.7666    116.8137     17.9432
   820.6000      8.0221      1.5306      0.0978     67.8447    116.3714     19.3011
   820.7000      8.0221      1.6116      0.1531     62.9310    115.4168     20.7642
   820.8000      8.0387      1.7182      0.2706     56.4707    113.7810     22.2555
   820.9000      8.0387      1.8301      0.2684     49.6893    108.5351     23.9388
   821.0000      8.0290      1.9364      0.2652     43.2488    102.5577     25.9880
   821.1000      8.0290      2.0355      0.3274     37.2412    103.4038     28.0753
   821.2000      8.0290      2.1346      0.2533     31.2392    110.2667     29.3791
   821.3000      8.0901      2.2524      0.2165     24.0987    115.6603     29.8197
   821.4000      8.0901      2.3714      0.3208     16.8838    116.2903     30.2992
   821.5000      8.2172      2.4432      0.2519     12.5324    115.4459     31.2590
   821.6000      8.2172      2.4686      0.1478     10.9960    116.3232     32.3024
   821.7000      8.2172      2.4842      0.1455     10.0468    120.2415     32.9585
   821.8000      8.1408      2.5015      0.1314      8.9973    127.3467     33.1112
   821.9000      8.1408      2.5142      0.0998      8.2313    134.8664     33.1255
   822.0000      8.0317      2.5197      0.0762      7.8960    139.8859     33.1342
   822.1000      8.0317      2.5227      0.0204      7.7171    142.4591     32.9446
   822.2000      8.0317      2.5302      0.0224      7.2619    142.5032     32.6685
   822.3000      7.9916      2.5405      0.0627      6.6375    141.2821     32.4380
   822.4000      7.9916      2.5489      0.0366      6.1260    142.3368     32.2601
   822.5000      7.9593      2.5565      0.0725      5.6679    144.5569     32.0049
   822.6000      7.9593      2.5667      0.0904      5.0501    143.6562     31.5165
   822.7000      7.9593      2.5833      0.0934      4.0402    140.1279     30.8748
   822.8000      7.9274      2.5984      0.1278      3.1270    137.8403     30.5624
   822.9000      7.9274      2.5898      0.1231      3.6499    137.9054     30.9067
   823.0000      7.8975      2.5523      0.0329      5.9200    141.3273     31.4257
   823.1000      7.8975      2.5099      0.0282      8.4936    148.0227     31.5926
   823.2000      7.8975      2.4897      0.0218      9.7155    152.7505     31.5230
   823.3000      7.9221      2.5061     -0.0215      8.7183    151.6224     31.3869
   823.4000      7.9221      2.5495     -0.0018      6.0897    147.3868     30.9118
   823.5000      7.9563      2.5825      0.0906      4.0907    143.9011     29.9999
   823.6000      7.9563      2.5836      0.0609      4.0226    142.1200     29.1213
   823.7000      7.9563      2.5674      0.0785      5.0081    139.1092     28.4560
   823.8000      7.9708      2.5448      0.0956      6.3733    131.6749     27.9220
   823.9000      7.9708      2.5190      0.1051      7.9396    121.8357     27.5802
   824.0000      7.9558      2.4951      0.1268      9.3891    115.5963     27.3186
   824.1000      7.9558      2.4681      0.1046     11.0213    118.8399     26.8983
   824.2000      7.9558      2.4364      0.0304     12.9447    127.9968     26.2753
   824.3000      7.9516      2.4097      0.1374     14.5662    130.8332     25.9192
   824.4000      7.9516      2.3966      0.1420     15.3606    123.8753     26.1368
   824.5000      7.9086      2.4109      0.1635     14.4934    117.2272     26.5267
   824.6000      7.9086      2.4569      0.2381     11.7026    118.5690     26.7676
   824.7000      7.9086      2.5140      0.2548      8.2405    124.9631     27.0488
   824.8000      7.8967      2.5659      0.2436      5.0983    130.2579     27.6305
   824.9000      7.8967      2.6103      0.2749      2.4057    133.4926     28.3123
   825.0000      7.9146      2.6383      0.2833      0.7090    137.1658     28.7458
   825.1000      7.9146      2.6472      0.2609      0.1678    139.4441     29.0423
   825.2000      7.9146      2.6491      0.2659      0.0569    135.1339     29.5209
   825.3000      7.9563      2.6520      0.2223     -0.1231    129.5117     30.0881
   825.4000      7.9563      2.6524      0.1658     -0.1431    133.6815     30.3963
   825.5000      7.9705      2.6376      0.1173      0.7531    141.8913     30.2093
   825.6000      7.9705      2.6135      0.0695      2.2114    139.3649     29.5897
   825.7000      7.9705      2.6112      0.0351      2.3516    127.1318     28.9496
   825.8000      7.9655      2.6434      0.0452      0.4012    115.1417     28.9263
   825.9000      7.9655      2.6775      0.1308     -1.6657    108.7848     29.5499
   826.0000      7.9456      2.6787      0.1272     -1.7368    107.9708     29.8859
   826.1000      7.9456      2.6629      0.0523     -0.7836    109.3626     29.3048
   826.2000      7.9456      2.6609      0.0848     -0.6595    110.4234     28.4475
   826.3000      7.9125      2.6644      0.1200     -0.8720    112.1784     28.2872
   826.4000      7.9125      2.6530      0.1393     -0.1813    116.8159     28.7537
   826.5000      7.8965      2.6281      0.0864      1.3251    122.9431     29.3033
   826.6000      7.8965      2.6045      0.0403      2.7573    126.6969     29.9083
   826.7000      7.8965      2.5941      0.0064      3.3871    126.4506     30.6700
   826.8000      7.8888      2.5983      0.0621      3.1354    125.3564     31.3672
   826.9000      7.8888      2.6155      0.0072      2.0889    125.8953     31.7446
   827.0000      7.9060      2.6472      0.0685      0.1681    127.1898     31.7664
   827.1000      7.9060      2.6874      0.0335     -2.2667    130.4616     31.5685
   827.2000      7.9060      2.7293      0.0723     -4.8051    134.7577     31.4266
   827.3000      7.9419      2.7682      0.0785     -7.1632    135.6069     31.5634
