~Version Information
VERS.                      2.0: CWLS Log ASCII Standard - VERSION 2.0
WRAP.                       NO: One line per depth step
~Well Information Block
STRT.FT                -3.0000: 
STOP.FT              1123.0000: 
STEP.FT                 0.2500: 
NULL.                -999.2500: 
COMP.          Pioneer Natural Resources: COMPANY
WELL.               Ryan 41-17: WELL
FLD.           Purgatoire River: FIELD
LOC.           822' FNL & 532' FEL--: LOCATION
CNTY.               Las Animas: COUNTY
SRVC.                Patterson: SERVICE COMPANY
DATE.          Mon Mar 27 14:50:31 2006: LOG DATE
UWI.           05 071 08719 00: UNIQUE WELL ID
STAT.                 Colorado: STATE
~Curve Information Block
DEPT.FT            0 000 00 00: Depth
CCL.                          : Casing Collar Locator
TT3.usec                      : CBL 3' Travel Time
AMP3.mV                       : CBL 3' Amplitude
GR.GAPI                       : Gamma Ray
~Parameter Information Block
~A  Depth       CCL         TT3         AMP3         GR     
# ...
   365.5000      0.0000    259.8513     73.4176    124.2902
   365.7500      0.0000    259.8462     73.4936    120.1916
   366.0000      0.0000    259.8495     73.4229    113.7031
   366.2500      0.0000    259.8591     73.2744    110.6198
   366.5000      0.0000    259.8806     72.9928    107.9174
   366.7500      0.0000    259.8958     72.8301    106.7045
   367.0000      0.0000    259.9146     72.7073    104.7857
   367.2500      0.0000    259.9230     72.7234    103.2271
   367.5000      0.0000    259.9300     72.8694    100.5930
   367.7500      0.0000    259.9310     73.0191     98.9594
   368.0000      0.0000    259.9263     73.2750     97.5706
   368.2500      0.0000    259.9195     73.4407     97.8005
   368.5000      0.0000    259.9078     73.6350     99.9482
   368.7500      0.0000    259.9030     73.7069    102.2160
   369.0000      0.0000    259.9044     73.7257    106.5505
   369.2500      0.0000    259.9109     73.7007    110.5495
   369.5000      0.0000    259.9263     73.6633    119.0807
   369.7500      0.0000    259.9395     73.6638    125.8326
   370.0000      0.0000    259.9632     73.7097    134.6836
   370.2500      0.0000    259.9796     73.7524    138.5751
   370.5000      0.0000    259.9993     73.7876    142.1515
   370.7500      0.0000    260.0078     73.7737    144.0648
   371.0000      0.0000    260.0182     73.6967    146.0022
   371.2500      0.0000    260.0277     73.6157    145.3111
   371.5000      0.0000    260.0498     73.4434    139.4302
   371.7500      0.0000    260.0685     73.2740    132.3019
   372.0000      0.0000    260.0977     72.8956    117.8951
   372.2500      0.0000    260.1158     72.5544    106.5357
   372.5000      0.0000    260.1402     71.9672     88.3681
   372.7500      0.0000    260.1552     71.5956     76.7518
   373.0000      0.0000    260.1755     71.1795     62.9672
   373.2500      0.0000    260.1878     71.0127     58.0860
   373.5000      0.0000    260.2059     70.8669     59.4089
   373.7500      0.0000    260.2187     70.7859     65.8476
   374.0000      0.0000    260.2402     70.6299     80.8233
   374.2500      0.0000    260.2560     70.4971     91.8234
   374.5000      0.0000    260.2790     70.2724    106.0628
   374.7500      0.0000    260.2896     70.1127    112.9295
   375.0000      0.0000    260.2916     69.8455    119.4386
   375.2500      0.0000    260.2824     69.6432    121.8897
   375.5000      0.0000    260.2557     69.3563    123.5854
   375.7500      0.0000    260.2318     69.2494    123.6806
   376.0000      0.0000    260.1917     69.3336    122.3496
   376.2500      0.0000    260.1664     69.5636    120.0848
   376.5000      0.0000    260.1366     70.0671    113.8906
   376.7500      0.0000    260.1237     70.4106    108.3731
   377.0000      0.0000    260.1129     70.7887    100.7750
   377.2500      0.0000    260.1109     70.9112     97.9440
   377.5000      0.0000    260.1158     70.9532     98.3626
   377.7500      0.0000    260.1220     70.9685    101.1659
   378.0000      0.0000    260.1225     71.1035    106.6719
   378.2500      0.0000    260.1071     71.2911    109.9165
   378.5000      0.0000    260.0552     71.6642    113.6516
   378.7500      0.0000    260.0122     71.9320    115.6940
   379.0000      0.0000    259.9842     72.3532    117.5141
   379.2500      0.0000    260.0617     72.6508    116.7839
   379.5000      0.0000    260.7041     72.9424    111.4449
   379.7500      0.0000    261.9817     72.7270    105.3410
   380.0000      0.0000    266.4425     71.0385     94.4060
   380.2500      0.0000    271.6220     68.7244     87.5983
   380.5000      0.0000    281.8405     63.8432     80.9950
   380.7500      0.0000    288.6921     60.3265     80.0474
   381.0000      0.0000    296.4004     55.7993     83.5192
   381.2500      0.0000    299.5009     53.5680     87.8386
   381.5000      0.0000    302.2927     51.3626     94.7592
   381.7500      0.0000    303.6057     50.5392     98.7015
   382.0000      0.0000    305.0550     50.0210    103.4302
   382.2500      0.0000    305.6291     49.9532    106.2917
   382.5000      2.0000    305.8972     49.9851    110.8406
   382.7500      0.0000    305.6342     50.0530    113.9756
   383.0000      0.0000    304.1134     50.4464    118.9069
   383.2500      0.0000    301.8925     51.1945    123.0741
   383.5000      0.0000    296.1908     53.5492    131.7773
   383.7500      0.0000    290.9716     55.9763    138.4828
   384.0000      0.0000    282.1338     60.3888    146.0801
   384.2500      0.0000    276.3769     63.4330    147.4181
   384.5000      0.0000    269.0521     67.6298    143.8746
   384.7500      0.0000    265.4331     69.9630    140.1388
   385.0000      0.0000    262.0367     72.4789    137.1533
   385.2500      0.0000    260.8911     73.4635    137.8756
   385.5000      0.0000    260.1835     74.1322    140.3469
   385.7500      0.0000    260.0457     74.2638    140.1016
   386.0000      0.0000    260.0029     74.3271    134.1371
   386.2500      0.0000    259.9987     74.3888    127.3033
   386.5000      0.0000    259.9852     74.5171    117.0807
   386.7500      0.0000    259.9703     74.5694    112.6466
   387.0000      0.0000    259.9528     74.5335    111.0248
   387.2500      0.0000    259.9492     74.4644    112.4927
   387.5000      0.0000    259.9503     74.4186    115.7318
   387.7500      0.0000    259.9489     74.4652    117.2663
   388.0000      0.0000    259.9424     74.5725    118.2372
   388.2500      0.0000    259.9426     74.5788    118.7220
   388.5000      0.0000    259.9621     74.4281    120.2892
   388.7500      0.0000    259.9852     74.2829    121.3537
   389.0000      0.0000    260.0139     74.1672    120.3189
   389.2500      0.0000    260.0176     74.1925    116.9173
   389.5000      0.0000    260.0006     74.2687    109.4923
   389.7500      0.0000    259.9865     74.2465    105.3002
   390.0000      0.0000    259.9817     74.0627    102.6075
   390.2500      0.0000    259.9901     73.9144    102.6022
   390.5000      0.0000    260.0019     73.8115    102.3121
   390.7500      0.0000    259.9996     73.8414    100.8825
   391.0000      0.0000    259.9848     73.9198     97.6876
   391.2500      0.0000    259.9796     73.9170     96.1426
   391.5000      0.0000    259.9933     73.8226     96.0771
   391.7500      0.0000    260.0132     73.7694     97.1437
   392.0000      0.0000    260.0394     73.8193     98.1787
   392.2500      0.0000    260.0453     73.9340     97.3705
   392.5000      0.0000    260.0398     74.1033     94.0688
   392.7500      0.0000    260.0363     74.1451     91.6453
   393.0000      0.0000    260.0445     74.1066     89.3597
   393.2500      0.0000    260.0573     74.0817     88.7415
   393.5000      0.0000    260.0729     74.1428     88.3627
   393.7500      0.0000    260.0748     74.2354     88.3704
   394.0000      0.0000    260.0696     74.3361     89.5313
   394.2500      0.0000    260.0691     74.3295     91.9174
   394.5000      0.0000    260.0784     74.2536    100.1111
   394.7500      0.0000    260.0859     74.2325    109.9552
   395.0000      0.0000    260.0860     74.3128    131.1926
   395.2500      0.0000    260.0782     74.4031    147.0309
   395.5000      0.0000    260.0684     74.4679    165.4710
   395.7500      0.0000    260.0708     74.4331    170.2709
   396.0000      0.0000    260.0841     74.3405    164.8529
   396.2500      0.0000    260.0892     74.3200    155.2181
   396.5000      0.0000    260.0797     74.3710    138.3110
   396.7500      0.0000    260.0673     74.4010    129.0448
   397.0000      0.0000    260.0600     74.3320    122.0545
   397.2500      0.0000    260.0693     74.2059    122.3221
   397.5000      0.0000    260.0953     73.9882    127.5648
   397.7500      0.0000    260.1101     73.8817    131.8587
   398.0000      0.0000    260.1159     73.8088    136.3094
   398.2500      0.0000    260.1091     73.7952    137.9167
   398.5000      0.0000    260.0935     73.7702    140.9591
   398.7500      0.0000    260.0876     73.7330    144.5817
