~Version Information
VERS.                      2.0: CWLS Log ASCII Standard - VERSION 2.0
WRAP.                       NO: One line per depth step
~Well Information Block
STRT.FT                -4.2500: 
STOP.FT               745.0000: 
STEP.FT                 0.2500: 
NULL.                -999.2500: 
COMP.          Pioneer Natural Resources: COMPANY
WELL.                Zed 11-23: WELL
FLD.           Purgatoire River: FIELD
LOC.           641' FNL & 952' FWL: LOCATION
CNTY.               Las Animas: COUNTY
SRVC.                         : SERVICE COMPANY
DATE.          Fri Mar 03 16:43:06 2006: LOG DATE
UWI.           05 071 08702 00: UNIQUE WELL ID
STAT.                       CO: STATE
~Curve Information Block
DEPT.FT            0 000 00 00: Depth
GR.GAPI                       : Gamma Ray
CCL.                          : Casing Collar Locator
TT3.usec                      : CBL 3' Travel Time
AMP3.mV                       : CBL 3' Amplitude
~Parameter Information Block
~A  Depth        GR         CCL         TT3         AMP3    
# ...
   196.7500     48.3043      0.0000    771.3947      9.7640
   197.0000     48.7092      0.0000    771.4258      9.8114
   197.2500     50.2611      0.0000    771.4954      9.8524
   197.5000     53.1200      0.0000    771.5895      9.8897
   197.7500     56.3532      0.0000    771.6674      9.9203
   198.0000     58.4197      0.0000    771.6983      9.9395
   198.2500     58.6608      0.0000    771.6791      9.9430
   198.5000     57.9994      0.0000    771.6221      9.9222
   198.7500     57.8737      0.0000    771.5452      9.8692
   199.0000     58.8181      0.0000    771.4788      9.7965
   199.2500     60.4505      0.0000    771.4617      9.7456
   199.5000     62.4274      0.0000    771.5109      9.7540
   199.7500     64.8298      0.0000    771.6052      9.8134
   200.0000     67.8080      0.0000    771.7289      9.8766
   200.2500     71.4415      0.0000    771.9132      9.9114
   200.5000     75.9692      0.0000    772.3196      9.9310
   200.7500     81.7043      0.0000    773.6030      9.9678
   201.0000     88.4094      0.0000    777.6556     10.0302
   201.2500     94.8089      0.0000    787.8491     10.0956
   201.5000     99.0478      0.0000    806.6537     10.1387
   201.7500     99.9022      0.0000    830.7601     10.1578
   202.0000     97.7897      0.0000    849.7003     10.1673
   202.2500     94.7103      0.0000    853.7585     10.1758
   202.5000     93.0771      0.0000    844.3439     10.1816
   202.7500     94.3100      0.0000    832.5021     10.1856
   203.0000     98.1584      0.0000    825.9942     10.1965
   203.2500    102.8931      0.0000    822.0697     10.2181
   203.5000    106.0217      0.0000    814.1841     10.2397
   203.7500    105.4219      0.0000    801.2433     10.2428
   204.0000    100.6886      0.0000    787.7623     10.2125
   204.2500     93.6531      0.0000    778.0189     10.1459
   204.5000     87.2829      0.0000    772.8170     10.0581
   204.7500     83.7981      0.0000    770.6736      9.9859
   205.0000     83.5311      0.0000    769.9692      9.9681
   205.2500     85.1651      0.0000    769.8106     10.0073
   205.5000     86.9116      0.0000    769.9022     10.0593
   205.7500     87.7009      0.0000    770.3781     10.0750
   206.0000     87.6847      0.0000    771.8381     10.0473
   206.2500     87.8922      0.0000    775.2908     10.0099
   206.5000     89.3744      0.0000    781.4504      9.9962
   206.7500     92.3736      0.0000    789.4626     10.0135
   207.0000     96.0263      0.0000    796.4733     10.0510
   207.2500     98.7895      0.0000    799.3989     10.0996
   207.5000     99.1384      0.0000    797.5119     10.1562
   207.7500     96.0844      0.0000    792.7075     10.2157
   208.0000     89.7044      0.0000    787.3287     10.2708
   208.2500     81.5907      0.0000    782.7109     10.3183
   208.5000     74.3751      0.0000    779.7077     10.3589
   208.7500     70.2514      0.0000    779.2601     10.3919
   209.0000     69.7833      0.0000    781.7064     10.4172
   209.2500     71.8718      0.0000    785.7936     10.4407
   209.5000     74.5471      0.0000    788.8902     10.4704
   209.7500     76.0793      0.0000    788.7255     10.5074
   210.0000     76.0401      0.0000    785.1736     10.5444
   210.2500     75.6154      0.0000    780.1604     10.5756
   210.5000     76.7142      0.0000    775.9513     10.6021
   210.7500     80.4747      0.0000    773.9246     10.6264
   211.0000     86.4556      0.0000    774.8268     10.6486
   211.2500     93.1831      0.0000    779.1822     10.6651
   211.5000     99.2888      0.0000    786.4503     10.6630
   211.7500    104.1755      0.0000    793.8101     10.6176
   212.0000    108.1100      0.0000    797.2589     10.5114
   212.2500    111.9399      0.0000    795.2770     10.3525
   212.5000    116.2449      0.0000    791.0076     10.1622
   212.7500    120.3882      0.0000    789.5421      9.9643
   213.0000    122.6638      0.0000    792.5450      9.8011
   213.2500    121.5940      0.0000    795.8446      9.7136
   213.5000    116.9335      0.0000    793.3643      9.6580
   213.7500    109.6331      0.0000    784.4411      9.4870
   214.0000    101.3906      0.0000    776.4731      9.0979
   214.2500     94.1606      0.0000    778.9806      8.5733
   214.5000     89.3438      0.0000    795.1614      8.1088
   214.7500     87.0643      2.0000    818.9995      7.8358
   215.0000     86.3460      2.0000    839.8671      7.7772
   215.2500     86.0598      0.0000    850.8795      7.9481
   215.5000     85.7368      0.0000    853.8508      8.4364
   215.7500     85.6372      0.0000    854.9410      9.3414
   216.0000     86.2100      0.0000    855.6668     10.5982
   216.2500     87.5341      0.0000    850.9250     11.8693
   216.5000     89.1964      0.0000    836.3789     12.6978
   216.7500     90.4991      0.0000    814.9054     12.8353
   217.0000     90.7372      0.0000    794.2809     12.4039
   217.2500     89.5986      0.0000    780.2423     11.7394
   217.5000     87.6909      0.0000    773.2865     11.1316
   217.7500     86.5505      0.0000    770.9041     10.7025
   218.0000     87.5375      0.0000    770.8810     10.4400
   218.2500     90.5870      0.0000    772.3442     10.2815
   218.5000     94.3160      0.0000    774.8646     10.1747
   218.7500     97.3559      0.0000    777.3987     10.0968
   219.0000     99.3348      0.0000    778.4356     10.0445
   219.2500    100.5946      0.0000    777.2094     10.0142
   219.5000    101.2013      0.0000    774.4763      9.9962
   219.7500    100.6148      0.0000    771.8000      9.9833
   220.0000     98.5014      0.0000    770.3387      9.9812
   220.2500     95.3902      0.0000    770.4903     10.0052
   220.5000     92.0821      0.0000    772.2286     10.0630
   220.7500     88.8728      0.0000    775.1585     10.1390
   221.0000     85.8643      0.0000    778.2578     10.2017
   221.2500     83.4910      0.0000    780.2449     10.2279
   221.5000     82.0559      0.0000    780.7849     10.2140
   221.7500     81.0426      0.0000    781.1207     10.1642
   222.0000     79.4158      0.0000    782.8807     10.0813
   222.2500     76.5233      0.0000    786.0479      9.9738
   222.5000     72.5359      0.0000    788.4805      9.8634
   222.7500     68.2731      0.0000    787.8373      9.7758
   223.0000     64.7122      0.0000    783.8956      9.7224
   223.2500     62.4690      0.0000    778.6876      9.6903
   223.5000     61.6148      0.0000    774.5956      9.6547
   223.7500     61.9649      0.0000    772.8525      9.6033
   224.0000     63.3446      0.0000    773.6121      9.5452
   224.2500     65.4629      0.0000    776.5547      9.4988
   224.5000     67.7788      0.0000    780.9580      9.4764
   224.7500     69.7926      0.0000    785.6559      9.4814
   225.0000     71.3922      0.0000    789.5340      9.5111
   225.2500     72.7513      0.0000    792.2019      9.5579
   225.5000     74.0262      0.0000    794.1179      9.6111
   225.7500     75.3220      0.0000    796.1158      9.6594
   226.0000     76.7494      0.0000    798.7655      9.6919
   226.2500     78.3172      0.0000    802.2266      9.6993
   226.5000     80.0040      0.0000    807.2593      9.6792
   226.7500     82.1016      0.0000    816.7621      9.6397
   227.0000     85.1104      0.0000    835.3132      9.5938
   227.2500     89.0272      0.0000    865.3785      9.5493
   227.5000     93.1201      0.0000    903.3551      9.5072
   227.7500     96.7217      0.0000    940.2549      9.4690
   228.0000     99.9003      0.0000    967.0909      9.4382
   228.2500    103.1686      0.0000    979.9685      9.4165
   228.5000    106.8098      0.0000    980.9219      9.4017
   228.7500    110.3869      0.0000    975.2264      9.3939
   229.0000    112.5006      0.0000    968.0137      9.4016
   229.2500    111.2895      0.0000    962.1699      9.4365
   229.5000    105.9458      0.0000    958.0652      9.5001
   229.7500     97.9421      0.0000    954.6801      9.5780
   230.0000     90.3525      0.0000    951.0936      9.6515
