~Version Information
VERS.                      2.0: CWLS Log ASCII Standard - VERSION 2.0
WRAP.                       NO: One line per depth step
~Well Information Block
STRT.FT                -8.0000: 
STOP.FT              1661.0000: 
STEP.FT                 0.2500: 
NULL.                -999.2500: 
COMP.          Pioneer Natural Resources: COMPANY
WELL.          Rollerball 34-30: WELL
FLD.           Purgatorie River: FIELD
LOC.           893' FSL & 2408' FEL----: LOCATION
CNTY.               Las Animas: COUNTY
SRVC.          Patterson Wireline: SERVICE COMPANY
DATE.          Mon Feb 20 08:34:38 2006: LOG DATE
UWI.           05 071 08581 00: UNIQUE WELL ID
STAT.                       CO: STATE
~Curve Information Block
DEPT.FT            0 000 00 00: Depth
CCL.                          : Casing Collar Locator
TT3.usec                      : CBL 3' Travel Time
AMP3.mV                       : CBL 3' Amplitude
GR.GAPI                       : Gamma Ray
~Parameter Information Block
~A  Depth       CCL         TT3         AMP3         GR     
# ...
  1633.5000      0.0000    560.7347      4.6860     86.2202
  1633.7500      0.0000    559.7294      4.6644     85.4702
  1634.0000      0.0000    554.7761      4.6566     82.9532
  1634.2500      0.0000    547.3234      4.6633     79.4974
  1634.5000      0.0000    539.9715      4.6726     76.3106
  1634.7500      0.0000    534.9017      4.6712     74.3598
  1635.0000      0.0000    533.4313      4.6567     73.8236
  1635.2500      0.0000    536.6747      4.6390     74.0387
  1635.5000      0.0000    545.6938      4.6317     74.1303
  1635.7500      0.0000    559.8890      4.6416     73.8150
  1636.0000      0.0000    575.0297      4.6635     73.5904
  1636.2500      0.0000    584.4379      4.6846     74.1046
  1636.5000      0.0000    584.2249      4.6945     75.3545
  1636.7500      0.0000    577.9150      4.6940     76.4867
  1637.0000      0.0000    575.0256      4.6917     76.3636
  1637.2500      0.0000    584.2281      4.6941     74.3330
  1637.5000      0.0000    606.9844      4.6997     70.7268
  1637.7500      0.0000    636.7862      4.7011     66.9811
  1638.0000      0.0000    664.3549      4.6908     65.1000
  1638.2500      0.0000    683.9724      4.6678     66.4882
  1638.5000      0.0000    695.3906      4.6411     71.0856
  1638.7500      0.0000    701.1486      4.6258     77.5774
  1639.0000      0.0000    703.4318      4.6326     84.2052
  1639.2500      0.0000    702.8416      4.6591     89.4025
  1639.5000      0.0000    698.1182      4.6907     92.0934
  1639.7500      0.0000    686.3261      4.7114     91.9054
  1640.0000      0.0000    664.7455      4.7131     89.3206
  1640.2500      0.0000    634.7247      4.6967     85.5140
  1640.5000      0.0000    603.8676      4.6649     81.7765
  1640.7500      0.0000    582.3916      4.6196     78.8820
  1641.0000      0.0000    576.0590      4.5668     76.8566
  1641.2500      0.0000    583.5917      4.5217     75.1855
  1641.5000      0.0000    600.7728      4.5044     73.1837
  1641.7500      0.0000    624.1861      4.5268     70.4296
  1642.0000      0.0000    650.1240      4.5834     67.2158
  1642.2500      0.0000    673.2145      4.6544     64.5693
  1642.5000      0.0000    688.5088      4.7189     63.6350
  1642.7500      0.0000    693.5442      4.7671     65.0153
  1643.0000      0.0000    687.3666      4.7999     68.4613
  1643.2500      0.0000    669.2657      4.8208     72.7769
  1643.5000      0.0000    640.1827      4.8312     76.1993
  1643.7500      0.0000    604.7949      4.8316     77.4057
  1644.0000      0.0000    570.3148      4.8240     76.2366
  1644.2500      0.0000    542.5710      4.8098     73.4655
  1644.5000      0.0000    523.7336      4.7868     70.3318
  1644.7500      0.0000    513.3666      4.7513     68.4347
  1645.0000      0.0000    510.0120      4.7028     69.2624
  1645.2500      0.0000    511.3914      4.6466     73.0525
  1645.5000      0.0000    514.6444      4.5922     78.3432
  1645.7500      0.0000    517.8511      4.5492     83.1621
  1646.0000      0.0000    521.7092      4.5229     86.4110
  1646.2500      0.0000    529.9987      4.5139     87.7110
  1646.5000      0.0000    548.0761      4.5196     86.2300
  1646.7500      0.0000    578.8109      4.5368     80.3163
  1647.0000      0.0000    617.5220      4.5610     68.6961
  1647.2500      0.0000    651.3059      4.5858     52.2031
  1647.5000      0.0000    666.9443      4.6056     34.2035
  1647.7500      0.0000    661.9181      4.6198     18.8451
  1648.0000      0.0000    646.5728      4.6353      8.5608
  1648.2500      0.0000    633.9055      4.6633      3.1584
  1648.5000      0.0000    628.2544      4.7117      0.9355
  1648.7500      0.0000    624.8354      4.7803      0.2203
  1649.0000      0.0000    617.4982      4.8605      0.0405
  1649.2500      0.0000    604.8063      4.9409      0.0054
  1649.5000      0.0000    591.0338      5.0119      0.0000
  1649.7500      0.0000    583.6603      5.0661   -999.2500
  1650.0000      0.0000    588.4789      5.0960   -999.2500
  1650.2500      0.0000    605.6870      5.0949   -999.2500
  1650.5000      0.0000    630.4858      5.0606   -999.2500
  1650.7500      0.0000    656.0820      5.0006   -999.2500
  1651.0000      0.0000    675.1920      4.9299   -999.2500
  1651.2500      0.0000    680.2514      4.8581   -999.2500
  1651.5000      0.0000    664.1959      4.7695   -999.2500
  1651.7500      0.0000    621.9277      4.6053   -999.2500
  1652.0000      0.0000    551.4864      4.2671   -999.2500
  1652.2500      0.0000    454.6576      3.6678   -999.2500
  1652.5000      0.0000    339.2602      2.8184   -999.2500
  1652.7500      0.0000    221.8310      1.8710   -999.2500
  1653.0000      0.0000    123.1663      1.0437   -999.2500
  1653.2500      0.0000     56.5991      0.4789   -999.2500
  1653.5000      0.0000     21.1276      0.1781   -999.2500
  1653.7500      0.0000      6.3213      0.0530   -999.2500
  1654.0000      0.0000      1.4999      0.0125   -999.2500
  1654.2500      0.0000      0.2791      0.0023   -999.2500
  1654.5000      0.0000      0.0375      0.0003   -999.2500
  1654.7500      0.0000   -999.2500   -999.2500   -999.2500
  1655.0000      0.0000   -999.2500   -999.2500   -999.2500
  1655.2500      0.0000   -999.2500   -999.2500   -999.2500
  1655.5000      0.0000   -999.2500   -999.2500   -999.2500
  1655.7500      0.0000   -999.2500   -999.2500   -999.2500
  1656.0000      0.0000   -999.2500   -999.2500   -999.2500
  1656.2500      0.0000   -999.2500   -999.2500   -999.2500
  1656.5000      0.0000   -999.2500   -999.2500   -999.2500
  1656.7500      0.0000   -999.2500   -999.2500   -999.2500
  1657.0000      0.0000   -999.2500   -999.2500   -999.2500
  1657.2500      0.0000   -999.2500   -999.2500   -999.2500
  1657.5000      0.0000   -999.2500   -999.2500   -999.2500
  1657.7500      0.0000   -999.2500   -999.2500   -999.2500
  1658.0000      0.0000   -999.2500   -999.2500   -999.2500
  1658.2500      0.0000   -999.2500   -999.2500   -999.2500
  1658.5000      0.0000   -999.2500   -999.2500   -999.2500
  1658.7500      0.0000   -999.2500   -999.2500   -999.2500
  1659.0000      0.0000   -999.2500   -999.2500   -999.2500
  1659.2500      0.0000   -999.2500   -999.2500   -999.2500
  1659.5000      0.0000   -999.2500   -999.2500   -999.2500
  1659.7500      0.0000   -999.2500   -999.2500   -999.2500
  1660.0000      0.0000   -999.2500   -999.2500   -999.2500
  1660.2500      0.0000   -999.2500   -999.2500   -999.2500
  1660.5000   -999.2500   -999.2500   -999.2500   -999.2500
  1660.7500   -999.2500   -999.2500   -999.2500   -999.2500
  1661.0000   -999.2500   -999.2500   -999.2500   -999.2500
