~Version Information
VERS.                      2.0: CWLS Log ASCII Standard - VERSION 2.0
WRAP.                       NO: One line per depth step
~Well Information Block
STRT.FT                -6.0000: 
STOP.FT              1295.2500: 
STEP.FT                 0.2500: 
NULL.                -999.2500: 
COMP.          Pioneer Natural Resources: COMPANY
WELL.            Erin 21-15 Tr: WELL
FLD.           Purgatoire River: FIELD
LOC.           1217' FNL & 2284' FWL--: LOCATION
CNTY.               Las Animas: COUNTY
SRVC.                         : SERVICE COMPANY
DATE.          Fri Mar 10 09:14:17 2006: LOG DATE
UWI.           05 071 08712 00: UNIQUE WELL ID
STAT.                       CO: STATE
~Curve Information Block
DEPT.FT            0 000 00 00: Depth
GR.GAPI                       : Gamma Ray
CCL.                          : Casing Collar Locator
TT3.usec                      : CBL 3' Travel Time
AMP3.mV                       : CBL 3' Amplitude
~Parameter Information Block
~A  Depth        GR         CCL         TT3         AMP3    
    -6.0000   -999.2500   -999.2500   -999.2500   -999.2500
    -5.7500   -999.2500   -999.2500   -999.2500   -999.2500
    -5.5000   -999.2500   -999.2500   -999.2500   -999.2500
    -5.2500   -999.2500   -999.2500   -999.2500   -999.2500
    -5.0000   -999.2500   -999.2500   -999.2500   -999.2500
    -4.7500   -999.2500   -999.2500   -999.2500   -999.2500
    -4.5000   -999.2500   -999.2500   -999.2500   -999.2500
    -4.2500   -999.2500   -999.2500   -999.2500   -999.2500
    -4.0000   -999.2500   -999.2500   -999.2500   -999.2500
    -3.7500   -999.2500   -999.2500   -999.2500   -999.2500
    -3.5000   -999.2500   -999.2500   -999.2500   -999.2500
    -3.2500   -999.2500   -999.2500   1230.0000      1.2423
    -3.0000   -999.2500   -999.2500   1230.0000      1.2400
    -2.7500   -999.2500   -999.2500   1230.0000      1.2486
    -2.5000   -999.2500   -999.2500   1230.0000      1.2603
    -2.2500   -999.2500   -999.2500   1230.0000      1.2665
    -2.0000   -999.2500   -999.2500   1230.0000      1.2632
    -1.7500   -999.2500   -999.2500   1230.0000      1.2536
    -1.5000   -999.2500   -999.2500   1230.0000      1.2468
    -1.2500   -999.2500   -999.2500   1230.0000      1.2494
    -1.0000   -999.2500   -999.2500   1230.0000      1.2601
    -0.7500   -999.2500   -999.2500   1230.0000      1.2702
    -0.5000   -999.2500   -999.2500   1230.0000      1.2718
    -0.2500   -999.2500   -999.2500   1230.0000      1.2651
     0.0000   -999.2500   -999.2500   1230.0000      1.2577
     0.2500   -999.2500   -999.2500   1230.0000      1.2673
     0.5000   -999.2500   -999.2500   1229.9769      1.2774
     0.7500   -999.2500   -999.2500   1229.8494      1.2783
     1.0000   -999.2500   -999.2500   1229.2349      1.2662
     1.2500   -999.2500   -999.2500   1226.9501      1.2459
     1.5000   -999.2500   -999.2500   1220.5237      1.2262
     1.7500   -999.2500   -999.2500   1206.8210      1.2135
     2.0000   -999.2500   -999.2500   1184.8436      1.2135
     2.2500   -999.2500      0.0000   1158.1080      1.2435
     2.5000   -999.2500      0.0000   1131.4006      1.3845
     2.7500   -999.2500      0.0000   1102.5271      1.9015
     3.0000   -999.2500      0.0000   1058.2126      3.4299
     3.2500   -999.2500      0.0000    980.3376      7.0493
     3.5000   -999.2500      0.0000    858.8251     13.9068
     3.7500   -999.2500      0.0000    703.2256     24.3456
     4.0000   -999.2500      0.0000    543.1843     37.2333
     4.2500   -999.2500      0.0000    412.3965     50.3234
     4.5000   -999.2500      0.0000    328.0608     61.4471
     4.7500   -999.2500      0.0000    285.3188     69.4642
     5.0000   -999.2500      0.0000    268.3178     74.3763
     5.2500   -999.2500      0.0000    263.0161     76.8990
     5.5000   -999.2500      0.0000    261.7235     77.9604
     5.7500   -999.2500      0.0000    261.4774     78.3363
     6.0000   -999.2500      0.0000    261.4507     78.4800
     6.2500   -999.2500      0.0000    261.4558     78.5489
     6.5000   -999.2500      0.0000    261.4592     78.5596
     6.7500   -999.2500      0.0000    261.4655     78.5410
     7.0000     62.4696      0.0000    261.4786     78.5746
     7.2500     61.2627      0.0000    261.4963     78.7199
     7.5000     61.2875      0.0000    261.5116     78.9543
     7.7500     62.4086      0.0000    261.5190     79.2102
     8.0000     63.9459      0.0000    261.5204     79.4462
     8.2500     65.3147      0.0000    261.5216     79.6629
     8.5000     66.4863      0.0000    261.5262     79.8716
     8.7500     67.7507      0.0000    261.5336     80.0692
     9.0000     69.1111      0.0000    261.5411     80.2363
     9.2500     70.0272      0.0000    261.5461     80.3476
     9.5000     69.7727      0.0000    261.5475     80.3915
     9.7500     68.0760      0.0000    261.5453     80.3893
    10.0000     65.4145      0.0000    261.5393     80.3879
    10.2500     62.6643      0.0000    261.5269     80.4299
    10.5000     60.5234      0.0000    261.5055     80.5314
    10.7500     59.2836      0.0000    261.4771     80.6851
    11.0000     58.8482      0.0000    261.4483     80.8725
    11.2500     58.7004      0.0000    261.4250     81.0669
    11.5000     58.1256      0.0000    261.4073     81.2250
    11.7500     56.8777      0.0000    261.3919     81.2614
    12.0000     55.5435      0.0000    261.3814     81.0092
    12.2500     54.9520      0.0000    261.4030     80.2148
    12.5000     55.3496      0.0000    261.5340     78.6612
    12.7500     56.4125      0.0000    261.9091     76.3828
    13.0000     57.8932      0.0000    262.6631     73.7191
    13.2500     59.7835      0.0000    263.8129     71.0753
    13.5000     61.8338      0.0000    265.1845     68.6902
    13.7500     63.3314      0.0000    266.4958     66.6564
    14.0000     63.6274      0.0000    267.5440     64.9383
    14.2500     62.7333      0.0000    268.3518     63.2321
    14.5000     61.2259      0.0000    269.2142     61.0243
    14.7500     59.7379      0.0000    270.6849     57.9775
    15.0000     58.7450     -2.0000    273.4666     54.1879
    15.2500     58.5452      0.0000    278.0264     50.0623
    15.5000     59.0363      0.0000    284.0894     46.0632
    15.7500     59.7188      0.0000    290.6394     42.5367
    16.0000     60.2603      0.0000    296.6658     39.5854
    16.2500     60.9426      0.0000    301.8981     37.0407
    16.5000     62.2830      0.0000    307.2674     34.6534
    16.7500     64.2530      0.0000    315.8637     32.2966
    17.0000     66.1337      0.0000    334.0988     29.9462
    17.2500     67.1819      0.0000    369.9493     27.5992
    17.5000     67.1857      0.0000    426.8222     25.3277
    17.7500     66.2821      0.0000    498.2910     23.3154
    18.0000     64.5990      0.0000    571.1720     21.7383
    18.2500     62.2976      0.0000    634.8322     20.6400
    18.5000     59.7944      0.0000    685.7980     19.9378
    18.7500     57.7669      0.0000    724.2565     19.4993
    19.0000     56.9264      0.0000    750.6129     19.1910
    19.2500     57.6546      0.0000    766.6685     18.9082
    19.5000     59.7438      0.0000    776.9028     18.6053
    19.7500     62.4226      0.0000    786.3136     18.3043
    20.0000     64.6678      0.0000    797.3278     18.0600
    20.2500     65.7760      0.0000    808.9301     17.9169
    20.5000     65.8523      0.0000    817.4149     17.8889
    20.7500     65.6036      0.0000    815.9651     17.9504
    21.0000     65.6118      0.0000    794.3511     18.0445
    21.2500     66.0847      0.0000    744.2876     18.1294
    21.5000     67.2940      0.0000    671.1362     18.2240
    21.7500     69.7182      0.0000    599.5222     18.3734
    22.0000     73.3820      0.0000    559.3234     18.5607
    22.2500     77.3732      0.0000    560.5309     18.6917
    22.5000     80.4422      0.0000    586.3813     18.6965
    22.7500     82.0196      0.0000    616.7612     18.6225
    23.0000     82.3286      0.0000    652.8776     18.5933
    23.2500     81.6454      0.0000    709.6586     18.6806
    23.5000     80.0284      0.0000    787.8616     18.8402
    23.7500     77.8517      0.0000    865.0630     18.9627
    24.0000     75.8889      0.0000    912.8102     18.9757
    24.2500     74.4503      0.0000    914.2396     18.9051
    24.5000     72.9390      0.0000    870.6392     18.8446
    24.7500     70.7691      0.0000    804.5352     18.8556
    25.0000     68.3329      0.0000    755.2738     18.8944
    25.2500     66.5581      0.0000    756.0101     18.8429
    25.5000     65.8931      0.0000    807.1470     18.6113
    25.7500     66.2328      0.0000    876.8363     18.2073
    26.0000     67.4798      0.0000    928.8184     17.7101
    26.2500     69.5360      0.0000    946.3530     17.2037
    26.5000     71.9494      0.0000    933.6419     16.7595
    26.7500     74.3110      0.0000    903.5555     16.4580
    27.0000     77.0175      0.0000    865.0471     16.3683
    27.2500     81.0133      0.0000    816.8080     16.4745
