~Version Information
VERS.                      2.0: CWLS Log ASCII Standard - VERSION 2.0
WRAP.                       NO: One line per depth step
~Well Information Block
STRT.FT               230.0000: 
STOP.FT              1028.0000: 
STEP.FT                 0.2500: 
NULL.                -999.2500: 
COMP.          Pioneer Natural Resources: COMPANY
WELL.              Gough 14-29: WELL
FLD.           Purgatoire River: FIELD
LOC.           1199' FSL & 676' FWL: LOCATION
PROV.                 Colorado: PROVINCE
CNTY.               Las Animas: COUNTRY
SRVC.                Patterson: SERVICE COMPANY
DATE.          Thu Dec 22 16:27:18 2005: LOG DATE
UWI.           05 071 08612 00: UNIQUE WELL ID
~Curve Information Block
DEPT.FT            0 000 00 00: Depth
SN.Ohm-m                      : IEL Short Normal
SP.mV                         : IEL Spontaneous Potential
DIR.Ohm-m                     : IEL Induction Resistivity
GR.GAPI                       : Gamma Ray
~Parameter Information Block
SNDERRM.mmho-m         10.0000: Medium Sonde Error Correction
~A  Depth        SN          SP         DIR          GR     
# ...
   498.0000   2000.0000   2000.0000     26.3064     91.4151
   498.2500   2000.0000   2000.0000     26.3907     90.8719
   498.5000   2000.0000   2000.0000     26.5219     91.1960
   498.7500   2000.0000   2000.0000     26.7330     92.6252
   499.0000   2000.0000   2000.0000     27.0578     96.4364
   499.2500   2000.0000   2000.0000     27.5223     99.2708
   499.5000   2000.0000   2000.0000     28.1363    102.2320
   499.7500   2000.0000   2000.0000     28.8937    102.9114
   500.0000   2000.0000   2000.0000     29.7831    102.7358
   500.2500   2000.0000   2000.0000     30.7898    102.5798
   500.5000   2000.0000   2000.0000     31.8785    102.6168
   500.7500   2000.0000   2000.0000     32.9750    102.2402
   501.0000   2000.0000   2000.0000     33.9766     99.8279
   501.2500   2000.0000   2000.0000     34.7970     96.8157
   501.5000   2000.0000   2000.0000     35.4027     91.1139
   501.7500   2000.0000   2000.0000     35.8063     87.3540
   502.0000   2000.0000   2000.0000     36.0408     82.7718
   502.2500   2000.0000   2000.0000     36.1486     80.6581
   502.5000   2000.0000   2000.0000     36.1885     79.1739
   502.7500   2000.0000   2000.0000     36.2233     79.4205
   503.0000   2000.0000   2000.0000     36.2800     81.1976
   503.2500   2000.0000   2000.0000     36.3164     82.6415
   503.5000   2000.0000   2000.0000     36.2338     84.2292
   503.7500   2000.0000   2000.0000     35.9385     84.9345
   504.0000   2000.0000   2000.0000     35.4093     86.4476
   504.2500   2000.0000   2000.0000     34.7138     88.4494
   504.5000   2000.0000   2000.0000     33.9651     93.4695
   504.7500   2000.0000   2000.0000     33.2533     97.8203
   505.0000   2000.0000   2000.0000     32.6047    104.2639
   505.2500   2000.0000   2000.0000     31.9830    107.3371
   505.5000   2000.0000   2000.0000     31.3295    108.5568
   505.7500   2000.0000   2000.0000     30.6169    106.8516
   506.0000   2000.0000   2000.0000     29.8793    101.3710
   506.2500   2000.0000   2000.0000     29.1943     96.7557
   506.5000   2000.0000   2000.0000     28.6333     90.1235
   506.7500   2000.0000   2000.0000     28.2213     86.6043
   507.0000   2000.0000   2000.0000     27.9304     83.0635
   507.2500   2000.0000   2000.0000     27.7019     81.6618
   507.5000   2000.0000   2000.0000     27.4805     80.4026
   507.7500   2000.0000   2000.0000     27.2420     79.8502
   508.0000   2000.0000   2000.0000     27.0019     79.1260
   508.2500   2000.0000   2000.0000     26.8019     78.6153
   508.5000   2000.0000   2000.0000     26.6867     78.0377
   508.7500   2000.0000   2000.0000     26.6854     78.1161
   509.0000   2000.0000   2000.0000     26.7992     79.2423
   509.2500   2000.0000   2000.0000     26.9935     80.4692
   509.5000   2000.0000   2000.0000     27.1989     82.3263
   509.7500   2000.0000   2000.0000     27.3326     83.2676
   510.0000   2000.0000   2000.0000     27.3436     84.0317
   510.2500   2000.0000   2000.0000     27.2463     84.0663
   510.5000   2000.0000   2000.0000     27.1094     83.4034
   510.7500   2000.0000   2000.0000     27.0063     82.7046
   511.0000   2000.0000   2000.0000     26.9724     82.2236
   511.2500   2000.0000   2000.0000     26.9967     82.8558
   511.5000   2000.0000   2000.0000     27.0467     85.3213
   511.7500   2000.0000   2000.0000     27.1002     87.4275
   512.0000   2000.0000   2000.0000     27.1607     90.2353
   512.2500   2000.0000   2000.0000     27.2477     91.7179
   512.5000   2000.0000   2000.0000     27.3753     93.6751
   512.7500   2000.0000   2000.0000     27.5375     94.7803
   513.0000   2000.0000   2000.0000     27.7108     95.3767
   513.2500   2000.0000   2000.0000     27.8669     94.5962
   513.5000   2000.0000   2000.0000     27.9838     91.5054
   513.7500   2000.0000   2000.0000     28.0503     88.4105
   514.0000   2000.0000   2000.0000     28.0648     82.8642
   514.2500   2000.0000   2000.0000     28.0351     79.0060
   514.5000   2000.0000   2000.0000     27.9765     73.7545
   514.7500   2000.0000   2000.0000     27.9073     70.9581
   515.0000   2000.0000   2000.0000     27.8405     68.0541
   515.2500   2000.0000   2000.0000     27.7771     66.9071
   515.5000   2000.0000   2000.0000     27.7042     66.0810
   515.7500   2000.0000   2000.0000     27.6006     65.9960
   516.0000   2000.0000   2000.0000     27.4482     66.5378
   516.2500   2000.0000   2000.0000     27.2450     67.3507
   516.5000   2000.0000   2000.0000     27.0117     68.9928
   516.7500   2000.0000   2000.0000     26.7835     70.0202
   517.0000   2000.0000   2000.0000     26.5914     70.8655
   517.2500   2000.0000   2000.0000     26.4434     70.8842
   517.5000   2000.0000   2000.0000     26.3162     70.4834
   517.7500   2000.0000   2000.0000     26.1661     70.1981
   518.0000   2000.0000   2000.0000     25.9541     69.7199
   518.2500   2000.0000   2000.0000     25.6740     69.1112
   518.5000   2000.0000   2000.0000     25.3630     67.5979
   518.7500   2000.0000   2000.0000     25.0859     66.4751
   519.0000   2000.0000   2000.0000     24.9006     65.2603
   519.2500   2000.0000   2000.0000     24.8332     64.8265
   519.5000   2000.0000   2000.0000     24.8738     64.3857
   519.7500   2000.0000   2000.0000     24.9888     64.1104
   520.0000   2000.0000   2000.0000     25.1371     63.8200
   520.2500   2000.0000   2000.0000     25.2765     63.6853
   520.5000   2000.0000   2000.0000     25.3665     63.1238
   520.7500   2000.0000   2000.0000     25.3725     62.2184
   521.0000   2000.0000   2000.0000     25.2742     60.0859
   521.2500   2000.0000   2000.0000     25.0678     58.5061
   521.5000   2000.0000   2000.0000     24.7597     56.6541
   521.7500   2000.0000   2000.0000     24.3574     56.1010
   522.0000   2000.0000   2000.0000     23.8666     56.7071
   522.2500   2000.0000   2000.0000     23.2972     58.2079
   522.5000   2000.0000   2000.0000     22.6688     62.0759
   522.7500   2000.0000   2000.0000     22.0092     65.6491
   523.0000   2000.0000   2000.0000     21.3422     72.6120
   523.2500   2000.0000   2000.0000     20.6732     78.5408
   523.5000   2000.0000   2000.0000     19.9831     89.5182
   523.7500   2000.0000   2000.0000     19.2386     97.8438
   524.0000   2000.0000   2000.0000     18.4158    110.0082
   524.2500   2000.0000   2000.0000     17.5221    116.2856
   524.5000     17.8985    -43.6951     16.5997    120.4785
   524.7500     17.5114    -41.6681     15.7067    119.5152
   525.0000     16.9822    -40.0116     14.8917    115.0356
   525.2500     16.2489    -38.8469     14.1806    112.8408
   525.5000     15.5785    -38.1176     13.5801    115.1372
   525.7500     15.1571    -37.6776     13.0890    121.3663
   526.0000     14.9945    -37.3908     12.7043    135.9786
   526.2500     15.0579    -37.1731     12.4183    146.8263
   526.5000     15.2783    -36.9813     12.2114    160.3342
   526.7500     15.5463    -36.7899     12.0483    165.6900
   527.0000     15.7384    -36.5818     11.8831    166.9848
   527.2500     15.7765    -36.3556     11.6751    163.3552
   527.5000     15.6737    -36.1284     11.4070    152.0497
   527.7500     15.4067    -35.9235     11.0934    141.9020
   528.0000     14.8563    -35.7492     10.7727    126.5845
   528.2500     14.0267    -35.5890     10.4894    118.8899
   528.5000     13.1859    -35.4063     10.2788    114.2761
   528.7500     12.7124    -35.1600     10.1603    116.2051
   529.0000     12.7930    -34.8223     10.1377    124.7439
   529.2500     13.2911    -34.3936     10.1997    132.1867
   529.5000     13.9719    -33.9064     10.3199    142.2504
   529.7500     14.7302    -33.4158     10.4593    146.5639
   530.0000     15.5463    -32.9814     10.5738    148.5258
   530.2500     16.3327    -32.6489     10.6276    147.5493
   530.5000     16.9111    -32.4377     10.6074    144.9314
   530.7500     17.1931    -32.3392     10.5258    143.4512
   531.0000     17.2656    -32.3217     10.4131    142.1725
   531.2500     17.2170    -32.3414     10.3013    141.8196
