~Version Information
VERS.                      2.0: CWLS Log ASCII Standard - VERSION 2.0
WRAP.                       NO: One line per depth step
~Well Information Block
STRT.FT               260.8000: 
STOP.FT              1942.0000: 
STEP.FT                 0.1000: 
NULL.                -999.2500: 
COMP.          XTO Energy Inc.: COMPANY
WELL.          Golden Eagle 19-11: WELL
FLD.           Purgatoire River: FIELD
LOC.           2351' FSL & 1926' FWL--: LOCATION
CNTY.               Las Animas: COUNTY
SRVC.                Patterson: SERVICE COMPANY
DATE.          Thu Mar 09 08:41:38 2006: LOG DATE
UWI.           05 071 08696 00: UNIQUE WELL ID
STAT.                 Colorado: STATE
~Curve Information Block
DEPT.FT            0 000 00 00: Depth
DCAL.in                       : CDL Caliper
RHOB.g/cc                     : CDL Bulk Density
RHOC.g/cc                     : CDL Density Correction
DPOR.pu                       : CDL Density Porosity
NPOR.pu                       : Neutron Porosity
GR.GAPI                       : Gamma Ray
~Parameter Information Block
~A  Depth       DCAL        RHOB        RHOC        DPOR        NPOR         GR     
# ...
   270.4000   -999.2500   -999.2500   -999.2500   -999.2500     47.2141     77.5562
   270.5000   -999.2500   -999.2500   -999.2500   -999.2500     46.6339     81.6158
   270.6000   -999.2500   -999.2500   -999.2500   -999.2500     46.3617     82.7873
   270.7000   -999.2500   -999.2500   -999.2500   -999.2500     46.4695     79.3132
   270.8000   -999.2500   -999.2500   -999.2500   -999.2500     46.5114     76.9648
   270.9000   -999.2500   -999.2500   -999.2500   -999.2500     46.2105     78.5689
   271.0000   -999.2500   -999.2500   -999.2500   -999.2500     45.9204     80.5821
   271.1000   -999.2500   -999.2500   -999.2500   -999.2500     45.8296     81.5670
   271.2000   -999.2500   -999.2500   -999.2500   -999.2500     45.7230     83.5372
   271.3000   -999.2500   -999.2500   -999.2500   -999.2500     45.7563     85.3233
   271.4000   -999.2500   -999.2500   -999.2500   -999.2500     46.0965     85.0607
   271.5000   -999.2500   -999.2500   -999.2500   -999.2500     46.3668     85.1185
   271.6000   -999.2500   -999.2500   -999.2500   -999.2500     46.2766     87.8645
   271.7000   -999.2500   -999.2500   -999.2500   -999.2500     46.0390     88.6472
   271.8000   -999.2500   -999.2500   -999.2500   -999.2500     46.0707     83.9797
   271.9000   -999.2500   -999.2500   -999.2500   -999.2500     46.6488     80.4776
   272.0000   -999.2500   -999.2500   -999.2500   -999.2500     47.5100     80.5306
   272.1000   -999.2500   -999.2500   -999.2500   -999.2500     47.9940     78.9691
   272.2000   -999.2500   -999.2500   -999.2500   -999.2500     48.1544     75.3257
   272.3000   -999.2500   -999.2500   -999.2500   -999.2500     48.6018     71.9378
   272.4000   -999.2500   -999.2500   -999.2500   -999.2500     49.3079     70.0328
   272.5000   -999.2500   -999.2500   -999.2500   -999.2500     49.7512     70.0827
   272.6000   -999.2500   -999.2500   -999.2500   -999.2500     49.9594     70.2989
   272.7000   -999.2500   -999.2500   -999.2500   -999.2500     50.4159     70.1035
   272.8000   -999.2500   -999.2500   -999.2500   -999.2500     51.3292     71.7610
   272.9000   -999.2500   -999.2500   -999.2500   -999.2500     52.4287     76.2168
   273.0000   -999.2500   -999.2500   -999.2500   -999.2500     53.3048     77.0874
   273.1000   -999.2500   -999.2500   -999.2500   -999.2500     53.9832     69.8980
   273.2000   -999.2500   -999.2500   -999.2500   -999.2500     54.6014     62.8361
   273.3000   -999.2500   -999.2500   -999.2500   -999.2500     54.9720     62.2860
   273.4000   -999.2500   -999.2500   -999.2500   -999.2500     54.9782     64.8514
   273.5000   -999.2500   -999.2500   -999.2500   -999.2500     54.7778     65.3327
   273.6000   -999.2500   -999.2500   -999.2500   -999.2500     54.3871     63.1142
   273.7000   -999.2500   -999.2500   -999.2500   -999.2500     53.6943     61.5651
   273.8000   -999.2500   -999.2500   -999.2500   -999.2500     52.8632     60.6377
   273.9000   -999.2500   -999.2500   -999.2500   -999.2500     52.0309     61.2241
   274.0000   -999.2500   -999.2500   -999.2500   -999.2500     51.1604     66.8401
   274.1000   -999.2500   -999.2500   -999.2500   -999.2500     50.2987     74.3689
   274.2000   -999.2500   -999.2500     -0.3165   -999.2500     49.4456     77.7874
   274.3000   -999.2500   -999.2500     -0.2968   -999.2500     48.4753     75.2403
   274.4000   -999.2500   -999.2500     -0.3568   -999.2500     47.4898     70.6448
   274.5000   -999.2500   -999.2500     -0.2067   -999.2500     46.7477     71.4356
   274.6000   -999.2500   -999.2500     -0.2728   -999.2500     46.4886     77.4265
   274.7000   -999.2500      2.4172     -0.2245     14.1089     46.7063     80.8042
   274.8000      8.1803      2.4273     -0.1579     13.4951     46.8364     78.8912
   274.9000      8.1803      2.4272     -0.1833     13.5019     46.5062     76.8870
   275.0000      8.1818      2.4245     -0.2162     13.6667     46.2164     78.9609
   275.1000      8.1818      2.4247     -0.1834     13.6526     46.3300     82.5080
   275.2000      8.1818      2.4176     -0.2040     14.0856     46.5574     84.9727
   275.3000      8.1816      2.3929     -0.2134     15.5830     46.6129     87.3204
   275.4000      8.1816      2.3667     -0.2793     17.1712     46.5399     90.6938
   275.5000      8.1799      2.3657     -0.2128     17.2317     46.5308     93.0734
   275.6000      8.1799      2.3770     -0.1663     16.5472     46.8337     92.1129
   275.7000      8.1799      2.3740     -0.2581     16.7284     47.3781     89.3595
   275.8000      8.1778      2.3600     -0.1993     17.5770     47.7949     87.6674
   275.9000      8.1778      2.3466     -0.2326     18.3894     47.8281     86.8739
   276.0000      8.1773      2.3407     -0.2386     18.7470     47.4528     84.7983
   276.1000      8.1773      2.3446     -0.2438     18.5112     46.9902     82.7232
   276.2000      8.1773      2.3545     -0.2134     17.9089     46.7287     82.9366
   276.3000      8.1778      2.3625     -0.2161     17.4246     46.7575     83.5156
   276.4000      8.1778      2.3660     -0.2345     17.2098     47.0200     83.3496
   276.5000      8.1783      2.3693     -0.2313     17.0140     47.1291     85.1911
   276.6000      8.1783      2.3720     -0.1979     16.8515     46.8561     86.0069
   276.7000      8.1783      2.3760     -0.2642     16.6069     46.5028     82.0623
   276.8000      8.1782      2.3888     -0.2548     15.8298     46.2831     79.5195
   276.9000      8.1782      2.4002     -0.1798     15.1397     46.1534     82.4958
   277.0000      8.1789      2.3966     -0.2438     15.3581     46.2111     85.5654
   277.1000      8.1789      2.3866     -0.2379     15.9653     46.3431     83.1785
   277.2000      8.1789      2.3784     -0.2086     16.4581     46.3632     78.3052
   277.3000      8.1807      2.3773     -0.2486     16.5294     46.3611     75.7245
   277.4000      8.1807      2.3896     -0.1973     15.7824     46.4181     74.4123
   277.5000      8.1813      2.4133     -0.2574     14.3432     46.4892     73.8335
   277.6000      8.1813      2.4340     -0.1631     13.0931     46.4898     75.9929
   277.7000      8.1813      2.4226     -0.1696     13.7806     46.2904     79.5738
   277.8000      8.1812      2.3799     -0.2638     16.3684     45.8129     80.0333
   277.9000      8.1812      2.3454     -0.2778     18.4606     45.1420     75.0815
   278.0000      8.1805      2.3405     -0.2328     18.7578     44.7355     69.0049
   278.1000      8.1805      2.3509     -0.2305     18.1276     44.9538     67.0854
   278.2000      8.1805      2.3550     -0.2452     17.8771     45.4991     68.8663
   278.3000      8.1782      2.3417     -0.2058     18.6847     45.9021     70.6120
   278.4000      8.1782      2.3184     -0.2955     20.0979     45.9532     71.0698
   278.5000      8.1766      2.3055     -0.2877     20.8817     45.8827     70.9867
   278.6000      8.1766      2.3043     -0.2436     20.9497     45.9994     70.1977
   278.7000      8.1766      2.3044     -0.2547     20.9466     46.1158     70.4039
   278.8000      8.1768      2.3112     -0.2651     20.5313     45.9861     75.7056
   278.9000      8.1768      2.3254     -0.2481     19.6702     45.7220     83.6281
   279.0000      8.1773      2.3270     -0.2017     19.5771     45.4546     86.4752
   279.1000      8.1773      2.3167     -0.2720     20.2009     45.2542     84.3040
   279.2000      8.1773      2.3236     -0.2328     19.7793     44.9656     81.9768
   279.3000      8.1788      2.3517     -0.2189     18.0760     44.4257     78.9054
   279.4000      8.1788      2.3845     -0.2572     16.0920     43.6914     73.6358
   279.5000      8.1781      2.4147     -0.2344     14.2583     42.9747     70.6888
   279.6000      8.1781      2.4318     -0.1957     13.2240     42.5235     71.6156
   279.7000      8.1781      2.4363     -0.2337     12.9499     42.4504     71.0327
   279.8000      8.1759      2.4483     -0.1913     12.2235     42.6554     67.4814
   279.9000      8.1759      2.4751     -0.2094     10.6015     42.7747     65.2458
