~Version Information
VERS.                      2.0: CWLS Log ASCII Standard - VERSION 2.0
WRAP.                       NO: One line per depth step
~Well Information Block
STRT.FT               315.0000: 
STOP.FT              1292.5000: 
STEP.FT                 0.1000: 
NULL.                -999.2500: 
COMP.          Pioneer Natural Resources: COMPANY
WELL.          Hot Tomatoes 22-20: WELL
FLD.           Purgatoire River: FIELD
LOC.           2120' FNL & 2585' FWL: LOCATION
CNTY.               Las Animas: COUNTY
SRVC.                Patterson: SERVICE COMPANY
DATE.          Mon Feb 27 07:06:41 2006: LOG DATE
UWI.           05 071 08701 00: UNIQUE WELL ID
STAT.                 Colorado: STATE
~Curve Information Block
DEPT.FT            0 000 00 00: Depth
DCAL.in                       : CDL Caliper
RHOB.g/cc                     : CDL Bulk Density
RHOC.g/cc                     : CDL Density Correction
DPOR.pu                       : CDL Density Porosity
GR.GAPI                       : Gamma Ray
NPOR.pu                       : Neutron Porosity
~Parameter Information Block
~A  Depth       DCAL        RHOB        RHOC        DPOR         GR         NPOR    
# ...
   507.0000      7.9366      2.6164      0.1706      2.0391    160.1259     20.4115
   507.1000      7.9366      2.5981      0.1649      3.1451    162.1156     21.0391
   507.2000      7.9366      2.5741      0.1802      4.6017    168.2790     21.7784
   507.3000      7.9309      2.5471      0.1365      6.2372    172.3029     22.8672
   507.4000      7.9309      2.5253      0.0821      7.5550    171.8061     24.1124
   507.5000      7.9339      2.5206      0.0808      7.8439    170.1894     25.3640
   507.6000      7.9339      2.5270      0.0635      7.4552    167.2195     26.3396
   507.7000      7.9339      2.5331      0.0469      7.0871    161.2285     26.6090
   507.8000      7.9693      2.5373      0.0727      6.8288    155.4521     26.2623
   507.9000      7.9693      2.5430      0.0483      6.4870    154.5929     25.7465
   508.0000      7.9956      2.5528      0.0280      5.8906    158.5482     25.3414
   508.1000      7.9956      2.5606      0.1057      5.4178    162.4854     25.4382
   508.2000      7.9956      2.5517      0.1040      5.9563    162.1254     25.8476
   508.3000      8.0204      2.5259     -0.0126      7.5200    158.4019     25.4998
   508.4000      8.0204      2.5014     -0.0123      9.0048    153.7677     24.1739
   508.5000      8.0092      2.4844     -0.0164     10.0362    150.1749     22.9850
   508.6000      8.0092      2.4720     -0.0812     10.7867    150.9850     22.6550
   508.7000      8.0092      2.4744     -0.0409     10.6428    153.7555     22.5140
   508.8000      8.0103      2.4968      0.0358      9.2875    154.7725     21.9100
   508.9000      8.0103      2.5248      0.0625      7.5884    158.5687     21.6638
   509.0000      8.0139      2.5353      0.0949      6.9496    165.7351     22.7860
   509.1000      8.0139      2.5202      0.0506      7.8688    169.7892     24.9772
   509.2000      8.0139      2.4934      0.0735      9.4933    167.2729     26.8610
   509.3000      7.9783      2.4729      0.0418     10.7303    163.1815     27.3569
   509.4000      7.9783      2.4735      0.0223     10.6984    163.5904     26.8041
   509.5000      7.9907      2.4997      0.0512      9.1100    167.1201     26.1691
   509.6000      7.9907      2.5421      0.1232      6.5364    168.1169     25.8024
   509.7000      7.9907      2.5891      0.0926      3.6897    164.3930     25.7429
   509.8000      8.0147      2.6242      0.1795      1.5654    158.6553     25.6277
   509.9000      8.0147      2.6284      0.1619      1.3084    153.4235     24.6633
   510.0000      7.9737      2.6154      0.1254      2.0951    148.6900     23.2465
   510.1000      7.9737      2.6199      0.1015      1.8262    141.7360     22.3709
   510.2000      7.9737      2.6424      0.1414      0.4615    131.5029     21.8810
   510.3000      7.9617      2.6503      0.1121     -0.0207    124.5326     21.5724
   510.4000      7.9617      2.6322      0.0980      1.0761    125.0036     21.7477
   510.5000      7.9705      2.6074      0.0292      2.5809    127.7118     22.1877
   510.6000      7.9705      2.5872      0.0796      3.8056    127.5808     22.4626
   510.7000      7.9705      2.5716     -0.0142      4.7538    125.1781     22.3696
   510.8000      7.9887      2.5710     -0.0013      4.7887    124.3767     22.0366
   510.9000      7.9887      2.5912      0.0403      3.5637    124.5633     21.9642
   511.0000      7.9953      2.6150      0.0633      2.1212    123.1354     22.1741
   511.1000      7.9953      2.6167      0.0415      2.0176    119.5968     22.1023
   511.2000      7.9953      2.5931      0.0209      3.4496    115.2878     21.7305
   511.3000      7.9730      2.5672      0.0006      5.0172    116.6186     21.6862
   511.4000      7.9730      2.5603     -0.0052      5.4359    124.8740     21.9865
   511.5000      7.9557      2.5720      0.0025      4.7265    132.0097     21.9929
   511.6000      7.9557      2.5825      0.0427      4.0921    134.0884     21.6175
   511.7000      7.9557      2.5762      0.0059      4.4700    133.7184     21.5676
   511.8000      7.9988      2.5604      0.0273      5.4296    132.5284     22.0851
   511.9000      7.9988      2.5479     -0.0068      6.1860    130.1480     22.7901
   512.0000      8.0215      2.5477      0.0109      6.2015    127.7957     23.8084
   512.1000      8.0215      2.5628     -0.0135      5.2826    127.8645     25.1195
   512.2000      8.0215      2.5799      0.0569      4.2489    132.7429     25.3100
   512.3000      8.0328      2.5764      0.0333      4.4601    139.1389     23.9940
   512.4000      8.0328      2.5588     -0.0146      5.5250    137.4674     22.9572
   512.5000      8.0178      2.5519      0.0212      5.9444    130.5857     23.0135
   512.6000      8.0178      2.5517      0.0335      5.9549    129.6314     23.3503
   512.7000      8.0178      2.5402      0.0119      6.6518    130.7816     23.3875
   512.8000      7.9837      2.5216      0.0135      7.7829    127.2452     23.4431
   512.9000      7.9837      2.5120     -0.0350      8.3614    125.3613     23.5919
   513.0000      7.9648      2.5145     -0.0065      8.2137    129.7674     23.2667
   513.1000      7.9648      2.5197     -0.0310      7.8979    135.5692     22.5904
   513.2000      7.9648      2.5208      0.0359      7.8295    137.5888     22.1071
   513.3000      7.9607      2.5115      0.0157      8.3948    137.3267     21.9364
   513.4000      7.9607      2.4965      0.0097      9.3046    138.1186     22.1296
   513.5000      7.9707      2.4915      0.0134      9.6082    140.6871     22.4840
   513.6000      7.9707      2.4930      0.0105      9.5142    142.6741     22.3515
   513.7000      7.9707      2.4787      0.0457     10.3813    142.4574     21.7074
   513.8000      7.9633      2.4427     -0.0308     12.5611    142.6142     21.1419
   513.9000      7.9633      2.4097     -0.0487     14.5626    147.0441     21.1450
   514.0000      7.9948      2.4025     -0.0492     14.9999    153.3598     21.6722
   514.1000      7.9948      2.4140      0.0058     14.3045    156.2723     22.4926
   514.2000      7.9948      2.4280     -0.0593     13.4575    157.6753     23.3613
   514.3000      8.0136      2.4442     -0.0202     12.4741    158.2173     24.1035
   514.4000      8.0136      2.4691     -0.0007     10.9608    153.4113     24.8364
   514.5000      8.0235      2.5067      0.0097      8.6834    148.6618     25.2669
   514.6000      8.0235      2.5496      0.0819      6.0853    152.2737     25.3435
   514.7000      8.0235      2.5853      0.1131      3.9223    157.7320     25.3006
   514.8000      8.0196      2.6144      0.1134      2.1576    155.0454     25.0821
   514.9000      8.0196      2.6393      0.1576      0.6500    149.8513     24.9537
   515.0000      8.0061      2.6545      0.1688     -0.2712    151.7641     25.2080
   515.1000      8.0061      2.6575      0.1248     -0.4549    157.9533     25.3470
   515.2000      8.0061      2.6426      0.1096      0.4475    164.4683     24.9257
   515.3000      8.0047      2.6084      0.0246      2.5204    171.4281     24.2250
   515.4000      8.0047      2.5737     -0.0494      4.6272    176.1679     23.9992
   515.5000      8.0139      2.5494      0.0249      6.0978    175.6486     24.5245
   515.6000      8.0139      2.5302     -0.0291      7.2614    169.3114     24.9670
   515.7000      8.0139      2.5122     -0.0105      8.3525    162.7827     24.8135
   515.8000      8.0142      2.4895     -0.0096      9.7288    162.3284     24.5723
   515.9000      8.0142      2.4667     -0.0014     11.1099    165.7943     23.9366
   516.0000      8.0179      2.4595     -0.0105     11.5467    166.3651     22.6842
   516.1000      8.0179      2.4743     -0.0143     10.6455    162.7305     21.8587
   516.2000      8.0179      2.4984      0.0203      9.1869    159.8524     21.8763
   516.3000      8.0251      2.5149      0.0258      8.1850    159.9893     22.1574
   516.4000      8.0251      2.5148      0.1118      8.1961    161.3517     22.4737
   516.5000      8.0207      2.4977      0.0422      9.2280    161.1386     22.8757
