~Version Information
VERS.                      2.0: CWLS Log ASCII Standard - VERSION 2.0
WRAP.                       NO: One line per depth step
~Well Information Block
STRT.FT               260.0000: 
STOP.FT               713.2500: 
STEP.FT                 0.2500: 
NULL.                -999.2500: 
COMP.          Pioneer Natural Resources: COMPANY
WELL.           Quintessa 23-7: WELL
FLD.           Purgatoire River: FIELD
LOC.           1964' FSL & 2589' FWL--: LOCATION
PROV.                 Colorado: PROVINCE
CNTY.               Las Animas: COUNTRY
SRVC.                Patterson: SERVICE COMPANY
DATE.          Fri Nov 18 16:07:34 2005: LOG DATE
UWI.           05 071 08558 00: UNIQUE WELL ID
~Curve Information Block
DEPT.FT            0 000 00 00: Depth
SN.Ohm-m                      : IEL Short Normal
SP.mV                         : IEL Spontaneous Potential
DIR.Ohm-m                     : IEL Induction Resistivity
GR.GAPI                       : Gamma Ray
~Parameter Information Block
~A  Depth        SN          SP         DIR          GR     
# ...
   662.0000     23.5253    105.6430     21.3812     83.2263
   662.2500     23.8451    105.1724     21.3693     82.0395
   662.5000     24.1489    104.7536     21.4227     79.6357
   662.7500     24.4279    104.4054     21.5381     78.0523
   663.0000     24.6800    104.1473     21.6889     76.1081
   663.2500     24.9137    103.9982     21.8300     75.2882
   663.5000     25.1436    103.9749     21.9168     75.3662
   663.7500     25.3788    104.0898     21.9260     76.6881
   664.0000     25.6093    104.3497     21.8627     80.8517
   664.2500     25.8003    104.7542     21.7480     84.7861
   664.5000     25.9000    105.2953     21.5996     91.1759
   664.7500     25.8547    105.9580     21.4199     94.9734
   665.0000     25.6243    106.7210     21.1990     99.4191
   665.2500     25.1952    107.5588     20.9254    101.8086
   665.5000     24.5876    108.4443     20.5966    105.3231
   665.7500     23.8525    109.3507     20.2216    107.8140
   666.0000     23.0590    110.2542     19.8175    111.2800
   666.2500     22.2776    111.1351     19.4048    112.8335
   666.5000     21.5672    111.9793     19.0036    113.3740
   666.7500     20.9632    112.7785     18.6299    112.7097
   667.0000     20.4685    113.5293     18.2935    111.3523
   667.2500     20.0581    114.2332     17.9938    110.9719
   667.5000     19.6991    114.8950     17.7207    111.5591
   667.7500     19.3716    115.5220     17.4589    112.1298
   668.0000     19.0724    116.1228     17.1968    111.6384
   668.2500     18.8030    116.7066     16.9314    109.9529
   668.5000     18.5582    117.2824     16.6663    106.0990
   668.7500     18.3251    117.8585     16.4044    103.4731
   669.0000     18.0912    118.4422     16.1454    100.3228
   669.2500     17.8529    119.0394     15.8887     98.7639
   669.5000     17.6154    119.6547     15.6394     97.0580
   669.7500     17.3842    120.2911     15.4084     96.4209
   670.0000     17.1540    120.9504     15.2076     96.2900
   670.2500     16.9062    121.6332     15.0399     96.4706
   670.5000     16.6199    122.3389     14.8923     96.4661
   670.7500     16.2875    123.0659     14.7366     96.1976
   671.0000     15.9252    123.8115     14.5394     95.8486
   671.2500     15.5684    124.5717     14.2771     96.0263
   671.5000     15.2531    125.3406     13.9467     97.6331
   671.7500     14.9899    126.1103     13.5653    100.0543
   672.0000     14.7507    126.8709     13.1582    106.1962
   672.2500     14.4817    127.6107     12.7458    111.7653
   672.5000     14.1377    128.3166     12.3400    120.8388
   672.7500     13.7107    128.9751     11.9474    126.0776
   673.0000     13.2342    129.5733     11.5762    131.0286
   673.2500     12.7608    130.1003     11.2374    132.2211
   673.5000     12.3341    130.5473     10.9426    131.7146
   673.7500     11.9756    130.9089     10.6992    130.5367
   674.0000     11.6917    131.1826     10.5085    128.3210
   674.2500     11.4866    131.3685     10.3661    126.6829
   674.5000     11.3657    131.4685     10.2644    123.9371
   674.7500     11.3291    131.4857     10.1945    122.0623
   675.0000     11.3660    131.4229     10.1484    120.1117
   675.2500     11.4558    131.2825     10.1203    120.1252
   675.5000     11.5736    131.0661     10.1082    122.9847
   675.7500     11.7010    130.7742     10.1148    126.7129
   676.0000     11.8356    130.4072     10.1479    133.6122
   676.2500     11.9934    129.9655     10.2185    137.6612
   676.5000     12.1965    129.4506     10.3378    140.4639
   676.7500     12.4546    128.8657     10.5123    139.3122
   677.0000     12.7554    128.2165     10.7401    133.0956
   677.2500     13.0731    127.5114     11.0106    126.7035
   677.5000     13.3895    126.7610     11.3080    115.7038
   677.7500     13.7125    125.9780     11.6179    108.7298
   678.0000     14.0765    125.1759     11.9353    101.0377
   678.2500     14.5243    124.3678     12.2662     98.7746
   678.5000     15.0780    123.5649     12.6228    100.1191
   678.7500     15.7176    122.7760     13.0161    103.4671
   679.0000     16.3811    122.0069     13.4483    109.8683
   679.2500     16.9866    121.2602     13.9098    113.6245
   679.5000     17.4663    120.5370     14.3784    116.4406
   679.7500     17.7976    119.8372     14.8219    115.4956
   680.0000     18.0161    119.1618     15.2052    108.7152
   680.2500     18.1993    118.5132     15.5042    100.3751
   680.5000     18.4280    117.8969     15.7203     82.5966
   680.7500     18.7468    117.3210     15.8843     68.0534
   681.0000     19.1485    116.7958     16.0448     44.7970
   681.2500     19.5888    116.3332     16.2471     30.4627
   681.5000     20.0131    115.9452     16.5155     14.0398
   681.7500     20.3800    115.6428     16.8460      7.2236
   682.0000     20.6715    115.4350     17.2101      2.0868
   682.2500     20.8889    115.3272     17.5655      0.7665
   682.5000     21.0397    115.3213     17.8680      0.1293
   682.7500     21.1257    115.4148     18.0821      0.0319
   683.0000     21.1386    115.6007     18.1884      0.0017
   683.2500     21.0649    115.8679     18.1872   -999.2500
   683.5000     20.8968    116.2008     18.0959   -999.2500
   683.7500     20.6415    116.5808     17.9396   -999.2500
   684.0000     20.3211    116.9859     17.7394   -999.2500
   684.2500     19.9637    117.3927     17.5069   -999.2500
   684.5000     19.5927    117.7766     17.2466   -999.2500
   684.7500     19.2236    118.1134     16.9653   -999.2500
   685.0000     18.8677    118.3807     16.6781   -999.2500
   685.2500     18.5355    118.5591     16.4083   -999.2500
   685.5000     18.2359    118.6335     16.1796   -999.2500
   685.7500     17.9762    118.5943     16.0075   -999.2500
   686.0000     17.7670    118.4383     15.8959   -999.2500
   686.2500     17.6275    118.1692     15.8430   -999.2500
   686.5000     17.5828    117.7974     15.8499   -999.2500
   686.7500     17.6553    117.3393     15.9274   -999.2500
   687.0000     17.8578    116.8164     16.0913   -999.2500
   687.2500     18.1889    116.2540     16.3541   -999.2500
   687.5000     18.6270    115.6791     16.7154   -999.2500
   687.7500     19.1262    115.1191     17.1581   -999.2500
   688.0000     19.6256    114.6005     17.6496   -999.2500
   688.2500     20.0714    114.1472     18.1486   -999.2500
   688.5000     20.4381    113.7803     18.6149   -999.2500
   688.7500     20.7314    113.5167     19.0201   -999.2500
   689.0000     20.9704    113.3694     19.3480   -999.2500
   689.2500     21.1645    113.3464     19.5883   -999.2500
   689.5000     21.3030    113.4513     19.7285   -999.2500
   689.7500     21.3622    113.6826     19.7556   -999.2500
   690.0000     21.3221    114.0342     19.6665   -999.2500
   690.2500     21.1800    114.4956     19.4759   -999.2500
   690.5000     20.9513    115.0523     19.2139   -999.2500
   690.7500     20.6583    115.6867     18.9130   -999.2500
   691.0000     20.3159    116.3794     18.5942   -999.2500
   691.2500     19.9269    117.1099     18.2621   -999.2500
   691.5000     19.4887    117.8586     17.9088   -999.2500
   691.7500     19.0045    118.6071     17.5233   -999.2500
   692.0000     18.4915    119.3400     17.0995   -999.2500
   692.2500     17.9790    120.0449     16.6406   -999.2500
   692.5000     17.5007    120.7128     16.1602   -999.2500
   692.7500     17.0826    121.3380     15.6801   -999.2500
   693.0000     16.7355    121.9173     15.2245   -999.2500
   693.2500     16.4542    122.4497     14.8130   -999.2500
   693.5000     16.2217    122.9357     14.4570   -999.2500
   693.7500     16.0159    123.3765     14.1590   -999.2500
   694.0000     15.8142    123.7738     13.9133   -999.2500
   694.2500     15.5999    124.1290     13.7083   -999.2500
   694.5000     15.3685    124.4434     13.5287   -999.2500
   694.7500     15.1348    124.7173     13.3608   -999.2500
   695.0000     14.9316    124.9495     13.1973   -999.2500
   695.2500     14.7946    125.1365     13.0383   -999.2500
