~Version Information
 VERS.                                  2.0 : CWLS LAS VERSION
 WRAP.                                   NO : WRAPING MODE
 SWARE .                 MController 2.5.0J : SOFTWARE VERSION
~Well Information
 WELL.                        Baa Baa 34-01 : WELL
 COMP.  Pioneer Natural Resources USA, Inc. : COMPANY
 FLD.                      Purgatoire River : FIELD
 LOC.                SW/SE Sec 01 T33S R67W : LOCATION
 DATE.                          09/06-07/05 : DATE(S) LOGGED
 SRVC.       BLANCO Geological Services LLC : SERVICE COMPANY
 STAT.                                   CO : STATE
 CNTY.                           Las Animas : COUNTY
 CTRY.                                  USA : COUNTRY
 API.                       05-071-08502-00 : API NUMBER
 STRT.FT                            1856.00 : START DEPTH
 STOP.FT                            2300.00 : STOP DEPTH
 STEP.FT                               1.00 : DEPTH INCREMENT
 NULL.                                -9999 : NULL VALUE
~Curve information
 DEPTH.FT                                   :
 ROP.MIN/FT                                 :
 GAS.UNITS                                  :
~ASCII Log data
# ...
      2056.0         0.27         62.7 
      2057.0         0.53         60.1 
      2058.0         0.27         57.5 
      2059.0         0.60         64.9 
      2060.0         0.27         99.4 
      2061.0         0.65        141.4 
      2062.0         0.50        155.6 
      2063.0         0.67        157.1 
      2064.0         0.77        124.2 
      2065.0         0.27        119.9 
      2066.0         0.57        111.6 
      2067.0         0.55        110.0 
      2068.0         0.27        106.9 
      2069.0         0.67        125.3 
      2070.0         0.27        169.6 
      2071.0         0.63        111.7 
      2072.0         0.27         87.9 
      2073.0         0.53         80.5 
      2074.0         0.27         80.9 
      2075.0         0.55         80.1 
      2076.0         0.27         80.0 
      2077.0         0.37         79.0 
      2078.0         0.53         78.1 
      2079.0         0.53         75.7 
      2080.0         0.77         63.5 
      2081.0         0.55         58.2 
      2082.0         0.50         56.4 
      2083.0         0.53         59.7 
      2084.0         0.27         60.9 
      2085.0         0.37         62.9 
      2086.0         0.80         67.0 
      2087.0         0.53         63.6 
      2088.0         0.75         52.4 
      2089.0         0.50         65.6 
      2090.0         0.77         69.3 
      2091.0         0.53         82.0 
      2092.0         0.67         62.5 
      2093.0         0.48         56.0 
      2094.0         0.67         48.2 
      2095.0         0.53         50.8 
      2096.0         0.43         59.9 
      2097.0         0.53         56.7 
      2098.0         0.27         53.2 
      2099.0         0.63         47.4 
      2100.0         0.28         46.6 
      2101.0         0.77         43.7 
      2102.0         0.53         44.4 
      2103.0         0.53         44.4 
      2104.0         0.53         45.3 
      2105.0         0.27         45.5 
      2106.0         0.53         44.1 
      2107.0         0.55         43.6 
      2108.0         0.27         43.6 
      2109.0         0.53         44.0 
      2110.0         0.27         42.8 
      2111.0         0.53         42.0 
      2112.0         0.53         46.3 
      2113.0         0.27         46.5 
      2114.0         0.55         46.3 
      2115.0         0.73         51.9 
      2116.0         0.27         51.9 
      2117.0         0.53         49.9 
      2118.0         0.27         48.8 
      2119.0         0.80         47.4 
      2120.0         0.53         45.9 
      2121.0         0.28         46.4 
      2122.0         0.53         45.2 
      2123.0         0.43         43.0 
      2124.0         0.53         39.8 
      2125.0         0.23         39.4 
      2126.0         0.53         39.3 
      2127.0         0.27         39.3 
      2128.0         0.53         40.0 
      2129.0         0.55         38.8 
      2130.0         0.53         39.6 
      2131.0         0.53         40.1 
      2132.0         0.27         40.7 
      2133.0         0.53         39.3 
      2134.0         0.80         41.4 
      2135.0         0.55         40.7 
      2136.0         0.53         40.3 
      2137.0         0.53         38.8 
      2138.0         0.77         35.3 
      2139.0         0.53         33.4 
      2140.0         0.63         31.7 
      2141.0         0.28         31.1 
      2142.0         0.53         31.4 
      2143.0         0.53         32.5 
      2144.0         0.53         33.5 
      2145.0         0.27         34.4 
      2146.0         0.53         34.0 
      2147.0         0.78         34.5 
      2148.0         0.53         33.0 
      2149.0         0.80         33.0 
      2150.0         0.27         34.8 
      2151.0         0.53         34.7 
      2152.0         0.53         34.7 
      2153.0         0.27         31.5 
      2154.0         0.38         36.2 
      2155.0         0.80         40.0 
      2156.0         0.73         42.2 
      2157.0         0.80         43.9 
      2158.0         0.47         37.3 
      2159.0         0.52         32.9 
      2160.0         0.80         31.2 
      2161.0         0.80         32.5 
      2162.0         0.53         33.5 
      2163.0         0.80         33.1 
      2164.0         0.55         32.1 
      2165.0         0.80         31.8 
      2166.0         0.80         31.7 
      2167.0         0.80         35.0 
      2168.0         0.27         35.1 
      2169.0         0.27         34.8 
      2170.0         0.28         33.6 
      2171.0         0.27         33.7 
      2172.0         0.27         31.3 
      2173.0         0.27         31.9 
      2174.0         0.27         31.3 
      2175.0         0.33         29.5 
      2176.0         0.53         29.4 
      2177.0         0.80         27.2 
      2178.0         0.82         27.8 
      2179.0         0.67         29.2 
      2180.0         0.53         28.6 
      2181.0         0.53         28.9 
      2182.0         0.53         28.9 
      2183.0         0.53         29.8 
      2184.0         0.55         30.3 
      2185.0         0.53         29.6 
      2186.0         0.53         27.8 
      2187.0         0.53         26.3 
      2188.0         0.67         29.0 
      2189.0         0.82         28.0 
      2190.0         0.53         28.8 
      2191.0         0.53         29.1 
      2192.0         0.80         31.4 
      2193.0         0.33         32.0 
      2194.0         0.53         31.1 
      2195.0         0.53         30.2 
      2196.0         0.55         29.2 
      2197.0         0.53         29.2 
      2198.0         0.53         28.7 
      2199.0         0.53         28.1 
      2200.0         0.53         27.2 
      2201.0         0.27         27.2 
      2202.0         0.55         27.5 
      2203.0         0.53         28.1 
      2204.0         0.53         28.1 
      2205.0         0.53         28.2 
      2206.0         0.53         27.4 
      2207.0         0.80         28.8 
      2208.0         0.82         29.5 
      2209.0         0.53         28.8 
      2210.0         0.27         28.2 
      2211.0         0.27         27.6 
      2212.0         0.27         27.7 
      2213.0         0.53         27.7 
      2214.0         0.27         26.8 
      2215.0         0.27         27.0 
      2216.0         0.27         27.4 
      2217.0         0.55         26.9 
      2218.0         0.27         26.2 
      2219.0         0.27         26.4 
      2220.0         0.27         27.2 
      2221.0         0.27         27.0 
      2222.0         0.27         26.1 
      2223.0         0.27         27.3 
      2224.0         0.27         26.5 
      2225.0         0.27         26.7 
      2226.0         0.27         27.0 
      2227.0         0.53         27.4 
      2228.0         1.08         24.7 
      2229.0         0.57         32.0 
      2230.0         0.80         30.0 
      2231.0         0.50         28.3 
      2232.0         0.75         33.0 
      2233.0         0.97         28.8 
      2234.0         0.67         25.8 
      2235.0         1.00         28.6 
      2236.0         0.82         28.2 
      2237.0         0.80         27.8 
      2238.0         1.33         27.7 
      2239.0         1.08         27.5 
      2240.0         0.80         26.3 
      2241.0         0.67         25.5 
      2242.0         1.07         26.0 
      2243.0         0.82         25.6 
      2244.0         1.60         24.5 
      2245.0         0.53         24.6 
      2246.0         1.35         23.8 
      2247.0         1.33         26.0 
      2248.0         0.87         28.3 
      2249.0         1.35         28.1 
      2250.0         1.33         26.9 
      2251.0         1.07         23.3 
      2252.0         0.55         25.7 
      2253.0         1.47         30.3 
      2254.0         0.53         32.1 
      2255.0         1.32         32.8 
