~Version Information
VERS.                      2.0: CWLS Log ASCII Standard - VERSION 2.0
WRAP.                       NO: One line per depth step
~Well Information Block
STRT.FT               800.0000: 
STOP.FT              3500.0000: 
STEP.FT                 0.2500: 
NULL.                -999.2500: 
COMP.          Pioneer Natural Resources: COMPANY
WELL.          Cordillera 34-7: WELL
FLD.           Purgatoire River: FIELD
LOC.           598' FSL & 1770' FEL--: LOCATION
PROV.                 Colorado: PROVINCE
CNTY.               Las Animas: COUNTRY
SRVC.                Patterson: SERVICE COMPANY
DATE.          Thu Oct 27 20:08:30 2005: LOG DATE
UWI.           05 071 08552 00: UNIQUE WELL ID
~Curve Information Block
DEPT.FT            0 000 00 00: Depth
SN.Ohm-m                      : IEL Short Normal
SP.mV                         : IEL Spontaneous Potential
DIR.Ohm-m                     : IEL Induction Resistivity
GR.GAPI                       : Gamma Ray
~Parameter Information Block
~A  Depth        SN          SP         DIR          GR     
# ...
  2240.5000     20.4447    181.7498     14.3689     55.8498
  2240.7500     20.3399    181.6818     14.8542     56.0114
  2241.0000     20.3613    181.5802     15.1682     56.0935
  2241.2500     20.4272    181.4738     15.3375     56.1043
  2241.5000     20.4000    181.3957     15.3920     56.2867
  2241.7500     20.1970    181.3670     15.3513     56.7142
  2242.0000     19.8151    181.3878     15.2216     58.0106
  2242.2500     19.2700    181.4248     15.0037     59.4382
  2242.5000     18.5502    181.3858     14.7030     63.2113
  2242.7500     17.6146    181.1040     14.3353     67.5640
  2243.0000     16.4381    180.3734     13.9243     77.6188
  2243.2500     15.0982    179.0372     13.4939     86.3072
  2243.5000     13.8139    177.0680     13.0617    100.4549
  2243.7500     12.8495    174.5710     12.6386    109.4282
  2244.0000     12.3516    171.6812     12.2338    120.8838
  2244.2500     12.2775    168.4009     11.8609    126.8016
  2244.5000     12.4311    164.4768     11.5383    132.4872
  2244.7500     12.5559    159.4122     11.2837    133.8752
  2245.0000     12.4840    152.6412     11.1057    132.8657
  2245.2500     12.2473    143.8047     10.9992    131.2067
  2245.5000     12.0094    133.0395     10.9453    129.6730
  2245.7500     11.8876    121.1677     10.9159    130.2974
  2246.0000     11.8706    109.6674     10.8802    133.7327
  2246.2500     11.8692    100.3647     10.8090    136.8970
  2246.5000     11.8047     94.8939     10.6776    141.5534
  2246.7500     11.6771     94.0449     10.4689    144.1698
  2247.0000     11.6048     97.2869     10.1804    146.8342
  2247.2500     11.8026    102.8809      9.8357    147.3197
  2247.5000     12.4539    108.6851      9.4915    145.3750
  2247.7500     13.5599    113.1357      9.2322    142.1988
  2248.0000     14.9357    115.7270      9.1599    135.3226
  2248.2500     16.3637    116.8167      9.3992    130.1220
  2248.5000     17.7356    117.0943     10.1330    122.6252
  2248.7500     19.0640    117.1185     11.7021    118.1462
  2249.0000     20.3991    117.1175     14.8712    112.4692
  2249.2500     21.7230    117.0348     21.7232    109.8373
  2249.5000     22.9152    116.6856     39.9001    109.0268
  2249.7500     23.8448    115.8871    123.8455    111.3273
  2250.0000     24.4761    114.5001 100000.0000    119.1797
  2250.2500     24.8643    112.3957 100000.0000    126.4592
  2250.5000     25.0940    109.4092    243.5238    137.6385
  2250.7500     25.2385    105.3272     53.6407    143.5943
  2251.0000     25.3322     99.9141     25.9414    148.6462
  2251.2500     25.3311     92.9552     16.1201    149.2915
  2251.5000     25.0851     84.2926     11.3885    146.6295
  2251.7500     24.3740     73.8351      8.7361    142.8280
  2252.0000     22.9979     61.5486      7.1644    135.3656
  2252.2500     20.8755     47.4548      6.2791    130.6101
  2252.5000     18.1167     31.6597      5.9317    126.7249
  2252.7500     15.0699     14.4090      6.1568    127.2771
  2253.0000     12.2806     -3.8124      7.3447    131.4202
  2253.2500     10.2335    -22.1479     11.5298    133.9970
  2253.5000      9.0608    -39.3203     65.4945    133.6015
  2253.7500      8.5716    -53.8421 100000.0000    129.7438
  2254.0000      8.5835    -64.5178 100000.0000    119.9764
  2254.2500      9.3125    -70.9981 100000.0000    112.0449
  2254.5000     11.5936    -73.9895 100000.0000     99.3575
  2254.7500     16.4696    -74.9136 100000.0000     90.9243
  2255.0000     24.0641    -75.2492 100000.0000     79.6810
  2255.2500     33.0134    -76.0254 100000.0000     73.9447
  2255.5000     41.3910    -77.7233 100000.0000     68.2870
  2255.7500     47.9128    -80.4778     24.3381     65.9242
  2256.0000     52.1399    -84.3267      3.9690     63.2892
  2256.2500     54.0200    -89.3572      2.3131     61.7803
  2256.5000     53.5570    -95.7433      1.9796     59.9316
  2256.7500     50.7594   -103.7308      2.3355     59.1470
  2257.0000     45.6686   -113.5944      4.4183     58.7294
  2257.2500     38.4281   -125.5468 100000.0000     58.8523
  2257.5000     29.5236   -139.5735 100000.0000     59.6976
  2257.7500     20.1148   -155.2271 100000.0000     61.1613
  2258.0000     11.8954   -171.4853 100000.0000     66.0331
  2258.2500      6.1877   -186.8361 100000.0000     71.6643
  2258.5000      3.1306   -199.7029 100000.0000     83.5382
  2258.7500      1.8927   -209.0727 100000.0000     92.8500
  2259.0000      1.5211   -214.9022 100000.0000    106.4757
  2259.2500      1.4481   -217.9752 100000.0000    113.7655
  2259.5000      1.4492   -219.3620 100000.0000    119.6510
  2259.7500      1.4564   -219.9318 100000.0000    119.2103
  2260.0000      1.4544   -220.1873 100000.0000    111.3056
  2260.2500      1.4411   -220.3464 100000.0000    101.7631
  2260.5000      1.4243   -220.4789 100000.0000     84.0616
  2260.7500      1.4243   -220.5957 100000.0000     72.5075
  2261.0000      1.4550   -220.6880 100000.0000     59.1232
  2261.2500      1.5044   -220.7453 100000.0000     53.6517
  2261.5000      1.5451   -220.7652      5.5522     49.9083
  2261.7500      1.5580   -220.7491      1.2463     49.3497
  2262.0000      1.5419   -220.6784      0.5420     49.5866
  2262.2500      1.5081   -220.4574      0.2894     49.6955
  2262.5000      1.4733   -219.7825      0.1821     49.5041
  2262.7500      1.4584   -217.8769      0.1419     49.6782
  2263.0000      1.4755   -213.1554      0.1380     51.9560
  2263.2500      1.5269   -203.1649      0.1579     55.5382
  2263.5000      1.6354   -185.2663      0.1951     64.3270
  2263.7500      1.8656   -158.0278      0.2444     72.2535
  2264.0000      2.3437   -122.4185      0.3070     86.4243
  2264.2500      3.3005    -81.7396      0.3988     96.3750
  2264.5000      4.9704    -40.2657      0.5594    109.2419
  2264.7500      7.2864     -1.6581      0.8860    115.0450
  2265.0000      9.7793     31.8845      1.7178    119.7700
  2265.2500     11.8907     59.6527      5.4971    121.9423
  2265.5000     13.2991     82.0177 100000.0000    126.8369
  2265.7500     13.9761     99.8844 100000.0000    131.7057
  2266.0000     14.0621    114.1528 100000.0000    139.8763
  2266.2500     13.7546    125.3633 100000.0000    144.7201
  2266.5000     13.2739    133.7345 100000.0000    150.4449
  2266.7500     12.8171    139.5876 100000.0000    153.4843
  2267.0000     12.5137    143.7389 100000.0000    156.7735
  2267.2500     12.4356    147.3805 100000.0000    157.4680
  2267.5000     12.6181    151.4943 100000.0000    155.2429
  2267.7500     13.0700    156.3634 100000.0000    151.6547
  2268.0000     13.7729    161.5888 100000.0000    144.3937
  2268.2500     14.6572    166.5071 100000.0000    139.3235
  2268.5000     15.5926    170.6230 100000.0000    132.7981
  2268.7500     16.4403    173.7928 100000.0000    129.5127
  2269.0000     17.1190    176.1514 100000.0000    126.0088
  2269.2500     17.6111    177.9402 100000.0000    124.3821
  2269.5000     17.9266    179.3727 100000.0000    122.7794
  2269.7500     18.0672    180.5825 100000.0000    122.2218
  2270.0000     18.0177    181.6330 100000.0000    121.9622
  2270.2500     17.7817    182.5659 100000.0000    121.9646
  2270.5000     17.4068    183.4509 100000.0000    121.9595
  2270.7500     16.9587    184.3839 100000.0000    122.0801
  2271.0000     16.4839    185.4218 100000.0000    123.2210
  2271.2500     15.9987    186.5188     93.3603    125.0516
  2271.5000     15.4985    187.5553     26.5463    129.1310
  2271.7500     14.9854    188.4442     16.0068    131.7943
  2272.0000     14.4899    189.1894     12.1365    133.6843
  2272.2500     14.0530    189.8271     10.3591    133.0944
  2272.5000     13.6853    190.3259      9.4703    130.9445
  2272.7500     13.3628    190.5739      9.0080    130.3678
  2273.0000     13.0626    190.4841      8.7632    132.7617
  2273.2500     12.7836    190.1106      8.6424    136.2354
  2273.5000     12.5406    189.6416      8.6138    141.8739
  2273.7500     12.3548    189.2688      8.6754    144.6008
