~Version Information
VERS.                      2.0: CWLS Log ASCII Standard - VERSION 2.0
WRAP.                       NO: One line per depth step
~Well Information Block
STRT.FT                -8.2500: 
STOP.FT               686.7500: 
STEP.FT                 0.2500: 
NULL.                -999.2500: 
COMP.          Pioneer Natural Resources: COMPANY
WELL.           Quintessa 23-7: WELL
FLD.           Purgatorie River: FIELD
LOC.           1964' FSL & 2589' FWL--: LOCATION
PROV.                       CO: PROVINCE
CNTY.               Las Animas: COUNTRY
SRVC.          Patterson Wireline: SERVICE COMPANY
DATE.          Wed Nov 23 10:31:07 2005: LOG DATE
UWI.           05 071 08558 00: UNIQUE WELL ID
~Curve Information Block
DEPT.FT            0 000 00 00: Depth
CCL.                          : Casing Collar Locator
TT3.usec                      : CBL 3' Travel Time
AMP3.mV                       : CBL 3' Amplitude
GR.GAPI                       : Gamma Ray
~Parameter Information Block
~A  Depth       CCL         TT3         AMP3         GR     
# ...
   427.2500      0.0000    329.0447     24.6150     73.8968
   427.5000      0.0000    326.5334     24.5517     76.0579
   427.7500      0.0000    326.1287     24.3093     77.6281
   428.0000      0.0000    326.2995     24.0105     79.4372
   428.2500      0.0000    326.5140     23.7703     81.5372
   428.5000      0.0000    326.6578     23.6442     83.8715
   428.7500      0.0000    326.7223     23.6261     86.6133
   429.0000      0.0000    326.7384     23.6812     89.8134
   429.2500      0.0000    326.7272     23.7742     93.0452
   429.5000      0.0000    326.6974     23.8742     95.6265
   429.7500      0.0000    326.6544     23.9537     97.1445
   430.0000      0.0000    326.6070     23.9994     97.5719
   430.2500      0.0000    326.5608     24.0245     96.6762
   430.5000      0.0000    326.5166     24.0552     93.6376
   430.7500      0.0000    326.4793     24.0997     88.0391
   431.0000      0.0000    326.4655     24.1376     81.4039
   431.2500      0.0000    326.5234     24.1418     76.8602
   431.5000      0.0000    326.7918     24.1064     76.5796
   431.7500      0.0000    327.8429     24.0454     79.8756
   432.0000      0.0000    331.5930     23.9655     84.1343
   432.2500      0.0000    342.4704     23.8478     87.1617
   432.5000      0.0000    366.9321     23.6634     88.2313
   432.7500      0.0000    408.3042     23.4084     87.5250
   433.0000      0.0000    458.6693     23.1200     85.6242
   433.2500      0.0000    497.7959     22.8572     83.7422
   433.5000      0.0000    506.5085     22.6643     83.6554
   433.7500      0.0000    483.5739     22.5521     86.5722
   434.0000      0.0000    447.3275     22.5050     91.9251
   434.2500      0.0000    420.8498     22.4958     97.6193
   434.5000      0.0000    416.3248     22.4910    101.7228
   434.7500      0.0000    430.7671     22.4543    103.7574
   435.0000      0.0000    454.0187     22.3568    104.2258
   435.2500      0.0000    480.8164     22.1875    103.3881
   435.5000      0.0000    514.0047     21.9527    101.0161
   435.7500      0.0000    556.4178     21.6671     97.1110
   436.0000      0.0000    603.8918     21.3433     92.3893
   436.2500      0.0000    647.3717     20.9924     88.0807
   436.5000      0.0000    678.3925     20.6383     85.4583
   436.7500      0.0000    691.0745     20.3337     85.4380
   437.0000      0.0000    681.2651     20.1560     88.1052
   437.2500      0.0000    647.4235     20.1675     92.1219
   437.5000      0.0000    595.9391     20.3542     94.7316
   437.7500      0.0000    544.7133     20.6055     93.1588
   438.0000      0.0000    514.4676     20.7811     86.5897
   438.2500      0.0000    510.3860     20.8229     76.7513
   438.5000      0.0000    514.4206     20.8062     66.5009
   438.7500      0.0000    501.4260     20.8839     58.0101
   439.0000      0.0000    463.0600     21.1826     52.0867
   439.2500      0.0000    412.8111     21.7437     48.5987
   439.5000      0.0000    369.8100     22.5391     47.1245
   439.7500      0.0000    343.0889     23.5169     47.2808
   440.0000      0.0000    330.4011     24.6121     48.7430
   440.2500      0.0000    325.5878     25.7138     51.2704
   440.5000      0.0000    324.0374     26.6438     54.7473
   440.7500      0.0000    323.5851     27.2126     59.0244
   441.0000      0.0000    323.5016     27.3380     63.7528
   441.2500      0.0000    323.5750     27.1218     68.5116
   441.5000      0.0000    323.7267     26.7917     73.0124
   441.7500      0.0000    323.9256     26.5424     76.9376
   442.0000      0.0000    324.1570     26.4099     79.6549
   442.2500      0.0000    324.4117     26.2859     80.5866
   442.5000      0.0000    324.6778     26.0431     80.0342
   442.7500      0.0000    324.9709     25.6435     79.1344
   443.0000      0.0000    325.4056     25.1415     78.7193
   443.2500      0.0000    326.5319     24.6157     78.7036
   443.5000      0.0000    330.2020     24.1121     78.8887
   443.7500      0.0000    340.9239     23.6367     79.7004
   444.0000      0.0000    366.1748     23.1839     81.6900
   444.2500      0.0000    412.7263     22.7575     84.9005
   444.5000      0.0000    478.9117     22.3672     89.0176
   444.7500      0.0000    549.5122     22.0206     93.5241
   445.0000      0.0000    601.3649     21.7211     97.5579
   445.2500      0.0000    617.7769     21.4527    100.2522
   445.5000      0.0000    600.1583     21.1481    101.4448
   445.7500      0.0000    568.1065     20.6801    101.6975
   446.0000      0.0000    547.8408     19.9338    101.5724
   446.2500      0.0000    557.3036     18.9431    101.0996
   446.5000      0.0000    599.7471     17.9328     99.9955
   446.7500      0.0000    669.4689     17.1444     98.2659
   447.0000      0.0000    758.1212     16.6174     96.3757
   447.2500      0.0000    853.0079     16.2184     94.6114
   447.5000      0.0000    937.3201     15.8516     92.3192
   447.7500      0.0000   1000.2765     15.5348     87.9946
   448.0000      0.0000   1043.9425     15.3042     80.4803
   448.2500      2.0000   1074.8885     15.1574     70.2207
   448.5000      0.0000   1091.1565     15.0906     59.2045
   448.7500      0.0000   1079.3422     15.1518     49.6830
   449.0000      0.0000   1022.6701     15.4689     43.0618
   449.2500      0.0000    913.8252     16.1991     39.7150
   449.5000      0.0000    765.8314     17.3640     39.3159
   449.7500      0.0000    610.8303     18.7448     41.1559
   450.0000      0.0000    482.8024     20.0609     44.4658
   450.2500      0.0000    398.5163     21.2417     48.6791
   450.5000      0.0000    353.8073     22.4259     53.5450
   450.7500      0.0000    334.3912     23.7232     59.1440
   451.0000      0.0000    327.2918     25.0739     65.7455
   451.2500      0.0000    324.9898     26.3231     73.3531
   451.5000      0.0000    324.2619     27.3557     81.2917
   451.7500      0.0000    324.0114     28.1365     88.3029
   452.0000      0.0000    323.9250     28.6557     93.1064
   452.2500      0.0000    323.9232     28.8772     95.0119
   452.5000      0.0000    324.0007     28.7539     94.3887
   452.7500      0.0000    324.1634     28.2856     92.6157
   453.0000      0.0000    324.4186     27.5478     91.0765
   453.2500      0.0000    324.7570     26.6686     90.0804
   453.5000      0.0000    325.1377     25.7841     89.1288
   453.7500      0.0000    325.4931     25.0009     88.0255
   454.0000      0.0000    325.7527     24.3808     87.1562
   454.2500      0.0000    325.8646     23.9465     86.8479
   454.5000      0.0000    325.8073     23.6931     87.0269
   454.7500      0.0000    325.6018     23.5881     87.4839
   455.0000      0.0000    325.3168     23.5681     88.0556
   455.2500      0.0000    325.0548     23.5476     88.5119
   455.5000      0.0000    324.9240     23.4346     88.5574
   455.7500      0.0000    325.0649     23.1536     88.0632
   456.0000      0.0000    325.7301     22.6801     87.1278
   456.2500      0.0000    327.6620     22.0665     85.6478
   456.5000      0.0000    332.6858     21.4211     82.9157
   456.7500      0.0000    344.2932     20.8421     78.0959
   457.0000      0.0000    367.1098     20.3641     71.3197
   457.2500      0.0000    404.1306     19.9620     63.9885
   457.5000      0.0000    452.8354     19.6003     57.7356
   457.7500      0.0000    503.5640     19.2827     53.2585
   458.0000      0.0000    541.8993     19.0595     50.3489
   458.2500      0.0000    553.8972     18.9838     48.7975
   458.5000      0.0000    533.2433     19.0681     48.9067
   458.7500      0.0000    487.0317     19.3016     51.2132
   459.0000      0.0000    432.8146     19.7164     55.9389
   459.2500      0.0000    387.0558     20.4106     62.5755
   459.5000      0.0000    356.4653     21.4793     69.7471
   459.7500      0.0000    339.1743     22.9199     75.7142
   460.0000      0.0000    330.4827     24.6020     79.4555
   460.2500      0.0000    326.4944     26.3192     81.1937
   460.5000      0.0000    324.7834     27.8798     81.6221
