~Version Information
VERS.                      2.0: CWLS Log ASCII Standard - VERSION 2.0
WRAP.                       NO: One line per depth step
~Well Information Block
STRT.FT               440.0000: 
STOP.FT              1702.7500: 
STEP.FT                 0.2500: 
NULL.                -999.2500: 
COMP.          Pioneer Natural Resources: COMPANY
WELL.          Culver 14-12 Tr: WELL
FLD.           Purgatoire River: FIELD
LOC.           915' FSL & 1048' FWL--: LOCATION
STAT.                 Colorado: State
CNTY.               Las Animas: COUNTY
CTRY. USA : Country
SECT. 12 : Section
TOWN. 32S : Township
RANG. 66W : Range
SRVC.                Patterson: SERVICE COMPANY
DATE.          Tue Sep 27 23:38:23 2005: LOG DATE
API.           05 071 08520 00: UNIQUE WELL ID
~Curve Information Block
DEPT.FT            0 000 00 00: Depth
SN.Ohm-m                      : IEL Short Normal
SP.mV                         : IEL Spontaneous Potential
DIR.Ohm-m                     : IEL Induction Resistivity
GR.GAPI                       : Gamma Ray
~Parameter Information Block
~A  Depth        SN          SP         DIR          GR     
# ...
   607.5000   2000.0000   2014.0000     50.5328     79.2214
   607.7500   2000.0000   2014.0000     49.5247     78.8514
   608.0000   2000.0000   2014.0000     48.7449     78.1720
   608.2500   2000.0000   2014.0000     48.3111     78.1265
   608.5000   2000.0000   2014.0000     48.2468     78.8930
   608.7500   2000.0000   2014.0000     48.4602     79.6196
   609.0000   2000.0000   2014.0000     48.7543     79.9968
   609.2500   2000.0000   2014.0000     48.8864     79.2963
   609.5000   2000.0000   2014.0000     48.6756     76.8305
   609.7500   2000.0000   2014.0000     48.0992     74.6891
   610.0000   2000.0000   2014.0000     47.2996     71.5537
   610.2500   2000.0000   2014.0000     46.4855     69.7212
   610.5000   2000.0000   2014.0000     45.8143     67.3373
   610.7500   2000.0000   2014.0000     45.3303     66.0172
   611.0000   2000.0000   2014.0000     44.9783     64.7162
   611.2500   2000.0000   2014.0000     44.6578     64.4389
   611.5000   2000.0000   2014.0000     44.2817     64.9260
   611.7500   2000.0000   2014.0000     43.8187     65.7953
   612.0000   2000.0000   2014.0000     43.3038     67.5939
   612.2500   2000.0000   2014.0000     42.8147     68.6445
   612.5000   2000.0000   2014.0000     42.4275     68.9807
   612.7500   2000.0000   2014.0000     42.1766     68.1305
   613.0000   2000.0000   2014.0000     42.0415     65.8204
   613.2500   2000.0000   2014.0000     41.9630     64.2535
   613.5000   2000.0000   2014.0000     41.8671     62.8603
   613.7500   2000.0000   2014.0000     41.6682     62.9169
   614.0000   2000.0000   2014.0000     41.2580     64.7826
   614.2500   2000.0000   2014.0000     40.5143     67.2858
   614.5000   2000.0000   2014.0000     39.3477     72.8027
   614.7500   2000.0000   2014.0000     37.7522     77.4044
   615.0000   2000.0000   2014.0000     35.8090     85.1663
   615.2500   2000.0000   2014.0000     33.6477     90.6911
   615.5000   2000.0000   2014.0000     31.4052     99.0709
   615.7500   2000.0000   2014.0000     29.2071    104.2263
   616.0000   2000.0000   2014.0000     27.1584    110.3063
   616.2500   2000.0000   2014.0000     25.3326    113.0586
   616.5000   2000.0000   2014.0000     23.7634    115.9048
   616.7500   2000.0000   2014.0000     22.4463    117.5349
   617.0000   2000.0000   2014.0000     21.3517    120.1432
   617.2500   2000.0000   2014.0000     20.4435    122.0542
   617.5000   2000.0000   2014.0000     19.6930    125.1168
   617.7500   2000.0000   2014.0000     19.0826    127.1023
   618.0000   2000.0000   2014.0000     18.6005    129.2130
   618.2500   2000.0000   2014.0000     18.2315    129.5307
   618.5000   2000.0000   2014.0000     17.9521    128.2141
   618.7500   2000.0000   2014.0000     17.7304    126.6157
   619.0000   2000.0000   2014.0000     17.5302    124.3299
   619.2500   2000.0000   2014.0000     17.3168    123.3984
   619.5000   2000.0000   2014.0000     17.0629    123.1273
   619.7500   2000.0000   2014.0000     16.7547    123.4708
   620.0000   2000.0000   2014.0000     16.3962    124.3138
   620.2500   2000.0000   2014.0000     16.0089    125.1693
   620.5000   2000.0000   2014.0000     15.6268    127.3314
   620.7500   2000.0000   2014.0000     15.2871    129.1825
   621.0000   2000.0000   2014.0000     15.0206    131.2710
   621.2500   2000.0000   2014.0000     14.8466    131.4734
   621.5000   2000.0000   2014.0000     14.7711    129.7579
   621.7500   2000.0000   2014.0000     14.7892    127.6743
   622.0000   2000.0000   2014.0000     14.8897    124.1867
   622.2500   2000.0000   2014.0000     15.0594    122.1483
   622.5000   2000.0000   2014.0000     15.2859    119.8586
   622.7500   2000.0000   2014.0000     15.5588    118.6753
   623.0000   2000.0000   2014.0000     15.8686    116.9881
   623.2500   2000.0000   2014.0000     16.2064    115.9030
   623.5000   2000.0000   2014.0000     16.5649    114.6924
   623.7500   2000.0000   2014.0000     16.9360    114.2846
   624.0000   2000.0000   2014.0000     17.3059    113.9879
   624.2500   2000.0000   2014.0000     17.6497    113.8426
   624.5000   2000.0000   2014.0000     17.9338    114.1313
   624.7500   2000.0000   2014.0000     18.1290    115.1220
   625.0000   2000.0000   2014.0000     18.2281    117.8266
   625.2500   2000.0000   2014.0000     18.2518    119.8252
   625.5000   2000.0000   2014.0000     18.2383    121.9733
   625.7500   2000.0000   2014.0000     18.2241    122.6225
   626.0000   2000.0000   2014.0000     18.2298    122.5962
   626.2500   2000.0000   2014.0000     18.2600    121.9934
   626.5000   2000.0000   2014.0000     18.3095    120.4209
   626.7500   2000.0000   2014.0000     18.3686    119.3523
   627.0000   2000.0000   2014.0000     18.4265    118.8126
   627.2500   2000.0000   2014.0000     18.4732    119.5556
   627.5000   2000.0000   2014.0000     18.5043    121.9807
   627.7500   2000.0000   2014.0000     18.5231    123.7976
   628.0000   2000.0000   2014.0000     18.5368    125.6480
   628.2500   2000.0000   2014.0000     18.5491    125.9688
   628.5000   2000.0000   2014.0000     18.5566    125.2290
   628.7500   2000.0000   2014.0000     18.5519    124.2283
   629.0000   2000.0000   2014.0000     18.5321    122.4242
   629.2500   2000.0000   2014.0000     18.5042    121.1433
   629.5000   2000.0000   2014.0000     18.4834    119.2598
   629.7500   2000.0000   2014.0000     18.4840    118.2575
   630.0000   2000.0000   2014.0000     18.5127    117.6043
   630.2500   2000.0000   2014.0000     18.5663    117.7026
   630.5000   2000.0000   2014.0000     18.6347    117.8922
   630.7500   2000.0000   2014.0000     18.7036    117.6732
   631.0000   2000.0000   2014.0000     18.7580    117.2651
   631.2500   2000.0000   2014.0000     18.7884    117.6915
   631.5000   2000.0000   2014.0000     18.7983    120.2253
   631.7500   2000.0000   2014.0000     18.8054    122.8878
   632.0000   2000.0000   2014.0000     18.8340    126.8913
   632.2500   2000.0000   2014.0000     18.9024    128.8639
   632.5000   2000.0000   2014.0000     19.0173    130.5367
   632.7500   2000.0000   2014.0000     19.1762    130.8754
   633.0000   2000.0000   2014.0000     19.3761    129.8902
   633.2500   2000.0000   2014.0000     19.6207    127.9627
   633.5000   2000.0000   2014.0000     19.9191    123.5830
   633.7500   2000.0000   2014.0000     20.2765    120.4957
   634.0000   2000.0000   2014.0000     20.6844    117.0390
   634.2500   2000.0000   2014.0000     21.1168    115.9443
   634.5000   2000.0000   2014.0000     21.5369    116.2342
   634.7500   2000.0000   2014.0000     21.9071    117.5186
   635.0000   2000.0000   2014.0000     22.1977    120.2427
   635.2500   2000.0000   2014.0000     22.3907    121.9295
   635.5000   2000.0000   2014.0000     22.4811    123.3925
   635.7500   2000.0000   2014.0000     22.4780    123.4465
   636.0000   2000.0000   2014.0000     22.4063    122.2271
   636.2500   2000.0000   2014.0000     22.3026    120.8572
   636.5000   2000.0000   2014.0000     22.2081    118.8541
   636.7500   2000.0000   2014.0000     22.1590    117.9660
   637.0000   2000.0000   2014.0000     22.1822    117.2351
   637.2500   2000.0000   2014.0000     22.2949    116.7045
   637.5000   2000.0000   2014.0000     22.5096    115.0789
   637.7500   2000.0000   2014.0000     22.8371    113.2915
   638.0000   2000.0000   2014.0000     23.2847    109.8569
   638.2500   2000.0000   2014.0000     23.8513    107.4361
   638.5000   2000.0000   2014.0000     24.5230    104.2407
   638.7500   2000.0000   2014.0000     25.2754    102.5692
   639.0000   2000.0000   2014.0000     26.0830    100.5084
   639.2500   2000.0000   2014.0000     26.9287     99.1212
   639.5000   2000.0000   2014.0000     27.8055     96.7444
   639.7500   2000.0000   2014.0000     28.7080     95.1083
   640.0000   2000.0000   2014.0000     29.6186     93.0690
   640.2500   2000.0000   2014.0000     30.4999     92.1803
   640.5000   2000.0000   2014.0000     31.3013     91.6737
   640.7500   2000.0000   2014.0000     31.9778     91.9696
