~Version Information
VERS.                      2.0: CWLS Log ASCII Standard - VERSION 2.0
WRAP.                       NO: One line per depth step
~Well Information Block
STRT.FT               390.0000: 
STOP.FT               825.0000: 
STEP.FT                 0.1000: 
NULL.                -999.2500: 
COMP.          Pioneer Natural Resources: COMPANY
WELL.             Veedol 34-28: WELL
FLD.           Purgatoire River: FIELD
LOC.           357' FSL & 2520' FEL: LOCATION
PROV.                 Colorado: PROVINCE
CNTY.               Las Animas: COUNTRY
SRVC.                Patterson: SERVICE COMPANY
DATE.          Thu Dec 22 14:38:20 2005: LOG DATE
UWI.           05 071 08628 00: UNIQUE WELL ID
~Curve Information Block
DEPT.FT            0 000 00 00: Depth
DCAL.in                       : CDL Caliper
RHOB.g/cc                     : CDL Bulk Density
RHOC.g/cc                     : CDL Density Correction
DPOR.pu                       : CDL Density Porosity
GR.GAPI                       : Gamma Ray
NPOR.pu                       : Neutron Porosity
~Parameter Information Block
~A  Depth       DCAL        RHOB        RHOC        DPOR         GR         NPOR    
# ...
   476.4000      7.8549      2.3677      0.2026     17.1069     84.5450     19.2115
   476.5000      7.8452      2.3765      0.2143     16.5773     85.4865     19.4383
   476.6000      7.8452      2.3726      0.1401     16.8127     89.7668     20.5606
   476.7000      7.8452      2.3814      0.1109     16.2804     96.6359     21.9345
   476.8000      7.8533      2.4069      0.1557     14.7353     97.7694     22.9486
   476.9000      7.8533      2.4319      0.1747     13.2153     94.0927     23.6352
   477.0000      7.8686      2.4471      0.1430     12.2976     93.1013     23.9329
   477.1000      7.8686      2.4563      0.1254     11.7420     94.0461     23.7928
   477.2000      7.8686      2.4606      0.1189     11.4807     93.9258     23.2385
   477.3000      7.8759      2.4538      0.1191     11.8932     93.9055     22.2871
   477.4000      7.8759      2.4364      0.0584     12.9475     93.8333     21.3555
   477.5000      7.8771      2.4233      0.0110     13.7413     91.7318     20.9096
   477.6000      7.8771      2.4272      0.0111     13.5052     89.0802     20.5505
   477.7000      7.8771      2.4426      0.0413     12.5693     87.4153     19.9124
   477.8000      7.8750      2.4591      0.0286     11.5711     84.8980     19.6329
   477.9000      7.8750      2.4710      0.0530     10.8474     81.3888     19.9026
   478.0000      7.8681      2.4740      0.0745     10.6645     77.5052     20.0967
   478.1000      7.8681      2.4854      0.0228      9.9748     73.4992     20.0543
   478.2000      7.8681      2.5298      0.1168      7.2827     71.8929     19.8802
   478.3000      7.8599      2.5889      0.1942      3.7028     74.1608     19.6255
   478.4000      7.8599      2.6285      0.1968      1.3054     74.7793     19.6893
   478.5000      7.8608      2.6397      0.2137      0.6223     68.9042     20.2247
   478.6000      7.8608      2.6227      0.1621      1.6549     63.5951     20.7025
   478.7000      7.8608      2.5797      0.1168      4.2602     65.7217     20.6822
   478.8000      7.8708      2.5303      0.0745      7.2564     71.0286     20.4098
   478.9000      7.8708      2.5039      0.0296      8.8532     75.2659     20.3654
   479.0000      7.8776      2.5079      0.0533      8.6138     79.0991     20.5236
   479.1000      7.8776      2.5258      0.0559      7.5259     81.0938     20.7555
   479.2000      7.8776      2.5475      0.0572      6.2097     80.2714     20.8135
   479.3000      7.8775      2.5724      0.0891      4.7006     79.5057     20.1616
   479.4000      7.8775      2.5968      0.1598      3.2262     78.5874     19.3159
   479.5000      7.8736      2.6144      0.1199      2.1554     73.8054     19.5819
   479.6000      7.8736      2.6266      0.1328      1.4196     66.5629     20.7610
   479.7000      7.8736      2.6363      0.1466      0.8277     59.7398     21.7703
   479.8000      7.8708      2.6385      0.1386      0.6974     55.7482     22.2537
   479.9000      7.8708      2.6217      0.1379      1.7160     58.6150     22.1033
   480.0000      7.8725      2.5886      0.0780      3.7203     66.1179     21.4966
   480.1000      7.8725      2.5601      0.0519      5.4478     70.9334     21.0834
   480.2000      7.8725      2.5538     -0.0044      5.8328     70.8533     21.0103
   480.3000      7.8748      2.5672     -0.0127      5.0155     69.1671     20.7971
   480.4000      7.8748      2.5808     -0.0263      4.1918     71.1205     20.4846
   480.5000      7.8763      2.5817     -0.0445      4.1364     79.0822     20.5492
   480.6000      7.8763      2.5728     -0.0371      4.6763     88.4760     21.0543
   480.7000      7.8763      2.5562     -0.0101      5.6861     92.3570     21.5483
   480.8000      7.8767      2.5273      0.0031      7.4355     90.5202     21.3544
   480.9000      7.8767      2.4920      0.0028      9.5733     88.2347     20.4961
   481.0000      7.8762      2.4670     -0.0443     11.0933     90.0769     19.9600
   481.1000      7.8762      2.4514      0.0408     12.0369     94.6268     20.0373
   481.2000      7.8762      2.4371     -0.0369     12.9016     94.3898     20.2164
   481.3000      7.8749      2.4369     -0.0237     12.9150     86.2520     20.4842
   481.4000      7.8749      2.4537      0.0218     11.8994     76.1550     20.8257
   481.5000      7.8714      2.4715      0.0069     10.8167     71.1140     20.7565
   481.6000      7.8714      2.4858      0.0369      9.9530     71.0185     20.1068
   481.7000      7.8714      2.4993      0.0665      9.1306     71.1047     19.4050
   481.8000      7.8626      2.5121      0.0804      8.3583     70.4090     19.1044
   481.9000      7.8626      2.5198      0.1059      7.8883     67.8246     18.9667
   482.0000      7.8509      2.5109      0.1263      8.4301     62.0796     18.6568
   482.1000      7.8509      2.4844      0.0360     10.0350     58.0516     18.4005
   482.2000      7.8509      2.4612      0.0282     11.4414     60.1144     18.5128
   482.3000      7.8486      2.4569      0.0225     11.7003     64.9323     18.8403
   482.4000      7.8486      2.4740      0.0809     10.6689     66.6659     18.8644
   482.5000      7.8598      2.5062      0.1108      8.7159     64.9669     18.3059
   482.6000      7.8598      2.5382      0.1785      6.7752     62.2698     17.6014
   482.7000      7.8598      2.5555      0.1501      5.7269     59.7297     17.3135
   482.8000      7.8731      2.5633      0.0984      5.2556     60.1955     17.5369
   482.9000      7.8731      2.5758      0.1146      4.4998     66.2152     18.0237
   483.0000      7.8786      2.5907      0.1318      3.5968     74.3585     18.6252
   483.1000      7.8786      2.5934      0.1576      3.4308     77.6869     19.1579
   483.2000      7.8786      2.5770      0.0935      4.4258     74.2760     19.2922
   483.3000      7.8787      2.5526      0.0873      5.9009     68.0957     19.0413
   483.4000      7.8787      2.5389      0.0697      6.7317     64.5256     18.6408
   483.5000      7.8793      2.5432      0.0810      6.4713     64.6013     18.3833
   483.6000      7.8793      2.5500      0.1044      6.0580     62.7352     18.3787
   483.7000      7.8793      2.5409      0.0483      6.6127     55.4929     18.3026
   483.8000      7.8789      2.5219      0.0589      7.7644     48.7378     17.9770
   483.9000      7.8789      2.5087      0.0560      8.5656     49.0255     17.7331
   484.0000      7.8774      2.5034      0.0447      8.8843     53.1733     17.8935
   484.1000      7.8774      2.4969      0.0704      9.2789     53.9970     18.3627
   484.2000      7.8774      2.4863      0.0093      9.9222     50.7681     18.5915
   484.3000      7.8788      2.4793      0.0337     10.3443     48.2515     18.2484
   484.4000      7.8788      2.4756      0.0643     10.5688     49.1914     17.6093
   484.5000      7.8806      2.4775     -0.0141     10.4563     52.6300     16.9820
   484.6000      7.8806      2.4944      0.0293      9.4296     55.9844     16.7252
   484.7000      7.8806      2.5157      0.0601      8.1393     55.5530     16.8847
   484.8000      7.8807      2.5293      0.0183      7.3162     51.1617     17.2544
   484.9000      7.8807      2.5401      0.0541      6.6609     49.0182     17.7919
   485.0000      7.8808      2.5498      0.0713      6.0745     51.6892     17.9882
   485.1000      7.8808      2.5595      0.0605      5.4865     53.5801     17.4800
   485.2000      7.8808      2.5691      0.0999      4.9050     52.0828     16.8451
   485.3000      7.8806      2.5715      0.0345      4.7585     50.8504     16.4742
   485.4000      7.8806      2.5644      0.0752      5.1871     50.9915     16.3917
   485.5000      7.8810      2.5456      0.0519      6.3285     50.3328     16.7354
   485.6000      7.8810      2.5179      0.0293      8.0031     47.1946     17.2641
   485.7000      7.8810      2.4938      0.0271      9.4654     43.8539     17.3446
   485.8000      7.8822      2.4807      0.0061     10.2595     44.6165     16.6029
   485.9000      7.8822      2.4824     -0.0210     10.1567     47.5883     15.6317
