~Version Information
VERS.                      2.0: CWLS Log ASCII Standard - VERSION 2.0
WRAP.                       NO: One line per depth step
~Well Information Block
STRT.FT               550.0000: 
STOP.FT              1981.5000: 
STEP.FT                 0.2500: 
NULL.                -999.2500: 
COMP.          Pioneer Natural Resources: COMPANY
WELL.          Flying Horse 12-11 Tr: WELL
FLD.           Purgatoire River: FIELD
LOC.           2459' FNL & 410' FWL: LOCATION
STAT.                 Colorado: State
CNTY.               Las Animas: COUNTY
CTRY. USA : Country
SECT. 11 : Section
TOWN. 32S : Township
RANG. 66W : Range
SRVC.                Patterson: SERVICE COMPANY
DATE.          Sat Sep 03 20:17:31 2005: LOG DATE
API.           05 071 08485 00: UNIQUE WELL ID
~Curve Information Block
DEPT.FT            0 000 00 00: Depth
SN.Ohm-m                      : IEL Short Normal
SP.mV                         : IEL Spontaneous Potential
DIR.Ohm-m                     : IEL Induction Resistivity
GR.GAPI                       : Gamma Ray
~Parameter Information Block
~A  Depth        SN          SP         DIR          GR     
# ...
  1588.5000     25.5072    159.0158     16.2612    101.1334
  1588.7500     26.3903    158.6430     15.5076    104.9755
  1589.0000     26.2816    158.8409     14.7763    113.0520
  1589.2500     25.0254    159.3676     14.1144    118.5713
  1589.5000     22.7379    159.7748     13.5431    125.4990
  1589.7500     19.8680    159.6340     13.0684    129.0117
  1590.0000     17.0714    158.8306     12.6890    132.6521
  1590.2500     14.8537    157.6229     12.3989    133.7551
  1590.5000     13.3560    156.4249     12.1890    133.0058
  1590.7500     12.4880    155.5675     12.0480    131.2225
  1591.0000     12.1141    155.2261     11.9646    127.8545
  1591.2500     12.0585    155.4532     11.9277    125.4975
  1591.5000     12.1313    156.1823     11.9263    121.2322
  1591.7500     12.2915    157.2045     11.9526    117.4556
  1592.0000     12.6452    158.2117     12.0050    110.5582
  1592.2500     13.2566    158.9299     12.0922    105.7965
  1592.5000     14.0993    159.2569     12.2348     99.6590
  1592.7500     15.1827    159.3049     12.4616     96.6534
  1593.0000     16.6188    159.3242     12.8002     93.9007
  1593.2500     18.4806    159.5658     13.2641     93.1936
  1593.5000     20.5942    160.1593     13.8439     93.9943
  1593.7500     22.5465    161.0575     14.5055     95.9660
  1594.0000     23.9386    162.0685     15.1941    100.8436
  1594.2500     24.6033    162.9660     15.8394    104.6454
  1594.5000     24.5657    163.6416     16.3625    109.7025
  1594.7500     23.9203    164.1974     16.6880    112.3785
  1595.0000     22.8149    164.8731     16.7641    116.0558
  1595.2500     21.4622    165.8359     16.5827    118.7540
  1595.5000     20.0628    167.0206     16.1846    123.1595
  1595.7500     18.7029    168.1796     15.6398    125.8874
  1596.0000     17.4004    169.0799     15.0156    128.7189
  1596.2500     16.2178    169.6467     14.3562    129.3908
  1596.5000     15.2308    169.9618     13.6837    128.6849
  1596.7500     14.4417    170.1744     13.0127    127.6835
  1597.0000     13.7944    170.4182     12.3619    126.8850
  1597.2500     13.2383    170.7780     11.7535    127.4126
  1597.5000     12.7443    171.2934     11.2066    129.6927
  1597.7500     12.2885    171.9623     10.7310    131.6828
  1598.0000     11.8488    172.7319     10.3264    134.5181
  1598.2500     11.4128    173.4908      9.9840    136.0871
  1598.5000     10.9790    174.0818      9.6900    138.1100
  1598.7500     10.5303    174.3617      9.4299    139.5756
  1599.0000     10.0212    174.2981      9.1936    142.6967
  1599.2500      9.4650    174.0158      8.9765    145.6071
  1599.5000      8.9777    173.7142      8.7776    150.7019
  1599.7500      8.6401    173.5213      8.5962    153.7689
  1600.0000      8.4012    173.4449      8.4305    156.1241
  1600.2500      8.1706    173.4721      8.2782    155.4657
  1600.5000      7.9368    173.6961      8.1384    151.4476
  1600.7500      7.7758    174.3227      8.0124    148.0433
  1601.0000      7.7729    175.5486      7.9019    144.8470
  1601.2500      7.9271    177.4409      7.8071    145.0542
  1601.5000      8.1332    179.9270      7.7248    148.0606
  1601.7500      8.2790    182.8573      7.6493    150.1091
  1602.0000      8.3270    186.0241      7.5753    150.2289
  1602.2500      8.2812    189.1321      7.4997    147.7083
  1602.5000      8.1541    191.8293      7.4225    141.2139
  1602.7500      7.9905    193.8434      7.3458    136.4628
  1603.0000      7.8625    195.1080      7.2726    130.9767
  1603.2500      7.8150    195.7552      7.2062    129.2325
  1603.5000      7.8410    196.0014      7.1490    129.5143
  1603.7500      7.9066    196.0453      7.1018    130.9299
  1604.0000      7.9541    196.0375      7.0636    133.4107
  1604.2500      7.8999    196.0818      7.0332    134.8468
  1604.5000      7.6949    196.2287      7.0112    136.7262
  1604.7500      7.4437    196.4682      6.9999    137.8752
  1605.0000      7.4095    196.7396      7.0021    138.9158
  1605.2500      7.6976    196.9423      7.0198    138.5688
  1605.5000      8.0144    196.9389      7.0536    136.0732
  1605.7500      8.0282    196.5631      7.1029    133.6552
  1606.0000      7.7869    195.6527      7.1669    130.7770
  1606.2500      7.5702    194.1049      7.2449    130.1244
  1606.5000      7.5598    191.9378      7.3361    130.6776
  1606.7500      7.7200    189.3215      7.4405    131.1467
  1607.0000      7.9235    186.5261      7.5581    130.6785
  1607.2500      8.1216    183.8008      7.6879    129.5074
  1607.5000      8.2820    181.2831      7.8278    127.4773
  1607.7500      8.3278    178.9984      7.9747    126.8079
  1608.0000      8.2857    176.9030      8.1262    127.7674
  1608.2500      8.3235    174.9173      8.2821    129.5313
  1608.5000      8.5305    172.9600      8.4447    132.3695
  1608.7500      8.7989    170.9933      8.6179    133.4364
  1609.0000      8.9739    169.0466      8.8066    133.2939
  1609.2500      9.0050    167.2060      9.0142    132.5349
  1609.5000      8.9793    165.5973      9.2393    131.6856
  1609.7500      9.0753    164.3634      9.4745    131.8102
  1610.0000      9.4034    163.6012      9.7112    133.3195
  1610.2500      9.8876    163.2743      9.9481    135.1067
  1610.5000     10.3681    163.1986     10.1965    138.0818
  1610.7500     10.7468    163.1477     10.4761    139.3525
  1611.0000     11.0149    162.9905     10.8055    138.8822
  1611.2500     11.2612    162.7407     11.1954    136.8863
  1611.5000     11.6404    162.5029     11.6484    132.1377
  1611.7500     12.2246    162.3883     12.1610    128.2533
  1612.0000     12.9576    162.4601     12.7281    121.6336
  1612.2500     13.8414    162.7203     13.3481    116.7453
  1612.5000     14.9977    163.1225     14.0264    109.1229
  1612.7500     16.5185    163.5997     14.7759    104.2196
  1613.0000     18.4658    164.1000     15.6112     97.1828
  1613.2500     20.9545    164.6103     16.5425     92.1989
  1613.5000     24.0455    165.1470     17.5739     83.5210
  1613.7500     27.6350    165.7198     18.7069     77.2391
  1614.0000     31.5493    166.3090     19.9466     68.5911
  1614.2500     35.6922    166.8647     21.3035     64.0094
  1614.5000     40.0141    167.2905     22.7903     58.9120
  1614.7500     44.4125    167.4103     24.4125     56.3080
  1615.0000     48.7919    167.0034     26.1513     52.9927
  1615.2500     53.1742    165.9359     27.9453     50.9749
  1615.5000     57.6207    164.2776     29.6858     47.9761
  1615.7500     62.0079    162.2991     31.2442     45.8387
  1616.0000     66.0172    160.3793     32.5260     42.3455
  1616.2500     69.4816    158.9017     33.5149     40.0606
  1616.5000     72.5980    158.1590     34.2693     37.3946
  1616.7500     75.6537    158.2758     34.8727     36.3522
  1617.0000     78.6852    159.1797     35.3677     35.7693
  1617.2500     81.4723    160.6320     35.7111     35.9068
  1617.5000     83.7102    162.3029     35.7779     36.7980
  1617.7500     85.1568    163.8843     35.4104     37.6719
  1618.0000     85.6762    165.2164     34.4811     38.8015
  1618.2500     85.1883    166.3411     32.9350     39.1563
  1618.5000     83.6017    167.4213     30.8180     39.2760
  1618.7500     80.7493    168.5892     28.2929     39.6359
  1619.0000     76.3859    169.8508     25.6111     41.8874
  1619.2500     70.2849    171.0932     23.0243     45.1363
  1619.5000     62.3868    172.1393     20.7014     53.1395
  1619.7500     53.0304    172.8045     18.7053     60.5973
  1620.0000     43.1570    172.9649     17.0240     74.5099
  1620.2500     34.0368    172.6222     15.6156     84.8861
  1620.5000     26.5726    171.9036     14.4357    100.2467
  1620.7500     20.9951    170.9693     13.4444    109.2310
  1621.0000     17.1156    169.8988     12.6042    119.3985
  1621.2500     14.5404    168.6585     11.8802    123.6275
  1621.5000     12.8173    167.1701     11.2445    126.7296
  1621.7500     11.6621    165.4029     10.6804    127.5718
