~Version Information
VERS.                      2.0: CWLS Log ASCII Standard - VERSION 2.0
WRAP.                       NO: One line per depth step
~Well Information Block
STRT.FT               345.0000: 
STOP.FT              2167.7000: 
STEP.FT                 0.1000: 
NULL.                -999.2500: 
COMP.          Pioneer Natural Resources: COMPANY
WELL.          Hemisphere 32-24: WELL
FLD.           Purgatoire River: FIELD
LOC.           1850' FNL & 2284' FEL--: LOCATION
PROV.                 Colorado: PROVINCE
CNTY.               Las Animas: COUNTRY
SRVC.                Patterson: SERVICE COMPANY
DATE.          Mon Aug 15 07:19:13 2005: LOG DATE
UWI.           05 071 08440 00: UNIQUE WELL ID
~Curve Information Block
DEPT.FT            0 000 00 00: Depth
DCAL.in                       : CDL Caliper
RHOB.g/cc                     : CDL Bulk Density
RHOC.g/cc                     : CDL Density Correction
DPOR.pu                       : CDL Density Porosity
NPOR.pu                       : Neutron Porosity
GR.GAPI                       : Gamma Ray
~Parameter Information Block
~A  Depth       DCAL        RHOB        RHOC        DPOR        NPOR         GR     
# ...
   585.0000      8.1171      2.6129      0.0287      2.2485     26.1767    110.9917
   585.1000      8.1171      2.6119      0.0278      2.3075     26.5734    107.5230
   585.2000      8.1171      2.6125      0.0405      2.2733     27.0329    106.3294
   585.3000      8.1098      2.6172      0.0205      1.9867     27.3383    111.8271
   585.4000      8.1098      2.6155      0.0518      2.0910     27.5781    120.2311
   585.5000      8.1060      2.6075      0.0271      2.5769     27.7591    127.4489
   585.6000      8.1060      2.6117      0.0098      2.3187     27.5914    131.7539
   585.7000      8.1060      2.6334      0.0596      1.0090     27.1188    132.1157
   585.8000      8.1051      2.6515      0.0676     -0.0889     26.9096    128.0157
   585.9000      8.1051      2.6500      0.0585      0.0012     27.2674    121.8452
   586.0000      8.1063      2.6444     -0.0036      0.3405     27.8368    117.8385
   586.1000      8.1063      2.6508      0.0594     -0.0461     28.2940    116.5616
   586.2000      8.1063      2.6468      0.1107      0.1961     28.5821    114.7561
   586.3000      8.1070      2.6182     -0.0284      1.9255     28.6633    111.0664
   586.4000      8.1070      2.5970     -0.0124      3.2113     28.7391    108.3730
   586.5000      8.1070      2.6098     -0.0657      2.4335     29.0135    109.0003
   586.6000      8.1070      2.6389      0.0102      0.6725     29.4246    111.6570
   586.7000      8.1070      2.6515     -0.0005     -0.0939     29.5350    113.7216
   586.8000      8.1059      2.6472     -0.0269      0.1706     29.0022    114.1983
   586.9000      8.1059      2.6455      0.0062      0.2739     28.3265    115.7939
   587.0000      8.1052      2.6513      0.0588     -0.0797     28.1593    119.7887
   587.1000      8.1052      2.6570      0.0767     -0.4234     28.3003    121.4059
   587.2000      8.1052      2.6646      0.0551     -0.8861     28.2590    116.6713
   587.3000      8.1061      2.6761      0.0741     -1.5811     27.9807    109.0367
   587.4000      8.1061      2.6771      0.0434     -1.6446     27.5732    104.7468
   587.5000      8.1071      2.6629      0.0472     -0.7842     27.2445    104.7284
   587.6000      8.1071      2.6445      0.0023      0.3358     27.1702    104.3317
   587.7000      8.1071      2.6335      0.0078      1.0016     27.2625    101.2286
   587.8000      8.1080      2.6290     -0.0078      1.2750     27.3025     98.3137
   587.9000      8.1080      2.6149      0.0010      2.1281     27.1989     98.4383
   588.0000      8.1073      2.5834     -0.0476      4.0381     27.0237    101.7950
   588.1000      8.1073      2.5459     -0.0216      6.3062     26.6542    107.3846
   588.2000      8.1073      2.5186     -0.0064      7.9653     25.8127    112.8398
   588.3000      8.1038      2.5156     -0.0382      8.1473     24.7043    114.9987
   588.4000      8.1038      2.5403      0.0115      6.6458     23.8366    112.8209
   588.5000      8.1012      2.5728      0.0499      4.6763     23.3605    108.5334
   588.6000      8.1012      2.6008     -0.0139      2.9822     23.0645    104.0996
   588.7000      8.1012      2.6308      0.0752      1.1620     22.8083    102.3613
   588.8000      8.1014      2.6584      0.0769     -0.5081     22.6210    103.7102
   588.9000      8.1014      2.6717      0.0763     -1.3151     22.6255    102.0531
   589.0000      8.1042      2.6585      0.0968     -0.5164     22.9155     95.0390
   589.1000      8.1042      2.6169      0.0287      2.0057     23.3530     89.7240
   589.2000      8.1042      2.5796     -0.0188      4.2671     23.8064     90.4659
   589.3000      8.1085      2.5778     -0.0137      4.3751     24.3508     92.2244
   589.4000      8.1085      2.5983      0.0292      3.1305     24.9629     91.4977
   589.5000      8.1097      2.6171     -0.0336      1.9938     25.3718     91.2786
   589.6000      8.1097      2.6272      0.0518      1.3845     25.4428     93.4914
   589.7000      8.1097      2.6225      0.0258      1.6684     25.2663     96.1076
   589.8000      8.1074      2.6079      0.0176      2.5490     25.0829     96.8289
   589.9000      8.1074      2.5929      0.0425      3.4604     25.1731     96.7979
   590.0000      8.1052      2.5830     -0.0578      4.0586     25.5031     96.5614
   590.1000      8.1052      2.5858      0.0140      3.8892     25.8864     92.5236
   590.2000      8.1052      2.5998     -0.0198      3.0397     26.1758     84.8305
   590.3000      8.1037      2.6152      0.0506      2.1099     26.2149     80.3355
   590.4000      8.1037      2.6195      0.0221      1.8464     26.0398     82.9868
   590.5000      8.0984      2.6045      0.0525      2.7594     25.8972     87.3262
   590.6000      8.0984      2.5709      0.0286      4.7965     25.8075     88.1242
   590.7000      8.0984      2.5433     -0.0282      6.4669     25.6508     87.7775
   590.8000      8.0881      2.5476      0.0154      6.2045     25.5259     89.4542
   590.9000      8.0881      2.5711      0.0453      4.7822     25.5968     90.9945
   591.0000      8.0836      2.5830      0.0615      4.0595     25.6306     88.9668
   591.1000      8.0836      2.5738      0.0513      4.6200     25.3965     83.6112
   591.2000      8.0836      2.5569     -0.0022      5.6440     25.2762     79.1909
   591.3000      8.0908      2.5466     -0.0033      6.2691     25.4693     80.0176
   591.4000      8.0908      2.5452     -0.0288      6.3511     25.5472     86.2250
   591.5000      8.1011      2.5512      0.0176      5.9907     25.0604     92.8439
   591.6000      8.1011      2.5654      0.0091      5.1298     24.3771     94.2875
   591.7000      8.1011      2.5874      0.0176      3.7957     24.3904     92.6127
   591.8000      8.1043      2.6096      0.0596      2.4500     24.9704     91.9849
   591.9000      8.1043      2.6242      0.0665      1.5630     25.3312     90.4770
   592.0000      8.1026      2.6291      0.0503      1.2671     25.2840     87.6867
   592.1000      8.1026      2.6237      0.0979      1.5915     25.1304     86.4867
   592.2000      8.1026      2.6128      0.0423      2.2557     25.2109     88.2274
   592.3000      8.1032      2.6077      0.0587      2.5638     25.4791     90.9937
   592.4000      8.1032      2.6045      0.0980      2.7582     25.5422     90.5623
   592.5000      8.1071      2.5862      0.0669      3.8638     25.3524     89.7838
   592.6000      8.1071      2.5659     -0.0348      5.0978     25.2191     93.2760
   592.7000      8.1071      2.5680      0.0245      4.9700     25.2260     96.2854
   592.8000      8.1093      2.5807      0.0339      4.2010     25.3143     95.2705
   592.9000      8.1093      2.5846      0.0304      3.9629     25.3312     92.9376
   593.0000      8.1078      2.5865      0.0198      3.8482     25.1896     89.4393
   593.1000      8.1078      2.6007      0.0231      2.9871     25.3493     85.1274
   593.2000      8.1078      2.6232      0.0721      1.6247     26.0084     84.3450
   593.3000      8.1057      2.6368      0.0751      0.7989     26.5381     85.8997
   593.4000      8.1057      2.6342      0.0526      0.9546     26.5659     86.1821
   593.5000      8.1101      2.6296      0.0387      1.2338     26.4034     87.8487
   593.6000      8.1101      2.6484      0.0101      0.0942     26.2363     91.6497
   593.7000      8.1101      2.6969      0.0615     -2.8421     26.0976     93.4176
   593.8000      8.1206      2.7403      0.1498     -5.4718     26.0589     92.3181
   593.9000      8.1206      2.7378      0.1350     -5.3203     26.0945     89.8302
   594.0000      8.1289      2.6973      0.0469     -2.8646     26.1599     87.6621
   594.1000      8.1289      2.6588      0.0676     -0.5319     26.3055     88.2505
   594.2000      8.1289      2.6387      0.0712      0.6827     26.6177     90.4566
   594.3000      8.1320      2.6254      0.0715      1.4922     26.8152     91.7540
   594.4000      8.1320      2.6113      0.0150      2.3437     26.7496     90.1662
   594.5000      8.1319      2.6026      0.0243      2.8703     26.6493     86.2632
