~Version Information
VERS.                      2.0: CWLS Log ASCII Standard - VERSION 2.0
WRAP.                       NO: One line per depth step
~Well Information Block
STRT.FT               570.0000: 
STOP.FT              1958.5000: 
STEP.FT                 0.2500: 
NULL.                -999.2500: 
COMP.          Petrogulf Corporation: COMPANY
WELL.            Montoya 7-14R: WELL
FLD.           Purgatorie River: FIELD
LOC.           628' FSL & 454' FWL: LOCATION
PROV.                 Colorado: PROVINCE
CNTY.               Las Animas: COUNTRY
SRVC.                Patterson: SERVICE COMPANY
DATE.          Sat Oct 08 17:13:52 2005: LOG DATE
UWI.                          : UNIQUE WELL ID
~Curve Information Block
DEPT.FT            0 000 00 00: Depth
SP.mV                         : DIL Spontaneous Potential
RILD.Ohm-m                    : DIL Deep Resistivity
RILM.Ohm-m                    : DIL Medium Resistivity
RLL3.Ohm-m                    : DIL Shallow Resistivity
GR.GAPI                       : Gamma Ray
~Parameter Information Block
~A  Depth        SP         RILD        RILM        RLL3         GR     
# ...
  1746.0000    205.7912     16.8810     16.2825     15.7356    137.5491
  1746.2500    203.6398     17.3426     16.9180     17.9044    134.9076
  1746.5000    201.7059     17.8561     17.7796     22.2983    129.1019
  1746.7500    200.0182     18.4373     18.8854     29.5196    124.4104
  1747.0000    198.5879     19.1095     20.2479     39.3620    116.2532
  1747.2500    197.4202     19.9044     21.8733     50.3526    109.7503
  1747.5000    196.5199     20.8591     23.7612     60.1713     98.1170
  1747.7500    195.8902     22.0094     25.9076     67.0673     89.4504
  1748.0000    195.5303     23.3806     28.3098     71.1873     76.1152
  1748.2500    195.4358     24.9784     30.9723     74.4586     67.5088
  1748.5000    195.5942     26.7827     33.9093     79.0651     55.6978
  1748.7500    195.9767     28.7437     37.1398     85.9554     48.8864
  1749.0000    196.5371     30.7798     40.6737     94.5465     40.3728
  1749.2500    197.2276     32.7774     44.4879    103.5423     35.5467
  1749.5000    198.0262     34.5993     48.4951    112.0426     29.1831
  1749.7500    198.9520     36.1029     52.5125    120.0822     25.7290
  1750.0000    200.0587     37.1660     56.2425    128.1519     22.5156
  1750.2500    201.4092     37.7101     59.2859    135.9709     21.8892
  1750.5000    203.0500     37.7082     61.2036    141.5222     22.6332
  1750.7500    204.9970     37.1791     61.6278    141.5297     23.5542
  1751.0000    207.2357     36.1754     60.3846    133.5595     24.6529
  1751.2500    209.7314     34.7795     57.5665    118.1832     25.2264
  1751.5000    212.4378     33.1049     53.5134     99.0604     26.8123
  1751.7500    215.3078     31.2907     48.7130     80.6376     29.0049
  1752.0000    218.3043     29.4828     43.6738     65.5568     34.4650
  1752.2500    221.4030     27.8078     38.8244     53.9600     39.3412
  1752.5000    224.5791     26.3554     34.4627     44.7331     47.7344
  1752.7500    227.7837     25.1734     30.7531     37.0068     53.7193
  1753.0000    230.9302     24.2745     27.7525     30.5993     63.3354
  1753.2500    233.9030     23.6448     25.4481     25.5873     70.4542
  1753.5000    236.5819     23.2511     23.7907     21.9450     82.3420
  1753.7500    238.8729     23.0454     22.7178     19.6519     90.5597
  1754.0000    240.7328     22.9685     22.1667     18.9306    101.5394
  1754.2500    242.1774     22.9567     22.0777     20.2430    106.9223
  1754.5000    243.2719     22.9534     22.3923     24.0333    111.0786
  1754.7500    244.1082     22.9255     23.0465     30.3512    111.0481
  1755.0000    244.7798     22.8740     23.9646     38.4934    107.0051
  1755.2500    245.3588     22.8297     25.0550     46.8999    102.2354
  1755.5000    245.8837     22.8302     26.2114     53.5369     93.8047
  1755.7500    246.3638     22.8914     27.3188     56.7308     88.4538
  1756.0000    246.7945     22.9890     28.2605     56.0774     82.0356
  1756.2500    247.1717     23.0609     28.9219     52.8875     79.0844
  1756.5000    247.4971     23.0278     29.1945     49.7384     76.6516
  1756.7500    247.7731     22.8240     28.9863     49.1080     76.1435
  1757.0000    247.9934     22.4203     28.2480     51.6944     76.3551
  1757.2500    248.1379     21.8280     27.0045     55.5938     76.6859
  1757.5000    248.1719     21.0862     25.3663     57.3196     76.9086
  1757.7500    248.0495     20.2470     23.5063     54.2273     76.8312
  1758.0000    247.7228     19.3654     21.6087     46.3967     77.1232
  1758.2500    247.1586     18.4925     19.8227     36.3521     78.5323
  1758.5000    246.3564     17.6687     18.2413     27.0990     84.1992
  1758.7500    245.3560     16.9175     16.9044     20.3884     90.7994
  1759.0000    244.2311     16.2441     15.8133     16.3988    104.0474
  1759.2500    243.0773     15.6400     14.9478     14.4439    113.6623
  1759.5000    242.0005     15.0903     14.2773     13.7287    126.1212
  1759.7500    241.1063     14.5815     13.7692     13.6842    131.7916
  1760.0000    240.4906     14.1056     13.3919     13.9857    136.1143
  1760.2500    240.2314     13.6624     13.1162     14.4804    137.0039
  1760.5000    240.3869     13.2574     12.9154     15.1226    136.6780
  1760.7500    240.9945     12.8996     12.7643     15.9134    135.5232
  1761.0000    242.0674     12.5974     12.6395     16.8316    132.1626
  1761.2500    243.5807     12.3557     12.5203     17.7619    129.1999
  1761.5000    245.4495     12.1739     12.3908     18.4643    125.5212
  1761.7500    247.5124     12.0467     12.2419     18.6533    124.6164
  1762.0000    249.5445     11.9654     12.0728     18.1808    125.7040
  1762.2500    251.3102     11.9192     11.8901     17.1677    127.2752
  1762.5000    252.6335     11.8955     11.7047     15.9310    129.7247
  1762.7500    253.4423     11.8795     11.5283     14.7765    131.4712
  1763.0000    253.7591     11.8564     11.3700     13.8684    135.1768
  1763.2500    253.6564     11.8147     11.2345     13.2664    138.6977
  1763.5000    253.2140     11.7496     11.1219     13.0194    145.1310
  1763.7500    252.5025     11.6637     11.0287     13.1792    149.4596
  1764.0000    251.5852     11.5668     10.9500     13.7187    154.2716
  1764.2500    250.5204     11.4733     10.8819     14.4526    155.4150
  1764.5000    249.3579     11.3986     10.8228     15.0720    153.5922
  1764.7500    248.1366     11.3563     10.7753     15.3055    150.6907
  1765.0000    246.8859     11.3558     10.7451     15.0839    145.8095
  1765.2500    245.6281     11.4019     10.7399     14.5736    143.1518
  1765.5000    244.3760     11.4971     10.7687     14.0615    140.3847
  1765.7500    243.1295     11.6425     10.8394     13.7938    138.7871
  1766.0000    241.8700     11.8400     10.9594     13.8683    135.4216
  1766.2500    240.5538     12.0916     11.1353     14.2212    132.1532
  1766.5000    239.1079     12.3998     11.3739     14.6932    126.3578
  1766.7500    237.4371     12.7667     11.6836     15.1327    122.9359
  1767.0000    235.4473     13.1952     12.0752     15.4840    120.3339
  1767.2500    233.0774     13.6902     12.5617     15.8268    120.6525
  1767.5000    230.3235     14.2599     13.1580     16.3621    123.0593
  1767.7500    227.2418     14.9146     13.8799     17.3481    124.8067
  1768.0000    223.9299     15.6636     14.7419     19.0120    126.3439
  1768.2500    220.4967     16.5131     15.7561     21.4884    126.5510
  1768.5000    217.0364     17.4662     16.9299     24.8124    126.1209
  1768.7500    213.6196     18.5249     18.2644     28.9029    125.5948
  1769.0000    210.3014     19.6914     19.7536     33.4679    124.3618
  1769.2500    207.1326     20.9664     21.3851     37.9199    122.8697
  1769.5000    204.1590     22.3465     23.1422     41.5148    118.9370
  1769.7500    201.4078     23.8212     25.0078     43.7601    115.2143
  1770.0000    198.8734     25.3713     26.9691     44.8263    109.1561
  1770.2500    196.5191     26.9689     29.0190     45.5956    105.7120
  1770.5000    194.2969     28.5787     31.1557     47.2103    102.0711
  1770.7500    192.1716     30.1615     33.3795     50.3616    100.3330
  1771.0000    190.1329     31.6791     35.6880     54.8269     97.9079
  1771.2500    188.1930     33.1009     38.0726     59.6514     96.0572
  1771.5000    186.3778     34.4110     40.5149     63.8472     92.2384
  1771.7500    184.7178     35.6123     42.9841     67.0170     88.5356
  1772.0000    183.2396     36.7261     45.4336     69.3679     81.2177
  1772.2500    181.9608     37.7863     47.7993     71.1923     75.8590
  1772.5000    180.8932     38.8314     50.0023     72.4613     68.6446
  1772.7500    180.0482     39.8982     51.9581     72.9997     64.8448
  1773.0000    179.4397     41.0142     53.5919     72.9483     60.6101
  1773.2500    179.0863     42.1915     54.8554     72.8827     58.6443
  1773.5000    179.0118     43.4237     55.7409     73.4422     57.0176
  1773.7500    179.2404     44.6874     56.2850     74.8287     56.8950
