~Version Information
VERS.                      2.0: CWLS Log ASCII Standard - VERSION 2.0
WRAP.                       NO: One line per depth step
~Well Information Block
STRT.FT                 0.0000: 
STOP.FT              1147.5000: 
STEP.FT                 0.2500: 
NULL.                -999.2500: 
COMP.          Pioneer Natural Resources: COMPANY
WELL.          Tin Barn 14-20 TR: WELL
FLD.           Purgatorie River: FIELD
LOC.           925 FSL & 1151 FWL: LOCATION
PROV.                 Colorado: PROVINCE
CNTY.               Las Animas: COUNTRY
SRVC.                Patterson: SERVICE COMPANY
DATE.          Wed Jan 18 12:02:25 2006: LOG DATE
UWI.                          : UNIQUE WELL ID
~Curve Information Block
DEPT.FT            0 000 00 00: Depth
CCL.                          : Casing Collar Locator
TT3.usec                      : CBL 3' Travel Time
AMP3.mV                       : CBL 3' Amplitude
GR.GAPI                       : Gamma Ray
~Parameter Information Block
~A  Depth       CCL         TT3         AMP3         GR     
# ...
   670.0000      0.0000    299.2538     37.3661     81.0422
   670.2500      0.0000    299.3890     36.7455     77.6719
   670.5000      0.0000    299.4118     36.1607     79.0303
   670.7500      0.0000    299.3680     35.6641     84.3298
   671.0000      0.0000    299.3214     35.2701     90.9888
   671.2500      0.0000    299.3308     35.0077     95.9568
   671.5000      0.0000    299.3955     34.8557     97.2337
   671.7500      0.0000    299.4577     34.7667     95.0211
   672.0000      0.0000    299.4731     34.7255     91.5899
   672.2500      0.0000    299.4565     34.6988     89.6245
   672.5000      0.0000    299.4494     34.6158     90.4042
   672.7500      0.0000    299.4630     34.4454     93.4568
   673.0000      0.0000    299.4860     34.2317     97.6436
   673.2500      0.0000    299.5255     34.0330    102.2224
   673.5000      0.0000    299.5951     33.8770    106.8896
   673.7500      0.0000    299.6774     33.7665    111.3011
   674.0000      0.0000    299.7434     33.6685    115.0101
   674.2500      0.0000    299.7944     33.5321    117.8717
   674.5000      0.0000    299.8461     33.3551    120.3737
   674.7500      0.0000    299.8917     33.1911    123.4907
   675.0000      0.0000    299.9112     33.0967    127.8185
   675.2500      0.0000    299.9066     33.0941    132.3423
   675.5000      0.0000    299.9041     33.1502    134.3952
   675.7500      0.0000    299.9190     33.2028    131.8136
   676.0000      0.0000    299.9333     33.2446    125.3850
   676.2500      0.0000    299.9228     33.3251    118.5629
   676.5000      0.0000    299.8992     33.4359    114.5796
   676.7500      0.0000    299.8982     33.4962    114.1900
   677.0000      0.0000    299.9320     33.4852    116.0221
   677.2500      0.0000    299.9779     33.4715    118.3180
   677.5000      0.0000    300.0130     33.5023    120.1497
   677.7500      0.0000    300.0362     33.5625    121.6005
   678.0000      0.0000    300.0542     33.6184    123.2792
   678.2500      0.0000    300.0696     33.6336    125.6089
   678.5000      0.0000    300.0868     33.5954    128.3479
   678.7500      0.0000    300.1158     33.5514    130.7857
   679.0000      0.0000    300.1576     33.5519    132.4956
   679.2500      0.0000    300.2019     33.5806    133.7360
   679.5000      0.0000    300.2493     33.5947    134.9100
   679.7500      0.0000    300.2997     33.6089    135.8719
   680.0000      0.0000    300.3190     33.7108    136.1069
   680.2500      0.0000    300.2874     33.9323    135.3322
   680.5000      0.0000    300.2433     34.1922    133.3735
   680.7500      0.0000    300.2107     34.4856    129.5198
   681.0000      0.0000    300.1523     34.9269    122.7400
   681.2500      0.0000    300.0433     35.5183    112.8995
   681.5000      0.0000    299.9247     36.1160    101.2958
   681.7500      0.0000    299.8624     36.6062     89.7351
   682.0000      0.0000    299.8503     36.9882     79.5251
   682.2500      0.0000    299.6465     37.4001     71.4075
   682.5000      0.0000    298.5741     38.0426     65.7046
   682.7500      0.0000    295.7725     38.9344     62.1657
   683.0000      0.0000    291.6523     39.8215     60.1191
   683.2500      0.0000    288.4107     40.4345     59.1697
   683.5000      0.0000    286.5828     40.7535     59.6069
   683.7500      0.0000    283.6963     40.9402     61.9829
   684.0000      0.0000    279.6900     41.0806     66.4404
   684.2500      0.0000    278.0786     41.1270     72.5345
   684.5000      0.0000    280.2160     41.0423     79.5236
   684.7500      0.0000    284.7011     40.8385     86.7127
   685.0000      0.0000    290.2459     40.5395     93.6677
   685.2500      0.0000    295.1733     40.2303    100.1694
   685.5000      0.0000    297.9893     40.0318    105.9863
   685.7500      0.0000    298.9430     39.9659    110.8832
   686.0000      0.0000    299.1013     39.9499    114.9230
   686.2500      0.0000    299.0898     39.9101    118.4235
   686.5000      0.0000    299.0629     39.8332    121.3907
   686.7500      0.0000    299.0076     39.7497    123.2918
   687.0000      0.0000    298.7621     39.7214    123.7019
   687.2500      0.0000    297.7772     39.7381    122.8283
   687.5000      0.0000    295.4082     39.4338    121.1542
   687.7500      0.0000    292.7116     37.9730    119.0299
   688.0000      0.0000    293.0183     34.9064    116.8469
   688.2500      0.0000    297.0885     31.4815    115.0445
   688.5000      0.0000    300.5130     29.5382    113.5730
   688.7500      0.0000    300.9984     28.7759    111.7097
   689.0000      0.0000    301.4439     27.7618    108.6930
   689.2500      0.0000    303.2249     26.6604    104.4492
   689.5000      0.0000    304.7834     26.2702     99.7977
   689.7500     -2.0000    305.4066     26.4717     96.1193
   690.0000     -2.0000    305.5696     26.8227     94.6777
   690.2500      0.0000    305.7835     27.1189     95.8089
   690.5000      0.0000    306.5561     27.2898     98.4949
   690.7500      0.0000    308.0866     27.6238    100.9167
   691.0000      0.0000    308.5574     29.3547    101.7318
   691.2500      0.0000    304.3080     33.6404    100.6804
   691.5000      0.0000    294.5365     39.0915     98.0644
   691.7500      0.0000    282.7851     43.0178     94.4587
   692.0000      0.0000    272.5497     45.0631     91.3014
   692.2500      0.0000    265.5315     46.3687     90.7631
   692.5000      0.0000    262.0311     47.2561     93.9904
   692.7500      0.0000    260.8964     47.6361     99.6807
   693.0000      0.0000    260.6880     47.6876    105.0026
   693.2500      0.0000    260.6773     47.6393    107.9763
   693.5000      0.0000    260.6871     47.5850    108.8876
   693.7500      0.0000    260.7013     47.5016    109.5897
   694.0000      0.0000    260.7106     47.3295    111.3481
   694.2500      0.0000    260.7170     47.0644    113.3364
   694.5000      0.0000    260.7326     46.7600    113.5767
   694.7500      0.0000    260.7561     46.4737    111.3267
   695.0000      0.0000    260.7843     46.2500    108.0672
   695.2500      0.0000    260.8210     46.1099    106.0921
   695.5000      0.0000    260.8638     46.0281    106.4929
   695.7500      0.0000    260.9175     45.9186    108.5342
   696.0000      0.0000    261.0164     45.6884    110.7047
   696.2500      0.0000    261.2061     45.3161    112.2162
   696.5000      0.0000    261.5034     44.8309    113.5344
   696.7500      0.0000    261.8753     44.2656    115.7168
   697.0000      0.0000    262.2650     43.6654    119.4587
   697.2500      0.0000    262.6313     43.0869    124.6062
   697.5000      0.0000    262.9490     42.5860    130.0698
   697.7500      0.0000    263.2159     42.2147    133.9791
   698.0000      0.0000    263.5930     41.9857    134.3135
   698.2500      0.0000    264.6856     41.8456    130.1915
   698.5000      0.0000    267.3842     41.7100    122.9028
   698.7500      0.0000    271.3957     41.5376    115.3587
   699.0000      0.0000    274.6300     41.3583    110.0754
   699.2500      0.0000    276.6955     41.2043    107.6656
   699.5000      0.0000    280.5753     41.0564    107.2299
   699.7500      0.0000    287.1496     40.9160    107.6978
   700.0000      0.0000    292.4562     40.8495    108.4362
   700.2500      0.0000    292.4908     40.9027    108.9469
   700.5000      0.0000    287.4490     41.0328    108.7819
   700.7500      0.0000    282.1483     41.1304    108.0202
   701.0000      0.0000    282.1832     41.0953    107.3665
   701.2500      0.0000    287.7761     40.9093    107.5169
   701.5000      0.0000    294.1403     40.6255    108.6188
   701.7500      0.0000    297.8612     40.3179    110.4052
   702.0000      0.0000    299.1762     40.0549    112.5440
   702.2500      0.0000    299.4381     39.8438    114.7828
   702.5000      0.0000    299.4177     39.6296    117.0430
   702.7500      0.0000    299.3936     39.3875    119.5270
   703.0000      0.0000    299.4436     39.1380    122.4590
   703.2500      0.0000    299.5260     38.8955    125.3667
