~Version Information
VERS.                      2.0: CWLS Log ASCII Standard - VERSION 2.0
WRAP.                       NO: One line per depth step
~Well Information Block
STRT.FT               370.0000: 
STOP.FT              2831.7500: 
STEP.FT                 0.2500: 
NULL.                -999.2500: 
COMP.          Pioneer Natural Resources: COMPANY
WELL.          Black Cat 13-32: WELL
FLD.           Purgatoire River: FIELD
LOC.           1865' FSL & 1120' FWL--: LOCATION
PROV.                 Colorado: PROVINCE
CNTY.               Las Animas: COUNTRY
SRVC.                Patterson: SERVICE COMPANY
DATE.          Sun Jul 31 08:49:16 2005: LOG DATE
UWI.           05 071 08450 00: UNIQUE WELL ID
~Curve Information Block
DEPT.FT            0 000 00 00: Depth
DIR.Ohm-m                     : IEL Induction Resistivity
SN.Ohm-m                      : IEL Short Normal
SP.mV                         : IEL Spontaneous Potential
GR.GAPI                       : Gamma Ray
~Parameter Information Block
~A  Depth       DIR          SN          SP          GR     
# ...
  2011.5000     32.0998     38.3476    176.9479     76.5140
  2011.7500     30.7837     36.5766    178.4713     82.8102
  2012.0000     29.4782     34.8730    179.9935     93.3486
  2012.2500     28.1858     33.2301    181.4736     98.8088
  2012.5000     26.8976     31.6173    182.8695    103.0560
  2012.7500     25.6207     30.0366    184.1412    103.8161
  2013.0000     24.3985     28.5511    185.2536    103.6282
  2013.2500     23.3046     27.2708    186.1799    103.2494
  2013.5000     22.4155     26.3086    186.9041    102.7819
  2013.7500     21.7811     25.7289    187.4232    103.0115
  2014.0000     21.4136     25.5097    187.7486    105.4231
  2014.2500     21.2910     25.5413    187.9063    108.7237
  2014.5000     21.3685     25.6662    187.9345    115.2945
  2014.7500     21.5888     25.7440    187.8811    119.8254
  2015.0000     21.8890     25.7025    187.7978    125.4383
  2015.2500     22.2033     25.5405    187.7349    127.5023
  2015.5000     22.4630     25.2864    187.7343    126.3060
  2015.7500     22.5952     24.9565    187.8238    122.2693
  2016.0000     22.5297     24.5490    188.0136    113.1215
  2016.2500     22.2168     24.0670    188.2943    106.8473
  2016.5000     21.6502     23.5369    188.6394     99.7645
  2016.7500     20.8777     23.0029    189.0096     97.4270
  2017.0000     19.9886     22.5032    189.3597     98.4768
  2017.2500     19.0847     22.0496    189.6468    102.3782
  2017.5000     18.2537     21.6290    189.8376    111.3392
  2017.7500     17.5542     21.2242    189.9144    117.3240
  2018.0000     17.0130     20.8303    189.8784    123.4097
  2018.2500     16.6301     20.4520    189.7491    125.4921
  2018.5000     16.3866     20.0882    189.5612    127.6577
  2018.7500     16.2512     19.7208    189.3586    129.1458
  2019.0000     16.1854     19.3214    189.1875    130.2493
  2019.2500     16.1487     18.8766    189.0877    129.1807
  2019.5000     16.1047     18.4126    189.0871    124.7349
  2019.7500     16.0242     17.9882    189.1961    120.5046
  2020.0000     15.8827     17.6562    189.4064    113.1467
  2020.2500     15.6543     17.4251    189.6921    108.2196
  2020.5000     15.3132     17.2518    190.0142    103.1401
  2020.7500     14.8464     17.0662    190.3264    102.8202
  2021.0000     14.2683     16.8044    190.5823    107.8707
  2021.2500     13.6211     16.4345    190.7416    114.2641
  2021.5000     12.9617     15.9674    190.7761    126.3340
  2021.7500     12.3443     15.4513    190.6717    134.7148
  2022.0000     11.8111     14.9520    190.4302    145.3486
  2022.2500     11.3921     14.5270    190.0673    149.9927
  2022.5000     11.1074     14.2031    189.6104    153.2681
  2022.7500     10.9676     13.9666    189.0945    154.0529
  2023.0000     10.9707     13.7683    188.5580    154.3927
  2023.2500     11.0978     13.5381    188.0388    153.5893
  2023.5000     11.3100     13.2073    187.5699    149.3251
  2023.7500     11.5507     12.7386    187.1766    144.3905
  2024.0000     11.7559     12.1562    186.8740    135.3441
  2024.2500     11.8721     11.5548    186.6654    129.2441
  2024.5000     11.8717     11.0662    186.5425    121.3070
  2024.7500     11.7559     10.7926    186.4863    117.4488
  2025.0000     11.5455     10.7510    186.4708    114.6484
  2025.2500     11.2689     10.8745    186.4666    114.9554
  2025.5000     10.9551     11.0656    186.4463    118.4253
  2025.7500     10.6307     11.2527    186.3896    122.3967
  2026.0000     10.3190     11.4043    186.2861    129.9972
  2026.2500     10.0376     11.5076    186.1377    135.5410
  2026.5000      9.7972     11.5474    185.9577    143.5405
  2026.7500      9.6015     11.5005    185.7680    148.3009
  2027.0000      9.4483     11.3377    185.5945    154.4883
  2027.2500      9.3301     11.0322    185.4625    157.9910
  2027.5000      9.2361     10.5810    185.3921    161.9190
  2027.7500      9.1552     10.0277    185.3947    163.1515
  2028.0000      9.0792      9.4649    185.4714    162.1447
  2028.2500      9.0046      9.0026    185.6128    159.5238
  2028.5000      8.9306      8.7235    185.8007    153.7918
  2028.7500      8.8545      8.6507    186.0108    150.1600
  2029.0000      8.7694      8.7426    186.2162    147.8286
  2029.2500      8.6644      8.9127    186.3900    149.3491
  2029.5000      8.5305      9.0638    186.5091    155.4361
  2029.7500      8.3659      9.1237    186.5553    160.2322
  2030.0000      8.1803      9.0692    186.5169    164.8492
  2030.2500      7.9920      8.9244    186.3883    164.8641
  2030.5000      7.8222      8.7390    186.1696    160.8267
  2030.7500      7.6875      8.5606    185.8652    157.2783
  2031.0000      7.5960      8.4177    185.4821    154.1502
  2031.2500      7.5471      8.3179    185.0287    154.2502
  2031.5000      7.5334      8.2565    184.5128    155.9716
  2031.7500      7.5437      8.2269    183.9409    156.3284
  2032.0000      7.5669      8.2246    183.3168    153.6044
  2032.2500      7.5950      8.2460    182.6420    149.8888
  2032.5000      7.6259      8.2871    181.9161    143.7776
  2032.7500      7.6645      8.3465    181.1383    140.6050
  2033.0000      7.7222      8.4294    180.3095    138.3260
  2033.2500      7.8136      8.5452    179.4337    139.1206
  2033.5000      7.9517      8.6985    178.5205    145.3226
  2033.7500      8.1440      8.8797    177.5854    152.9542
  2034.0000      8.3886      9.0592    176.6500    166.6380
  2034.2500      8.6729      9.1919    175.7405    173.8831
  2034.5000      8.9751      9.2362    174.8854    176.7050
  2034.7500      9.2688      9.1830    174.1121    172.3676
  2035.0000      9.5301      9.0743    173.4434    159.3017
  2035.2500      9.7446      8.9926    172.8943    148.9528
  2035.5000      9.9094      9.0201    172.4695    135.3869
  2035.7500     10.0289      9.1953    172.1628    129.8814
  2036.0000     10.1059      9.4891    171.9575    129.4017
  2036.2500     10.1343      9.8141    171.8291    133.8810
  2036.5000     10.1009     10.0618    171.7485    143.7584
  2036.7500      9.9937     10.1494    171.6860    149.6246
  2037.0000      9.8134     10.0529    171.6142    154.4441
  2037.2500      9.5769      9.8063    171.5110    154.7229
  2037.5000      9.3122      9.4744    171.3600    151.8589
  2037.7500      9.0495      9.1201    171.1514    149.0347
  2038.0000      8.8138      8.7857    170.8802    146.2923
  2038.2500      8.6206      8.4908    170.5459    146.9801
  2038.5000      8.4756      8.2375    170.1504    152.4203
  2038.7500      8.3750      8.0177    169.6978    157.7801
  2039.0000      8.3070      7.8214    169.1931    165.1429
  2039.2500      8.2551      7.6443    168.6422    168.3559
  2039.5000      8.2023      7.4895    168.0513    170.5111
  2039.7500      8.1353      7.3631    167.4272    170.7377
  2040.0000      8.0485      7.2680    166.7766    170.2046
  2040.2500      7.9442      7.1993    166.1059    169.5753
  2040.5000      7.8301      7.1461    165.4206    168.4780
  2040.7500      7.7158      7.0983    164.7254    167.9680
  2041.0000      7.6097      7.0524    164.0236    168.7050
  2041.2500      7.5177      7.0102    163.3175    170.6867
  2041.5000      7.4432      6.9731    162.6084    175.0562
  2041.7500      7.3876      6.9389    161.8979    177.6842
  2042.0000      7.3516      6.9066    161.1873    179.9648
  2042.2500      7.3360      6.8816    160.4792    180.5321
  2042.5000      7.3422      6.8748    159.7770    179.9945
  2042.7500      7.3714      6.8954    159.0859    178.1456
  2043.0000      7.4235      6.9443    158.4130    173.0214
  2043.2500      7.4954      7.0125    157.7679    169.2006
  2043.5000      7.5801      7.0841    157.1633    165.3271
  2043.7500      7.6667      7.1403    156.6149    164.3905
  2044.0000      7.7414      7.1651    156.1421    164.1527
  2044.2500      7.7919      7.1522    155.7669    163.7493
  2044.5000      7.8101      7.1075    155.5138    162.2259
  2044.7500      7.7952      7.0434    155.4081    161.0872
