~Version Information
 VERS.                                  2.0 : CWLS LAS VERSION
 WRAP.                                   NO : WRAPING MODE
 SWARE .                 MController 2.5.0N : SOFTWARE VERSION
~Well Information
 WELL.                        Cleaver 24-12 : WELL
 COMP.    Pioneer Natural Resources USA Inc : COMPANY
 FLD.                      Purgatoire River : FIELD
 LOC.                SE/SW Sec 12 T32S R67W : LOCATION
 DATE.                         1/05-06/2006 : DATE(S) LOGGED
 SRVC.       BLANCO Geological Services LLC : SERVICE COMPANY
 STAT.                                   CO : STATE
 CNTY.                           Las Animas : COUNTY
 CTRY.                                  USA : COUNTRY
 API.                       05-071-08634-00 : API NUMBER
 STRT.FT                             461.00 : START DEPTH
 STOP.FT                            3055.00 : STOP DEPTH
 STEP.FT                               1.00 : DEPTH INCREMENT
 NULL.                                -9999 : NULL VALUE
~Curve information
 DEPTH.FT                                   :
 ROP.MIN/FT                                 :
 GAS.UNITS                                  :
~ASCII Log data
# ...
      1461.0         0.73         46.5 
      1462.0         0.52         48.2 
      1463.0         0.43         48.2 
      1464.0         0.50         48.7 
      1465.0         0.40         57.2 
      1466.0         6.03         62.3 
      1467.0         0.30         34.0 
      1468.0         0.53         32.9 
      1469.0         0.47         28.4 
      1470.0         0.47         22.7 
      1471.0         0.62         20.2 
      1472.0         0.40         22.1 
      1473.0         0.43         24.1 
      1474.0         0.43         25.9 
      1475.0         0.57         27.9 
      1476.0         1.07         28.0 
      1477.0         0.82         27.0 
      1478.0         0.47         24.0 
      1479.0         0.50         22.4 
      1480.0         0.47         19.8 
      1481.0         0.40         18.6 
      1482.0         0.40         17.3 
      1483.0         0.40         18.4 
      1484.0         0.45         18.1 
      1485.0         0.53         16.3 
      1486.0         0.53         19.1 
      1487.0         0.40         20.2 
      1488.0         0.37         21.0 
      1489.0         0.43         21.3 
      1490.0         0.37         21.8 
      1491.0         0.27         22.3 
      1492.0         0.25         22.8 
      1493.0         0.53         23.4 
      1494.0         0.33         24.6 
      1495.0         0.33         29.6 
      1496.0         7.17         30.1 
      1497.0         0.47         27.4 
      1498.0         0.53         27.2 
      1499.0         0.53         25.1 
      1500.0         0.48         22.1 
      1501.0         0.57         20.1 
      1502.0         0.40         18.9 
      1503.0         0.37         19.8 
      1504.0         0.37         20.5 
      1505.0         0.23         20.7 
      1506.0         0.30         20.6 
      1507.0         0.30         20.4 
      1508.0         0.30         19.8 
      1509.0         0.28         16.9 
      1510.0         0.33         13.9 
      1511.0         0.30         12.8 
      1512.0         0.30         14.3 
      1513.0         0.43         16.7 
      1514.0         0.53         20.6 
      1515.0         0.40         23.6 
      1516.0         0.50         25.7 
      1517.0         0.38         27.4 
      1518.0         0.33         28.2 
      1519.0         0.40         28.2 
      1520.0         0.67         29.4 
      1521.0         0.77         32.4 
      1522.0         0.77         37.6 
      1523.0         0.72         44.3 
      1524.0         0.37         47.6 
      1525.0         0.40         54.4 
      1526.0         6.57         64.9 
      1527.0         0.40         41.2 
      1528.0         0.63         39.9 
      1529.0         0.63         31.5 
      1530.0         0.57         24.6 
      1531.0         0.42         23.3 
      1532.0         0.43         23.3 
      1533.0         0.47         22.4 
      1534.0         0.47         22.5 
      1535.0         0.40         21.6 
      1536.0         0.50         20.1 
      1537.0         0.53         17.9 
      1538.0         0.52         22.1 
      1539.0         0.43         24.0 
      1540.0         0.43         25.1 
      1541.0         0.37         25.5 
      1542.0         0.50         25.1 
      1543.0         0.40         23.8 
      1544.0         0.40         21.8 
      1545.0         0.33         19.9 
      1546.0         0.25         19.8 
      1547.0         0.20         19.4 
      1548.0         0.50         19.2 
      1549.0         0.43         18.7 
      1550.0         0.30         18.6 
      1551.0         0.40         18.9 
      1552.0         0.23         19.9 
      1553.0         0.33         20.3 
      1554.0         0.33         19.1 
      1555.0         0.43         12.0 
      1556.0         5.40         52.1 
      1557.0         0.50         63.0 
      1558.0         0.50         74.9 
      1559.0         0.33         81.2 
      1560.0         0.38         83.9 
      1561.0         0.50         83.8 
      1562.0         0.33         80.1 
      1563.0         0.20         73.7 
      1564.0         0.27         62.6 
      1565.0         0.27         45.1 
      1566.0         0.17         29.0 
      1567.0         0.20         23.2 
      1568.0         0.17         16.3 
      1569.0         0.17         11.4 
      1570.0         0.13          8.1 
      1571.0         0.17          7.0 
      1572.0         0.13          7.0 
      1573.0         0.27         10.0 
      1574.0         0.15         12.0 
      1575.0         0.43         17.3 
      1576.0         0.60         21.8 
      1577.0         0.67         23.9 
      1578.0         0.67         24.8 
      1579.0         0.57         28.0 
      1580.0         0.72         31.6 
      1581.0         0.63         33.6 
      1582.0         0.43         35.7 
      1583.0         0.77         39.5 
      1584.0         0.47         46.1 
      1585.0         0.43         46.1 
      1586.0         5.10         68.1 
      1587.0         0.30         12.3 
      1588.0         0.50         17.7 
      1589.0         1.42         20.8 
      1590.0         0.30         19.7 
      1591.0         0.33         17.5 
      1592.0         0.27         15.1 
      1593.0         0.30         14.0 
      1594.0         0.27         14.1 
      1595.0         0.27         15.4 
      1596.0         0.50         16.9 
      1597.0         0.47         18.8 
      1598.0         0.45         21.1 
      1599.0         0.43         22.5 
      1600.0         0.40         23.0 
      1601.0         0.40         21.6 
      1602.0         0.33         20.0 
      1603.0         0.37         18.4 
      1604.0         0.40         15.9 
      1605.0         0.43         11.0 
      1606.0         0.45          6.5 
      1607.0         0.37          3.5 
      1608.0         0.37          2.5 
      1609.0         0.37          1.9 
      1610.0         0.33          1.9 
      1611.0         0.33          2.5 
      1612.0         0.33          4.2 
      1613.0         0.37          8.7 
      1614.0         0.37         11.2 
      1615.0         0.45         10.9 
      1616.0         5.45         46.6 
      1617.0         0.13         22.9 
      1618.0         0.37         21.8 
      1619.0         0.33         18.0 
      1620.0         0.17         14.7 
      1621.0         0.18         13.4 
      1622.0         0.23         12.4 
      1623.0         0.17         12.4 
      1624.0         0.30         11.9 
      1625.0         0.27         12.2 
      1626.0         0.43         13.1 
      1627.0         0.37         13.5 
      1628.0         0.53         14.7 
      1629.0         0.47         15.6 
      1630.0         0.40         16.0 
      1631.0         0.42         16.8 
      1632.0         0.40         17.7 
      1633.0         0.40         17.6 
      1634.0         0.47         17.9 
      1635.0         0.40         18.5 
      1636.0         0.37         19.6 
      1637.0         0.37         19.2 
      1638.0         0.27         16.7 
      1639.0         0.27         14.9 
      1640.0         0.35         12.3 
      1641.0         0.47         11.2 
      1642.0         0.50         16.7 
      1643.0         0.47         19.6 
      1644.0         0.53         23.7 
      1645.0         0.37         30.0 
      1646.0         3.58         97.8 
      1647.0         0.50         75.8 
      1648.0         0.68         42.5 
      1649.0         0.50         14.0 
      1650.0         0.47         18.9 
      1651.0         0.43         24.2 
      1652.0         0.53         27.5 
      1653.0         0.85         28.0 
      1654.0         0.83         26.7 
      1655.0         0.47         24.0 
      1656.0         0.70         21.1 
      1657.0         0.57         19.6 
      1658.0         0.53         19.0 
      1659.0         0.55         18.9 
      1660.0         0.53         21.1 
