~Version Information
VERS.                      2.0: CWLS Log ASCII Standard - VERSION 2.0
WRAP.                       NO: One line per depth step
~Well Information Block
STRT.FT               460.0000: 
STOP.FT              3058.5000: 
STEP.FT                 0.1000: 
NULL.                -999.2500: 
COMP.          Pioneer Natural Resources: COMPANY
WELL.            Cleaver 24-12: WELL
FLD.           Purgatoire River: FIELD
LOC.           204' FSL & 2351' FWL: LOCATION
PROV.                 Colorado: PROVINCE
CNTY.               Las Animas: COUNTRY
SRVC.                Patterson: SERVICE COMPANY
DATE.          Mon Jan 09 13:49:27 2006: LOG DATE
UWI.           05 071 08634 00: UNIQUE WELL ID
~Curve Information Block
DEPT.FT            0 000 00 00: Depth
DCAL.in                       : CDL Caliper
RHOB.g/cc                     : CDL Bulk Density
RHOC.g/cc                     : CDL Density Correction
DPOR.pu                       : CDL Density Porosity
GR.GAPI                       : Gamma Ray
NPOR.pu                       : Neutron Porosity
~Parameter Information Block
~A  Depth       DCAL        RHOB        RHOC        DPOR         GR         NPOR    
# ...
  2005.6000      7.9447      2.3762      0.0410     16.5949    137.0564     34.4004
  2005.7000      7.9447      2.2889     -0.0129     21.8860    142.2341     34.0777
  2005.8000      7.9287      2.2052     -0.0575     26.9547    143.7675     33.0571
  2005.9000      7.9287      2.1635     -0.0425     29.4826    143.5867     32.7121
  2006.0000      7.9448      2.1503      0.0491     30.2823    143.7942     33.3093
  2006.1000      7.9448      2.1355      0.0060     31.1824    144.0818     33.9203
  2006.2000      7.9448      2.1268      0.0036     31.7086    141.6915     33.7061
  2006.3000      7.9447      2.1485      0.0466     30.3958    134.3825     32.6727
  2006.4000      7.9447      2.2093      0.1221     26.7097    128.4777     32.1656
  2006.5000      8.0339      2.3055      0.2629     20.8792    130.2104     32.7280
  2006.6000      8.0339      2.4191      0.3149     13.9955    138.2279     33.3823
  2006.7000      8.0339      2.5163      0.3979      8.1057    145.3944     33.3939
  2006.8000      8.0847      2.5694      0.3773      4.8852    144.4896     33.2656
  2006.9000      8.0847      2.5822      0.2835      4.1091    136.9593     33.7984
  2007.0000      8.4302      2.5682      0.3102      4.9561    129.5680     34.4997
  2007.1000      8.4302      2.5249      0.2674      7.5846    127.6453     34.4264
  2007.2000      8.4302      2.4597      0.1272     11.5311    128.4155     33.6490
  2007.3000      8.5731      2.3939      0.0183     15.5188    124.2055     33.0303
  2007.4000      8.5731      2.3179      0.0590     20.1246    116.7232     33.1579
  2007.5000      8.3285      2.2090     -0.0168     26.7275    115.3939     33.5083
  2007.6000      8.3285      2.0889     -0.0692     34.0083    119.9017     33.7244
  2007.7000      8.3285      1.9921      0.0081     39.8748    122.0510     33.7592
  2007.8000      8.2032      1.9145     -0.0229     44.5742    120.7248     33.6345
  2007.9000      8.2032      1.8288     -0.0475     49.7698    115.6698     33.4937
  2008.0000      8.5009      1.7135     -0.0204     56.7575    105.9394     33.3665
  2008.1000      8.5009      1.5811     -0.0987     64.7824     91.9632     33.6764
  2008.2000      8.5009      1.4740     -0.0298     71.2730     77.2390     34.1755
  2008.3000      8.5777      1.4215     -0.0540     74.4531     70.2161     34.5437
  2008.4000      8.5777      1.4203      0.0343     74.5300     72.9504     35.2690
  2008.5000      8.1522      1.4478      0.0516     72.8625     76.8650     35.8974
  2008.6000      8.1522      1.4870      0.0589     70.4865     74.4694     35.5315
  2008.7000      8.1522      1.5321      0.0616     67.7541     67.1910     35.0447
  2008.8000      8.1067      1.5862      0.1151     64.4716     63.6378     35.4183
  2008.9000      8.1067      1.6700      0.0718     59.3959     71.1195     35.5714
  2009.0000      8.0871      1.8097      0.0789     50.9248     86.0754     34.6883
  2009.1000      8.0871      1.9910      0.1772     39.9365     98.8296     33.7409
  2009.2000      8.0871      2.1496      0.2904     30.3278    103.4084     33.3524
  2009.3000      8.0758      2.2450      0.2167     24.5443    101.9607     33.3797
  2009.4000      8.0758      2.3121      0.2171     20.4777    100.6291     33.6673
  2009.5000      7.9606      2.3966      0.2269     15.3562    100.6952     33.7237
  2009.6000      7.9606      2.4867      0.2343      9.8993    103.5956     33.5074
  2009.7000      7.9606      2.5424      0.1835      6.5190    112.4031     33.4071
  2009.8000      7.9815      2.5610      0.1011      5.3937    123.1309     32.9529
  2009.9000      7.9815      2.5786      0.0977      4.3256    128.5029     31.7542
  2010.0000      7.9660      2.6142      0.1103      2.1688    127.4205     30.8118
  2010.1000      7.9660      2.6467      0.1115      0.2008    121.1987     31.0985
  2010.2000      7.9660      2.6573      0.1162     -0.4441    110.8537     32.0928
  2010.3000      7.9804      2.6610      0.0752     -0.6692     99.3932     32.5224
  2010.4000      7.9804      2.6793      0.0392     -1.7728     91.2683     31.4820
  2010.5000      8.0296      2.7066      0.0849     -3.4294     88.3948     29.7345
  2010.6000      8.0296      2.7313      0.0126     -4.9265     85.8612     28.6198
  2010.7000      8.0296      2.7574      0.0208     -6.5086     81.2144     28.2198
  2010.8000      8.0242      2.7812      0.0760     -7.9539     79.6160     27.9960
  2010.9000      8.0242      2.7927      0.0420     -8.6463     78.8349     27.5536
  2011.0000      7.8976      2.7976      0.0245     -8.9435     73.3434     26.9051
  2011.1000      7.8976      2.8011      0.0516     -9.1596     65.5190     26.4187
  2011.2000      7.8976      2.7999      0.0036     -9.0830     60.7970     26.6150
  2011.3000      7.8689      2.8074      0.0127     -9.5371     62.2261     27.4947
  2011.4000      7.8689      2.8382      0.0690    -11.4073     67.7578     28.3487
  2011.5000      7.8678      2.8726      0.0817    -13.4922     72.1175     28.4592
  2011.6000      7.8678      2.8760      0.1065    -13.6941     73.6724     27.9558
  2011.7000      7.8678      2.8354      0.0444    -11.2361     71.9519     27.6040
  2011.8000      7.9110      2.7688      0.0039     -7.1983     68.3889     27.4384
  2011.9000      7.9110      2.7077     -0.0607     -3.4997     66.8669     27.0308
  2012.0000      7.9042      2.6670     -0.0467     -1.0311     67.7325     26.2368
  2012.1000      7.9042      2.6371     -0.0187      0.7837     71.4803     25.3188
  2012.2000      7.9042      2.6172     -0.0644      1.9905     79.5319     24.5550
  2012.3000      7.9080      2.6114      0.0533      2.3366     89.4292     24.1783
  2012.4000      7.9080      2.6075      0.0955      2.5785     99.6539     24.9231
  2012.5000      7.9387      2.5987      0.0595      3.1080    109.9464     26.5403
  2012.6000      7.9387      2.5924      0.0193      3.4933    115.0868     27.5630
  2012.7000      7.9387      2.5889      0.0698      3.7049    115.3998     27.5262
  2012.8000      7.9355      2.5842      0.0234      3.9852    117.6219     27.2915
  2012.9000      7.9355      2.5816      0.0268      4.1441    120.2637     27.4079
  2013.0000      7.9376      2.5785      0.0476      4.3342    120.2153     27.7896
  2013.1000      7.9376      2.5681      0.0413      4.9667    118.9840     28.0730
  2013.2000      7.9376      2.5559      0.0177      5.7008    117.4592     27.7824
  2013.3000      7.9137      2.5494      0.0815      6.0955    115.0403     27.1328
  2013.4000      7.9137      2.5480      0.0074      6.1812    111.2982     26.8437
  2013.5000      7.9102      2.5502      0.0723      6.0498    106.0024     27.0187
  2013.6000      7.9102      2.5562      0.0255      5.6837     99.7757     27.5133
  2013.7000      7.9102      2.5706      0.0726      4.8129     97.6642     28.4790
  2013.8000      7.8978      2.5865      0.0842      3.8471    100.0753     29.2824
  2013.9000      7.8978      2.5922      0.0618      3.5034     99.1086     29.3041
  2014.0000      7.9016      2.5887      0.0532      3.7175     93.6251     28.9401
  2014.1000      7.9016      2.5814      0.0899      4.1592     90.4056     28.4587
  2014.2000      7.9016      2.5708      0.0482      4.8012     90.3349     27.9075
  2014.3000      7.9111      2.5568      0.0425      5.6495     91.4257     27.4447
  2014.4000      7.9111      2.5463      0.0265      6.2845     94.9848     27.2870
  2014.5000      7.8914      2.5474      0.0282      6.2155     98.6678     27.3477
  2014.6000      7.8914      2.5553      0.0463      5.7417     98.8685     27.4215
  2014.7000      7.8914      2.5595      0.0301      5.4843     94.3575     27.4524
  2014.8000      7.8895      2.5561      0.0432      5.6936     86.3931     27.3292
  2014.9000      7.8895      2.5496      0.0165      6.0831     79.1335     26.8719
  2015.0000      7.8812      2.5501      0.0082      6.0554     76.7429     26.4972
  2015.1000      7.8812      2.5565      0.0376      5.6664     79.7267     26.6467
