~Version Information
VERS.                      2.0: CWLS Log ASCII Standard - VERSION 2.0
WRAP.                       NO: One line per depth step
~Well Information Block
STRT.FT                -6.7500: 
STOP.FT              1466.2500: 
STEP.FT                 0.2500: 
NULL.                -999.2500: 
COMP.          Pioneer Natural Resources: COMPANY
WELL.          Pallet Ranch 34-15 Tr: WELL
FLD.           Purgatorie River: FIELD
LOC.           465' FSL & 2138' FEL--: LOCATION
PROV.                       CO: PROVINCE
CNTY.               Las Animas: COUNTRY
SRVC.          Patterson Wireline: SERVICE COMPANY
DATE.          Wed Jan 25 09:38:09 2006: LOG DATE
UWI.           05 071 08657 00: UNIQUE WELL ID
~Curve Information Block
DEPT.FT            0 000 00 00: Depth
CCL.                          : Casing Collar Locator
TT3.usec                      : CBL 3' Travel Time
AMP3.mV                       : CBL 3' Amplitude
GR.GAPI                       : Gamma Ray
~Parameter Information Block
~A  Depth       CCL         TT3         AMP3         GR     
# ...
   964.7500      0.0000    765.2104      5.0099    130.4668
   965.0000      0.0000    762.1543      5.0301    129.6362
   965.2500      0.0000    751.2238      5.0500    123.6069
   965.5000      0.0000    737.5005      5.0725    114.0402
   965.7500      0.0000    727.3674      5.0991    103.1669
   966.0000      0.0000    723.4259      5.1311     93.0498
   966.2500      0.0000    724.1937      5.1676     85.2465
   966.5000      0.0000    727.1571      5.2072     81.0359
   966.7500      0.0000    730.2156      5.2522     81.6286
   967.0000      0.0000    730.8982      5.3062     87.5054
   967.2500      0.0000    726.6262      5.3666     96.9834
   967.5000      0.0000    716.7858      5.4212    105.8236
   967.7500      0.0000    703.8505      5.4530    109.3528
   968.0000      0.0000    691.9048      5.4544    105.6873
   968.2500      0.0000    684.2076      5.4364     96.9224
   968.5000      0.0000    682.2557      5.4219     87.1693
   968.7500      0.0000    686.3495      5.4296     79.5619
   969.0000      0.0000    695.5499      5.4645     74.8471
   969.2500      0.0000    706.5012      5.5223     72.0035
   969.5000      0.0000    713.8011      5.5961     69.6489
   969.7500      0.0000    713.7137      5.6793     67.1169
   970.0000      0.0000    708.0960      5.7648     64.7526
   970.2500      0.0000    703.6511      5.8427     63.4441
   970.5000      0.0000    706.9314      5.8974     63.8515
   970.7500      0.0000    719.8680      5.9151     66.0274
   971.0000      0.0000    738.7327      5.9004     69.7311
   971.2500      0.0000    755.8269      5.8834     75.0339
   971.5000      0.0000    762.9224      5.9007     82.4419
   971.7500      0.0000    755.8337      5.9630     92.3463
   972.0000      0.0000    737.3320      6.0467    104.2275
   972.2500      0.0000    715.1142      6.1161    116.2821
   972.5000      0.0000    696.3154      6.1504    126.0791
   972.7500      0.0000    683.6594      6.1501    131.9934
   973.0000      0.0000    675.8707      6.1258    134.0767
   973.2500      0.0000    670.6317      6.0873    133.4581
   973.5000      0.0000    667.0093      6.0414    131.2429
   973.7500      0.0000    665.6431      5.9953    128.3035
   974.0000      0.0000    667.2755      5.9580    125.6321
   974.2500      0.0000    671.6855      5.9376    124.0196
   974.5000      0.0000    678.1894      5.9393    123.2038
   974.7500      0.0000    686.4382      5.9622    121.7092
   975.0000      0.0000    696.2456      6.0013    117.7875
   975.2500      0.0000    707.0448      6.0509    110.6393
   975.5000      0.0000    717.6376      6.1118    100.8965
   975.7500      0.0000    725.7587      6.1918     90.0879
   976.0000      0.0000    727.4269      6.2987     79.8358
   976.2500      0.0000    718.0403      6.4276     71.6909
   976.5000      0.0000    696.5907      6.5543     67.0832
   976.7500      0.0000    669.9846      6.6406     66.4746
   977.0000      0.0000    651.1581      6.6523     68.5903
   977.2500      0.0000    649.9126      6.5819     71.1908
   977.5000      0.0000    665.4199      6.4568     72.8110
   977.7500      0.0000    688.3128      6.3216     73.5621
   978.0000      0.0000    708.2129      6.2100     74.4847
   978.2500      0.0000    718.5447      6.1325     76.4786
   978.5000      0.0000    716.9286      6.0861     79.6857
   978.7500      0.0000    703.9888      6.0681     83.5343
   979.0000      0.0000    682.7932      6.0804     87.2624
   979.2500      0.0000    659.5827      6.1200     90.4628
   979.5000      0.0000    643.5742      6.1609     93.1777
   979.7500      0.0000    642.6766      6.1484     95.3838
   980.0000      0.0000    657.4172      6.0392     96.1752
   980.2500      0.0000    680.2863      5.8561     93.7494
   980.5000      0.0000    702.1080      5.6795     87.0334
   980.7500      0.0000    718.4179      5.5682     77.5980
   981.0000      2.0000    729.7491      5.5083     69.2984
   981.2500     -2.0000    737.6688      5.4479     65.6278
   981.5000      0.0000    741.8616      5.3611     67.6029
   981.7500      0.0000    740.4046      5.2826     73.8690
   982.0000      0.0000    732.2291      5.2983     81.9801
   982.2500      0.0000    719.5953      5.4889     89.4675
   982.5000      0.0000    707.6762      5.8445     94.4573
   982.7500      0.0000    700.4537      6.2354     95.9250
   983.0000      0.0000    696.5729      6.5023     93.7738
   983.2500      0.0000    690.0789      6.5758     89.1103
   983.5000      0.0000    676.2484      6.4966     84.4476
   983.7500      0.0000    656.3926      6.3473     82.8958
   984.0000      0.0000    635.7950      6.1950     86.4320
   984.2500      0.0000    617.0601      6.0798     94.7279
   984.5000      0.0000    597.3580      6.0195    105.4645
   984.7500      0.0000    573.2842      6.0128    115.6941
   985.0000      0.0000    547.9674      6.0440    123.3146
   985.2500      0.0000    532.3999      6.0950    128.0187
   985.5000      0.0000    538.1798      6.1551    131.1983
   985.7500      0.0000    567.0035      6.2247    134.5461
   986.0000      0.0000    606.8737      6.3106    138.2127
   986.2500      0.0000    639.4671      6.4162    140.5720
   986.5000      0.0000    651.3534      6.5349    140.2533
   986.7500      0.0000    639.2625      6.6503    137.9641
   987.0000      0.0000    608.9393      6.7438    135.7302
   987.2500      0.0000    572.1661      6.8040    134.7317
   987.5000      0.0000    542.1172      6.8295    134.5584
   987.7500      0.0000    526.5733      6.8258    134.3267
   988.0000      0.0000    524.4929      6.8001    133.8207
   988.2500      0.0000    529.7869      6.7594    133.5076
   988.5000      0.0000    537.2339      6.7103    133.9147
   988.7500      0.0000    544.2825      6.6600    135.0702
   989.0000      0.0000    549.7484      6.6170    136.2862
   989.2500      0.0000    553.0681      6.5884    136.6573
   989.5000      0.0000    554.4664      6.5778    136.1143
   989.7500      0.0000    554.7280      6.5821    135.6352
   990.0000      0.0000    554.5693      6.5905    135.9079
   990.2500      0.0000    554.3498      6.5884    136.2289
   990.5000      0.0000    554.2609      6.5665    135.3448
   990.7500      0.0000    554.7289      6.5279    133.1177
   991.0000      0.0000    556.6236      6.4849    130.7282
   991.2500      0.0000    560.8929      6.4506    129.0943
   991.5000      0.0000    567.6411      6.4315    127.4192
   991.7500      0.0000    575.4575      6.4264    123.8809
   992.0000      0.0000    581.8537      6.4276    118.0475
   992.2500      0.0000    584.5518      6.4247    112.0809
   992.5000      0.0000    582.5955      6.4096    108.8938
   992.7500      0.0000    576.7533      6.3822    109.3419
   993.0000      0.0000    569.1888      6.3520    111.7173
   993.2500      0.0000    562.3780      6.3300    113.7785
   993.5000      0.0000    557.7681      6.3190    114.6877
   993.7500      0.0000    555.2034      6.3088    114.9694
   994.0000      0.0000    553.4305      6.2803    115.2355
   994.2500      0.0000    551.0357      6.2138    115.4238
   994.5000      0.0000    547.3325      6.1012    115.1254
   994.7500      0.0000    543.0740      5.9566    114.2857
   995.0000      0.0000    540.3945      5.8137    113.4341
   995.2500      0.0000    541.5513      5.7079    113.4144
   995.5000      0.0000    547.6258      5.6572    114.8663
   995.7500      0.0000    558.9130      5.6576    117.6238
   996.0000      0.0000    576.2455      5.6887    120.4419
   996.2500      0.0000    600.5024      5.7245    121.6739
   996.5000      0.0000    629.9041      5.7423    120.5409
   996.7500      0.0000    658.6423      5.7292    117.6726
   997.0000      0.0000    679.7339      5.6861    114.3717
   997.2500      0.0000    689.7991      5.6270    111.5139
   997.5000      0.0000    690.8361      5.5733    109.0937
   997.7500      0.0000    687.6398      5.5443    106.5131
   998.0000      0.0000    684.1130      5.5489    103.1113
