~Version Information
VERS.                      2.0: CWLS Log ASCII Standard - VERSION 2.0
WRAP.                       NO: One line per depth step
~Well Information Block
STRT.FT               575.0000: 
STOP.FT              1557.5000: 
STEP.FT                 0.1000: 
NULL.                -999.2500: 
COMP.          Pioneer Natural Resources: COMPANY
WELL.          McClaren 13-34 Tr: WELL
FLD.           Purgatoire River: FIELD
LOC.           1934' FSL & 826' FWL: LOCATION
PROV.                 Colorado: PROVINCE
CNTY.               Las Animas: COUNTRY
SRVC.                Patterson: SERVICE COMPANY
DATE.          Tue Jul 12 07:15:27 2005: LOG DATE
UWI.           05 071 08437 00: UNIQUE WELL ID
~Curve Information Block
DEPT.FT            0 000 00 00: Depth
DCAL.in                       : CDL Caliper
RHOB.g/cc                     : CDL Bulk Density
RHOC.g/cc                     : CDL Density Correction
DPOR.pu                       : CDL Density Porosity
GR.GAPI                       : Gamma Ray
NPOR.pu                       : Neutron Porosity
~Parameter Information Block
~A  Depth       DCAL        RHOB        RHOC        DPOR         GR         NPOR    
# ...
  1026.2000      7.8341      1.6827      0.1003     58.6251     25.9982     28.0012
  1026.3000      7.8340      1.7081      0.1010     57.0843     26.9693     27.0647
  1026.4000      7.8340      1.7192      0.1130     56.4143     28.7723     25.8700
  1026.5000      7.8329      1.7223      0.0866     56.2238     31.6672     25.3067
  1026.6000      7.8329      1.7275      0.0954     55.9066     33.2061     25.6155
  1026.7000      7.8329      1.7375      0.0752     55.3021     30.7804     26.4444
  1026.8000      7.8324      1.7446      0.1241     54.8722     26.8041     27.0329
  1026.9000      7.8324      1.7401      0.0860     55.1435     24.8362     26.6310
  1027.0000      7.8327      1.7301      0.0551     55.7520     24.3634     25.6186
  1027.1000      7.8327      1.7341      0.0336     55.5090     24.7939     24.7076
  1027.2000      7.8327      1.7683      0.0588     53.4390     29.3363     24.3065
  1027.3000      7.8321      1.8348      0.0854     49.4055     31.3048     24.2653
  1027.4000      7.8321      1.9267      0.1265     43.8346     31.5050     24.2818
  1027.5000      7.8304      2.0273      0.1939     37.7386     29.6984     24.2085
  1027.6000      7.8304      2.1153      0.2142     32.4047     27.8008     23.9860
  1027.7000      7.8304      2.1845      0.2251     28.2115     28.3654     23.7137
  1027.8000      7.8302      2.2401      0.2027     24.8425     31.0915     23.7705
  1027.9000      7.8302      2.2840      0.1408     22.1795     35.3951     24.4533
  1028.0000      7.8425      2.3110      0.1697     20.5460     41.6588     24.9531
  1028.1000      7.8425      2.3178      0.0385     20.1351     47.4430     23.9990
  1028.2000      7.8425      2.3192     -0.0483     20.0505     53.4509     22.1293
  1028.3000      7.8688      2.3254     -0.0029     19.6736     51.3962     21.2315
  1028.4000      7.8688      2.3289      0.0129     19.4586     49.4060     21.5724
  1028.5000      7.8875      2.3283     -0.0007     19.4978     48.1923     21.9367
  1028.6000      7.8875      2.3287      0.0356     19.4717     48.5740     21.6437
  1028.7000      7.8875      2.3395      0.0025     18.8182     52.4470     20.9991
  1028.8000      7.8959      2.3682      0.1125     17.0812     55.6490     20.6017
  1028.9000      7.8959      2.4115      0.0894     14.4549     53.5173     20.5253
  1029.0000      7.8993      2.4652      0.0755     11.2018     50.3329     20.6944
  1029.1000      7.8993      2.5099      0.0816      8.4936     50.7245     20.9881
  1029.2000      7.8993      2.5228      0.0383      7.7120     51.5675     21.0214
  1029.3000      7.8943      2.5090      0.1142      8.5476     49.7449     20.8810
  1029.4000      7.8943      2.4775      0.1070     10.4556     47.0125     20.9768
  1029.5000      7.8891      2.4200      0.0633     13.9403     45.8138     21.4825
  1029.6000      7.8891      2.3309     -0.0105     19.3377     47.6574     22.1479
  1029.7000      7.8891      2.2284     -0.0706     25.5495     51.7751     22.5888
  1029.8000      7.8894      2.1361     -0.0795     31.1460     54.8966     23.1139
  1029.9000      7.8894      2.0534     -0.0315     36.1602     54.6990     23.7820
  1030.0000      7.8914      1.9660     -0.0358     41.4576     51.0752     24.1628
  1030.1000      7.8914      1.8804     -0.0273     46.6421     46.7108     24.6839
  1030.2000      7.8914      1.8175      0.0705     50.4538     45.4672     25.2101
  1030.3000      7.8939      1.7807      0.1011     52.6840     46.8910     24.8486
  1030.4000      7.8939      1.7623      0.0843     53.7992     46.8623     23.9548
  1030.5000      7.8987      1.7623      0.0769     53.8000     44.7246     23.4604
  1030.6000      7.8987      1.7779      0.1161     52.8518     42.8865     23.8617
  1030.7000      7.8987      1.7987      0.1343     51.5923     42.2234     24.8295
  1030.8000      7.9103      1.8279      0.1200     49.8268     41.7876     25.5748
  1030.9000      7.9103      1.8786      0.1260     46.7539     40.3149     25.9997
  1031.0000      7.9272      1.9416      0.1754     42.9357     37.8110     26.2734
  1031.1000      7.9272      1.9897      0.1816     40.0170     36.0248     26.5634
  1031.2000      7.9272      2.0109      0.1662     38.7337     36.5482     27.1449
  1031.3000      7.9424      2.0136      0.1527     38.5690     39.3260     27.4683
  1031.4000      7.9424      2.0051      0.1649     39.0846     41.2215     26.9432
  1031.5000      7.9573      1.9804      0.1152     40.5792     40.6064     26.4468
  1031.6000      7.9573      1.9401      0.0332     43.0258     40.3923     26.3714
  1031.7000      7.9573      1.8982     -0.0537     45.5626     40.1937     26.0116
  1031.8000      7.9664      1.8680     -0.0784     47.3954     37.6797     25.5587
  1031.9000      7.9664      1.8521     -0.0802     48.3548     34.3422     25.6115
  1032.0000      7.9683      1.8470      0.0071     48.6657     31.7427     25.6259
  1032.1000      7.9683      1.8403      0.1080     49.0723     29.1201     25.2988
  1032.2000      7.9683      1.8168      0.1139     50.4985     27.3670     25.3016
  1032.3000      7.9692      1.7769      0.0938     52.9180     29.2052     25.7852
  1032.4000      7.9692      1.7380      0.0447     55.2740     34.5625     26.5905
  1032.5000      7.9794      1.7139      0.0390     56.7324     39.5261     27.6503
  1032.6000      7.9794      1.6977      0.0693     57.7180     40.1687     28.4506
  1032.7000      7.9794      1.6765      0.0616     59.0016     36.5815     28.6893
  1032.8000      8.0005      1.6562      0.0265     60.2308     33.7671     28.5836
  1032.9000      8.0005      1.6535      0.0411     60.3943     35.5435     28.6925
  1033.0000      8.0214      1.6785      0.0409     58.8761     39.8222     29.1143
  1033.1000      8.0214      1.7319      0.0696     55.6448     43.5120     29.3844
  1033.2000      8.0214      1.8079      0.0843     51.0352     46.3836     29.4443
  1033.3000      8.0601      1.8990      0.1532     45.5131     47.9028     29.2680
  1033.4000      8.0601      1.9841      0.2698     40.3596     48.6504     28.7170
  1033.5000      8.1217      2.0292      0.3378     37.6249     51.0921     28.2298
  1033.6000      8.1217      2.0248      0.3078     37.8906     55.4046     28.1451
  1033.7000      8.1217      2.0006      0.2984     39.3600     59.5959     27.8972
  1033.8000      8.1686      1.9895      0.3000     40.0306     61.8427     26.9341
  1033.9000      8.1686      2.0037      0.2779     39.1706     64.0409     25.9174
  1034.0000      8.1950      2.0376      0.3026     37.1151     68.3941     25.5597
  1034.1000      8.1950      2.0835      0.2488     34.3309     71.6110     25.5462
  1034.2000      8.1950      2.1470      0.3229     30.4869     71.2968     25.1501
  1034.3000      8.2076      2.2274      0.3630     25.6126     69.4049     24.4377
  1034.4000      8.2076      2.2960      0.3933     21.4554     68.2045     24.1291
  1034.5000      8.2164      2.3138      0.3932     20.3776     70.0262     24.4892
  1034.6000      8.2164      2.2757      0.2813     22.6877     74.1558     25.0621
  1034.7000      8.2164      2.2230      0.2142     25.8782     76.1308     25.2137
  1034.8000      8.2279      2.1984      0.2149     27.3708     75.3476     25.0428
  1034.9000      8.2279      2.1990      0.3207     27.3338     74.9384     25.0755
  1035.0000      8.2348      2.1943      0.3496     27.6201     75.9711     25.4260
  1035.1000      8.2348      2.1752      0.3500     28.7746     76.2688     25.7379
  1035.2000      8.2348      2.1597      0.3268     29.7178     74.1721     25.8958
  1035.3000      8.2384      2.1649      0.3217     29.3994     69.4660     26.3559
  1035.4000      8.2384      2.1935      0.3333     27.6657     62.6356     27.5650
  1035.5000      8.2489      2.2444      0.2783     24.5837     57.6710     29.1068
  1035.6000      8.2489      2.3086      0.3176     20.6902     57.0337     30.0105
  1035.7000      8.2489      2.3611      0.3303     17.5066     59.0463     30.0654
