~Version Information
VERS.                      2.0: CWLS Log ASCII Standard - VERSION 2.0
WRAP.                       NO: One line per depth step
~Well Information Block
STRT.FT               260.8000: 
STOP.FT              1942.0000: 
STEP.FT                 0.1000: 
NULL.                -999.2500: 
COMP.          XTO Energy Inc.: COMPANY
WELL.          Golden Eagle 19-11: WELL
FLD.           Purgatoire River: FIELD
LOC.           2351' FSL & 1926' FWL--: LOCATION
CNTY.               Las Animas: COUNTY
SRVC.                Patterson: SERVICE COMPANY
DATE.          Thu Mar 09 08:41:38 2006: LOG DATE
UWI.           05 071 08696 00: UNIQUE WELL ID
STAT.                 Colorado: STATE
~Curve Information Block
DEPT.FT            0 000 00 00: Depth
DCAL.in                       : CDL Caliper
RHOB.g/cc                     : CDL Bulk Density
RHOC.g/cc                     : CDL Density Correction
DPOR.pu                       : CDL Density Porosity
NPOR.pu                       : Neutron Porosity
GR.GAPI                       : Gamma Ray
~Parameter Information Block
~A  Depth       DCAL        RHOB        RHOC        DPOR        NPOR         GR     
# ...
   376.0000      8.0296      2.3469     -0.0579     18.3668     21.2645     65.2129
   376.1000      8.0296      2.3286     -0.0208     19.4772     21.3656     73.0290
   376.2000      8.0296      2.3145     -0.0134     20.3357     21.0140     81.5491
   376.3000      8.0420      2.3019      0.0254     21.0946     20.3721     90.5499
   376.4000      8.0420      2.3056      0.0677     20.8697     19.7428     99.1027
   376.5000      8.0536      2.3341      0.1402     19.1474     19.1468    104.4691
   376.6000      8.0536      2.3738      0.2173     16.7408     18.6023    105.4326
   376.7000      8.0536      2.4116      0.2199     14.4488     18.2901    105.6240
   376.8000      8.0595      2.4476      0.1937     12.2648     18.4670    106.6481
   376.9000      8.0595      2.4819      0.1470     10.1882     19.0796    108.0194
   377.0000      8.0619      2.5127      0.1103      8.3197     19.7254    111.2112
   377.1000      8.0619      2.5382      0.1099      6.7746     20.4352    116.2182
   377.2000      8.0619      2.5491      0.1364      6.1165     21.6832    119.5685
   377.3000      8.0617      2.5386      0.1187      6.7492     23.2665    118.7679
   377.4000      8.0617      2.5173      0.0606      8.0426     24.6785    117.9653
   377.5000      8.0623      2.4999      0.0818      9.0941     25.8693    121.4720
   377.6000      8.0623      2.4928      0.0736      9.5275     26.7012    127.1204
   377.7000      8.0623      2.5044      0.0643      8.8266     26.7668    130.4378
   377.8000      8.0632      2.5398      0.0978      6.6779     26.3302    131.0767
   377.9000      8.0632      2.5945      0.0976      3.3660     26.4195    133.2938
   378.0000      8.0602      2.6555      0.1668     -0.3310     27.1157    138.3403
   378.1000      8.0602      2.7047      0.2064     -3.3170     27.5012    141.1683
   378.2000      8.0602      2.7374      0.2011     -5.2966     27.1313    136.7818
   378.3000      8.0529      2.7685      0.1331     -7.1809     26.4379    127.3363
   378.4000      8.0529      2.8117      0.1776     -9.8003     26.2862    119.8364
   378.5000      8.0432      2.8662      0.1307    -13.1056     27.0967    116.6300
   378.6000      8.0432      2.9325      0.1224    -17.1204     28.3798    116.4358
   378.7000      8.0432      3.0038      0.1319    -21.4424     29.3973    117.1712
   378.8000      8.0354      3.0483      0.1778    -24.1378     29.9570    116.6715
   378.9000      8.0354      3.0281      0.1510    -22.9181     30.0675    115.0456
   379.0000      8.0355      2.9451      0.0396    -17.8843     29.9068    114.7907
   379.1000      8.0355      2.8427     -0.0032    -11.6801     30.0362    117.4417
   379.2000      8.0355      2.7535     -0.0367     -6.2736     30.5406    121.4281
   379.3000      8.0487      2.6796     -0.0713     -1.7915     30.7488    124.8776
   379.4000      8.0487      2.6198     -0.1151      1.8311     30.1479    128.0959
   379.5000      8.0755      2.5803     -0.1222      4.2264     29.1110    133.0990
   379.6000      8.0755      2.5573     -0.0751      5.6185     28.2615    137.7565
   379.7000      8.0755      2.5384     -0.0780      6.7610     27.6100    138.8668
   379.8000      8.1055      2.5194     -0.0263      7.9149     26.9145    139.2468
   379.9000      8.1055      2.4915      0.0724      9.6062     25.8777    143.4117
   380.0000      8.1207      2.4377      0.0259     12.8689     24.4474    148.2785
   380.1000      8.1207      2.3714     -0.0195     16.8845     23.2272    147.3907
   380.2000      8.1207      2.3302     -0.0215     19.3804     22.6305    141.6904
   380.3000      8.1160      2.3195      0.0345     20.0327     22.2129    137.0193
   380.4000      8.1160      2.3222     -0.0312     19.8687     21.5463    136.0187
   380.5000      8.1003      2.3391      0.0471     18.8407     20.8345    136.5295
   380.6000      8.1003      2.3709      0.0698     16.9173     20.3198    136.0723
   380.7000      8.1003      2.4099      0.1032     14.5531     19.9350    134.8680
   380.8000      8.0841      2.4497      0.1206     12.1410     19.7363    135.8688
   380.9000      8.0841      2.4802      0.1527     10.2914     19.8576    138.4022
   381.0000      8.0687      2.4963      0.0937      9.3124     20.2255    139.5610
   381.1000      8.0687      2.5103      0.0662      8.4663     20.8803    140.9541
   381.2000      8.0687      2.5348      0.0781      6.9822     21.9751    142.1483
   381.3000      8.0589      2.5596      0.1094      5.4762     23.2326    141.0221
   381.4000      8.0589      2.5623      0.0570      5.3140     24.1174    138.4825
   381.5000      8.0581      2.5383      0.0300      6.7717     24.4612    136.7637
   381.6000      8.0581      2.5017     -0.0007      8.9858     24.4459    137.4705
   381.7000      8.0581      2.4686     -0.0262     10.9964     24.2561    141.4658
   381.8000      8.0634      2.4494      0.0091     12.1579     23.9391    146.3370
   381.9000      8.0634      2.4441      0.0251     12.4791     23.6767    148.5615
   382.0000      8.0738      2.4460      0.0248     12.3653     23.7732    148.3723
   382.1000      8.0738      2.4595      0.0114     11.5425     24.2799    147.1497
   382.2000      8.0738      2.4910      0.0655      9.6342     24.9057    144.2742
   382.3000      8.0891      2.5243      0.0941      7.6210     25.2240    140.4574
   382.4000      8.0891      2.5434      0.0796      6.4625     25.0590    139.6867
   382.5000      8.1020      2.5538      0.0540      5.8311     24.5992    144.5504
   382.6000      8.1020      2.5536      0.0968      5.8403     24.0251    151.1211
   382.7000      8.1020      2.5320      0.0678      7.1528     23.3928    153.4503
   382.8000      8.1029      2.4977      0.0586      9.2275     22.7779    149.3919
   382.9000      8.1029      2.4653      0.0579     11.1967     22.2892    142.5626
   383.0000      8.0990      2.4359      0.0236     12.9753     21.9222    140.1685
   383.1000      8.0990      2.4114      0.0069     14.4577     21.4220    143.2668
   383.2000      8.0990      2.3948      0.0138     15.4664     20.9049    147.7635
   383.3000      8.0980      2.3841      0.0240     16.1129     20.8737    148.7561
   383.4000      8.0980      2.3865      0.0124     15.9674     21.1263    145.5658
   383.5000      8.0984      2.4077      0.0879     14.6867     20.9530    142.7422
   383.6000      8.0984      2.4337      0.0826     13.1078     20.3247    140.9149
   383.7000      8.0984      2.4534      0.1324     11.9136     19.9258    139.3316
   383.8000      8.0984      2.4682      0.1115     11.0201     20.1276    141.3257
   383.9000      8.0984      2.4813      0.1087     10.2267     20.5022    146.7218
   384.0000      8.0972      2.4935      0.0966      9.4871     20.5870    150.9706
   384.1000      8.0972      2.5074      0.0843      8.6453     20.6148    152.2979
   384.2000      8.0972      2.5239      0.0890      7.6442     20.8373    151.0196
   384.3000      8.0923      2.5342      0.1038      7.0196     21.1567    147.7702
   384.4000      8.0923      2.5377      0.0541      6.8046     21.6351    145.4847
   384.5000      8.0791      2.5602      0.0572      5.4416     22.3255    145.6738
   384.6000      8.0791      2.6263      0.0922      1.4350     23.0857    145.6778
   384.7000      8.0791      2.7293      0.1413     -4.8037     24.0360    140.9808
   384.8000      8.0595      2.8347      0.2285    -11.1929     25.2861    129.7284
   384.9000      8.0595      2.8982      0.2263    -15.0451     26.7081    116.8400
   385.0000      8.0429      2.8898      0.2038    -14.5311     28.2082    107.4218
   385.1000      8.0429      2.8266      0.0727    -10.7039     29.5715    101.4305
   385.2000      8.0429      2.7630      0.0659     -6.8470     30.5917     98.2765
   385.3000      8.0345      2.7343     -0.0108     -5.1069     31.2312     99.2440
   385.4000      8.0345      2.7349     -0.0317     -5.1452     31.4240    103.5961
   385.5000      8.0376      2.7300     -0.0607     -4.8489     31.2087    107.8322
