~Version Information
VERS.                      2.0: CWLS Log ASCII Standard - VERSION 2.0
WRAP.                       NO: One line per depth step
~Well Information Block
STRT.FT                -3.0000: 
STOP.FT              1123.0000: 
STEP.FT                 0.2500: 
NULL.                -999.2500: 
COMP.          Pioneer Natural Resources: COMPANY
WELL.               Ryan 41-17: WELL
FLD.           Purgatoire River: FIELD
LOC.           822' FNL & 532' FEL--: LOCATION
CNTY.               Las Animas: COUNTY
SRVC.                Patterson: SERVICE COMPANY
DATE.          Mon Mar 27 14:50:31 2006: LOG DATE
UWI.           05 071 08719 00: UNIQUE WELL ID
STAT.                 Colorado: STATE
~Curve Information Block
DEPT.FT            0 000 00 00: Depth
CCL.                          : Casing Collar Locator
TT3.usec                      : CBL 3' Travel Time
AMP3.mV                       : CBL 3' Amplitude
GR.GAPI                       : Gamma Ray
~Parameter Information Block
~A  Depth       CCL         TT3         AMP3         GR     
# ...
   499.5000      0.0000    302.3746     36.5100    100.2032
   499.7500      0.0000    302.3938     36.2495     90.8867
   500.0000      0.0000    302.4308     35.8936     79.1101
   500.2500      0.0000    302.4598     35.6588     75.0833
   500.5000      0.0000    302.4988     35.3138     75.0203
   500.7500      0.0000    302.5171     35.0981     77.6875
   501.0000      0.0000    302.5405     34.7850     83.7703
   501.2500      0.0000    302.5667     34.5611     88.7171
   501.5000      0.0000    302.6915     34.1767     96.6173
   501.7500      0.0000    302.9202     33.8962    101.0185
   502.0000      0.0000    304.0650     33.4507    103.7951
   502.2500      0.0000    306.3036     33.0856    102.5899
   502.5000      0.0000    314.9880     32.1983     98.4479
   502.7500      0.0000    326.4551     31.2227     96.6340
   503.0000      0.0000    353.6465     29.1442     98.7288
   503.2500      0.0000    377.2022     27.5201    103.4034
   503.5000      0.0000    417.8016     25.1051    111.7457
   503.7500      0.0000    448.2988     23.6049    115.2220
   504.0000      0.0000    500.1270     21.5349    114.3544
   504.2500      0.0000    537.2428     20.3703    110.2714
   504.5000      0.0000    589.8751     19.2620    102.3479
   504.7500      0.0000    618.0999     19.0296     97.9130
   505.0000      0.0000    643.3625     19.1946     94.3917
   505.2500      2.0000    647.0904     19.3953     94.0668
   505.5000      0.0000    635.2021     19.5925     95.2674
   505.7500      0.0000    617.8820     19.7654     96.3704
   506.0000      0.0000    578.0552     20.6452     97.4431
   506.2500      0.0000    541.7303     21.9416     97.0951
   506.5000      0.0000    478.2919     24.8807     93.5958
   506.7500      0.0000    437.0421     27.1305     88.8247
   507.0000      0.0000    385.7211     30.3250     78.8458
   507.2500      0.0000    359.5040     32.2212     71.6757
   507.5000      0.0000    330.7222     34.7594     62.2973
   507.7500      0.0000    317.9923     36.2253     57.2022
   508.0000      0.0000    307.2718     37.9530     50.8290
   508.2500      0.0000    304.1203     38.7651     48.0344
   508.5000      0.0000    302.4157     39.5879     48.9382
   508.7500      0.0000    302.1059     39.9728     54.2848
   509.0000      0.0000    301.9606     40.4108     68.7506
   509.2500      0.0000    301.9203     40.6135     80.5606
   509.5000      0.0000    301.8936     40.7516     96.4980
   509.7500      0.0000    301.8879     40.7360    103.3607
   510.0000      0.0000    301.8907     40.6239    106.3134
   510.2500      0.0000    301.8977     40.5476    104.3211
   510.5000      0.0000    301.9165     40.4902     98.2934
   510.7500      0.0000    301.9341     40.4906     93.3272
   511.0000      0.0000    301.9607     40.5171     84.9558
   511.2500      0.0000    301.9716     40.5287     78.9956
   511.5000      0.0000    301.9698     40.5000     70.5281
   511.7500      0.0000    301.9571     40.4371     66.0487
   512.0000      0.0000    301.9280     40.2830     62.3241
   512.2500      0.0000    301.9076     40.1602     61.9801
   512.5000      0.0000    301.8829     39.9835     63.7758
   512.7500      0.0000    301.8726     39.8778     65.8804
   513.0000      0.0000    301.8672     39.7133     69.9336
   513.2500      0.0000    301.8715     39.5725     73.0199
   513.5000      0.0000    301.8951     39.2734     77.1481
   513.7500      0.0000    301.9244     39.0101     78.8067
   514.0000      0.0000    301.9842     38.5582     79.3703
   514.2500      0.0000    302.0240     38.2682     79.0051
   514.5000      0.0000    302.0576     37.9476     78.3467
   514.7500      0.0000    302.0505     37.8472     77.7883
   515.0000      0.0000    301.9957     37.8517     75.8120
   515.2500      0.0000    301.9433     37.9015     73.5799
   515.5000      0.0000    301.8723     37.9130     70.8005
   515.7500      0.0000    301.8435     37.8186     71.4520
   516.0000      0.0000    301.8354     37.4987     78.7429
   516.2500      0.0000    301.8505     37.1947     87.0537
   516.5000      0.0000    301.8943     36.6814     99.4424
   516.7500      0.0000    301.9326     36.3393    104.2766
   517.0000      0.0000    301.9966     35.8625    104.1435
   517.2500      0.0000    302.0372     35.5769    100.0595
   517.5000      0.0000    302.0806     35.1952     90.6130
   517.7500      0.0000    302.0931     34.9566     83.3285
   518.0000      0.0000    302.0985     34.5642     73.0550
   518.2500      0.0000    302.1091     34.2429     68.0791
   518.5000      0.0000    302.1585     33.6600     64.6564
   518.7500      0.0000    302.2123     33.2443     64.3431
   519.0000      0.0000    302.2973     32.7000     64.0982
   519.2500      0.0000    302.3393     32.4525     62.9033
   519.5000      0.0000    302.3718     32.2941     59.3695
   519.7500      0.0000    302.3813     32.3067     56.3828
   520.0000      0.0000    302.3971     32.4085     51.6815
   520.2500      0.0000    302.4150     32.4716     48.5596
   520.5000      0.0000    302.4551     32.4978     44.1952
   520.7500      0.0000    302.4869     32.4735     41.7897
   521.0000      0.0000    302.5222     32.4420     39.2491
   521.2500      0.0000    302.5199     32.4768     38.1546
   521.5000      0.0000    302.4541     32.6749     36.9276
   521.7500      0.0000    302.3708     32.9058     36.2988
   522.0000      0.0000    302.2195     33.3432     36.1625
   522.2500      0.0000    302.1259     33.6412     37.1317
   522.5000      0.0000    302.0226     34.0061     40.6414
   522.7500      0.0000    301.9833     34.1621     43.9028
   523.0000      0.0000    301.9720     34.2652     48.1324
   523.2500      0.0000    301.9968     34.2774     49.5175
   523.5000      0.0000    302.0676     34.2908     50.3825
   523.7500      0.0000    302.1133     34.3406     52.3357
   524.0000      0.0000    302.1269     34.5099     61.4238
   524.2500      0.0000    302.0822     34.6657     72.6599
   524.5000      0.0000    301.9553     34.8640     95.4358
   524.7500      0.0000    301.8654     34.9047    111.5781
   525.0000      0.0000    301.7782     34.7666    131.2163
   525.2500      0.0000    301.7634     34.5566    139.1882
   525.5000      0.0000    301.7943     34.1532    144.6706
   525.7500      0.0000    301.8392     33.8877    146.7604
   526.0000      0.0000    301.9257     33.5860    151.9671
   526.2500      0.0000    301.9779     33.4850    157.6815
   526.5000      0.0000    301.9980     33.4997    168.1348
   526.7500      0.0000    301.9476     33.6006    174.6037
   527.0000      0.0000    301.7776     33.8155    180.5739
   527.2500      0.0000    301.6323     33.9511    180.9656
   527.5000      0.0000    301.4380     34.0831    175.7182
   527.7500      0.0000    301.3541     34.1203    168.4363
   528.0000      0.0000    301.3050     34.1422    152.0690
   528.2500      0.0000    301.3101     34.1630    138.1274
   528.5000      0.0000    301.3486     34.2284    115.5481
   528.7500      0.0000    301.3878     34.2946    101.8414
   529.0000      0.0000    301.4599     34.4103     87.4665
   529.2500      0.0000    301.5101     34.4781     83.9698
   529.5000      0.0000    301.5775     34.5260     89.6006
   529.7500      0.0000    301.6138     34.5111     99.8031
   530.0000      0.0000    301.6435     34.4385    119.5085
   530.2500      0.0000    301.6313     34.3812    131.3598
   530.5000      0.0000    301.5388     34.3069    142.3573
   530.7500      0.0000    301.4318     34.2509    145.4171
   531.0000      0.0000    301.2656     34.0829    147.5644
   531.2500      0.0000    301.2075     33.8708    148.7400
   531.5000      0.0000    301.2703     33.4030    147.6408
   531.7500      0.0000    301.4126     33.0529    142.5375
   532.0000      0.0000    301.7131     32.6153    128.4058
   532.2500      0.0000    301.9250     32.4321    118.1948
   532.5000      0.0000    302.2073     32.3020    109.6675
   532.7500      0.0000    302.3607     32.2629    111.3297
