~Version Information
VERS.                      2.0: CWLS Log ASCII Standard - VERSION 2.0
WRAP.                       NO: One line per depth step
~Well Information Block
STRT.FT               330.0000: 
STOP.FT              1876.2000: 
STEP.FT                 0.1000: 
NULL.                -999.2500: 
COMP.          Pioneer Natural Resources: COMPANY
WELL.          Cooper 11-13 Tr: WELL
FLD.           Purgatoire River: FIELD
LOC.           476' FNL & 738' FWL: LOCATION
STAT.                 Colorado: State
CNTY.               Las Animas: COUNTY
CTRY. USA : Country
SECT. 13 : Section
TOWN. 32S : Township
RANG. 67W : Range 
SRVC.                Patterson: SERVICE COMPANY
DATE.          Mon Sep 26 10:28:17 2005: LOG DATE
API.           05 071 08525 00: UNIQUE WELL ID
~Curve Information Block
DEPT.FT            0 000 00 00: Depth
DCAL.in                       : CDL Caliper
RHOB.g/cc                     : CDL Bulk Density
RHOC.g/cc                     : CDL Density Correction
DPOR.pu                       : CDL Density Porosity
NPOR.pu                       : Neutron Porosity
GR.GAPI                       : Gamma Ray
~Parameter Information Block
~A  Depth       DCAL        RHOB        RHOC        DPOR        NPOR         GR     
# ...
  1040.4000      7.8718      2.5544      0.0793      5.7968     27.4899    117.4319
  1040.5000      7.8845      2.5808      0.1047      4.1926     26.9302    111.1801
  1040.6000      7.8845      2.6011      0.0762      2.9636     26.1369    112.6021
  1040.7000      7.8845      2.6150      0.0990      2.1191     25.8138    116.3481
  1040.8000      7.8966      2.6204      0.1025      1.7924     26.2630    117.5146
  1040.9000      7.8966      2.6132      0.0764      2.2276     26.8937    118.2307
  1041.0000      7.9053      2.5992      0.0451      3.0766     27.2933    119.9715
  1041.1000      7.9053      2.5951      0.0437      3.3268     27.7896    118.2912
  1041.2000      7.9053      2.6123      0.0613      2.2822     28.5704    113.0822
  1041.3000      7.9091      2.6426      0.0921      0.4467     29.5364    110.4574
  1041.4000      7.9091      2.6625      0.1069     -0.7550     30.5765    109.9628
  1041.5000      7.9101      2.6559      0.0883     -0.3577     31.5552    109.0663
  1041.6000      7.9101      2.6366      0.0519      0.8133     32.0572    110.9402
  1041.7000      7.9101      2.6279      0.0335      1.3375     31.8686    115.5916
  1041.8000      7.9113      2.6283      0.0697      1.3137     31.2505    120.8136
  1041.9000      7.9113      2.6242      0.0294      1.5608     30.6103    123.5616
  1042.0000      7.9124      2.6180      0.0255      1.9414     30.0335    120.9182
  1042.1000      7.9124      2.6113      0.0691      2.3468     29.2867    116.2488
  1042.2000      7.9124      2.5946      0.0313      3.3561     28.4540    112.3252
  1042.3000      7.9108      2.5676      0.0139      4.9964     27.9666    108.3410
  1042.4000      7.9108      2.5384      0.0065      6.7634     27.9785    105.8904
  1042.5000      7.9065      2.5124      0.0254      8.3366     28.1476    108.2312
  1042.6000      7.9065      2.4933      0.0120      9.4976     27.9930    114.1529
  1042.7000      7.9065      2.4872     -0.0190      9.8658     27.6904    117.3770
  1042.8000      7.8986      2.4926      0.0524      9.5402     27.6735    113.9217
  1042.9000      7.8986      2.4943      0.0334      9.4371     27.6022    107.7870
  1043.0000      7.8889      2.4839      0.0271     10.0688     27.3789    104.7212
  1043.1000      7.8889      2.4719      0.0222     10.7921     27.5515    103.9651
  1043.2000      7.8889      2.4697      0.0530     10.9279     28.1674    103.7740
  1043.3000      7.8773      2.4671      0.0472     11.0835     28.6731    105.2066
  1043.4000      7.8773      2.4542      0.0066     11.8682     28.7648    108.0801
  1043.5000      7.8644      2.4431     -0.0206     12.5372     28.7320    112.7993
  1043.6000      7.8644      2.4412      0.0203     12.6553     29.0188    118.7078
  1043.7000      7.8644      2.4343      0.0435     13.0712     29.4670    123.8217
  1043.8000      7.8593      2.4101      0.0616     14.5412     29.3335    127.6128
  1043.9000      7.8593      2.3803      0.0011     16.3426     28.3588    126.7453
  1044.0000      7.8667      2.3705      0.0157     16.9394     27.1301    120.7990
  1044.1000      7.8667      2.3842      0.0530     16.1080     26.1149    117.9342
  1044.2000      7.8667      2.4039      0.0595     14.9159     25.5668    120.9292
  1044.3000      7.8859      2.4159      0.0747     14.1898     25.4397    124.7487
  1044.4000      7.8859      2.4158      0.0519     14.1910     25.3779    128.3801
  1044.5000      7.9007      2.4111      0.0425     14.4813     25.6631    133.2231
  1044.6000      7.9007      2.4175      0.0840     14.0939     26.6723    137.7309
  1044.7000      7.9007      2.4394      0.1201     12.7641     27.9197    140.3487
  1044.8000      7.8938      2.4710      0.1379     10.8490     28.6727    143.0648
  1044.9000      7.8938      2.5072      0.2026      8.6523     28.7274    146.0161
  1045.0000      7.8815      2.5342      0.2264      7.0161     28.3274    146.3689
  1045.1000      7.8815      2.5375      0.1683      6.8202     27.9084    143.8937
  1045.2000      7.8815      2.5140      0.0840      8.2414     27.5797    141.2695
  1045.3000      7.8840      2.4641      0.0607     11.2646     27.0765    141.6320
  1045.4000      7.8840      2.3895      0.0574     15.7851     26.5222    145.4393
  1045.5000      7.8976      2.3018     -0.0012     21.1048     26.2241    147.8475
  1045.6000      7.8976      2.2254     -0.0599     25.7342     25.8536    144.7668
  1045.7000      7.8976      2.1835     -0.0666     28.2706     24.8543    138.4538
  1045.8000      7.9154      2.1744     -0.0379     28.8214     23.3540    135.6907
  1045.9000      7.9154      2.1758     -0.0241     28.7409     21.7238    139.7337
  1046.0000      7.9347      2.1728     -0.0229     28.9194     20.2022    143.9937
  1046.1000      7.9347      2.1635      0.0325     29.4858     19.2040    140.9370
  1046.2000      7.9347      2.1496      0.0475     30.3260     18.8414    133.8354
  1046.3000      7.9427      2.1483      0.0586     30.4061     18.6773    129.2038
  1046.4000      7.9427      2.1778      0.1208     28.6188     18.3858    126.5194
  1046.5000      7.9325      2.2208      0.1617     26.0100     18.2033    124.6441
  1046.6000      7.9325      2.2409      0.1342     24.7933     18.3839    127.2825
  1046.7000      7.9325      2.2307      0.0389     25.4128     18.9909    133.1404
  1046.8000      7.9180      2.2062      0.0721     26.8981     19.7975    135.8502
  1046.9000      7.9180      2.1697      0.0813     29.1116     20.1507    134.9351
  1047.0000      7.9105      2.1217      0.0632     32.0176     19.6383    134.1277
  1047.1000      7.9105      2.0804      0.0529     34.5225     18.6655    133.9413
  1047.2000      7.9105      2.0590      0.1049     35.8184     17.8557    132.6062
  1047.3000      7.9107      2.0507      0.0529     36.3223     17.1898    129.3256
  1047.4000      7.9107      2.0497      0.0078     36.3839     16.5766    124.5892
  1047.5000      7.9188      2.0571      0.0093     35.9324     16.2090    119.7887
  1047.6000      7.9188      2.0767      0.0072     34.7453     15.7875    116.0269
  1047.7000      7.9188      2.1202      0.0755     32.1095     15.0837    112.8345
  1047.8000      7.9281      2.1915      0.1506     27.7901     14.5605    110.0618
  1047.9000      7.9281      2.2788      0.2076     22.4942     14.6207    109.3277
  1048.0000      7.9288      2.3721      0.2524     16.8452     15.2256    112.5104
  1048.1000      7.9288      2.4599      0.3169     11.5221     16.1849    119.0112
  1048.2000      7.9288      2.5201      0.2792      7.8703     17.3847    122.8001
  1048.3000      7.9158      2.5393      0.2072      6.7071     18.6396    119.8326
  1048.4000      7.9158      2.5259      0.1045      7.5226     19.8690    115.9293
  1048.5000      7.8965      2.5009      0.0504      9.0393     21.2177    116.7571
  1048.6000      7.8965      2.4861      0.0166      9.9355     22.3526    118.5390
  1048.7000      7.8965      2.4885      0.0255      9.7897     23.0352    117.9961
  1048.8000      7.8862      2.4930      0.0655      9.5176     23.5513    115.4885
  1048.9000      7.8862      2.4852      0.0304      9.9854     23.7954    111.1225
  1049.0000      7.8813      2.4741      0.0254     10.6612     23.6602    107.4650
  1049.1000      7.8813      2.4734      0.0271     10.7022     23.5448    106.0382
  1049.2000      7.8813      2.4811      0.0516     10.2388     23.4203    106.1781
  1049.3000      7.8751      2.4877      0.0269      9.8377     23.2886    107.8007
  1049.4000      7.8751      2.4962      0.0293      9.3234     23.6672    110.6707
  1049.5000      7.8709      2.5138      0.0570      8.2551     24.4652    114.0877
  1049.6000      7.8709      2.5415      0.0642      6.5771     25.0773    117.2257
  1049.7000      7.8709      2.5794      0.0665      4.2766     25.2888    118.7830
  1049.8000      7.8699      2.6208      0.1167      1.7679     25.3881    116.2326
  1049.9000      7.8699      2.6452      0.1818      0.2901     25.7027    110.5472
