~Version Information
VERS.                      2.0: CWLS Log ASCII Standard - VERSION 2.0
WRAP.                       NO: One line per depth step
~Well Information Block
STRT.FT                 0.0000: 
STOP.FT              1981.7500: 
STEP.FT                 0.2500: 
NULL.                -999.2500: 
COMP.          Petrogulf Corporation: COMPANY
WELL.          Collister 17-31R: WELL
FLD.           Purgatorie River: FIELD
LOC.           962' FNL & 1520' FEL: LOCATION
STAT.                 Colorado: State
CNTY.               Las Animas: COUNTY
CTRY. USA : Country
SECT. 17 : Section
TOWN. 33S : Township
RANG. 67W : Range
SRVC.                Patterson: SERVICE COMPANY
DATE.          Fri Jan 06 10:32:29 2006: LOG DATE
API. 05-071-08436                         : UNIQUE WELL ID
~Curve Information Block
DEPT.FT            0 000 00 00: Depth
CCL.                          : Casing Collar Locator
TT3.usec                      : CBL 3' Travel Time
AMP3.mV                       : CBL 3' Amplitude
GR.GAPI                       : Gamma Ray
~Parameter Information Block
~A  Depth       CCL         TT3         AMP3         GR     
# ...
  1675.0000      0.0000    674.4976      1.8623    125.6120
  1675.2500      0.0000    701.8962      1.9398    138.4358
  1675.5000      0.0000    730.8000      2.0460    149.8559
  1675.7500      0.0000    747.8739      2.1752    156.7008
  1676.0000      0.0000    756.0923      2.3380    157.4643
  1676.2500      0.0000    758.7255      2.5311    153.2189
  1676.5000      0.0000    755.0937      2.7436    146.6889
  1676.7500      0.0000    746.8840      2.9935    140.2118
  1677.0000      0.0000    736.6093      3.3092    134.6110
  1677.2500      0.0000    723.4354      3.6910    130.0049
  1677.5000      0.0000    701.4936      4.1091    126.9274
  1677.7500      0.0000    664.6405      4.5091    125.7685
  1678.0000      0.0000    616.1448      4.8510    125.4676
  1678.2500      0.0000    570.2070      5.1537    123.9994
  1678.5000      0.0000    539.9094      5.4453    120.4123
  1678.7500      0.0000    526.4527      5.7108    115.6605
  1679.0000      0.0000    522.7037      5.9363    111.4120
  1679.2500      0.0000    522.7282      6.1207    108.6546
  1679.5000      0.0000    526.0490      6.2562    107.3452
  1679.7500      0.0000    536.5269      6.3561    106.7690
  1680.0000      0.0000    557.1305      6.4548    106.2245
  1680.2500      0.0000    583.6752      6.5747    105.6781
  1680.5000      0.0000    607.2883      6.7079    105.7926
  1680.7500      0.0000    622.7775      6.8155    107.1955
  1681.0000      0.0000    629.4153      6.8611    109.5945
  1681.2500      0.0000    628.6085      6.8533    111.7036
  1681.5000      0.0000    623.9696      6.8268    112.3759
  1681.7500      0.0000    617.7800      6.7976    111.8057
  1682.0000      0.0000    608.1918      6.7561    111.2856
  1682.2500      0.0000    593.7815      6.6962    111.9187
  1682.5000      0.0000    577.4764      6.6400    113.8907
  1682.7500      0.0000    561.6489      6.6027    116.7588
  1683.0000      0.0000    546.4496      6.5707    119.9000
  1683.2500      0.0000    536.5598      6.5462    122.6393
  1683.5000      0.0000    540.0214      6.5506    124.3643
  1683.7500      0.0000    559.8125      6.5806    124.8827
  1684.0000      0.0000    589.9792      6.6051    124.6110
  1684.2500      0.0000    619.9148      6.6036    124.1116
  1684.5000      0.0000    642.2773      6.5899    123.4681
  1684.7500      0.0000    655.4539      6.5890    122.3509
  1685.0000      0.0000    661.4017      6.6057    120.5716
  1685.2500      0.0000    663.2769      6.6200    118.2332
  1685.5000      0.0000    663.5455      6.6172    115.3595
  1685.7500      0.0000    663.4443      6.6184    111.8792
  1686.0000      0.0000    663.2913      6.6447    108.2980
  1686.2500      0.0000    662.5062      6.6860    105.9966
  1686.5000      0.0000    659.5706      6.7300    106.3613
  1686.7500      0.0000    653.4247      6.7607    109.6915
  1687.0000      0.0000    646.9835      6.7587    114.9633
  1687.2500      0.0000    648.6487      6.7502    120.3853
  1687.5000      0.0000    663.9492      6.7781    124.2641
  1687.7500      0.0000    683.1613      6.8140    125.9137
  1688.0000      0.0000    689.6494      6.7940    126.1403
  1688.2500      0.0000    681.9509      6.6948    126.8039
  1688.5000      0.0000    671.5447      6.5106    129.7014
  1688.7500      0.0000    664.8068      6.2420    135.6285
  1689.0000      0.0000    659.3220      5.9368    144.0995
  1689.2500      0.0000    649.9136      5.6622    153.4315
  1689.5000      0.0000    633.9590      5.4287    161.0036
  1689.7500      0.0000    616.7050      5.1980    164.1716
  1690.0000      0.0000    610.7218      4.9490    161.8832
  1690.2500      0.0000    625.3148      4.7088    155.5818
  1690.5000      0.0000    656.3977      4.5335    147.9382
  1690.7500      0.0000    689.4404      4.4493    140.6713
  1691.0000      0.0000    712.3782      4.4254    134.1966
  1691.2500      0.0000    720.1003      4.4376    129.0807
  1691.5000      0.0000    711.9421      4.5022    126.5365
  1691.7500      0.0000    697.5521      4.6203    127.2665
  1692.0000      0.0000    692.3749      4.7582    130.5841
  1692.2500      0.0000    697.0279      4.8913    134.6787
  1692.5000      0.0000    698.4591      5.0159    137.3020
  1692.7500      0.0000    688.1732      5.1341    136.5979
  1693.0000      0.0000    664.4056      5.2489    132.1487
  1693.2500      0.0000    628.3709      5.3758    125.5057
  1693.5000      0.0000    587.8499      5.5371    119.3923
  1693.7500      0.0000    558.4455      5.7084    116.0143
  1694.0000      0.0000    555.6973      5.8224    115.9517
  1694.2500      0.0000    582.9585      5.8597    118.2587
  1694.5000      0.0000    625.3318      5.8709    121.0048
  1694.7500      0.0000    660.9525      5.8987    121.8003
  1695.0000      0.0000    679.3708      5.9313    118.7702
  1695.2500      0.0000    683.6391      5.9492    111.8866
  1695.5000      0.0000    681.8691      5.9581    103.3549
  1695.7500      0.0000    679.6098      5.9517     96.1977
  1696.0000      0.0000    671.4724      5.9160     92.0905
  1696.2500      0.0000    640.9868      5.8763     90.5788
  1696.5000      0.0000    578.7885      5.8768     90.3525
  1696.7500      0.0000    502.9320      5.9123     90.8185
  1697.0000      0.0000    448.6884      5.9346     92.0443
  1697.2500      0.0000    436.3186      5.9219     93.6587
  1697.5000      0.0000    457.7874      5.8755     94.6897
  1697.7500      0.0000    489.3240      5.7678     94.4627
  1698.0000      0.0000    514.5812      5.5655     93.1964
  1698.2500      0.0000    536.4553      5.2813     91.9008
  1698.5000      0.0000    566.7214      4.9660     91.9713
  1698.7500      0.0000    608.1121      4.6904     94.4217
  1699.0000      0.0000    647.7376      4.5914     99.0978
  1699.2500      0.0000    675.1123      4.7864    104.8244
  1699.5000      0.0000    696.7447      5.1203    110.4127
  1699.7500      0.0000    722.9205      5.2971    115.2807
  1700.0000      0.0000    749.0000      5.2955    119.3042
  1700.2500      0.0000    757.7522      5.2548    122.6867
  1700.5000     -2.0000    741.6606      5.1468    125.9509
  1700.7500      2.0000    716.7649      4.8976    129.4698
  1701.0000      0.0000    706.4236      4.5922    132.9484
  1701.2500      0.0000    714.5102      4.3565    135.7487
  1701.5000      0.0000    723.0623      4.1637    137.6683
  1701.7500      0.0000    716.7710      3.9070    139.1667
  1702.0000      0.0000    700.4199      3.5849    140.8384
  1702.2500      0.0000    686.2635      3.2456    142.5552
  1702.5000      0.0000    675.6893      2.8924    143.0048
  1702.7500      0.0000    661.9423      2.5660    140.4335
  1703.0000      0.0000    643.7479      2.3306    134.2672
  1703.2500      0.0000    627.7740      2.1844    125.9064
  1703.5000      0.0000    619.0129      2.0821    117.6001
  1703.7500      0.0000    616.7872      1.9975    110.5565
  1704.0000      0.0000    619.4844      1.9423    104.3941
  1704.2500      0.0000    626.4440      1.9342     98.2799
  1704.5000      0.0000    635.3588      1.9633     92.0695
  1704.7500      0.0000    642.3736      1.9959     86.1749
  1705.0000      0.0000    645.2177      2.0046     80.8668
  1705.2500      0.0000    643.5112      2.0024     76.2105
  1705.5000      0.0000    637.5750      2.0200     72.4397
  1705.7500      0.0000    629.4632      2.0547     69.9452
  1706.0000      0.0000    622.2849      2.0902     68.8976
  1706.2500      0.0000    616.6310      2.1211     68.9179
  1706.5000      0.0000    610.6118      2.1212     69.0109
  1706.7500      0.0000    603.8104      2.0616     68.1580
  1707.0000      0.0000    598.2623      1.9673     66.3422
  1707.2500      0.0000    595.7831      1.8956     64.6350
  1707.5000      0.0000    596.8342      1.8664     64.0209
  1707.7500      0.0000    601.0107      1.8716     64.7714
  1708.0000      0.0000    606.5678      1.9200     67.2433
  1708.2500      0.0000    610.9582      1.9997     72.4739
