~Version Information
VERS.                      2.0: CWLS Log ASCII Standard - VERSION 2.0
WRAP.                       NO: One line per depth step
~Well Information Block
STRT.FT               505.0000: 
STOP.FT               770.5000: 
STEP.FT                 0.1000: 
NULL.                -999.2500: 
COMP.          Pioneer Natural Resources: COMPANY
WELL.                Zed 11-23: WELL
FLD.           Purgatoire River: FIELD
LOC.           641' FNL & 952' FWL: LOCATION
CNTY.               Las Animas: COUNTY
SRVC.                Patterson: SERVICE COMPANY
DATE.          Mon Feb 27 07:12:43 2006: LOG DATE
UWI.           05 071 08702 00: UNIQUE WELL ID
STAT.                 Colorado: STATE
~Curve Information Block
DEPT.FT            0 000 00 00: Depth
DCAL.in                       : CDL Caliper
RHOB.g/cc                     : CDL Bulk Density
RHOC.g/cc                     : CDL Density Correction
DPOR.pu                       : CDL Density Porosity
GR.GAPI                       : Gamma Ray
NPOR.pu                       : Neutron Porosity
~Parameter Information Block
~A  Depth       DCAL        RHOB        RHOC        DPOR         GR         NPOR    
# ...
   591.4000      7.9272      2.5479      0.0441      6.1888     61.2998     21.7168
   591.5000      7.9397      2.5726      0.1083      4.6909     62.3490     20.9535
   591.6000      7.9397      2.5769      0.0639      4.4286     60.7357     20.0778
   591.7000      7.9397      2.5558      0.0389      5.7092     54.3005     19.9721
   591.8000      7.9364      2.5357     -0.0103      6.9298     49.9963     19.7192
   591.9000      7.9364      2.5389      0.0171      6.7355     51.1636     19.4310
   592.0000      7.9381      2.5532      0.0738      5.8643     54.9675     19.9695
   592.1000      7.9381      2.5615      0.0375      5.3620     58.6138     20.5909
   592.2000      7.9381      2.5683      0.0826      4.9534     61.0718     20.6279
   592.3000      7.9414      2.5777      0.0588      4.3796     62.5709     20.6005
   592.4000      7.9414      2.5852      0.0697      3.9266     64.2220     20.7462
   592.5000      7.9393      2.5833      0.0699      4.0435     67.2364     20.5840
   592.6000      7.9393      2.5748      0.0415      4.5558     69.1756     19.9430
   592.7000      7.9393      2.5752      0.0572      4.5310     66.6004     19.3456
   592.8000      7.9347      2.5871      0.0708      3.8108     60.3649     19.0682
   592.9000      7.9347      2.5997      0.0696      3.0496     51.9054     19.1970
   593.0000      7.9377      2.6078      0.0555      2.5574     43.8072     20.1161
   593.1000      7.9377      2.6136      0.0527      2.2055     41.3017     21.3929
   593.2000      7.9377      2.6213      0.0431      1.7381     45.2647     21.5844
   593.3000      7.9424      2.6270      0.0806      1.3942     52.2152     19.7793
   593.4000      7.9424      2.6183      0.0856      1.9239     57.9354     17.6151
   593.5000      7.9610      2.5929      0.0646      3.4597     61.2809     16.9195
   593.6000      7.9610      2.5657     -0.0040      5.1096     62.5681     17.5706
   593.7000      7.9610      2.5535      0.0082      5.8493     61.6174     18.7776
   593.8000      7.9683      2.5556      0.0301      5.7196     60.8689     19.7591
   593.9000      7.9683      2.5497      0.0482      6.0789     61.5314     20.1546
   594.0000      7.9680      2.5103      0.0077      8.4658     63.0855     20.4568
   594.1000      7.9680      2.4364     -0.0307     12.9435     64.9001     21.2429
   594.2000      7.9680      2.3492     -0.0030     18.2307     65.4742     22.6361
   594.3000      7.9779      2.2693     -0.0456     23.0704     63.5917     23.9675
   594.4000      7.9779      2.2165     -0.0792     26.2751     59.3271     24.1931
   594.5000      7.9747      2.2008     -0.0268     27.2268     53.4350     23.7629
   594.6000      7.9747      2.2070      0.0328     26.8467     50.4859     24.2146
   594.7000      7.9747      2.2185      0.0448     26.1544     55.1779     26.1083
   594.8000      7.9306      2.2431      0.0600     24.6604     67.4112     28.1036
   594.9000      7.9306      2.2897      0.1587     21.8338     80.2525     28.3633
   595.0000      7.9243      2.3422      0.2302     18.6518     85.8156     27.2984
   595.1000      7.9243      2.3846      0.1663     16.0871     87.2988     26.3498
   595.2000      7.9243      2.4180      0.1429     14.0596     90.8730     25.1838
   595.3000      7.9234      2.4450      0.0686     12.4216     97.9172     22.8685
   595.4000      7.9234      2.4703      0.0537     10.8921    107.7822     20.8544
   595.5000      7.9608      2.4969      0.0500      9.2775    113.3285     20.6807
   595.6000      7.9608      2.5154      0.0699      8.1588    109.9507     21.6123
   595.7000      7.9608      2.5245      0.0024      7.6044    105.8792     22.3031
   595.8000      7.9605      2.5371      0.0604      6.8415    105.6994     22.5074
   595.9000      7.9605      2.5532      0.0733      5.8697    104.3662     22.7572
   596.0000      7.9310      2.5688      0.0064      4.9235    101.4144     22.8539
   596.1000      7.9310      2.5833      0.0678      4.0406     99.0678     22.2126
   596.2000      7.9310      2.5898      0.0535      3.6502     95.8310     21.2184
   596.3000      7.9095      2.5917      0.0484      3.5320     90.4968     20.4580
   596.4000      7.9095      2.5974      0.0578      3.1873     83.9019     19.7596
   596.5000      7.9154      2.6029      0.0501      2.8533     78.0872     19.1243
   596.6000      7.9154      2.6051      0.0416      2.7195     73.0156     19.1638
   596.7000      7.9154      2.6065      0.0990      2.6376     68.5199     19.5995
   596.8000      7.9201      2.6052      0.0401      2.7176     65.0660     19.2362
   596.9000      7.9201      2.5953      0.0637      3.3142     61.1774     18.2014
   597.0000      7.9224      2.5688      0.0697      4.9196     58.2880     18.2697
   597.1000      7.9224      2.5328      0.0121      7.1059     59.6956     20.1812
   597.2000      7.9224      2.5125      0.0179      8.3342     64.5492     22.0846
   597.3000      7.9223      2.5148      0.0426      8.1939     72.1759     22.2707
   597.4000      7.9223      2.5196      0.0428      7.9038     80.5966     21.6994
   597.5000      7.9229      2.5142      0.0329      8.2279     84.7325     21.4636
   597.6000      7.9229      2.5059      0.0183      8.7351     84.2312     21.7440
   597.7000      7.9229      2.5078      0.0102      8.6173     83.2183     22.5525
   597.8000      7.9204      2.5251      0.0306      7.5727     84.7068     23.2331
   597.9000      7.9204      2.5410      0.1492      6.6055     87.4043     23.3790
   598.0000      7.9197      2.5399      0.1232      6.6717     87.3765     23.7924
   598.1000      7.9197      2.5376      0.0670      6.8131     86.3412     24.6922
   598.2000      7.9197      2.5447      0.1099      6.3804     88.2829     24.9299
   598.3000      7.9277      2.5452      0.0853      6.3513     91.1191     24.3241
   598.4000      7.9277      2.5398      0.0657      6.6789     94.8063     23.4199
   598.5000      7.9363      2.5446      0.0942      6.3898    102.6020     22.4328
   598.6000      7.9363      2.5556      0.1051      5.7240    111.9528     22.5307
   598.7000      7.9363      2.5631      0.0521      5.2668    116.7680     24.2075
   598.8000      7.9340      2.5680      0.0958      4.9714    116.6670     25.6033
   598.9000      7.9340      2.5620      0.1504      5.3319    116.4524     25.2483
   599.0000      7.9326      2.5412      0.0583      6.5931    119.5588     24.2755
   599.1000      7.9326      2.5180      0.0565      7.9991    120.6279     24.0138
   599.2000      7.9326      2.4879      0.0785      9.8254    113.9185     24.3189
   599.3000      7.9331      2.4389     -0.0481     12.7967    106.1822     24.9051
   599.4000      7.9331      2.3814     -0.0458     16.2760    104.3404     26.3563
   599.5000      7.9376      2.3241     -0.0454     19.7505    104.3997     28.1250
   599.6000      7.9376      2.2590     -0.0573     23.6964    100.3541     28.2159
   599.7000      7.9376      2.1758     -0.0243     28.7384     91.6919     26.7020
   599.8000      7.9380      2.0758     -0.0642     34.8015     83.2690     26.1551
   599.9000      7.9380      1.9692     -0.0714     41.2635     78.1286     27.6182
   600.0000      7.9472      1.8542     -0.0663     48.2326     75.2207     29.4354
   600.1000      7.9472      1.7272     -0.1197     55.9276     75.6868     30.0459
   600.2000      7.9472      1.6063     -0.1162     63.2554     79.3624     29.7294
   600.3000      7.9590      1.5162     -0.0845     68.7156     79.2486     29.1209
   600.4000      7.9590      1.4576      0.0673     72.2662     70.3570     28.6670
   600.5000      7.9714      1.4171      0.0658     74.7195     57.1100     28.8454
   600.6000      7.9714      1.3961      0.0775     75.9918     46.6674     29.4168
   600.7000      7.9714      1.3996      0.0544     75.7810     42.5926     30.5299
   600.8000      8.0136      1.4265      0.0484     74.1512     44.0580     32.7017
   600.9000      8.0136      1.4778      0.0707     71.0416     46.7826     34.7469
