~Version Information
VERS.                      2.0: CWLS Log ASCII Standard - VERSION 2.0
WRAP.                       NO: One line per depth step
~Well Information Block
STRT.FT               440.0000: 
STOP.FT              1702.7500: 
STEP.FT                 0.2500: 
NULL.                -999.2500: 
COMP.          Pioneer Natural Resources: COMPANY
WELL.          Culver 14-12 Tr: WELL
FLD.           Purgatoire River: FIELD
LOC.           915' FSL & 1048' FWL--: LOCATION
STAT.                 Colorado: State
CNTY.               Las Animas: COUNTY
CTRY. USA : Country
SECT. 12 : Section
TOWN. 32S : Township
RANG. 66W : Range
SRVC.                Patterson: SERVICE COMPANY
DATE.          Tue Sep 27 23:38:23 2005: LOG DATE
API.           05 071 08520 00: UNIQUE WELL ID
~Curve Information Block
DEPT.FT            0 000 00 00: Depth
SN.Ohm-m                      : IEL Short Normal
SP.mV                         : IEL Spontaneous Potential
DIR.Ohm-m                     : IEL Induction Resistivity
GR.GAPI                       : Gamma Ray
~Parameter Information Block
~A  Depth        SN          SP         DIR          GR     
# ...
  1110.0000     37.2414    -24.7664     34.3175     66.4717
  1110.2500     37.1431    -25.3032     34.2852     64.7131
  1110.5000     37.0860    -25.8495     34.3614     62.2970
  1110.7500     37.0723    -26.3706     34.5185     61.6088
  1111.0000     37.1007    -26.8461     34.7188     62.7457
  1111.2500     37.1649    -27.2706     34.9395     64.8163
  1111.5000     37.2496    -27.6502     35.1838     68.7522
  1111.7500     37.3333    -27.9979     35.4652     71.0520
  1112.0000     37.3979    -28.3276     35.7772     72.8088
  1112.2500     37.4379    -28.6501     36.0772     72.6112
  1112.5000     37.4646    -28.9700     36.3048     70.8599
  1112.7500     37.5029    -29.2850     36.4239     69.4699
  1113.0000     37.5823    -29.5875     36.4534     68.1827
  1113.2500     37.7250    -29.8670     36.4582     68.0661
  1113.5000     37.9386    -30.1130     36.5078     68.6412
  1113.7500     38.2138    -30.3173     36.6333     69.1860
  1114.0000     38.5273    -30.4750     36.8155     69.8078
  1114.2500     38.8503    -30.5849     37.0038     69.9403
  1114.5000     39.1594    -30.6477     37.1538     69.6665
  1114.7500     39.4427    -30.6655     37.2566     69.3233
  1115.0000     39.6979    -30.6399     37.3422     69.1226
  1115.2500     39.9309    -30.5718     37.4554     69.5689
  1115.5000     40.1585    -30.4620     37.6250     71.6066
  1115.7500     40.4072    -30.3115     37.8469     74.0048
  1116.0000     40.7018    -30.1227     38.0916     78.8547
  1116.2500     41.0528    -29.9002     38.3297     82.2674
  1116.5000     41.4566    -29.6508     38.5570     85.8478
  1116.7500     41.9096    -29.3834     38.8005     86.2271
  1117.0000     42.4197    -29.1076     39.1023     83.2818
  1117.2500     43.0033    -28.8336     39.4953     79.5304
  1117.5000     43.6708    -28.5704     39.9894     72.9872
  1117.7500     44.4129    -28.3257     40.5717     68.9888
  1118.0000     45.1977    -28.1049     41.2126     64.5024
  1118.2500     45.9796    -27.9115     41.8688     62.6333
  1118.5000     46.7156    -27.7465     42.4866     61.1460
  1118.7500     47.3804    -27.6094     43.0128     60.6431
  1119.0000     47.9716    -27.4981     43.4146     60.0408
  1119.2500     48.5058    -27.4101     43.6991     59.6436
  1119.5000     49.0076    -27.3434     43.9207     59.2263
  1119.7500     49.4989    -27.2972     44.1633     59.1161
  1120.0000     49.9939    -27.2726     44.4977     58.9959
  1120.2500     50.4998    -27.2732     44.9372     58.8391
  1120.5000     51.0185    -27.3042     45.4305     58.7168
  1120.7500     51.5485    -27.3714     45.9033     58.9743
  1121.0000     52.0847    -27.4795     46.3117     59.9365
  1121.2500     52.6194    -27.6304     46.6470     60.6320
  1121.5000     53.1436    -27.8211     46.8937     61.0047
  1121.7500     53.6485    -28.0438     47.0050     60.6466
  1122.0000     54.1220    -28.2849     46.9413     59.6995
  1122.2500     54.5406    -28.5266     46.7392     59.3429
  1122.5000     54.8606    -28.7476     46.5243     59.8518
  1122.7500     55.0176    -28.9249     46.4393     60.7068
  1123.0000     54.9384    -29.0359     46.5437     61.5443
  1123.2500     54.5632    -29.0606     46.7591     61.1018
  1123.5000     53.8655    -28.9838     46.8910     58.9132
  1123.7500     52.8690    -28.7983     46.7184     57.2502
  1124.0000     51.6533    -28.5066     46.1032     56.4875
  1124.2500     50.3384    -28.1229     45.0550     58.1502
  1124.5000     49.0426    -27.6741     43.7055     64.6754
  1124.7500     47.8366    -27.1985     42.2250     71.4632
  1125.0000     46.7360    -26.7440     40.7581     83.7561
  1125.2500     45.7444    -26.3632     39.4128     92.0477
  1125.5000     44.9126    -26.1073     38.2800    102.4207
  1125.7500     44.3648    -26.0197     37.4403    107.0821
  1126.0000     44.2714    -26.1285     36.9488    110.1315
  1126.2500     44.7843    -26.4407     36.8220    109.6025
  1126.5000     45.9692    -26.9390     37.0449    105.3467
  1126.7500     47.7655    -27.5804     37.5927    100.5250
  1127.0000     49.9904    -28.2982     38.4431     91.2795
  1127.2500     52.3789    -29.0079     39.5630     84.5988
  1127.5000     54.6268    -29.6151     40.8765     75.1325
  1127.7500     56.4152    -30.0265     42.2407     69.5922
  1128.0000     57.4325    -30.1621     43.4505     62.5869
  1128.2500     57.4420    -29.9667     44.2653     58.8927
  1128.5000     56.3872    -29.4187     44.4345     55.4650
  1128.7500     54.4400    -28.5336     43.7392     55.3011
  1129.0000     51.9091    -27.3626     42.0871     59.8890
  1129.2500     49.0736    -25.9845     39.6214     66.9235
  1129.5000     46.0928    -24.4939     36.7113     82.7754
  1129.7500     43.0483    -22.9874     33.7849     94.8710
  1130.0000     40.0365    -21.5513     31.1540    110.4833
  1130.2500     37.2040    -20.2519     28.9568    117.0967
  1130.5000     34.7065    -19.1310     27.2008    120.6996
  1130.7500     32.6456    -18.2050     25.8319    120.1639
  1131.0000     31.0384    -17.4685     24.7819    118.4040
  1131.2500     29.8295    -16.8992     23.9914    118.2146
  1131.5000     28.9213    -16.4642     23.4147    119.8677
  1131.7500     28.2038    -16.1259     23.0184    121.2284
  1132.0000     27.5764    -15.8472     22.7757    121.3286
  1132.2500     26.9662    -15.5963     22.6585    119.3288
  1132.5000     26.3398    -15.3497     22.6312    113.4562
  1132.7500     25.7032    -15.0940     22.6513    108.5584
  1133.0000     25.0880    -14.8263     22.6760    102.1784
  1133.2500     24.5315    -14.5526     22.6733     99.8970
  1133.5000     24.0600    -14.2853     22.6294    100.1685
  1133.7500     23.6871    -14.0396     22.5483    102.1379
  1134.0000     23.4272    -13.8295     22.4410    105.7180
  1134.2500     23.3117    -13.6652     22.3119    107.4580
  1134.5000     23.3816    -13.5505     22.1552    108.1807
  1134.7500     23.6505    -13.4818     21.9655    107.5706
  1135.0000     24.0650    -13.4480     21.7499    106.2320
  1135.2500     24.5051    -13.4316     21.5259    105.7036
  1135.5000     24.8322    -13.4109     21.3056    105.6708
  1135.7500     24.9428    -13.3625     21.0781    105.9575
  1136.0000     24.7847    -13.2656     20.8066    106.6084
  1136.2500     24.3416    -13.1053     20.4414    107.0510
  1136.5000     23.6242    -12.8762     19.9450    107.1844
  1136.7500     22.6778    -12.5845     19.3141    106.6369
  1137.0000     21.5832    -12.2472     18.5835    105.3148
  1137.2500     20.4361    -11.8916     17.8104    105.0381
  1137.5000     19.3212    -11.5504     17.0511    107.3732
  1137.7500     18.2987    -11.2596     16.3453    111.3035
  1138.0000     17.4059    -11.0536     15.7124    120.1427
  1138.2500     16.6630    -10.9629     15.1554    126.8032
  1138.5000     16.0764    -11.0112     14.6667    135.2017
  1138.7500     15.6402    -11.2130     14.2352    138.4475
  1139.0000     15.3367    -11.5693     13.8506    139.2234
  1139.2500     15.1372    -12.0631     13.5079    137.6361
  1139.5000     15.0020    -12.6554     13.2067    133.8973
  1139.7500     14.8836    -13.2834     12.9490    131.5661
  1140.0000     14.7359    -13.8646     12.7350    129.6947
  1140.2500     14.5291    -14.3062     12.5609    129.8151
  1140.5000     14.2608    -14.5203     12.4196    131.3756
  1140.7500     13.9563    -14.4401     12.3042    132.5132
  1141.0000     13.6572    -14.0336     12.2126    133.1497
  1141.2500     13.4081    -13.3114     12.1494    132.6516
  1141.5000     13.2502    -12.3274     12.1235    130.9769
  1141.7500     13.2205    -11.1728     12.1428    129.6657
  1142.0000     13.3458     -9.9653     12.2098    127.9108
  1142.2500     13.6295     -8.8355     12.3218    126.9473
  1142.5000     14.0389     -7.9102     12.4739    125.6629
  1142.7500     14.5116     -7.2956     12.6637    124.9331
  1143.0000     14.9805     -7.0601     12.8936    124.5823
  1143.2500     15.4030     -7.2236     13.1705    125.1828
