~Version Information
VERS.                      2.0: CWLS Log ASCII Standard - VERSION 2.0
WRAP.                       NO: One line per depth step
~Well Information Block
STRT.FT                 0.0000: 
STOP.FT               712.5000: 
STEP.FT                 0.2500: 
NULL.                -999.2500: 
COMP.          Pioneer Natural Resources: COMPANY
WELL.                Mia 21-18: WELL
FLD.           Purgatorie River: FIELD
LOC.           1067' FNL & 1824' FWL: LOCATION
PROV.                 Colorado: PROVINCE
CNTY.               Las Animas: COUNTRY
SRVC.                Patterson: SERVICE COMPANY
DATE.          Mon Nov 28 13:12:22 2005: LOG DATE
UWI.           05-071-08559               : UNIQUE WELL ID
~Curve Information Block
DEPT.FT            0 000 00 00: Depth
CCL.                          : Casing Collar Locator
TT3.usec                      : CBL 3' Travel Time
AMP3.mV                       : CBL 3' Amplitude
GR.GAPI                       : Gamma Ray
~Parameter Information Block
~A  Depth       CCL         TT3         AMP3         GR     
# ...
   301.5000      0.0000    720.5195     11.5478    135.3265
   301.7500      0.0000    722.8918     12.1738    136.9397
   302.0000      0.0000    723.2092     12.6638    137.5768
   302.2500      0.0000    723.2653     13.0884    136.4788
   302.5000      0.0000    723.2943     13.4662    133.2014
   302.7500      0.0000    723.3228     13.7526    128.0542
   303.0000      0.0000    723.3749     13.8772    122.3356
   303.2500      0.0000    723.4553     13.8516    117.8200
   303.5000      0.0000    723.5503     13.8169    115.7238
   303.7500      0.0000    723.5750     13.9007    116.0637
   304.0000      0.0000    723.2145     14.0646    117.9233
   304.2500      0.0000    721.7333     14.1564    120.3658
   304.5000      0.0000    718.2560     14.0685    123.3074
   304.7500      0.0000    713.5521     13.7963    127.5355
   305.0000      0.0000    711.1483     13.3896    133.5150
   305.2500      0.0000    713.4399     12.8938    140.0073
   305.5000      0.0000    718.0259     12.3446    144.2183
   305.7500      0.0000    721.1694     11.8217    143.7311
   306.0000      0.0000    721.4070     11.4643    138.5080
   306.2500      0.0000    718.5578     11.3884    131.1106
   306.5000      0.0000    713.7137     11.6161    124.9670
   306.7500      0.0000    710.0134     12.0858    122.2727
   307.0000      0.0000    709.0527     12.6783    123.1523
   307.2500      0.0000    709.1096     13.2787    126.3158
   307.5000      0.0000    710.1082     13.8660    130.2906
   307.7500      0.0000    713.7972     14.4897    134.2559
   308.0000      0.0000    718.8619     15.1506    137.9227
   308.2500      0.0000    722.4587     15.7725    140.8262
   308.5000      0.0000    723.9197     16.2824    141.9697
   308.7500      0.0000    724.1152     16.6362    140.4314
   309.0000      0.0000    723.8525     16.7792    136.4307
   309.2500      0.0000    723.5357     16.6914    131.6091
   309.5000      0.0000    723.2799     16.4530    127.9349
   309.7500      0.0000    723.0855     16.1663    126.3034
   310.0000      0.0000    722.9728     15.8564    126.2171
   310.2500      0.0000    722.9520     15.5009    126.6116
   310.5000      0.0000    722.9832     15.0787    126.9669
   310.7500      0.0000    723.0369     14.5850    127.7998
   311.0000      0.0000    723.0970     14.0561    129.9467
   311.2500      0.0000    723.1419     13.5492    133.2219
   311.5000      0.0000    723.1812     13.0966    136.0535
   311.7500      0.0000    723.2288     12.6957    136.6507
   312.0000      0.0000    723.2381     12.3021    134.4066
   312.2500      0.0000    723.1383     11.8649    130.3397
   312.5000      0.0000    722.9090     11.3961    126.4510
   312.7500      0.0000    722.5896     10.9571    124.4435
   313.0000      0.0000    722.2661     10.5896    124.6657
   313.2500      0.0000    722.0278     10.2659    126.2815
   313.5000      0.0000    721.8958      9.9024    128.3969
   313.7500      0.0000    721.8146      9.4707    130.6064
   314.0000      0.0000    721.7111      9.0711    132.3576
   314.2500      0.0000    721.3629      8.8360    132.4832
   314.5000      0.0000    719.8165      8.7889    130.0870
   314.7500      0.0000    715.0460      8.8352    125.7847
   315.0000      0.0000    705.8679      8.8709    121.6260
   315.2500      0.0000    695.5134      8.8883    119.7349
   315.5000      0.0000    690.8635      8.9692    120.9690
   315.7500      0.0000    695.6866      9.1696    124.3951
   316.0000      0.0000    706.3196      9.4393    127.6649
   316.2500      0.0000    715.8285      9.6678    128.3732
   316.5000      0.0000    720.8911      9.7889    125.8974
   316.7500      0.0000    722.6522      9.8260    121.9705
   317.0000      0.0000    723.1084      9.8499    118.9505
   317.2500      0.0000    723.2104      9.9089    117.6156
   317.5000      0.0000    723.2002      9.9911    116.9477
   317.7500      0.0000    723.1787     10.0652    115.6774
   318.0000      0.0000    723.2866     10.1500    113.5642
   318.2500      0.0000    723.5668     10.2883    111.2912
   318.5000      0.0000    723.8618     10.4691    109.3928
   318.7500      0.0000    724.0042     10.6342    107.4805
   319.0000      0.0000    723.9907     10.7482    104.8543
   319.2500      0.0000    723.8911     10.8351    101.8127
   319.5000      0.0000    723.7453     10.9541     99.8692
   319.7500      0.0000    723.5903     11.1424    100.4279
   320.0000      0.0000    723.4983     11.3837    103.4461
   320.2500      0.0000    723.5058     11.6362    107.5617
   320.5000      0.0000    723.5246     11.8720    111.4630
   320.7500      0.0000    723.4348     12.0799    114.8570
   321.0000      0.0000    723.2458     12.2486    117.8633
   321.2500      0.0000    723.0702     12.3700    119.8930
   321.5000      0.0000    722.9642     12.4618    119.8377
   321.7500      0.0000    722.8788     12.5644    117.3265
   322.0000      0.0000    722.7676     12.6965    113.3403
   322.2500      0.0000    722.6541     12.8236    109.5725
   322.5000      0.0000    722.5667     12.8841    107.2117
   322.7500      0.0000    722.4922     12.8434    106.0826
   323.0000      0.0000    722.4211     12.7120    104.9689
   323.2500      0.0000    722.3530     12.5308    103.0536
   323.5000      0.0000    722.0924     12.3443    100.9799
   323.7500      0.0000    720.7134     12.1776    100.0241
   324.0000      0.0000    716.3693     12.0325    100.1326
   324.2500      0.0000    708.5344     11.8986     99.3395
   324.5000      0.0000    701.4711     11.7612     95.6501
   324.7500      0.0000    701.4527     11.6094     89.3150
   325.0000      0.0000    708.5955     11.4522     82.9281
   325.2500      0.0000    716.6894     11.3162     79.3795
   325.5000      0.0000    721.3190     11.2269     79.8026
   325.7500      0.0000    722.8695     11.2053     83.2215
   326.0000      0.0000    723.0779     11.2657     87.7173
   326.2500      0.0000    722.6479     11.3775     91.6829
   326.5000      0.0000    721.0518     11.4610     94.3265
   326.7500      0.0000    716.5787     11.4660     95.7537
   327.0000      0.0000    708.0551     11.4296     96.8773
   327.2500      0.0000    698.3422     11.4171     98.8430
   327.5000      0.0000    693.8353     11.4352    102.1810
   327.7500      0.0000    698.1203     11.4523    106.5396
   328.0000      0.0000    707.7091     11.4764    111.2948
   328.2500      0.0000    715.4380     11.5318    116.2366
   328.5000      0.0000    717.0396     11.5984    121.4126
   328.7500      0.0000    714.1290     11.6396    126.4024
   329.0000      0.0000    712.1599     11.6438    130.2372
   329.2500      0.0000    714.4569     11.6139    132.1833
   329.5000      0.0000    718.8083     11.5612    132.2302
   329.7500      0.0000    721.8238     11.5170    130.7094
   330.0000      0.0000    723.0346     11.5420    127.8355
   330.2500      0.0000    723.4650     11.6872    123.8789
   330.5000      0.0000    723.6642     11.9277    119.6337
   330.7500      0.0000    723.7201     12.1758    116.4067
   331.0000      0.0000    723.7196     12.3691    115.2660
   331.2500      0.0000    723.8054     12.5130    116.2324
   331.5000      0.0000    724.0256     12.6324    118.3460
   331.7500      0.0000    724.3275     12.7195    120.4658
   332.0000      0.0000    724.6588     12.7436    121.8169
   332.2500      0.0000    724.9479     12.6848    122.0308
   332.5000      0.0000    725.0754     12.5520    121.1299
   332.7500      0.0000    724.9744     12.3776    119.5021
   333.0000      0.0000    724.6992     12.1943    117.7008
   333.2500      0.0000    724.3488     11.9968    116.3115
   333.5000      0.0000    724.0069     11.7495    115.8754
   333.7500      0.0000    723.7883     11.4734    116.5150
   334.0000      0.0000    723.8217     11.2766    117.3884
   334.2500      0.0000    724.1196     11.2324    116.7107
   334.5000      0.0000    724.5112     11.2645    112.8562
   334.7500      0.0000    724.8466     11.2306    105.9184
