~Version Information
VERS.                      2.0: CWLS Log ASCII Standard - VERSION 2.0
WRAP.                       NO: One line per depth step
~Well Information Block
STRT.FT                -5.5000: 
STOP.FT               791.0000: 
STEP.FT                 0.2500: 
NULL.                -999.2500: 
COMP.          Pioneer Natural Resources: COMPANY
WELL.           Beringer 33-18: WELL
FLD.           Purgatoire River: FIELD
LOC.           2356' FSL & 2338' FEL--: LOCATION
CNTY.               Las Animas: COUNTY
SRVC.                Patterson: SERVICE COMPANY
DATE.          Mon Apr 03 11:39:01 2006: LOG DATE
UWI.           05 071 08725 00: UNIQUE WELL ID
STAT.                 Colorado: STATE
~Curve Information Block
DEPT.FT            0 000 00 00: Depth
CCL.                          : Casing Collar Locator
TT3.usec                      : CBL 3' Travel Time
AMP3.mV                       : CBL 3' Amplitude
GR.GAPI                       : Gamma Ray
~Parameter Information Block
~A  Depth       CCL         TT3         AMP3         GR     
# ...
    95.0000      0.0000    779.5643      6.3928     94.2811
    95.2500      0.0000    779.2724      6.3864     96.5377
    95.5000      0.0000    778.6995      6.3818     99.6316
    95.7500      0.0000    777.9547      6.3840     99.9988
    96.0000      0.0000    775.6768      6.3987     97.4262
    96.2500      0.0000    773.1779      6.4132     94.7841
    96.5000      0.0000    768.3450      6.4261     91.4285
    96.7500      0.0000    765.0323      6.4197     89.6311
    97.0000      0.0000    761.2101      6.3849     86.9333
    97.2500      0.0000    760.0052      6.3518     85.4851
    97.5000      0.0000    760.5265      6.3019     85.2742
    97.7500      0.0000    762.1808      6.2748     86.7199
    98.0000      0.0000    766.1312      6.2527     89.9960
    98.2500      0.0000    769.6924      6.2571     91.6965
    98.5000      0.0000    775.7979      6.3001     92.4398
    98.7500      0.0000    779.1801      6.3503     92.4493
    99.0000      0.0000    781.1724      6.4359     94.5325
    99.2500      0.0000    780.5215      6.4820     98.3528
    99.5000      0.0000    778.6751      6.5119    106.5033
    99.7500      0.0000    777.9260      6.5037    111.5201
   100.0000      0.0000    777.7526      6.4636    115.0997
   100.2500      0.0000    777.8838      6.4317    113.9154
   100.5000      0.0000    777.9572      6.3959    107.3969
   100.7500      0.0000    777.8745      6.3886    101.5105
   101.0000      0.0000    777.6415      6.4107     94.1348
   101.2500      0.0000    777.4733      6.4463     91.6954
   101.5000      0.0000    777.2755      6.5157     91.7168
   101.7500      0.0000    777.2067      6.5589     93.1956
   102.0000      0.0000    777.1699      6.5988     96.4633
   102.2500      0.0000    777.0910      6.6034     99.2946
   102.5000      0.0000    776.5627      6.5799    104.0401
   102.7500      0.0000    775.7373      6.5512    106.3951
   103.0000      0.0000    773.8105      6.5051    106.5850
   103.2500      0.0000    772.4404      6.4805    104.5020
   103.5000      0.0000    771.1939      6.4588    100.7956
   103.7500      0.0000    771.2129      6.4525     99.7484
   104.0000      0.0000    772.3450      6.4448    101.1059
   104.2500      0.0000    773.5654      6.4335    103.0896
   104.5000      0.0000    775.8729      6.4008    105.6720
   104.7500      0.0000    777.9147      6.3702    106.2128
   105.0000      0.0000    782.9907      6.3236    104.3585
   105.2500      0.0000    789.0812      6.3001    101.4505
   105.5000      0.0000    804.5601      6.2811     95.7979
   105.7500      0.0000    819.1266      6.2742     91.9045
   106.0000      0.0000    843.8887      6.2600     86.3536
   106.2500      0.0000    859.2878      6.2471     82.8048
   106.5000      0.0000    877.1901      6.2378     77.7347
   106.7500      0.0000    885.4303      6.2502     74.7366
   107.0000      0.0000    893.7681      6.3030     71.3190
   107.2500      0.0000    897.6458      6.3516     69.9110
   107.5000      0.0000    901.9590      6.4162     68.8972
   107.7500      0.0000    903.8656      6.4406     68.8066
   108.0000      0.0000    904.3226      6.4438     70.0738
   108.2500      0.0000    902.2902      6.4279     72.4704
   108.5000      0.0000    895.4916      6.3868     78.2860
   108.7500      0.0000    889.2125      6.3523     82.2551
   109.0000      0.0000    878.8241      6.2953     85.2095
   109.2500      0.0000    871.5304      6.2564     84.5393
   109.5000      0.0000    858.9045      6.2020     81.3192
   109.7500      0.0000    848.0443      6.1720     79.1611
   110.0000      0.0000    825.7559      6.1391     77.0802
   110.2500      0.0000    806.7584      6.1208     76.4431
   110.5000      0.0000    776.5701      6.0746     76.1310
   110.7500      0.0000    760.3284      6.0127     75.8082
   111.0000      0.0000    749.9264      5.8598     73.9133
   111.2500      0.0000    754.3804      5.7313     71.2764
   111.5000      0.0000    775.6014      5.5469     65.3499
   111.7500      0.0000    794.8483      5.4559     60.4341
   112.0000      0.0000    820.9952      5.3962     52.7338
   112.2500      0.0000    831.8661      5.4141     48.6155
   112.5000     -2.0000    837.6653      5.5143     46.4441
   112.7500      2.0000    838.5256      5.6063     48.2665
   113.0000      2.0000    843.0172      5.7321     54.1257
   113.2500     -2.0000    849.1486      5.7888     58.1025
   113.5000      0.0000    857.3542      5.8447     61.9308
   113.7500      0.0000    856.7686      5.9072     63.2901
   114.0000      0.0000    840.5527      6.1539     65.1982
   114.2500      0.0000    820.4112      6.4572     66.8100
   114.5000      0.0000    784.5778      7.0426     68.8658
   114.7500      0.0000    762.5715      7.4144     69.1600
   115.0000      0.0000    738.8681      7.8001     67.2248
   115.2500      0.0000    730.8074      7.9265     64.4585
   115.5000      0.0000    728.9636      7.9776     59.2113
   115.7500      0.0000    731.8512      7.9631     56.1982
   116.0000      0.0000    737.7662      7.9199     54.7095
   116.2500      0.0000    741.9362      7.8905     56.2372
   116.5000      0.0000    750.5474      7.8522     60.7920
   116.7500      0.0000    759.7658      7.8322     63.9539
   117.0000      0.0000    780.1686      7.8162     68.3963
   117.2500      0.0000    796.9551      7.8195     72.2407
   117.5000      0.0000    822.5698      7.8497     80.8087
   117.7500      0.0000    837.5106      7.8846     87.4886
   118.0000      0.0000    853.9974      7.9475     95.1130
   118.2500      0.0000    859.9907      7.9860     97.0191
   118.5000      0.0000    859.6760      8.0196     96.0860
   118.7500      0.0000    852.2363      8.0187     95.0334
   119.0000      0.0000    830.3392      7.9851     95.6704
   119.2500      0.0000    811.1216      7.9503     97.5231
   119.5000      0.0000    783.9093      7.8962     99.6713
   119.7500      0.0000    771.9035      7.8650     98.7634
   120.0000      0.0000    766.3243      7.8315     92.5668
   120.2500      0.0000    768.5110      7.8198     86.0454
   120.5000      0.0000    772.6632      7.8185     75.7231
   120.7500      0.0000    772.6254      7.8263     70.2623
   121.0000      0.0000    769.3083      7.8454     66.3413
   121.2500      0.0000    768.5984      7.8605     67.1531
   121.5000      0.0000    775.2838      7.8847     73.2119
   121.7500      0.0000    785.0096      7.9009     79.5029
   122.0000      0.0000    802.9783      7.9227     89.5294
   122.2500      0.0000    814.1582      7.9333     94.7565
   122.5000      0.0000    826.9352      7.9397     98.1946
   122.7500      0.0000    832.5760      7.9380     97.5993
   123.0000      0.0000    837.4176      7.9319     95.0426
   123.2500      0.0000    838.7534      7.9299     94.1886
   123.5000      0.0000    838.6934      7.9304     95.2100
   123.7500      0.0000    837.5741      7.9284     96.3101
   124.0000      0.0000    834.4901      7.9114     96.2940
   124.2500      0.0000    831.4493      7.8884     94.9310
   124.5000      0.0000    825.2515      7.8414     92.3628
   124.7500      0.0000    820.2650      7.8076     91.5502
   125.0000      0.0000    813.0239      7.7622     92.9607
   125.2500      0.0000    809.5329      7.7378     95.4347
   125.5000      0.0000    807.2207      7.7088     99.9517
   125.7500      0.0000    807.1439      7.6924    102.7803
   126.0000      0.0000    807.6605      7.6685    106.3043
   126.2500      0.0000    807.8120      7.6516    107.9358
   126.5000      0.0000    807.4686      7.6256    108.3966
   126.7500      0.0000    806.8151      7.6100    106.9905
   127.0000      0.0000    804.6661      7.5931    102.8277
   127.2500      0.0000    801.7207      7.5879     99.5697
   127.5000      0.0000    793.4656      7.5884     95.4450
   127.7500      0.0000    785.0006      7.5910     93.6112
   128.0000      0.0000    769.4083      7.5912     91.8775
   128.2500      0.0000    759.3046      7.5875     90.6777
