~Version Information
VERS.                      2.0: CWLS Log ASCII Standard - VERSION 2.0
WRAP.                       NO: One line per depth step
~Well Information Block
STRT.FT                -7.2500: 
STOP.FT              1196.2500: 
STEP.FT                 0.2500: 
NULL.                -999.2500: 
COMP.          Pioneer Natural Resources: COMPANY
WELL.             Mahalo 12-20: WELL
FLD.           Purgatorie River: FIELD
LOC.           1689' FNL & 479' FWL--: LOCATION
CNTY.               Las Animas: COUNTY
SRVC.          Patterson Wireline: SERVICE COMPANY
DATE.          Tue Mar 14 15:40:32 2006: LOG DATE
UWI.           05 071 08700 00: UNIQUE WELL ID
STAT.                       CO: STATE
~Curve Information Block
DEPT.FT            0 000 00 00: Depth
CCL.                          : Casing Collar Locator
TT3.usec                      : CBL 3' Travel Time
AMP3.mV                       : CBL 3' Amplitude
GR.GAPI                       : Gamma Ray
~Parameter Information Block
~A  Depth       CCL         TT3         AMP3         GR     
# ...
   696.2500      0.0000    673.6877      5.2258     89.0956
   696.5000      0.0000    671.3392      5.2031     88.5668
   696.7500      0.0000    670.9656      5.1912     87.0715
   697.0000      0.0000    672.3539      5.2046     85.1329
   697.2500      0.0000    675.3999      5.2441     83.5175
   697.5000      0.0000    679.6868      5.2948     82.8583
   697.7500      0.0000    684.2105      5.3346     83.1898
   698.0000      0.0000    687.5592      5.3468     83.6824
   698.2500      0.0000    688.4188      5.3255     83.4255
   698.5000      0.0000    686.2713      5.2748     82.7612
   698.7500      0.0000    681.9148      5.2056     83.2387
   699.0000      0.0000    677.0902      5.1327     85.8512
   699.2500      0.0000    673.3014      5.0715     89.6979
   699.5000      0.0000    671.0068      5.0338     92.6543
   699.7500      0.0000    669.8348      5.0217     93.2110
   700.0000      0.0000    669.2293      5.0258     91.6186
   700.2500      0.0000    668.8130      5.0302     89.4181
   700.5000      0.0000    668.3977      5.0236     87.9500
   700.7500      0.0000    667.9098      5.0060     87.2709
   701.0000      0.0000    667.3846      4.9849     86.4055
   701.2500      0.0000    667.0448      4.9655     84.5051
   701.5000      0.0000    667.4144      4.9457     81.5623
   701.7500      0.0000    669.3233      4.9205     78.0253
   702.0000      0.0000    673.5561      4.8889     74.1443
   702.2500      0.0000    680.1279      4.8558     70.1616
   702.5000      0.0000    687.8322      4.8285     66.8184
   702.7500      0.0000    694.7938      4.8136     64.9145
   703.0000      0.0000    699.6689      4.8168     64.2840
   703.2500      0.0000    702.2962      4.8413     63.7979
   703.5000      0.0000    703.3389      4.8820     62.5807
   703.7500      0.0000    703.5817      4.9247     60.8466
   704.0000      0.0000    703.5160      4.9524     59.3319
   704.2500      0.0000    703.2403      4.9546     58.3144
   704.5000      0.0000    702.4734      4.9313     57.5526
   704.7500      0.0000    700.6959      4.8884     56.8194
   705.0000      0.0000    697.5319      4.8320     55.9887
   705.2500      0.0000    693.2076      4.7676     54.8539
   705.5000      0.0000    688.6935      4.7017     53.4224
   705.7500      0.0000    685.3970      4.6407     52.3359
   706.0000      0.0000    684.6261      4.5877     52.6176
   706.2500      0.0000    686.9232      4.5412     54.9447
   706.5000      0.0000    691.5146      4.4968     59.2092
   706.7500      0.0000    696.6018      4.4504     64.4914
   707.0000      0.0000    700.5435      4.4001     69.2487
   707.2500      0.0000    702.7736      4.3474     71.8951
   707.5000      0.0000    703.6654      4.2977     71.7465
   707.7500      0.0000    703.8480      4.2581     69.5530
   708.0000      0.0000    703.7475      4.2314     67.0603
   708.2500      0.0000    703.5317      4.2129     66.0167
   708.5000      0.0000    703.2318      4.1937     67.4647
   708.7500      0.0000    702.8672      4.1702     71.7453
   709.0000      0.0000    702.4820      4.1492     79.0480
   709.2500      0.0000    702.1044      4.1399     89.8619
   709.5000      0.0000    701.7208      4.1423    104.6378
   709.7500      0.0000    701.2881      4.1439    122.7112
   710.0000      0.0000    700.7293      4.1315    141.4855
   710.2500      0.0000    699.8657      4.1038    156.9268
   710.5000      0.0000    698.4236      4.0706    165.6970
   710.7500      0.0000    696.2930      4.0375    167.7880
   711.0000      0.0000    693.8179      3.9978    166.8742
   711.2500      0.0000    691.6520      3.9420    166.9926
   711.5000      0.0000    690.2894      3.8733    168.8596
   711.7500      0.0000    689.9673      3.8086    170.1465
   712.0000      0.0000    690.9065      3.7638    168.7322
   712.2500      0.0000    693.1605      3.7418    164.3803
   712.5000      0.0000    696.2731      3.7347    157.8448
   712.7500      0.0000    699.6118      3.7416    150.0166
   713.0000      0.0000    702.9871      3.7781    141.9910
   713.2500      0.0000    706.4340      3.8620    135.0223
   713.5000      0.0000    709.3945      3.9886    130.3259
   713.7500      0.0000    710.7372      4.1255    128.9728
   714.0000      0.0000    709.9362      4.2355    131.4155
   714.2500      0.0000    707.8702      4.3052    136.8839
   714.5000      0.0000    706.1292      4.3505    143.7298
   714.7500      0.0000    705.8321      4.3970    150.4565
   715.0000      0.0000    707.2872      4.4538    156.0092
   715.2500      0.0000    710.2155      4.5050    159.3260
   715.5000      0.0000    713.8181      4.5290    159.4159
   715.7500      0.0000    716.9807      4.5275    156.0555
   716.0000      0.0000    718.8732      4.5311    149.9138
   716.2500      0.0000    719.2194      4.5703    141.8605
   716.5000      0.0000    717.9927      4.6417    132.7386
   716.7500      0.0000    715.4017      4.7092    124.0649
   717.0000      0.0000    712.2230      4.7377    118.2877
   717.2500      0.0000    709.6063      4.7199    117.4637
   717.5000      0.0000    708.4197      4.6752    121.2948
   717.7500      0.0000    709.0419      4.6321    126.6366
   718.0000      0.0000    711.6478      4.6128    129.4579
   718.2500      0.0000    716.1149      4.6244    127.9459
   718.5000      0.0000    721.3058      4.6587    124.0419
   718.7500      0.0000    724.9257      4.7010    121.5242
   719.0000      0.0000    724.9686      4.7398    122.1576
   719.2500      0.0000    721.5582      4.7728    124.0592
   719.5000      0.0000    716.9836      4.8072    124.1636
   719.7500      0.0000    713.9407      4.8527    121.7137
   720.0000      0.0000    714.0066      4.9104    118.6111
   720.2500      0.0000    717.1881      4.9657    116.9071
   720.5000      0.0000    721.8874      4.9977    117.1831
   720.7500      0.0000    725.3746      4.9968    119.1574
   721.0000      0.0000    725.4173      4.9761    122.3184
   721.2500      0.0000    722.0203      4.9619    125.4049
   721.5000      0.0000    717.2426      4.9753    126.5753
   721.7500      0.0000    713.2386      5.0207    125.1251
   722.0000      0.0000    710.8043      5.0866    122.4344
   722.2500      0.0000    709.5837      5.1536    120.5386
   722.5000      0.0000    708.9517      5.2032    120.1036
   722.7500      0.0000    708.4752      5.2224    120.1456
   723.0000      0.0000    707.9510      5.2065    119.3843
   723.2500      0.0000    707.3696      5.1625    117.5658
   723.5000      0.0000    706.8373      5.1080    115.5989
   723.7500      0.0000    706.4410      5.0634    114.5513
   724.0000      0.0000    706.1769      5.0422    114.6635
   724.2500      0.0000    705.9570      5.0492    115.5915
   724.5000      0.0000    705.5245      5.0825    117.3915
   724.7500      0.0000    704.2136      5.1285    120.6300
   725.0000      0.0000    700.8413      5.1529    125.3591
   725.2500      0.0000    694.2752      5.1072    130.4276
   725.5000      0.0000    684.7253      4.9670    134.2405
   725.7500      0.0000    674.6470      4.7763    136.0665
   726.0000      0.0000    667.7895      4.6356    136.2753
   726.2500      0.0000    666.8544      4.6260    135.4754
   726.5000      0.0000    672.1425      4.7523    133.7593
   726.7500      0.0000    682.5098      4.9641    130.8020
   727.0000      0.0000    696.9280      5.2156    126.5637
   727.2500      2.0000    714.2513      5.4953    121.9123
   727.5000      0.0000    731.5629      5.8121    118.4350
   727.7500      0.0000    744.2088      6.1604    117.3115
   728.0000      0.0000    749.1312      6.4985    118.2590
   728.2500      0.0000    748.2171      6.7653    119.7994
   728.5000      0.0000    747.1504      6.9269    120.7071
   728.7500      0.0000    750.3535      7.0097    121.0555
   729.0000      0.0000    757.3269      7.0886    121.6995
   729.2500      0.0000    763.8516      7.2298    122.9633
   729.5000      0.0000    765.9650      7.4234    124.1463
