~Version Information
VERS.                      2.0: CWLS Log ASCII Standard - VERSION 2.0
WRAP.                       NO: One line per depth step
~Well Information Block
STRT.FT               892.0000: 
STOP.FT              2094.0000: 
STEP.FT                 0.1000: 
NULL.                -999.2500: 
COMP.          Pioneer Natural Resources: COMPANY
WELL.          Greenwood 43-29 Tr: WELL
FLD.           Purgatoire River: FIELD
LOC.           1478' FSL & 744' FEL: LOCATION
STAT.                 Colorado: State
CNTY.               Las Animas: COUNTY
CTRY. USA : Country
SECT. 29 : Section
TOWN. 32S : Township
RANG. 67W : Range
SRVC.                Patterson: SERVICE COMPANY
DATE.          Wed Aug 31 10:39:20 2005: LOG DATE
API.           05 071 08478 00: UNIQUE WELL ID
~Curve Information Block
DEPT.FT            0 000 00 00: Depth
DCAL.in                       : CDL Caliper
RHOB.g/cc                     : CDL Bulk Density
RHOC.g/cc                     : CDL Density Correction
DPOR.pu                       : CDL Density Porosity
GR.GAPI                       : Gamma Ray
NPOR.pu                       : Neutron Porosity
~Parameter Information Block
~A  Depth       DCAL        RHOB        RHOC        DPOR         GR         NPOR    
# ...
  1525.6000      8.0511      2.5303      0.0787      7.2540    125.0925     27.3165
  1525.7000      8.0511      2.5380      0.0510      6.7862    115.3941     27.5849
  1525.8000      8.0738      2.5701      0.0867      4.8440    105.4352     27.8545
  1525.9000      8.0738      2.6131      0.0603      2.2349    101.2214     27.9969
  1526.0000      8.0764      2.6525      0.1224     -0.1540    101.9249     28.6911
  1526.1000      8.0764      2.6727      0.1388     -1.3746    101.3871     29.2674
  1526.2000      8.0764      2.6629      0.0859     -0.7822     96.5839     28.2044
  1526.3000      8.0821      2.6237      0.0696      1.5917     92.5901     26.0592
  1526.4000      8.0821      2.5753     -0.0182      4.5279     93.5391     24.8658
  1526.5000      8.0768      2.5462     -0.0120      6.2926     95.1737     25.3847
  1526.6000      8.0768      2.5363      0.0316      6.8889     92.9808     26.3378
  1526.7000      8.0768      2.5395      0.0046      6.6960     88.2325     26.4718
  1526.8000      8.0236      2.5677      0.0351      4.9863     84.4055     25.8492
  1526.9000      8.0236      2.6134      0.0917      2.2209     85.2128     24.8815
  1527.0000      8.0266      2.6441      0.0945      0.3596     90.2797     23.9435
  1527.1000      8.0266      2.6491      0.0465      0.0534     95.2513     23.3688
  1527.2000      8.0266      2.6474      0.0953      0.1593     99.0267     23.4160
  1527.3000      8.0304      2.6440      0.1346      0.3623    106.3791     24.1672
  1527.4000      8.0304      2.6295      0.1239      1.2398    118.5700     25.4159
  1527.5000      8.0648      2.6071      0.1049      2.6028    126.9880     26.5114
  1527.6000      8.0648      2.5845      0.0749      3.9704    125.9526     26.7273
  1527.7000      8.0648      2.5630      0.1018      5.2725    120.1314     26.3265
  1527.8000      8.0365      2.5490      0.0503      6.1204    116.3932     26.2017
  1527.9000      8.0365      2.5511      0.0712      5.9962    117.0559     26.7430
  1528.0000      8.0170      2.5632      0.0704      5.2613    117.3856     27.5182
  1528.1000      8.0170      2.5663      0.1033      5.0731    112.8937     27.9066
  1528.2000      8.0170      2.5517      0.0820      5.9569    107.4845     27.7937
  1528.3000      8.0514      2.5384      0.0714      6.7618    110.4380     27.2062
  1528.4000      8.0514      2.5419      0.0750      6.5510    124.7839     26.3414
  1528.5000      8.0890      2.5542      0.1086      5.8054    141.0452     25.9315
  1528.6000      8.0890      2.5618      0.0717      5.3427    148.6179     26.3131
  1528.7000      8.0890      2.5572      0.0816      5.6270    149.9627     26.8138
  1528.8000      8.1088      2.5452      0.0373      6.3490    147.6659     27.2339
  1528.9000      8.1088      2.5444      0.0117      6.3972    139.4744     27.8318
  1529.0000      8.1042      2.5604      0.0483      5.4291    131.6346     28.1644
  1529.1000      8.1042      2.5726      0.1006      4.6927    130.6928     27.7958
  1529.2000      8.1042      2.5640      0.0765      5.2128    130.2323     27.0981
  1529.3000      8.0984      2.5433      0.0541      6.4684    124.9062     26.6807
  1529.4000      8.0984      2.5286      0.0177      7.3599    119.8409     26.7623
  1529.5000      8.0731      2.5339     -0.0078      7.0361    122.4642     27.2942
  1529.6000      8.0731      2.5570      0.0473      5.6363    134.7559     27.7991
  1529.7000      8.0731      2.5750      0.0472      4.5451    144.5758     27.7225
  1529.8000      8.0765      2.5731      0.0672      4.6633    137.9698     27.3964
  1529.9000      8.0765      2.5535      0.0822      5.8498    124.6712     27.4652
  1530.0000      8.0893      2.5283      0.0263      7.3738    120.5553     27.5241
  1530.1000      8.0893      2.5154      0.0342      8.1553    122.7114     26.9695
  1530.2000      8.0893      2.5179      0.0239      8.0073    124.8485     26.4537
  1530.3000      8.0871      2.5226      0.0530      7.7218    126.5226     26.7884
  1530.4000      8.0871      2.5220      0.0633      7.7549    124.0053     27.6068
  1530.5000      8.0631      2.5175      0.0650      8.0310    116.9491     27.9441
  1530.6000      8.0631      2.5120      0.0671      8.3631    109.5529     27.4379
  1530.7000      8.0631      2.5116      0.0362      8.3907    105.0941     26.7691
  1530.8000      8.0663      2.5204      0.0364      7.8518    103.7929     26.4804
  1530.9000      8.0663      2.5365      0.0786      6.8801    103.9692     26.4255
  1531.0000      8.0639      2.5644      0.0459      5.1875    103.1432     26.4158
  1531.1000      8.0639      2.6018      0.1634      2.9206    101.1749     26.3433
  1531.2000      8.0639      2.6173      0.2153      1.9836    100.9423     25.9971
  1531.3000      8.0649      2.5983      0.1529      3.1351    102.0296     25.0993
  1531.4000      8.0649      2.5716      0.1028      4.7539    101.1921     23.8344
  1531.5000      8.0511      2.5639      0.0379      5.2197     97.1332     22.7577
  1531.6000      8.0511      2.5806      0.1107      4.2049     94.7763     22.2208
  1531.7000      8.0511      2.6113      0.0932      2.3453     97.8831     22.3668
  1531.8000      8.0372      2.6485      0.0740      0.0914    102.8285     23.3853
  1531.9000      8.0372      2.6926      0.0845     -2.5801    104.8063     25.0585
  1532.0000      8.0081      2.7369      0.1567     -5.2657    103.1227     26.1186
  1532.1000      8.0081      2.7601      0.1598     -6.6744    102.3688     25.8984
  1532.2000      8.0081      2.7541      0.1407     -6.3078    103.9496     25.0612
  1532.3000      8.0199      2.7344      0.1538     -5.1124    103.0715     24.3290
  1532.4000      8.0199      2.7130      0.1187     -3.8159     99.1657     24.3048
  1532.5000      7.9857      2.6899      0.0412     -2.4188     95.6200     24.5292
  1532.6000      7.9857      2.6648      0.0265     -0.8992     92.8050     24.3753
  1532.7000      7.9857      2.6438      0.0638      0.3754     89.7736     24.4905
  1532.8000      8.0141      2.6399      0.0342      0.6145     86.7461     25.3945
  1532.9000      8.0141      2.6601      0.0911     -0.6135     84.7579     26.4608
  1533.0000      8.0451      2.6884      0.1079     -2.3268     83.4987     26.7057
  1533.1000      8.0451      2.7041      0.0239     -3.2773     79.8083     26.0917
  1533.2000      8.0451      2.6957      0.0576     -2.7690     74.7368     25.5332
  1533.3000      8.0865      2.6626     -0.0203     -0.7623     71.8536     25.5309
  1533.4000      8.0865      2.6290     -0.0480      1.2739     71.1570     25.4564
  1533.5000      8.1156      2.6221     -0.0377      1.6897     74.5243     24.8449
  1533.6000      8.1156      2.6329      0.0019      1.0342     82.9579     24.0970
  1533.7000      8.1156      2.6311      0.0042      1.1484     89.6380     23.5641
  1533.8000      8.1539      2.6080      0.0156      2.5452     90.7981     23.0731
  1533.9000      8.1539      2.5760      0.0397      4.4874     89.4646     22.7450
  1534.0000      8.1679      2.5473     -0.0075      6.2232     84.4971     22.4737
  1534.1000      8.1679      2.5294      0.0239      7.3065     75.6298     21.4488
  1534.2000      8.1679      2.5219      0.0448      7.7617     68.5316     20.1639
  1534.3000      8.1635      2.5198      0.0226      7.8928     67.2993     19.7471
  1534.4000      8.1635      2.5189      0.0342      7.9464     70.7234     19.8683
  1534.5000      8.1362      2.5162      0.0547      8.1117     74.0793     19.6918
  1534.6000      8.1362      2.5147     -0.0001      8.1989     74.0630     18.9280
  1534.7000      8.1362      2.5245      0.0290      7.6067     72.4000     18.0828
  1534.8000      8.0720      2.5405      0.0377      6.6362     71.2737     18.0028
  1534.9000      8.0720      2.5462      0.0728      6.2913     66.4824     18.4567
  1535.0000      8.0754      2.5396      0.0335      6.6900     58.8363     18.6190
  1535.1000      8.0754      2.5243      0.0809      7.6183     56.0390     18.2340
