~Version Information
VERS.                      2.0: CWLS Log ASCII Standard - VERSION 2.0
WRAP.                       NO: One line per depth step
~Well Information Block
STRT.FT              1186.0000: 
STOP.FT              1577.0000: 
STEP.FT                 0.2500: 
NULL.                -999.2500: 
COMP.          XTO Energy Inc.: COMPANY
WELL.          Golden Eagle 19-10: WELL
FLD.           Purgatorie River: FIELD
LOC.           2684' FSL & 1825' FEL--: LOCATION
CNTY.               Las Animas: COUNTY
SRVC.          Superior Well Services: SERVICE COMPANY
DATE.          Mon Dec 11 16:19:11 2006: LOG DATE
UWI.           05 071 08697 00: UNIQUE WELL ID
STAT.                       CO: STATE
~Curve Information Block
DEPT.FT            0 000 00 00: Depth
CCL.                          : Casing Collar Locator
TT3.usec                      : CBL 3' Travel Time
AMP3.mV                       : CBL 3' Amplitude
GR.GAPI                       : Gamma Ray
~Parameter Information Block
~A  Depth       CCL         TT3         AMP3         GR     
# ...
  1420.5000      0.0000    265.2923     65.3835     86.6324
  1420.7500      0.0000    263.0391     67.8776     85.4514
  1421.0000      0.0000    261.8446     69.9543     84.3298
  1421.2500      0.0000    261.3347     71.4629     84.1734
  1421.5000      0.0000    261.1555     72.4015     85.8617
  1421.7500      0.0000    261.1055     72.9467     89.5840
  1422.0000      0.0000    261.0933     73.3136     94.7230
  1422.2500      0.0000    261.0838     73.6109    100.2595
  1422.5000      0.0000    261.0683     73.8130    105.4712
  1422.7500      0.0000    261.0534     73.8336    110.5948
  1423.0000      0.0000    261.0489     73.6213    116.5061
  1423.2500      0.0000    261.0612     73.1921    123.3531
  1423.5000      0.0000    261.0920     72.5996    129.9060
  1423.7500      0.0000    261.1394     71.8748    134.6485
  1424.0000      0.0000    261.2012     70.9919    137.1113
  1424.2500      0.0000    261.2754     69.9165    137.8183
  1424.5000      0.0000    261.3551     68.7050    137.3990
  1424.7500      0.0000    261.4283     67.5165    136.2562
  1425.0000      0.0000    261.4876     66.4847    134.9003
  1425.2500      0.0000    261.5405     65.5946    134.0680
  1425.5000      0.0000    261.6028     64.7298    134.3574
  1425.7500      0.0000    261.6816     63.8280    135.8515
  1426.0000      0.0000    261.7667     62.9517    138.0105
  1426.2500      0.0000    261.8403     62.2048    139.8531
  1426.5000      0.0000    261.8930     61.6120    140.5248
  1426.7500      0.0000    261.9319     61.0815    139.8507
  1427.0000      0.0000    261.9764     60.4534    138.2278
  1427.2500      0.0000    262.0488     59.5816    136.2254
  1427.5000      0.0000    262.1627     58.4122    134.5863
  1427.7500      0.0000    262.3177     57.0050    134.1121
  1428.0000      0.0000    262.5051     55.4758    134.8264
  1428.2500      0.0000    262.7152     53.9317    135.5127
  1428.5000      0.0000    262.9344     52.4817    134.7698
  1428.7500      0.0000    263.1385     51.2654    132.3222
  1429.0000      0.0000    263.3046     50.3868    128.7550
  1429.2500      0.0000    263.4389     49.7977    124.4131
  1429.5000      0.0000    263.5895     49.2959    119.3954
  1429.7500      0.0000    263.8272     48.6739    114.4322
  1430.0000      0.0000    264.2319     47.8604    110.8865
  1430.2500      0.0000    264.9364     46.9284    109.6225
  1430.5000      0.0000    266.2130     46.0089    110.2588
  1430.7500      0.0000    268.4537     45.2138    111.6962
  1431.0000      0.0000    271.8061     44.6094    112.9709
  1431.2500      0.0000    275.6064     44.2223    113.4167
  1431.5000      0.0000    278.4113     44.0377    112.7553
  1431.7500      0.0000    279.1938     43.9674    111.6734
  1432.0000      0.0000    278.6768     43.8233    111.7682
  1432.2500      0.0000    279.0051     43.3627    114.0454
  1432.5000      0.0000    281.7860     42.4071    117.5901
  1432.7500      0.0000    286.6604     40.9406    120.3137
  1433.0000      0.0000    291.8770     39.1126    120.9066
  1433.2500      0.0000    295.9090     37.1628    119.6117
  1433.5000      0.0000    298.3295     35.3231    117.3914
  1433.7500      0.0000    299.5147     33.7211    115.0180
  1434.0000      0.0000    300.0103     32.3134    112.7377
  1434.2500      0.0000    300.2290     30.9136    110.0846
  1434.5000      0.0000    300.4843     29.3319    106.1585
  1434.7500      0.0000    301.1283     27.5280    100.7776
  1435.0000      0.0000    302.7141     25.6412     95.3957
  1435.2500      0.0000    306.0911     23.8811     92.4630
  1435.5000      0.0000    312.4410     22.4028     93.5706
  1435.7500      0.0000    323.2378     21.2740     98.0062
  1436.0000      0.0000    340.2389     20.5153    103.0023
  1436.2500      0.0000    364.4106     20.1350    105.4771
  1436.5000      0.0000    392.4977     20.1322    103.9418
  1436.7500      0.0000    414.2407     20.4879     99.2753
  1437.0000      0.0000    417.0524     21.1636     94.0639
  1437.2500      0.0000    397.2107     22.1038     91.0729
  1437.5000      0.0000    364.6954     23.2367     91.6689
  1437.7500      0.0000    334.5329     24.4662     95.0368
  1438.0000      0.0000    315.1591     25.6652     98.7253
  1438.2500      0.0000    306.0295     26.6821    100.1853
  1438.5000      0.0000    302.8059     27.3637     98.2712
  1438.7500      0.0000    301.9790     27.5833     93.7353
  1439.0000      0.0000    301.9221     27.2766     88.4793
  1439.2500      0.0000    302.1962     26.4865     84.2803
  1439.5000      0.0000    302.9660     25.3743     82.0122
  1439.7500      0.0000    305.1035     24.1521     81.7086
  1440.0000      0.0000    311.0134     22.9701     82.8975
  1440.2500      0.0000    325.3549     21.8649     84.8028
  1440.5000      0.0000    353.9770     20.8086     86.6748
  1440.7500      0.0000    399.0077     19.7894     88.2380
  1441.0000      0.0000    452.1327     18.8478     89.6948
  1441.2500      0.0000    494.2898     18.0617     91.2153
  1441.5000      0.0000    507.1613     17.5188     92.5327
  1441.7500      0.0000    487.2128     17.2931     92.9535
  1442.0000      0.0000    447.0153     17.4254     91.8695
  1442.2500      0.0000    403.5947     17.9105     89.6781
  1442.5000      0.0000    367.6427     18.6903     88.0921
  1442.7500      0.0000    341.8336     19.6628     88.9530
  1443.0000      0.0000    324.6752     20.7159     92.8394
  1443.2500      0.0000    313.9420     21.7811     99.2028
  1443.5000      0.0000    307.7847     22.8598    107.2953
  1443.7500      0.0000    304.6581     23.9863    116.3282
  1444.0000      0.0000    303.2632     25.1510    125.1867
  1444.2500      0.0000    302.6981     26.2577    132.5666
  1444.5000      0.0000    302.5000     27.1551    137.4111
  1444.7500      0.0000    302.4763     27.7136    139.2560
  1445.0000      0.0000    302.5550     27.8809    138.2765
  1445.2500      0.0000    302.7055     27.6899    134.9428
  1445.5000      0.0000    302.9263     27.2319    129.5795
  1445.7500      0.0000    303.2733     26.6140    122.4031
  1446.0000      0.0000    303.9313     25.9158    114.1563
  1446.2500      0.0000    305.3315     25.1702    106.4985
  1446.5000      0.0000    308.1774     24.3788    101.4186
  1446.7500      0.0000    313.1191     23.5440    100.1362
  1447.0000      0.0000    320.0751     22.6953    102.5178
  1447.2500      0.0000    327.8309     21.8905    107.3008
  1447.5000      0.0000    334.5934     21.1890    112.7733
  1447.7500      0.0000    339.1684     20.6138    117.3222
  1448.0000      0.0000    341.6404     20.1347    119.6066
  1448.2500      0.0000    343.3067     19.6846    118.6803
  1448.5000      0.0000    346.7249     19.1989    114.3020
  1448.7500      0.0000    356.3530     18.6502    107.0682
  1449.0000      0.0000    378.1884     18.0571     98.2582
  1449.2500      0.0000    415.6895     17.4621     89.6864
  1449.5000      0.0000    463.3917     16.8964     83.2347
  1449.7500      0.0000    507.0782     16.3558     79.7786
  1450.0000      0.0000    535.7164     15.8029     78.5658
  1450.2500      0.0000    552.9869     15.1949     78.1149
  1450.5000      0.0000    571.2655     14.5158     77.7582
  1450.7500      0.0000    594.8076     13.7859     78.0438
  1451.0000      0.0000    616.2274     13.0407     79.7024
  1451.2500      0.0000    630.1663     12.3076     82.6573
  1451.5000      0.0000    642.0832     11.6058     86.2131
  1451.7500      0.0000    659.9282     10.9610     89.6962
  1452.0000      0.0000    683.0679     10.4047     92.3823
  1452.2500      0.0000    703.9170      9.9566     92.9817
  1452.5000      0.0000    717.0679      9.6139     89.9459
  1452.7500      0.0000    723.0436      9.3635     82.7163
  1453.0000      0.0000    724.9068      9.2024     72.5618
  1453.2500      0.0000    724.6219      9.1458     62.0225
  1453.5000      0.0000    722.9107      9.2166     53.5530
  1453.7500      0.0000    720.5588      9.4250     48.6756
