~Version Information
VERS.                      2.0: CWLS Log ASCII Standard - VERSION 2.0
WRAP.                       NO: One line per depth step
~Well Information Block
STRT.FT                -8.0000: 
STOP.FT              1661.0000: 
STEP.FT                 0.2500: 
NULL.                -999.2500: 
COMP.          Pioneer Natural Resources: COMPANY
WELL.          Rollerball 34-30: WELL
FLD.           Purgatorie River: FIELD
LOC.           893' FSL & 2408' FEL----: LOCATION
CNTY.               Las Animas: COUNTY
SRVC.          Patterson Wireline: SERVICE COMPANY
DATE.          Mon Feb 20 08:34:38 2006: LOG DATE
UWI.           05 071 08581 00: UNIQUE WELL ID
STAT.                       CO: STATE
~Curve Information Block
DEPT.FT            0 000 00 00: Depth
CCL.                          : Casing Collar Locator
TT3.usec                      : CBL 3' Travel Time
AMP3.mV                       : CBL 3' Amplitude
GR.GAPI                       : Gamma Ray
~Parameter Information Block
~A  Depth       CCL         TT3         AMP3         GR     
# ...
   327.0000      0.0000    730.2806      6.7980     91.0940
   327.2500      0.0000    724.6204      6.8066     86.7943
   327.5000      0.0000    723.1085      6.7968     83.1330
   327.7500      0.0000    725.5015      6.7715     81.8907
   328.0000      0.0000    730.7351      6.7343     83.2484
   328.2500      0.0000    738.1561      6.6884     85.6274
   328.5000      0.0000    746.2187      6.6353     87.1891
   328.7500      0.0000    751.9085      6.5758     87.3736
   329.0000      0.0000    752.9385      6.5125     86.8936
   329.2500      0.0000    750.0706      6.4526     86.5118
   329.5000      0.0000    746.4555      6.4055     86.1899
   329.7500      0.0000    744.8470      6.3759     85.4078
   330.0000      0.0000    745.8595      6.3579     83.9708
   330.2500      0.0000    748.7703      6.3358     82.2651
   330.5000      0.0000    753.3853      6.2938     80.6720
   330.7500      0.0000    760.4698      6.2252     78.8456
   331.0000      0.0000    770.3465      6.1364     76.0180
   331.2500      0.0000    781.7232      6.0413     72.2335
   331.5000      0.0000    792.2944      5.9525     68.9145
   331.7500      0.0000    800.2764      5.8777     67.8911
   332.0000      0.0000    805.3399      5.8207     70.0230
   332.2500      0.0000    808.4991      5.7821     74.8144
   332.5000      0.0000    811.3818      5.7575     80.9787
   332.7500      0.0000    815.3691      5.7376     87.0492
   333.0000      0.0000    821.1324      5.7128     91.6892
   333.2500      0.0000    828.8997      5.6799     94.0280
   333.5000      0.0000    839.0589      5.6420     94.1011
   333.7500      0.0000    851.7728      5.6033     92.9326
   334.0000      0.0000    865.0963      5.5640     92.0101
   334.2500      0.0000    873.9826      5.5196     92.5250
   334.5000      0.0000    873.0043      5.4648     94.7222
   334.7500      0.0000    860.8193      5.3982     97.6086
   335.0000      0.0000    840.7506      5.3248     99.4208
   335.2500      0.0000    817.5905      5.2556     98.7544
   335.5000      0.0000    796.2567      5.2031     95.4013
   335.7500      0.0000    782.1667      5.1736     90.0568
   336.0000      0.0000    778.1428      5.1625     83.4414
   336.2500      0.0000    780.0737      5.1572     76.2518
   336.5000      0.0000    779.0180      5.1460     69.9985
   336.7500      0.0000    769.7889      5.1271     66.9226
   337.0000      0.0000    756.8958      5.1112     68.2866
   337.2500      0.0000    751.1584      5.1159     73.1145
   337.5000      0.0000    760.2863      5.1553     79.1092
   337.7500      0.0000    782.2574      5.2287     84.5260
   338.0000      0.0000    807.0160      5.3177     88.8475
   338.2500      0.0000    824.5184      5.3978     92.1823
   338.5000      0.0000    832.3455      5.4560     94.6727
   338.7500      0.0000    836.7217      5.4949     96.4076
   339.0000      0.0000    846.1703      5.5221     97.3691
   339.2500      0.0000    863.4719      5.5410     97.1652
   339.5000      0.0000    882.9274      5.5518     95.0871
   339.7500      0.0000    895.1089      5.5584     90.9738
   340.0000      0.0000    894.4767      5.5687     85.9848
   340.2500      0.0000    882.7648      5.5873     81.9678
   340.5000      0.0000    865.8002      5.6120     79.8610
   340.7500      0.0000    848.4578      5.6362     78.9315
   341.0000      0.0000    833.0507      5.6583     77.6154
   341.2500      0.0000    820.8297      5.6861     75.0342
   341.5000      0.0000    812.9468      5.7328     71.8443
   341.7500      0.0000    809.9375      5.8066     69.7734
   342.0000      0.0000    811.2001      5.9025     70.3264
   342.2500      0.0000    814.8400      6.0058     73.8486
   342.5000      0.0000    817.8160      6.1027     79.5064
   342.7500      0.0000    817.2467      6.1870     85.7734
   343.0000      0.0000    812.3420      6.2580     91.0179
   343.2500      0.0000    804.2202      6.3152     94.2501
   343.5000      0.0000    793.3209      6.3559     95.7315
   343.7500      0.0000    778.1964      6.3748     96.6053
   344.0000      0.0000    757.9607      6.3656     97.6168
   344.2500      0.0000    735.1581      6.3286     98.4160
   344.5000      0.0000    714.8535      6.2771     98.2406
   344.7500      0.0000    700.8970      6.2353     96.8811
   345.0000      0.0000    693.8165      6.2239     94.8603
   345.2500      0.0000    692.0125      6.2499     93.0676
   345.5000      0.0000    693.8401      6.3051     92.3245
   345.7500      0.0000    698.1645      6.3735     92.8889
   346.0000      0.0000    703.8295      6.4397     94.1375
   346.2500      0.0000    709.7963      6.4954     94.8061
   346.5000      0.0000    715.9264      6.5410     93.8054
   346.7500      0.0000    722.4147      6.5794     91.1319
   347.0000      0.0000    727.8449      6.6103     87.9866
   347.2500      0.0000    728.9926      6.6332     85.7943
   347.5000      0.0000    723.6995      6.6537     85.1495
   347.7500      0.0000    713.4397      6.6823     85.7284
   348.0000      0.0000    702.2974      6.7259     86.7227
   348.2500      0.0000    693.7300      6.7818     87.2719
   348.5000      0.0000    688.7014      6.8406     87.0984
   348.7500      0.0000    686.3024      6.8931     86.8773
   349.0000      0.0000    685.2375      6.9339     87.4525
   349.2500      0.0000    684.6722      6.9624     88.6617
   349.5000      0.0000    684.2902      6.9799     89.5242
   349.7500      0.0000    684.0506      6.9873     89.5351
   350.0000      0.0000    683.9760      6.9862     89.0592
   350.2500      0.0000    684.0470      6.9823     88.4185
   350.5000      0.0000    684.2070      6.9832     87.3984
   350.7500      0.0000    684.3849      6.9943     85.8349
   351.0000      0.0000    684.4781      7.0171     84.0965
   351.2500      0.0000    684.1114      7.0517     82.8656
   351.5000      0.0000    682.1569      7.0966     82.7716
   351.7500      0.0000    676.2361      7.1462     84.0178
   352.0000      0.0000    663.3696      7.1880     86.0530
   352.2500      0.0000    643.1555      7.1980     87.8768
   352.5000      0.0000    621.7557      7.1390     88.8094
   352.7500      0.0000    611.2043      6.9726     88.8141
   353.0000      0.0000    621.6131      6.6862     88.1874
   353.2500      0.0000    653.1226      6.3139     87.1114
   353.5000      0.0000    695.7185      5.9305     85.3513
   353.7500      0.0000    736.2944      5.6142     82.4192
   354.0000      0.0000    766.3825      5.4040     78.4184
   354.2500      0.0000    785.1857      5.2870     74.8538
   354.5000     -2.0000    795.8242      5.2238     74.0435
   354.7500     -1.5112    798.5845      5.1844     77.0119
   355.0000      0.0000    789.6985      5.1671     81.9558
   355.2500      0.0000    767.7546      5.2011     85.3975
   355.5000      0.0000    738.6907      5.3340     85.0650
   355.7500      0.0000    712.1431      5.6018     81.4616
   356.0000      0.0000    694.1915      5.9874     76.9277
   356.2500      0.0000    684.8417      6.4008     73.7065
   356.5000      0.0000    680.8865      6.7207     72.7956
   356.7500      0.0000    679.3563      6.8746     74.0597
   357.0000      0.0000    678.6824      6.8821     76.9134
   357.2500      0.0000    678.3287      6.8191     80.6652
   357.5000      0.0000    678.2017      6.7543     84.3407
   357.7500      0.0000    678.3951      6.7188     86.6695
   358.0000      0.0000    679.1006      6.7130     86.5636
   358.2500      0.0000    680.5918      6.7243     83.7089
   358.5000      0.0000    683.1158      6.7356     78.8627
   358.7500      0.0000    686.5099      6.7287     73.5278
   359.0000      0.0000    689.7779      6.6916     69.0436
   359.2500      0.0000    691.4185      6.6276     65.9960
   359.5000      0.0000    690.6203      6.5532     64.5589
   359.7500      0.0000    688.0240      6.4865     65.0131
   360.0000      0.0000    685.0670      6.4361     67.5120
   360.2500      0.0000    682.7875      6.3996     71.4514
