~Version Information
VERS.                      2.0: CWLS Log ASCII Standard - VERSION 2.0
WRAP.                       NO: One line per depth step
~Well Information Block
STRT.FT               845.0000: 
STOP.FT              2103.2000: 
STEP.FT                 0.1000: 
NULL.                -999.2500: 
COMP.          Petrogulf Corporation: COMPANY
WELL.               YWAM 7-32R: WELL
FLD.           Purgatorie River: FIELD
LOC.           2355' FNL & 2376' FEL: LOCATION
PROV.                 Colorado: PROVINCE
CNTY.               Las Animas: COUNTRY
SRVC.                Patterson: SERVICE COMPANY
DATE.          Thu Sep 29 23:12:08 2005: LOG DATE
UWI.                          : UNIQUE WELL ID
~Curve Information Block
DEPT.FT            0 000 00 00: Depth
SP.mV                         : DIL Spontaneous Potential
RILD.Ohm-m                    : DIL Deep Resistivity
RILM.Ohm-m                    : DIL Medium Resistivity
RLL3.Ohm-m                    : DIL Shallow Resistivity
GR.GAPI                       : Gamma Ray
~Parameter Information Block
~A  Depth        SP         RILD        RILM        RLL3         GR     
# ...
  1427.4000    175.5946      8.0141      8.4719     10.9279    131.4010
  1427.5000    174.7655      8.1741      8.6921     11.4571    129.9370
  1427.6000    174.7655      8.1741      8.6921     11.4571    128.5943
  1427.7000    174.7655      8.1741      8.6921     11.4571    127.3752
  1427.8000    173.9866      8.3392      8.8942     11.7784    126.2728
  1427.9000    173.9866      8.3392      8.8942     11.7784    125.2665
  1428.0000    173.2452      8.5104      9.0738     11.8751    124.3280
  1428.1000    173.2452      8.5104      9.0738     11.8751    123.4171
  1428.2000    173.2452      8.5104      9.0738     11.8751    122.4942
  1428.3000    172.5360      8.6887      9.2301     11.8096    121.5232
  1428.4000    172.5360      8.6887      9.2301     11.8096    120.4834
  1428.5000    171.8526      8.8754      9.3664     11.6672    119.3738
  1428.6000    171.8526      8.8754      9.3664     11.6672    118.2253
  1428.7000    171.8526      8.8754      9.3664     11.6672    117.0871
  1428.8000    171.1767      9.0723      9.4894     11.5047    116.0288
  1428.9000    171.1767      9.0723      9.4894     11.5047    115.1257
  1429.0000    170.4901      9.2806      9.6090     11.3356    114.4394
  1429.1000    170.4901      9.2806      9.6090     11.3356    114.0070
  1429.2000    170.4901      9.2806      9.6090     11.3356    113.8335
  1429.3000    169.7985      9.5013      9.7370     11.1489    113.8876
  1429.4000    169.7985      9.5013      9.7370     11.1489    114.1096
  1429.5000    169.1284      9.7337      9.8863     10.9433    114.4194
  1429.6000    169.1284      9.7337      9.8863     10.9433    114.7352
  1429.7000    169.1284      9.7337      9.8863     10.9433    114.9832
  1429.8000    168.4917      9.9758     10.0699     10.7585    115.1116
  1429.9000    168.4917      9.9758     10.0699     10.7585    115.0974
  1430.0000    167.8631     10.2245     10.2998     10.6878    114.9461
  1430.1000    167.8631     10.2245     10.2998     10.6878    114.6830
  1430.2000    167.8631     10.2245     10.2998     10.6878    114.3543
  1430.3000    167.1959     10.4775     10.5860     10.8680    114.0050
  1430.4000    167.1959     10.4775     10.5860     10.8680    113.6779
  1430.5000    166.4570     10.7346     10.9349     11.4556    113.3999
  1430.6000    166.4570     10.7346     10.9349     11.4556    113.1812
  1430.7000    166.4570     10.7346     10.9349     11.4556    113.0088
  1430.8000    165.6467     10.9988     11.3489     12.5829    112.8580
  1430.9000    165.6467     10.9988     11.3489     12.5829    112.6923
  1431.0000    164.7975     11.2749     11.8254     14.2735    112.4718
  1431.1000    164.7975     11.2749     11.8254     14.2735    112.1619
  1431.2000    164.7975     11.2749     11.8254     14.2735    111.7427
  1431.3000    163.9590     11.5690     12.3575     16.3421    111.2087
  1431.4000    163.9590     11.5690     12.3575     16.3421    110.5758
  1431.5000    163.1782     11.8868     12.9346     18.3859    109.8766
  1431.6000    163.1782     11.8868     12.9346     18.3859    109.1584
  1431.7000    163.1782     11.8868     12.9346     18.3859    108.4698
  1431.8000    162.4824     12.2330     13.5444     19.9486    107.8559
  1431.9000    162.4824     12.2330     13.5444     19.9486    107.3477
  1432.0000    161.8798     12.6085     14.1747     20.7717    106.9576
  1432.1000    161.8798     12.6085     14.1747     20.7717    106.6768
  1432.2000    161.8798     12.6085     14.1747     20.7717    106.4881
  1432.3000    161.3820     13.0057     14.8134     20.9324    106.3648
  1432.4000    161.3820     13.0057     14.8134     20.9324    106.2867
  1432.5000    161.0271     13.4048     15.4470     20.7685    106.2502
  1432.6000    161.0271     13.4048     15.4470     20.7685    106.2673
  1432.7000    161.0271     13.4048     15.4470     20.7685    106.3653
  1432.8000    160.8713     13.7744     16.0568     20.6799    106.5749
  1432.9000    160.8713     13.7744     16.0568     20.6799    106.9215
  1433.0000    160.9539     14.0760     16.6138     20.9602    107.4118
  1433.1000    160.9539     14.0760     16.6138     20.9602    108.0315
  1433.2000    160.9539     14.0760     16.6138     20.9602    108.7470
  1433.3000    161.2768     14.2745     17.0763     21.7245    109.5134
  1433.4000    161.2768     14.2745     17.0763     21.7245    110.2905
  1433.5000    161.8205     14.3508     17.3932     22.9176    111.0508
  1433.6000    161.8205     14.3508     17.3932     22.9176    111.7917
  1433.7000    161.8205     14.3508     17.3932     22.9176    112.5265
  1433.8000    162.5716     14.3101     17.5151     24.3500    113.2903
  1433.9000    162.5716     14.3101     17.5151     24.3500    114.1208
  1434.0000    163.5298     14.1807     17.4111     25.6910    115.0457
  1434.1000    163.5298     14.1807     17.4111     25.6910    116.0705
  1434.2000    163.5298     14.1807     17.4111     25.6910    117.1783
  1434.3000    164.6922     14.0021     17.0847     26.4374    118.3211
  1434.4000    164.6922     14.0021     17.0847     26.4374    119.4358
  1434.5000    166.0380     13.8116     16.5773     26.0373    120.4494
  1434.6000    166.0380     13.8116     16.5773     26.0373    121.2943
  1434.7000    166.0380     13.8116     16.5773     26.0373    121.9165
  1434.8000    167.5292     13.6371     15.9583     24.2642    122.2909
  1434.9000    167.5292     13.6371     15.9583     24.2642    122.4211
  1435.0000    169.1204     13.4972     15.3068     21.5254    122.3473
  1435.1000    169.1204     13.4972     15.3068     21.5254    122.1384
  1435.2000    169.1204     13.4972     15.3068     21.5254    121.8877
  1435.3000    170.7632     13.4039     14.6947     18.6584    121.7013
  1435.4000    170.7632     13.4039     14.6947     18.6584    121.6922
  1435.5000    172.3961     13.3642     14.1772     16.3341    121.9620
  1435.6000    172.3961     13.3642     14.1772     16.3341    122.5919
  1435.7000    172.3961     13.3642     14.1772     16.3341    123.6320
  1435.8000    173.9370     13.3796     13.7920     14.7089    125.0936
  1435.9000    173.9370     13.3796     13.7920     14.7089    126.9443
  1436.0000    175.2978     13.4468     13.5621     13.6475    129.1056
  1436.1000    175.2978     13.4468     13.5621     13.6475    131.4635
  1436.2000    175.2978     13.4468     13.5621     13.6475    133.8740
  1436.3000    176.4187     13.5574     13.5008     13.1249    136.1811
  1436.4000    176.4187     13.5574     13.5008     13.1249    138.2333
  1436.5000    177.2953     13.7007     13.6145     13.3308    139.8987
  1436.6000    177.2953     13.7007     13.6145     13.3308    141.0762
  1436.7000    177.2953     13.7007     13.6145     13.3308    141.7050
  1436.8000    177.9765     13.8668     13.9051     14.5277    141.7654
  1436.9000    177.9765     13.8668     13.9051     14.5277    141.2791
  1437.0000    178.5388     14.0515     14.3692     16.9962    140.3003
  1437.1000    178.5388     14.0515     14.3692     16.9962    138.9120
  1437.2000    178.5388     14.0515     14.3692     16.9962    137.2135
  1437.3000    179.0587     14.2572     14.9966     21.1063    135.3123
  1437.4000    179.0587     14.2572     14.9966     21.1063    133.3127
  1437.5000    179.5986     14.4933     15.7662     27.2072    131.3076
  1437.6000    179.5986     14.4933     15.7662     27.2072    129.3702
  1437.7000    179.5986     14.4933     15.7662     27.2072    127.5467
  1437.8000    180.2015     14.7729     16.6442     35.1369    125.8591
  1437.9000    180.2015     14.7729     16.6442     35.1369    124.3032
  1438.0000    180.8894     15.1107     17.5822     43.6618    122.8535
  1438.1000    180.8894     15.1107     17.5822     43.6618    121.4757
  1438.2000    180.8894     15.1107     17.5822     43.6618    120.1301
  1438.3000    181.6605     15.5201     18.5220     50.5339    118.7786
  1438.4000    181.6605     15.5201     18.5220     50.5339    117.3970
  1438.5000    182.4892     16.0106     19.4055     53.5117    115.9694
