~Version Information
VERS.                      2.0: CWLS Log ASCII Standard - VERSION 2.0
WRAP.                       NO: One line per depth step
~Well Information Block
STRT.FT                 0.0000: 
STOP.FT              1507.7500: 
STEP.FT                 0.2500: 
NULL.                -999.2500: 
COMP.          Pioneer Natural Resources: COMPANY
WELL.          Pioneer 34-27 Tr: WELL
FLD.           Purgatorie River: FIELD
LOC.           243' FSL & 1593' FEL: LOCATION
STAT.                 Colorado: State
CNTY.               Las Animas: COUNTY
CTRY. USA : Country
SECT. 27 : Section
TOWN. 32S : Township
RANG. 67W : Range
SRVC.                Patterson: SERVICE COMPANY
DATE.          Wed Oct 12 09:30:25 2005: LOG DATE
API.                          : UNIQUE WELL ID
~Curve Information Block
DEPT.FT            0 000 00 00: Depth
GR.GAPI                       : Gamma Ray
CCL.                          : Casing Collar Locator
TT3.usec                      : CBL 3' Travel Time
AMP3.mV                       : CBL 3' Amplitude
~Parameter Information Block
~A  Depth        GR         CCL         TT3         AMP3    
# ...
   871.0000    119.2930      0.0000    718.3300     26.8486
   871.2500    115.7825      0.0000    716.8865     26.3868
   871.5000    112.5506      0.0000    713.5959     25.3753
   871.7500    110.5304      0.0000    709.6276     24.0547
   872.0000    109.2331      0.0000    709.2260     22.6315
   872.2500    107.0025      0.0000    712.2162     21.2134
   872.5000    101.8225      0.0000    714.4179     19.9232
   872.7500     92.5530      0.0000    715.6842     18.9130
   873.0000     80.1805      0.0000    718.7695     18.2799
   873.2500     67.9110      0.0000    723.0410     18.0177
   873.5000     59.4581      0.0000    726.0725     18.0359
   873.7500     56.7961      0.0000    727.3887     18.2293
   874.0000     59.2655      0.0000    727.4726     18.5630
   874.2500     64.5554      0.0000    725.1125     19.1106
   874.5000     70.5546      0.0000    715.3416     19.9822
   874.7500     76.5127      0.0000    691.9704     21.1804
   875.0000     82.6963      0.0000    659.8495     22.5482
   875.2500     89.2657      0.0000    640.1851     23.8551
   875.5000     95.5782      0.0000    646.9039     24.9172
   875.7500    100.2436      0.0000    667.3844     25.6155
   876.0000    101.7495      0.0000    682.7999     25.8174
   876.2500     99.4541      0.0000    689.2659     25.4156
   876.5000     94.2326      0.0000    692.0463     24.4886
   876.7500     87.9384      0.0000    695.3956     23.3128
   877.0000     82.0650      0.0000    699.7866     22.1516
   877.2500     77.0276      0.0000    702.7968     21.1025
   877.5000     72.7166      0.0000    703.2960     20.1872
   877.7500     69.3809      0.0000    702.9946     19.4712
   878.0000     67.6785      0.0000    701.8641     19.0156
   878.2500     67.9976      0.0000    698.2715     18.7917
   878.5000     70.0250      0.0000    693.5573     18.6961
   878.7500     73.1024      0.0000    690.3085     18.6259
   879.0000     77.0111      0.0000    688.9167     18.5387
   879.2500     82.3957      0.0000    688.6535     18.4656
   879.5000     90.2437      0.0000    689.6697     18.4647
   879.7500    100.6958      0.0000    692.9433     18.5434
   880.0000    112.3844      0.0000    697.9660     18.6280
   880.2500    123.0133      0.0000    701.4261     18.6307
   880.5000    130.4934      0.0000    701.5560     18.5680
   880.7500    133.5763      0.0000    702.1580     18.5517
   881.0000    132.0987      0.0000    707.5175     18.6239
   881.2500    127.3999      0.0000    715.4280     18.6992
   881.5000    122.2480      0.0000    719.0093     18.7019
   881.7500    119.2864      0.0000    714.4846     18.6701
   882.0000    119.0231      0.0000    705.1295     18.6847
   882.2500    119.6725      0.0000    697.1642     18.7277
   882.5000    119.0185      0.0000    693.2891     18.6734
   882.7500    115.9319      0.0000    691.9950     18.4417
   883.0000    110.2571      0.0000    691.2454     18.1038
   883.2500    102.2767      0.0000    690.4128     17.8184
   883.5000     92.7229      0.0000    689.7130     17.6831
   883.7500     82.7874      0.0000    689.3127     17.6601
   884.0000     73.7244      0.0000    689.1742     17.6655
   884.2500     66.5171      0.0000    689.4709     17.6997
   884.5000     61.7653      0.0000    691.0657     17.8404
   884.7500     59.5031      0.0000    695.6567     18.1473
   885.0000     59.1116      0.0000    704.3065     18.6039
   885.2500     59.6718      0.0000    714.8847     19.0998
   885.5000     60.4985      0.0000    723.1265     19.4920
   885.7500     61.3581      0.0000    726.8345     19.7050
   886.0000     62.2631      0.0000    725.4073     19.7722
   886.2500     63.1413      0.0000    713.3712     19.8808
   886.5000     63.6566      0.0000    677.6870     20.3003
   886.7500     63.3658      0.0000    614.3362     21.0278
   887.0000     62.1411      0.0000    553.4566     21.4928
   887.2500     60.4463      0.0000    539.1351     20.8755
   887.5000     59.1821      0.0000    570.2728     19.1075
   887.7500     59.4050      0.0000    602.3166     17.2166
   888.0000     62.2123      0.0000    611.7040     16.1181
   888.2500     68.4528      0.0000    611.5648     15.7245
   888.5000     78.0681      0.0000    617.2302     15.5301
   888.7500     89.7377      0.0000    631.0994     15.2942
   889.0000    101.4242      0.0000    640.8398     15.0796
   889.2500    111.4301      0.0000    630.4907     15.1231
   889.5000    119.0682      0.0000    600.7673     15.8136
   889.7500    124.4427      0.0000    561.9259     17.3883
   890.0000    127.6869      0.0000    519.0544     19.2604
   890.2500    128.4731      0.0000    473.5363     20.4119
   890.5000    126.3479      0.0000    428.3120     20.7102
   890.7500    121.5831      0.0000    394.3715     20.7271
   891.0000    115.5692      0.0000    380.0736     20.7050
   891.2500    110.2221      0.0000    378.9436     20.6095
   891.5000    106.9370      0.0000    381.0031     20.5154
   891.7500    106.0802      0.0000    384.5923     20.5204
   892.0000    107.2339      0.0000    397.5476     20.6144
   892.2500    109.6050      0.0000    435.3483     20.7300
   892.5000    112.2745      0.0000    505.5112     20.8280
   892.7500    114.4465      0.0000    581.3069     20.9011
   893.0000    115.5879      0.0000    612.4081     20.9344
   893.2500    115.2753      0.0000    581.2184     20.9151
   893.5000    113.1477      0.0000    528.3351     20.8806
   893.7500    109.2448      0.0000    502.2989     20.9218
   894.0000    104.2616      0.0000    501.6330     21.1121
   894.2500     99.2802      0.0000    494.9688     21.4461
   894.5000     95.2259      0.0000    474.9542     21.8606
   894.7500     92.5748      0.0000    456.4050     22.2820
   895.0000     91.4216      0.0000    446.1270     22.6480
   895.2500     91.5475      0.0000    437.9756     22.9227
   895.5000     92.3599      0.0000    422.1576     23.0985
   895.7500     93.0599      0.0000    393.5509     23.1825
   896.0000     93.1024      0.0000    358.5992     23.1946
   896.2500     92.5407      0.0000    330.7647     23.1443
   896.5000     91.9946      0.0000    316.3385     23.0155
   896.7500     92.3092      0.0000    311.3469     22.8152
   897.0000     94.0016      0.0000    309.9949     22.6044
   897.2500     96.7545      0.0000    309.4557     22.4591
   897.5000     99.5162      0.0000    309.0308     22.4249
   897.7500    101.3325      0.0000    308.6946     22.4921
   898.0000    102.0951      0.0000    308.5065     22.5759
   898.2500    102.3534      0.0000    308.4605     22.5844
   898.5000    102.5349      0.0000    308.4762     22.5292
   898.7500    102.6497      0.0000    308.4861     22.4826
   899.0000    102.6944      0.0000    308.5188     22.4350
   899.2500    102.9784      0.0000    308.6527     22.2988
   899.5000    103.7753      0.0000    308.8808     22.0490
   899.7500    104.7489      0.0000    309.0791     21.7645
   900.0000    104.9637      0.0000    309.1460     21.5401
   900.2500    103.4840      0.0000    309.1012     21.4403
   900.5000     99.9309      0.0000    309.0172     21.4862
   900.7500     94.5836      0.0000    308.9292     21.6255
   901.0000     87.9725      0.0000    308.8195     21.7493
   901.2500     80.3630      0.0000    308.6301     21.7654
   901.5000     71.8534      0.0000    308.3095     21.6583
   901.7500     63.1391      0.0000    307.8751     21.4698
   902.0000     55.8396      0.0000    307.4270     21.2416
   902.2500     51.5242      0.0000    307.0958     21.0020
   902.5000     50.3406      0.0000    306.9541     20.7700
   902.7500     50.8351      0.0000    306.9899     20.5614
   903.0000     51.1562      0.0000    307.1747     20.3967
   903.2500     50.4307      0.0000    307.5186     20.2767
   903.5000     49.1539      0.0000    308.2494     20.1663
   903.7500     48.4606      0.0000    310.7496     20.0320
   904.0000     49.1185      0.0000    319.0017     19.8690
   904.2500     51.1747      0.0000    337.6776     19.6875
