~Version Information
VERS.                      2.0: CWLS Log ASCII Standard - VERSION 2.0
WRAP.                       NO: One line per depth step
~Well Information Block
STRT.FT                10.0000: 
STOP.FT              1485.0000: 
STEP.FT                 0.1000: 
NULL.                -999.2500: 
COMP.          Pioneer Natural Resources: COMPANY
WELL.          Old Faithful 21-2: WELL
FLD.           Purgatorie River: FIELD
LOC.           806' FNL & 2509' FWL: LOCATION
PROV.                 Colorado: PROVINCE
CNTY.               Las Animas: COUNTRY
SRVC.                Patterson: SERVICE COMPANY
DATE.          Wed Dec 07 13:17:12 2005: LOG DATE
UWI.                          : UNIQUE WELL ID
~Curve Information Block
DEPT.FT            0 000 00 00: Depth
DCAL.in                       : CDL Caliper
RHOB.g/cc                     : CDL Bulk Density
RHOC.g/cc                     : CDL Density Correction
DPOR.pu                       : CDL Density Porosity
GR.GAPI                       : Gamma Ray
NPOR.pu                       : Neutron Porosity
~Parameter Information Block
~A  Depth       DCAL        RHOB        RHOC        DPOR         GR         NPOR    
# ...
  1373.2000      8.0482      2.4848      0.0597     10.0107     85.9135     20.7710
  1373.3000      8.0368      2.4686      0.0310     10.9912     84.1114     20.6460
  1373.4000      8.0368      2.4533      0.0353     11.9183     83.6820     20.5609
  1373.5000      8.0321      2.4429      0.0213     12.5491     82.4629     20.9471
  1373.6000      8.0321      2.4382      0.0020     12.8352     80.1989     21.7042
  1373.7000      8.0321      2.4422      0.0275     12.5912     79.3549     22.2662
  1373.8000      8.0434      2.4500      0.0301     12.1225     81.1158     22.5224
  1373.9000      8.0434      2.4491      0.0316     12.1733     85.3308     22.7375
  1374.0000      8.0333      2.4403     -0.0124     12.7100     89.8713     23.1111
  1374.1000      8.0333      2.4340      0.0281     13.0897     91.4173     23.5321
  1374.2000      8.0333      2.4329      0.0011     13.1570     90.1129     23.7402
  1374.3000      8.0723      2.4381      0.0278     12.8425     88.1894     23.7630
  1374.4000      8.0723      2.4502      0.0224     12.1083     86.8205     23.8268
  1374.5000      8.0326      2.4659      0.0333     11.1574     87.3386     23.7220
  1374.6000      8.0326      2.4857      0.0441      9.9561     90.1753     23.0922
  1374.7000      8.0326      2.5060      0.0715      8.7267     91.3336     22.1976
  1374.8000      8.0285      2.5154      0.0397      8.1564     87.7180     21.6017
  1374.9000      8.0285      2.5162     -0.0078      8.1121     83.9184     21.4447
  1375.0000      8.0232      2.5127      0.0417      8.3204     84.8911     21.5062
  1375.1000      8.0232      2.4962      0.0079      9.3242     89.7658     21.6253
  1375.2000      8.0232      2.4779     -0.0235     10.4311     95.1492     21.6629
  1375.3000      8.0106      2.4884      0.0060      9.7939     97.1352     21.4091
  1375.4000      8.0106      2.5208      0.0502      7.8321     94.1085     20.7562
  1375.5000      8.0082      2.5315      0.0828      7.1798     88.9920     20.1714
  1375.6000      8.0082      2.5069      0.0077      8.6745     85.3884     20.1023
  1375.7000      8.0082      2.4809     -0.0141     10.2475     83.2185     20.1570
  1375.8000      8.0121      2.4803     -0.0147     10.2843     81.4009     19.8983
  1375.9000      8.0121      2.4941      0.0379      9.4488     80.2567     19.4313
  1376.0000      8.0185      2.5049      0.0205      8.7952     79.9693     19.0613
  1376.1000      8.0185      2.5117      0.0289      8.3806     81.0285     18.9720
  1376.2000      8.0185      2.5147      0.0770      8.1976     83.5399     19.0861
  1376.3000      8.0519      2.5133      0.0542      8.2853     87.0363     19.2843
  1376.4000      8.0519      2.5141      0.0559      8.2334     89.3153     19.7222
  1376.5000      8.0533      2.5191      0.0516      7.9306     88.8027     20.4351
  1376.6000      8.0533      2.5266      0.0349      7.4797     85.8796     21.0621
  1376.7000      8.0533      2.5329      0.0832      7.0946     81.5443     21.2196
  1376.8000      8.0331      2.5253      0.0490      7.5576     78.1528     20.8122
  1376.9000      8.0331      2.5003      0.0585      9.0722     78.5031     20.1075
  1377.0000      8.0502      2.4728      0.0324     10.7403     81.7793     19.4461
  1377.1000      8.0502      2.4553      0.0262     11.8030     84.7037     19.0868
  1377.2000      8.0502      2.4476      0.0436     12.2678     84.2987     19.0306
  1377.3000      8.0709      2.4516     -0.0158     12.0245     79.7072     19.0780
  1377.4000      8.0709      2.4651      0.0532     11.2062     73.9286     19.1550
  1377.5000      8.0525      2.4733      0.0519     10.7118     70.3326     19.4017
  1377.6000      8.0525      2.4712      0.0520     10.8367     69.7138     20.0258
  1377.7000      8.0525      2.4643      0.0689     11.2532     70.3113     20.8561
  1377.8000      8.0489      2.4575      0.0415     11.6638     69.4627     21.4615
  1377.9000      8.0489      2.4526      0.0472     11.9608     68.3411     21.8263
  1378.0000      8.0429      2.4478      0.0386     12.2523     69.1497     22.1139
  1378.1000      8.0429      2.4479      0.0139     12.2465     70.1144     22.1821
  1378.2000      8.0429      2.4557      0.0149     11.7780     70.2429     21.8653
  1378.3000      8.0334      2.4579      0.0459     11.6441     71.6611     21.3802
  1378.4000      8.0334      2.4444      0.0495     12.4619     74.8615     21.1212
  1378.5000      8.0107      2.4240     -0.0004     13.6985     77.5615     20.9908
  1378.6000      8.0107      2.4043      0.0292     14.8936     77.3988     20.6994
  1378.7000      8.0107      2.3863     -0.0231     15.9839     76.5612     20.5332
  1378.8000      8.0296      2.3830     -0.0236     16.1845     79.0110     20.8613
  1378.9000      8.0296      2.4049      0.0017     14.8556     83.1736     21.4818
  1379.0000      8.0232      2.4321      0.0660     13.2054     84.6326     21.8829
  1379.1000      8.0232      2.4359      0.0365     12.9771     82.3613     21.9713
  1379.2000      8.0232      2.4248     -0.0205     13.6468     78.1811     21.9146
  1379.3000      8.0412      2.4248      0.0205     13.6458     74.1847     21.6882
  1379.4000      8.0412      2.4402      0.0154     12.7128     72.2183     21.3958
  1379.5000      8.0583      2.4616      0.0116     11.4204     71.6713     21.1869
  1379.6000      8.0583      2.4722      0.0611     10.7728     69.7849     21.1754
  1379.7000      8.0583      2.4646      0.0132     11.2364     66.7900     21.5103
  1379.8000      8.0400      2.4580      0.0043     11.6360     65.4699     22.0048
  1379.9000      8.0400      2.4774      0.0005     10.4615     65.6530     22.3405
  1380.0000      8.0227      2.5197      0.1012      7.8942     65.3823     22.3670
  1380.1000      8.0227      2.5580      0.0743      5.5763     64.0834     22.2119
  1380.2000      8.0227      2.5802      0.0327      4.2285     63.2751     22.0346
  1380.3000      8.0178      2.5905      0.0544      3.6044     63.5191     21.7610
  1380.4000      8.0178      2.5882      0.0567      3.7456     63.2081     21.4334
  1380.5000      8.0046      2.5779      0.0423      4.3713     63.1223     21.1713
  1380.6000      8.0046      2.5729      0.0419      4.6744     64.5973     20.9776
  1380.7000      8.0046      2.5785      0.0331      4.3306     65.1135     20.7632
  1380.8000      7.9950      2.5924      0.0260      3.4889     61.8422     20.2036
  1380.9000      7.9950      2.6125      0.0299      2.2713     58.0399     19.4730
  1381.0000      7.9961      2.6328      0.0414      1.0404     58.9203     19.2456
  1381.1000      7.9961      2.6418      0.0392      0.4950     63.8539     19.4096
  1381.2000      7.9961      2.6366      0.0222      0.8130     68.9870     19.2284
  1381.3000      8.0129      2.6217      0.0249      1.7133     71.5293     18.4865
  1381.4000      8.0129      2.6027     -0.0159      2.8689     69.4941     17.5234
  1381.5000      8.0188      2.5863     -0.0167      3.8618     65.0950     16.4996
  1381.6000      8.0188      2.5806     -0.0291      4.2043     62.7239     15.6231
  1381.7000      8.0188      2.5907     -0.0078      3.5944     63.0901     15.1457
  1381.8000      8.0003      2.6045      0.0400      2.7576     65.2447     15.0521
  1381.9000      8.0003      2.5996      0.0420      3.0535     67.4562     15.4292
  1382.0000      8.0093      2.5744     -0.0029      4.5837     66.6631     16.0863
  1382.1000      8.0093      2.5478     -0.0236      6.1945     64.3901     16.4967
  1382.2000      8.0093      2.5246      0.0172      7.6012     64.0544     16.7982
  1382.3000      8.0050      2.4995     -0.0456      9.1241     63.2997     17.2750
  1382.4000      8.0050      2.4807     -0.0268     10.2635     60.7104     17.6632
  1382.5000      8.0468      2.4792     -0.0655     10.3526     60.0041     17.9075
  1382.6000      8.0468      2.4912      0.0194      9.6228     62.3421     18.1672
  1382.7000      8.0468      2.4998      0.0436      9.1015     64.2954     18.3258
