~Version Information
VERS.                      2.0: CWLS Log ASCII Standard - VERSION 2.0
WRAP.                       NO: One line per depth step
~Well Information Block
STRT.FT               245.0000: 
STOP.FT              1208.2000: 
STEP.FT                 0.1000: 
NULL.                -999.2500: 
COMP.          Pioneer Natural Resources: COMPANY
WELL.              Davida 34-8: WELL
FLD.           Purgatoire River: FIELD
LOC.           418' FSL & 1923' FEL--: LOCATION
CNTY.               Las Animas: COUNTY
SRVC.                Patterson: SERVICE COMPANY
DATE.          Mon Mar 20 08:22:01 2006: LOG DATE
UWI.           05 071 08722 00: UNIQUE WELL ID
STAT.                 Colorado: STATE
~Curve Information Block
DEPT.FT            0 000 00 00: Depth
DCAL.in                       : CDL Caliper
RHOB.g/cc                     : CDL Bulk Density
RHOC.g/cc                     : CDL Density Correction
DPOR.pu                       : CDL Density Porosity
NPOR.pu                       : Neutron Porosity
GR.GAPI                       : Gamma Ray
~Parameter Information Block
~A  Depth       DCAL        RHOB        RHOC        DPOR        NPOR         GR     
# ...
   869.0000      8.0245      2.5283      0.0636      7.3740     18.3088    160.3468
   869.1000      8.0245      2.5254      0.0059      7.5494     18.4030    155.5664
   869.2000      8.0245      2.5270      0.0532      7.4563     18.7784    144.8926
   869.3000      8.0265      2.5318      0.0287      7.1649     19.3015    139.8182
   869.4000      8.0265      2.5428      0.0231      6.4984     19.7280    142.0602
   869.5000      8.0275      2.5532      0.0559      5.8647     20.0716    146.1138
   869.6000      8.0275      2.5514      0.0268      5.9760     20.4775    149.5922
   869.7000      8.0275      2.5433      0.0474      6.4653     21.0088    149.5577
   869.8000      8.0271      2.5420      0.0070      6.5467     21.5387    144.8917
   869.9000      8.0271      2.5463      0.0526      6.2854     21.8029    142.7996
   870.0000      8.0265      2.5465      0.0193      6.2713     21.7889    151.6020
   870.1000      8.0265      2.5453      0.0284      6.3438     21.6966    165.3490
   870.2000      8.0265      2.5438      0.0277      6.4343     21.5848    169.8640
   870.3000      8.0257      2.5286      0.0411      7.3586     21.3953    162.7489
   870.4000      8.0257      2.5003     -0.0206      9.0747     21.3311    153.3885
   870.5000      8.0247      2.4832     -0.0468     10.1111     21.6697    148.4290
   870.6000      8.0247      2.4824     -0.0029     10.1596     22.1689    149.3334
   870.7000      8.0247      2.4813     -0.0079     10.2266     22.3145    152.1370
   870.8000      8.0250      2.4796     -0.0470     10.3283     21.9909    152.8250
   870.9000      8.0250      2.4740      0.0318     10.6672     21.4773    151.8499
   871.0000      8.0302      2.4371      0.0540     12.9012     21.0980    149.4038
   871.1000      8.0302      2.3601     -0.0497     17.5716     20.7123    142.5433
   871.2000      8.0302      2.2675     -0.0271     23.1816     19.9130    131.1333
   871.3000      8.0408      2.1722     -0.0251     28.9565     18.9750    122.7743
   871.4000      8.0408      2.0602     -0.0266     35.7425     18.0822    126.4477
   871.5000      8.0549      1.9316     -0.1177     43.5372     16.7752    137.6303
   871.6000      8.0549      1.8084     -0.1134     51.0053     14.9446    138.9408
   871.7000      8.0549      1.6963     -0.0925     57.8013     12.8728    124.3031
   871.8000      8.0729      1.5938     -0.1113     64.0111     10.8783    106.8994
   871.9000      8.0729      1.5112     -0.1113     69.0168      9.2003     97.5530
   872.0000      8.0945      1.4491     -0.1034     72.7845      7.9008     95.1892
   872.1000      8.0945      1.3992     -0.0591     75.8060      6.8931     95.5942
   872.2000      8.0945      1.3646     -0.0373     77.9002      5.9818     96.7643
   872.3000      8.1201      1.3524      0.0080     78.6428      4.9376     98.1310
   872.4000      8.1201      1.3570      0.0652     78.3617      3.7849     99.2702
   872.5000      8.1399      1.3672      0.0787     77.7472      2.8693     98.9050
   872.6000      8.1399      1.3788      0.1099     77.0417      2.4499     94.9380
   872.7000      8.1399      1.3931      0.1374     76.1735      2.5032     91.0120
   872.8000      8.1425      1.4128      0.1413     74.9800      2.7897     91.2895
   872.9000      8.1425      1.4421      0.1431     73.2078      3.0843     92.1313
   873.0000      8.1524      1.4861      0.1417     70.5373      3.4450     90.6529
   873.1000      8.1524      1.5526      0.1701     66.5073      3.8858     90.6141
   873.2000      8.1524      1.6489      0.1988     60.6755      4.2491     93.3335
   873.3000      8.1657      1.7770      0.2073     52.9113      4.5335     94.6265
   873.4000      8.1657      1.9225      0.2602     44.0914      4.8993     95.0695
   873.5000      8.1161      2.0534      0.2966     36.1563      5.5117     99.6112
   873.6000      8.1161      2.1540      0.2809     30.0600      6.3571    108.0300
   873.7000      8.1161      2.2425      0.2763     24.6970      7.2359    118.0627
   873.8000      8.0270      2.3377      0.2752     18.9295      8.1231    127.3890
   873.9000      8.0270      2.4277      0.3158     13.4747      9.1797    132.5349
   874.0000      7.9682      2.4857      0.2682      9.9567     10.2634    135.3654
   874.1000      7.9682      2.5070      0.1577      8.6692     11.1851    139.2576
   874.2000      7.9682      2.5123      0.1366      8.3425     12.1079    141.5921
   874.3000      7.9445      2.5233      0.0900      7.6786     13.0440    139.4989
   874.4000      7.9445      2.5398      0.1101      6.6803     13.7939    135.9318
   874.5000      7.9419      2.5412      0.1023      6.5923     14.3225    136.5494
   874.6000      7.9419      2.5244      0.0310      7.6138     14.8936    140.9069
   874.7000      7.9419      2.5130      0.0020      8.3028     15.6588    143.2920
   874.8000      7.9462      2.5147      0.0684      8.2019     16.2071    141.3674
   874.9000      7.9462      2.5138      0.0305      8.2520     16.1629    138.5923
   875.0000      7.9443      2.5082      0.0171      8.5926     15.7452    140.9838
   875.1000      7.9443      2.5094      0.0082      8.5231     15.4551    146.9459
   875.2000      7.9443      2.5168      0.0314      8.0748     15.5990    148.2668
   875.3000      7.9438      2.5185      0.0518      7.9676     16.1507    144.3668
   875.4000      7.9438      2.5187      0.0160      7.9598     16.7845    140.7073
   875.5000      7.9511      2.5346      0.0128      6.9958     17.1738    138.6435
   875.6000      7.9511      2.5580      0.0735      5.5734     17.2717    135.2513
   875.7000      7.9511      2.5611      0.0803      5.3889     17.2584    130.5833
   875.8000      7.9569      2.5419      0.0493      6.5507     17.4630    131.4234
   875.9000      7.9569      2.5218      0.0292      7.7682     18.0265    141.3875
   876.0000      7.9498      2.5180      0.0035      7.9987     18.7048    152.9190
   876.1000      7.9498      2.5352      0.0308      6.9580     19.2106    157.7812
   876.2000      7.9498      2.5616      0.0605      5.3583     19.4108    157.6549
   876.3000      7.9348      2.5846      0.0724      3.9653     19.3110    155.5390
   876.4000      7.9348      2.6004      0.0844      3.0054     18.9719    151.4980
   876.5000      7.9257      2.6007      0.0856      2.9863     18.6235    146.7726
   876.6000      7.9257      2.5840      0.0228      4.0029     18.6640    143.5575
   876.7000      7.9257      2.5708      0.0224      4.7977     19.1261    144.4281
   876.8000      7.9196      2.5735      0.0624      4.6385     19.5062    148.3588
   876.9000      7.9196      2.5804      0.0540      4.2155     19.4773    151.4461
   877.0000      7.9092      2.5806      0.0540      4.2049     19.2974    152.9216
   877.1000      7.9092      2.5729      0.0619      4.6701     19.3815    154.7752
   877.2000      7.9092      2.5639      0.0360      5.2154     19.6828    158.6081
   877.3000      7.9000      2.5627      0.0141      5.2913     19.7889    164.2025
   877.4000      7.9000      2.5660      0.0457      5.0927     19.6840    165.5507
   877.5000      7.8930      2.5614      0.0220      5.3715     19.6948    157.1505
   877.6000      7.8930      2.5494      0.0271      6.0976     19.9337    147.5872
   877.7000      7.8930      2.5335      0.0284      7.0595     20.2684    145.3978
   877.8000      7.8908      2.5178      0.0166      8.0095     20.5185    148.8441
   877.9000      7.8908      2.5187     -0.0119      7.9547     20.5736    153.0711
   878.0000      7.8989      2.5416      0.0177      6.5678     20.3525    153.8654
   878.1000      7.8989      2.5623      0.0404      5.3157     19.9190    152.2319
   878.2000      7.8989      2.5610      0.0215      5.3914     19.5207    151.3005
   878.3000      7.9053      2.5484      0.0091      6.1560     19.3087    150.6637
   878.4000      7.9053      2.5374      0.0392      6.8272     19.2906    150.6655
   878.5000      7.9022      2.5219      0.0253      7.7623     19.3233    152.8547
