~Version Information
VERS.                      2.0: CWLS Log ASCII Standard - VERSION 2.0
WRAP.                       NO: One line per depth step
~Well Information Block
STRT.FT               460.0000: 
STOP.FT              1509.0000: 
STEP.FT                 0.2500: 
NULL.                -999.2500: 
COMP.          Pioneer Natural Resources: COMPANY
WELL.           Amore 32-09 Tr: WELL
FLD.           Purgatoire River: FIELD
LOC.           1941' FNL & 2297' FEL: LOCATION
PROV.                 Colorado: PROVINCE
CNTY.               Las Animas: COUNTRY
SRVC.                Patterson: SERVICE COMPANY
DATE.          Mon Nov 14 11:07:52 2005: LOG DATE
UWI.           05 071 08584 00: UNIQUE WELL ID
~Curve Information Block
DEPT.FT            0 000 00 00: Depth
SN.Ohm-m                      : IEL Short Normal
SP.mV                         : IEL Spontaneous Potential
DIR.Ohm-m                     : IEL Induction Resistivity
GR.GAPI                       : Gamma Ray
~Parameter Information Block
~A  Depth        SN          SP         DIR          GR     
# ...
  1331.0000     12.2710    126.5311 100000.0000    133.8415
  1331.2500     12.0974    129.3540 100000.0000    131.8358
  1331.5000     12.0299    131.0429 100000.0000    130.8842
  1331.7500     12.1277    131.7866 100000.0000    131.6934
  1332.0000     12.4852    132.1066 100000.0000    134.4970
  1332.2500     13.0702    132.4562 100000.0000    136.8363
  1332.5000     13.7460    132.9787 100000.0000    139.4302
  1332.7500     14.3998    133.5849 100000.0000    139.3785
  1333.0000     14.9424    134.1468 100000.0000    135.4117
  1333.2500     15.3272    134.6030 100000.0000    130.6404
  1333.5000     15.6105    134.9509 100000.0000    123.2311
  1333.7500     15.8636    135.2056 100000.0000    120.2605
  1334.0000     16.0612    135.3787 100000.0000    120.9437
  1334.2500     16.1329    135.4821 100000.0000    124.5770
  1334.5000     16.0634    135.5422 100000.0000    132.5497
  1334.7500     15.8691    135.6057     84.0494    138.2674
  1335.0000     15.5286    135.7275     41.2620    146.3385
  1335.2500     14.9919    135.9468     29.0536    150.9000
  1335.5000     14.2131    136.2714     23.5388    154.9918
  1335.7500     13.2140    136.6797     20.1858    155.0876
  1336.0000     12.1410    137.1365     17.5176    151.9556
  1336.2500     11.2205    137.6042     15.1508    149.3264
  1336.5000     10.7080    138.0443     13.1525    147.3074
  1336.7500     10.7944    138.4193     11.6223    147.6574
  1337.0000     11.3982    138.7028     10.5464    149.5203
  1337.2500     12.1653    138.8919      9.8334    150.6600
  1337.5000     12.7511    139.0070      9.3771    151.1231
  1337.7500     13.0269    139.0792      9.0944    150.4615
  1338.0000     13.0401    139.1318      8.9395    148.4246
  1338.2500     12.8833    139.1707      8.9000    146.7881
  1338.5000     12.6163    139.1875      8.9821    144.6869
  1338.7500     12.2665    139.1718      9.1915    143.9748
  1339.0000     11.8894    139.1245      9.5175    144.5120
  1339.2500     11.5748    139.0591      9.9267    145.9740
  1339.5000     11.3710    138.9888     10.3687    149.3605
  1339.7500     11.2711    138.9159     10.7925    152.0400
  1340.0000     11.2665    138.8356     11.1646    156.0261
  1340.2500     11.3549    138.7479     11.4732    158.1606
  1340.5000     11.5091    138.6622     11.7200    159.5778
  1340.7500     11.6899    138.5941     11.9096    159.0495
  1341.0000     11.8716    138.5593     12.0469    156.7856
  1341.2500     12.0427    138.5681     12.1427    155.2444
  1341.5000     12.2064    138.6194     12.2155    154.0211
  1341.7500     12.3668    138.6966     12.2868    153.8136
  1342.0000     12.5044    138.7717     12.3716    153.5361
  1342.2500     12.5961    138.8169     12.4734    153.1521
  1342.5000     12.6660    138.8170     12.5857    152.6312
  1342.7500     12.7662    138.7706     12.6981    152.4959
  1343.0000     12.8863    138.6839     12.8011    152.3690
  1343.2500     12.9398    138.5663     12.8874    152.1201
  1343.5000     12.8744    138.4281     12.9498    151.3757
  1343.7500     12.7084    138.2794     12.9802    150.4581
  1344.0000     12.4300    138.1279     12.9713    147.6008
  1344.2500     11.9970    137.9779     12.9179    144.2349
  1344.5000     11.4835    137.8316     12.8149    137.2652
  1344.7500     11.1139    137.6921     12.6568    132.2409
  1345.0000     11.1181    137.5641     12.4409    126.0551
  1345.2500     11.5519    137.4527     12.1747    123.4694
  1345.5000     12.1929    137.3583     11.8789    121.5219
  1345.7500     12.6649    137.2727     11.5827    120.8557
  1346.0000     12.7433    137.1838     11.3152    120.4358
  1346.2500     12.5086    137.0844     11.0967    120.9925
  1346.5000     12.1668    136.9791     10.9356    123.8239
  1346.7500     11.8139    136.8810     10.8286    126.9391
  1347.0000     11.4305    136.8005     10.7636    132.5218
  1347.2500     11.0433    136.7363     10.7205    136.0478
  1347.5000     10.7924    136.6750     10.6726    139.3747
  1347.7500     10.7863    136.5967     10.5908    139.4930
  1348.0000     10.9458    136.4835     10.4561    136.3880
  1348.2500     11.0962    136.3276     10.2722    132.8452
  1348.5000     11.1895    136.1354     10.0655    127.2629
  1348.7500     11.3199    135.9254      9.8695    124.4020
  1349.0000     11.5488    135.7173      9.7084    122.1330
  1349.2500     11.8089    135.5171      9.5889    121.6735
  1349.5000     11.9609    135.3100      9.5064    121.6903
  1349.7500     11.9126    135.0709      9.4539    121.9443
  1350.0000     11.6558    134.7802      9.4281    122.7839
  1350.2500     11.2314    134.4367      9.4284    123.6999
  1350.5000     10.7254    134.0590      9.4519    125.4217
  1350.7500     10.2259    133.6788      9.4905    126.4972
  1351.0000      9.7794    133.3281      9.5344    127.3927
  1351.2500      9.4511    133.0306      9.5782    127.3182
  1351.5000      9.3445    132.7994      9.6236    126.1630
  1351.7500      9.4878    132.6396      9.6765    124.6889
  1352.0000      9.7580    132.5498      9.7396    121.5041
  1352.2500      9.9912    132.5222      9.8090    119.0307
  1352.5000     10.1529    132.5450      9.8770    115.6394
  1352.7500     10.3430    132.6069      9.9410    113.8998
  1353.0000     10.6143    132.6999     10.0094    111.8446
  1353.2500     10.8819    132.8201     10.0986    110.6055
  1353.5000     11.0544    132.9682     10.2225    109.3945
  1353.7500     11.1200    133.1485     10.3814    109.7427
  1354.0000     11.1662    133.3639     10.5597    112.6262
  1354.2500     11.3560    133.6099     10.7315    115.6927
  1354.5000     11.7690    133.8721     10.8733    120.6806
  1354.7500     12.3257    134.1291     10.9754    123.7645
  1355.0000     12.8968    134.3599     11.0468    127.7728
  1355.2500     13.3852    134.5517     11.1082    129.9260
  1355.5000     13.7411    134.7032     11.1771    132.0717
  1355.7500     13.9688    134.8216     11.2559    132.8300
  1356.0000     14.0860    134.9170     11.3279    134.0128
  1356.2500     14.0978    134.9987     11.3655    135.8416
  1356.5000     14.0568    135.0738     11.3429    141.2034
  1356.7500     14.0504    135.1486     11.2504    146.0396
  1357.0000     14.0651    135.2276     11.1004    152.5649
  1357.2500     13.9342    135.3115     10.9236    154.7770
  1357.5000     13.4684    135.3969     10.7555    153.7871
  1357.7500     12.6507    135.4810     10.6228    151.0099
  1358.0000     11.6845    135.5669     10.5374    146.4385
  1358.2500     10.8495    135.6639     10.4981    144.5843
  1358.5000     10.3519    135.7796     10.4979    144.2470
  1358.7500     10.2891    135.9118     10.5287    144.8916
  1359.0000     10.6110    136.0486     10.5821    145.3373
  1359.2500     11.0932    136.1750     10.6474    144.7706
  1359.5000     11.4740    136.2782     10.7092    143.0445
  1359.7500     11.6527    136.3483     10.7497    141.8423
  1360.0000     11.7349    136.3783     10.7525    140.3607
  1360.2500     11.8404    136.3694     10.7084    139.4739
  1360.5000     11.9263    136.3344     10.6189    138.1528
  1360.7500     11.9160    136.2945     10.4965    137.3463
  1361.0000     11.8762    136.2691     10.3593    136.0839
  1361.2500     11.9252    136.2669     10.2243    134.8419
  1361.5000     12.0466    136.2840     10.1020    132.1585
  1361.7500     12.1047    136.3091      9.9974    130.3526
  1362.0000     12.0215    136.3313      9.9131    129.1583
  1362.2500     11.8243    136.3452      9.8524    129.9386
  1362.5000     11.5396    136.3501      9.8169    133.2125
  1362.7500     11.1553    136.3463      9.8031    136.1752
  1363.0000     10.6958    136.3316      9.8003    140.8003
  1363.2500     10.2684    136.3013      9.7931    143.6419
  1363.5000      9.9889    136.2511      9.7644    146.8957
  1363.7500      9.8765    136.1792      9.7005    147.9432
  1364.0000      9.8521    136.0858      9.5957    147.5906
  1364.2500      9.8294    135.9710      9.4556    146.5392
