~Version Information
VERS.                      2.0: CWLS Log ASCII Standard - VERSION 2.0
WRAP.                       NO: One line per depth step
~Well Information Block
STRT.FT                -8.2500: 
STOP.FT              1580.5000: 
STEP.FT                 0.2500: 
NULL.                -999.2500: 
COMP.          Pioneer Natural Resources: COMPANY
WELL.          Daytona 31-14 Tr: WELL
FLD.           Purgatorie River: FIELD
LOC.           683' FNL & 1943' FEL--: LOCATION
CNTY.               Las Animas: COUNTY
SRVC.          Patterson Wireline: SERVICE COMPANY
DATE.          Thu Feb 02 08:47:22 2006: LOG DATE
UWI.           05 071 08681 00: UNIQUE WELL ID
STAT.                       CO: STATE
~Curve Information Block
DEPT.FT            0 000 00 00: Depth
CCL.                          : Casing Collar Locator
TT3.usec                      : CBL 3' Travel Time
AMP3.mV                       : CBL 3' Amplitude
GR.GAPI                       : Gamma Ray
~Parameter Information Block
~A  Depth       CCL         TT3         AMP3         GR     
# ...
  1130.7500      0.0000    657.2039      4.4572    145.9484
  1131.0000      0.0000    654.8261      4.3948    141.3693
  1131.2500      0.0000    654.1379      4.4082    133.5712
  1131.5000      0.0000    653.5082      4.4329    125.3129
  1131.7500      0.0000    653.8585      4.4496    118.1852
  1132.0000      0.0000    659.1866      4.4828    112.5706
  1132.2500      0.0000    672.7576      4.5403    108.7212
  1132.5000      0.0000    693.9144      4.5952    107.2201
  1132.7500      0.0000    718.9323      4.6270    108.3668
  1133.0000      0.0000    742.5443      4.6632    111.5805
  1133.2500      0.0000    757.8878      4.7752    115.9385
  1133.5000      0.0000    758.5728      5.0144    121.2030
  1133.7500      0.0000    743.9375      5.3306    127.5981
  1134.0000      0.0000    721.0922      5.5738    134.3374
  1134.2500      0.0000    699.5585      5.6188    139.2883
  1134.5000      0.0000    683.6578      5.4807    140.9082
  1134.7500      0.0000    670.3588      5.2804    139.9285
  1135.0000      0.0000    653.6195      5.1201    138.2061
  1135.2500      0.0000    630.4210      5.0201    136.3829
  1135.5000      0.0000    603.2574      4.9529    133.7811
  1135.7500      0.0000    577.4135      4.8943    130.2813
  1136.0000      0.0000    556.4515      4.8405    127.1623
  1136.2500      0.0000    540.6183      4.7968    126.0162
  1136.5000      0.0000    528.4172      4.7644    127.5863
  1136.7500      0.0000    518.5104      4.7376    131.5490
  1137.0000      0.0000    510.6808      4.7091    136.7078
  1137.2500      0.0000    505.9230      4.6764    141.4259
  1137.5000      0.0000    505.3240      4.6429    144.3693
  1137.7500      0.0000    508.4835      4.6164    145.0589
  1138.0000      0.0000    513.4326      4.6053    143.8436
  1138.2500      0.0000    518.4803      4.6156    141.6373
  1138.5000      0.0000    524.1124      4.6432    139.6408
  1138.7500      0.0000    533.4081      4.6655    138.7103
  1139.0000      0.0000    550.6186      4.6441    138.4557
  1139.2500      0.0000    578.2891      4.5435    137.1395
  1139.5000      0.0000    614.5845      4.3527    132.8424
  1139.7500      0.0000    653.4500      4.0886    124.7993
  1140.0000      0.0000    687.8965      3.7822    113.8170
  1140.2500      0.0000    713.3322      3.4648    101.7943
  1140.5000      0.0000    728.4860      3.1630     90.8051
  1140.7500      0.0000    734.5723      2.8968     81.9800
  1141.0000      0.0000    734.0439      2.6768     74.7950
  1141.2500      0.0000    729.5546      2.5030     67.6525
  1141.5000      0.0000    723.7219      2.3670     59.6418
  1141.7500      0.0000    719.4731      2.2569     51.9182
  1142.0000      0.0000    719.5339      2.1644     47.1994
  1142.2500      0.0000    724.7321      2.0895     47.6028
  1142.5000      0.0000    733.1142      2.0431     52.6559
  1142.7500      0.0000    741.3900      2.0422     59.3076
  1143.0000      0.0000    747.2863      2.0992     64.1039
  1143.2500      0.0000    750.5055      2.2103     65.7870
  1143.5000      0.0000    751.9553      2.3574     66.0290
  1143.7500      0.0000    752.5985      2.5219     67.6205
  1144.0000      0.0000    752.9301      2.6982     71.8032
  1144.2500      0.0000    753.0966      2.8911     77.2254
  1144.5000      0.0000    753.1751      3.1024     81.4429
  1144.7500      0.0000    753.2753      3.3274     83.4194
  1145.0000      0.0000    753.4702      3.5603     84.4837
  1145.2500      0.0000    753.7505      3.7984     86.8147
  1145.5000      0.0000    754.0620      4.0381     91.3419
  1145.7500      0.0000    754.3137      4.2717     97.4726
  1146.0000      0.0000    754.3148      4.4876    104.4427
  1146.2500      0.0000    753.6885      4.6673    112.0022
  1146.5000      0.0000    751.7573      4.7865    119.6131
  1146.7500      0.0000    747.4990      4.8337    125.8037
  1147.0000      0.0000    739.6165      4.8273    129.0133
  1147.2500      0.0000    727.0857      4.8005    128.9143
  1147.5000      0.0000    710.6076      4.7687    126.5888
  1147.7500      0.0000    693.9084      4.7211    123.4447
  1148.0000      0.0000    682.1762      4.6460    120.0264
  1148.2500      0.0000    677.8477      4.5532    115.8372
  1148.5000      0.0000    678.7660      4.4674    110.3846
  1148.7500      0.0000    681.2989      4.4053    104.3122
  1149.0000      0.0000    683.9886      4.3650     99.2785
  1149.2500      0.0000    687.4934      4.3392     96.8897
  1149.5000      0.0000    692.2668      4.3269     97.9790
  1149.7500      0.0000    697.2129      4.3273    102.4425
  1150.0000      0.0000    700.2590      4.3313    109.1072
  1150.2500      0.0000    700.0104      4.3270    116.0533
  1150.5000      0.0000    697.2471      4.3105    121.8959
  1150.7500      0.0000    694.8331      4.2865    126.6350
  1151.0000      0.0000    695.5554      4.2619    130.5544
  1151.2500      0.0000    699.8968      4.2414    132.8017
  1151.5000      0.0000    706.0301      4.2271    132.2465
  1151.7500      0.0000    711.6889      4.2195    129.5343
  1152.0000      0.0000    715.4838      4.2180    127.0337
  1152.2500      0.0000    716.8274      4.2216    126.4933
  1152.5000      0.0000    715.6449      4.2311    127.6906
  1152.7500      0.0000    712.4874      4.2502    129.4861
  1153.0000      0.0000    708.5219      4.2808    131.0685
  1153.2500      0.0000    705.1315      4.3158    131.9376
  1153.5000      0.0000    703.3490      4.3398    131.8898
  1153.7500      0.0000    703.6220      4.3391    131.5375
  1154.0000      0.0000    706.0784      4.3149    131.9775
  1154.2500      0.0000    710.5095      4.2872    133.5771
  1154.5000      0.0000    715.6412      4.2812    135.5961
  1154.7500      0.0000    719.2354      4.3079    137.1329
  1155.0000      0.0000    720.2911      4.3575    138.2414
  1155.2500      0.0000    720.9073      4.4102    140.1376
  1155.5000      0.0000    724.4895      4.4500    144.1500
  1155.7500      0.0000    731.9850      4.4698    150.4051
  1156.0000      0.0000    740.8615      4.4718    157.7985
  1156.2500      0.0000    747.6877      4.4625    165.0790
  1156.5000      0.0000    750.5635      4.4461    171.2877
  1156.7500      0.0000    749.2022      4.4220    175.2342
  1157.0000      0.0000    744.0823      4.3890    175.5216
  1157.2500      0.0000    736.2280      4.3520    171.5436
  1157.5000      0.0000    727.1099      4.3244    164.0896
  1157.7500      0.0000    717.9708      4.3216    154.7662
  1158.0000      0.0000    709.3128      4.3495    145.0496
  1158.2500      0.0000    701.2740      4.3997    135.8692
  1158.5000      0.0000    694.3483      4.4556    127.6630
  1158.7500      0.0000    689.6641      4.5042    120.7022
  1159.0000      0.0000    688.7414      4.5417    115.6857
  1159.2500      0.0000    692.8869      4.5705    113.8079
  1159.5000      0.0000    702.2122      4.5924    115.6663
  1159.7500      0.0000    714.7601      4.6056    120.1734
  1160.0000      0.0000    726.8130      4.6062    124.8983
  1160.2500      0.0000    734.8091      4.5926    127.4314
  1160.5000      0.0000    737.5605      4.5670    126.5064
  1160.7500      0.0000    736.9017      4.5322    122.5656
  1161.0000      0.0000    735.8923      4.4864    117.7042
  1161.2500      0.0000    735.9971      4.4281    114.3687
  1161.5000      0.0000    736.0229      4.3661    113.1674
  1161.7500      0.0000    734.0132      4.3228    111.9958
  1162.0000      0.0000    729.8773      4.3212    107.8998
  1162.2500      0.0000    725.8695      4.3678     99.8902
  1162.5000      0.0000    724.4199      4.4477     89.6994
  1162.7500      0.0000    725.4962      4.5354     80.1132
  1163.0000      0.0000    726.3506      4.6062     73.1321
  1163.2500      0.0000    724.0577      4.6398     69.4013
  1163.5000      0.0000    717.9195      4.6237     68.4695
  1163.7500      0.0000    709.5715      4.5645     69.0942
  1164.0000      0.0000    702.0515      4.4970     69.5273
