~Version Information
VERS.                      2.0: CWLS Log ASCII Standard - VERSION 2.0
WRAP.                       NO: One line per depth step
~Well Information Block
STRT.FT               555.0000: 
STOP.FT              2322.2000: 
STEP.FT                 0.1000: 
NULL.                -999.2500: 
COMP.          Pioneer Natural Resources: COMPANY
WELL.          Fittipaldi 21-12: WELL
FLD.           Purgatoire River: FIELD
LOC.           207' FNL & 2110' FWL--: LOCATION
CNTY.               Las Animas: COUNTY
SRVC.                Patterson: SERVICE COMPANY
DATE.          Wed Mar 22 07:11:06 2006: LOG DATE
UWI.           05 071 08492 00: UNIQUE WELL ID
STAT.                 Colorado: STATE
~Curve Information Block
DEPT.FT            0 000 00 00: Depth
DCAL.in                       : CDL Caliper
RHOB.g/cc                     : CDL Bulk Density
RHOC.g/cc                     : CDL Density Correction
DPOR.pu                       : CDL Density Porosity
NPOR.pu                       : Neutron Porosity
GR.GAPI                       : Gamma Ray
~Parameter Information Block
~A  Depth       DCAL        RHOB        RHOC        DPOR        NPOR         GR     
# ...
  1131.0000      8.0884      2.0387     -0.0197     37.0469     18.5707    121.0750
  1131.1000      8.0884      2.0613      0.0249     35.6794     16.6149    120.8323
  1131.2000      8.0884      2.1053      0.1261     33.0132     14.8716    116.7063
  1131.3000      8.1011      2.1574      0.1467     29.8572     13.8200    113.8007
  1131.4000      8.1011      2.2110      0.1245     26.6041     13.8463    115.9740
  1131.5000      8.1161      2.2609      0.1595     23.5833     14.5669    121.9220
  1131.6000      8.1161      2.2895      0.1719     21.8494     15.2519    128.1312
  1131.7000      8.1161      2.2933      0.0704     21.6165     15.8584    130.9537
  1131.8000      8.1388      2.2908      0.0872     21.7698     16.4150    129.8745
  1131.9000      8.1388      2.2914      0.0390     21.7304     16.6573    128.2618
  1132.0000      8.1616      2.2970      0.0669     21.3953     16.6879    127.2319
  1132.1000      8.1616      2.3156      0.0437     20.2655     16.9568    125.7209
  1132.2000      8.1616      2.3489      0.1123     18.2508     17.4402    124.0048
  1132.3000      8.1734      2.3852      0.0720     16.0510     17.8059    121.1373
  1132.4000      8.1734      2.4202      0.1090     13.9274     18.1563    116.7332
  1132.5000      8.1778      2.4544      0.1232     11.8524     18.6342    114.5583
  1132.6000      8.1778      2.4840      0.1199     10.0583     19.0809    116.6883
  1132.7000      8.1778      2.5073      0.1244      8.6477     19.3379    118.8971
  1132.8000      8.1792      2.5255      0.1542      7.5460     19.5622    117.1796
  1132.9000      8.1792      2.5375      0.1231      6.8160     19.9493    113.6735
  1133.0000      8.1786      2.5374      0.1191      6.8216     20.4722    110.5141
  1133.1000      8.1786      2.5211      0.0637      7.8123     21.0561    109.0089
  1133.2000      8.1786      2.5060      0.0212      8.7254     21.6901    109.9677
  1133.3000      8.1757      2.5138      0.0372      8.2535     22.1167    110.5509
  1133.4000      8.1757      2.5402      0.0515      6.6569     22.2708    107.2042
  1133.5000      8.1698      2.5673      0.0754      5.0092     22.6493    101.9702
  1133.6000      8.1698      2.5910      0.0052      3.5768     23.3678     99.2289
  1133.7000      8.1698      2.6106      0.0834      2.3883     23.8952     99.8992
  1133.8000      8.1626      2.6134      0.0620      2.2167     23.9260    102.1791
  1133.9000      8.1626      2.5992      0.0442      3.0792     23.6409    104.6286
  1134.0000      8.1622      2.5787      0.0639      4.3212     23.4232    107.7534
  1134.1000      8.1622      2.5608      0.0273      5.4073     23.5827    109.6928
  1134.2000      8.1622      2.5558      0.0476      5.7114     23.9254    106.7569
  1134.3000      8.1670      2.5555      0.0461      5.7249     24.1789     99.9684
  1134.4000      8.1670      2.5382      0.0429      6.7775     24.3588     96.6271
  1134.5000      8.1723      2.5018      0.0156      8.9808     24.5243    101.7772
  1134.6000      8.1723      2.4758     -0.0569     10.5550     24.7697    111.2958
  1134.7000      8.1723      2.4885     -0.0094      9.7887     24.9838    117.4923
  1134.8000      8.1776      2.5282      0.0165      7.3824     24.8748    118.8937
  1134.9000      8.1776      2.5653      0.0752      5.1319     24.6218    118.8207
  1135.0000      8.1819      2.5907      0.0694      3.5940     24.5472    117.5582
  1135.1000      8.1819      2.6128      0.0493      2.2571     24.6953    115.1090
  1135.2000      8.1819      2.6309      0.1156      1.1588     25.0127    114.2730
  1135.3000      8.1877      2.6410      0.0690      0.5450     25.2842    116.1096
  1135.4000      8.1877      2.6505      0.0961     -0.0291     25.3888    118.9335
  1135.5000      8.1983      2.6642      0.0946     -0.8618     25.4745    119.1885
  1135.6000      8.1983      2.6824      0.1462     -1.9630     25.5244    116.3188
  1135.7000      8.1983      2.6950      0.1800     -2.7252     25.3969    113.8144
  1135.8000      8.2058      2.6867      0.1469     -2.2232     25.0510    110.7590
  1135.9000      8.2058      2.6604      0.0363     -0.6328     24.5116    106.4597
  1136.0000      8.2062      2.6290      0.0640      1.2746     23.9636    105.6771
  1136.1000      8.2062      2.5961      0.0290      3.2685     23.4326    109.2420
  1136.2000      8.2062      2.5677      0.0150      4.9906     22.9788    111.9088
  1136.3000      8.2034      2.5474      0.0399      6.2189     22.6652    110.7704
  1136.4000      8.2034      2.5323      0.0310      7.1315     22.2811    107.5473
  1136.5000      8.1992      2.5285      0.0192      7.3637     21.8332    104.9068
  1136.6000      8.1992      2.5409      0.0574      6.6147     21.5799    104.4997
  1136.7000      8.1992      2.5533      0.0852      5.8590     21.7054    107.0919
  1136.8000      8.1891      2.5445      0.0727      6.3958     22.0898    110.7376
  1136.9000      8.1891      2.5175      0.0574      8.0332     22.3523    111.0902
  1137.0000      8.1705      2.4933      0.0042      9.4985     22.4295    107.1507
  1137.1000      8.1705      2.4840      0.0298     10.0617     22.6725    102.3997
  1137.2000      8.1705      2.4850      0.0209     10.0003     23.2993     99.8827
  1137.3000      8.1484      2.4879      0.0218      9.8261     24.1046    101.6538
  1137.4000      8.1484      2.4901      0.0416      9.6939     24.5473    107.3961
  1137.5000      8.1207      2.4997      0.0029      9.1066     24.3316    111.9417
  1137.6000      8.1207      2.5179      0.0735      8.0071     23.7755    110.8405
  1137.7000      8.1207      2.5275      0.0743      7.4272     23.4633    107.7582
  1137.8000      8.0892      2.5285      0.0428      7.3639     23.7255    109.4508
  1137.9000      8.0892      2.5376      0.0588      6.8122     24.1555    114.5957
  1138.0000      8.0677      2.5498      0.1056      6.0701     24.1953    116.4509
  1138.1000      8.0677      2.5502      0.0763      6.0486     24.0008    114.0931
  1138.2000      8.0677      2.5439      0.0325      6.4329     23.9076    112.8184
  1138.3000      8.0608      2.5409      0.0617      6.6108     23.8954    115.2665
  1138.4000      8.0608      2.5428      0.0484      6.4961     23.8761    118.6845
  1138.5000      8.0605      2.5444      0.0487      6.3974     23.9484    119.8103
  1138.6000      8.0605      2.5388      0.0342      6.7370     24.0317    118.4490
  1138.7000      8.0605      2.5344     -0.0053      7.0042     24.0100    115.3389
  1138.8000      8.0637      2.5510      0.0121      6.0012     24.0580    110.8404
  1138.9000      8.0637      2.5881      0.0896      3.7542     24.2246    107.4973
  1139.0000      8.0706      2.6244      0.0616      1.5521     24.3835    108.9022
  1139.1000      8.0706      2.6467      0.0340      0.1997     24.6573    114.3785
  1139.2000      8.0706      2.6564      0.0644     -0.3854     25.1999    117.7748
  1139.3000      8.0729      2.6590      0.0476     -0.5428     25.6066    115.7243
  1139.4000      8.0729      2.6497      0.0725      0.0197     25.5231    111.6778
  1139.5000      8.0595      2.6168      0.0262      2.0130     25.3836    108.4209
  1139.6000      8.0595      2.5693      0.0256      4.8930     25.8307    105.4336
  1139.7000      8.0595      2.5375     -0.0216      6.8211     26.6815    101.4068
  1139.8000      8.0398      2.5379     -0.0354      6.7914     27.1693     98.7325
  1139.9000      8.0398      2.5483      0.0244      6.1656     27.1370    102.5312
  1140.0000      8.0391      2.5397     -0.0057      6.6870     26.9499    111.4080
  1140.1000      8.0391      2.5165     -0.0362      8.0881     26.7121    117.8370
  1140.2000      8.0391      2.5012     -0.0096      9.0193     26.3399    118.2180
  1140.3000      8.0530      2.5113     -0.0241      8.4034     25.8737    115.9754
  1140.4000      8.0530      2.5489      0.0780      6.1278     25.3825    115.8065
  1140.5000      8.0526      2.5923      0.1328      3.4960     25.0499    116.8059
