~Version Information
VERS.                      2.0: CWLS Log ASCII Standard - VERSION 2.0
WRAP.                       NO: One line per depth step
~Well Information Block
STRT.FT               428.8000: 
STOP.FT               951.7000: 
STEP.FT                 0.1000: 
NULL.                -999.2500: 
COMP.          Pioneer Natural Resources: COMPANY
WELL.          Sculpin 32-30 Tr: WELL
FLD.           Purgatoire River: FIELD
LOC.           1600' FNL & 1857' FEL--: LOCATION
CNTY.               Las Animas: COUNTY
SRVC.                Patterson: SERVICE COMPANY
DATE.          Wed Jul 19 09:12:32 2006: LOG DATE
UWI.           05 071 08706 00: UNIQUE WELL ID
STAT.                 Colorado: STATE
~Curve Information Block
DEPT.FT            0 000 00 00: Depth
DCAL.in                       : CDL Caliper
RHOB.g/cc                     : CDL Bulk Density
RHOC.g/cc                     : CDL Density Correction
DPOR.pu                       : CDL Density Porosity
GR.GAPI                       : Gamma Ray
~Parameter Information Block
~A  Depth       DCAL        RHOB        RHOC        DPOR         GR     
# ...
   764.8000      7.9750      2.6291      0.0337      1.2637    121.0807
   764.9000      7.9750      2.6318      0.0225      1.1055    114.8030
   765.0000      7.9719      2.6537      0.0731     -0.2258    110.4519
   765.1000      7.9719      2.6706      0.0958     -1.2510    111.4033
   765.2000      7.9719      2.6632      0.0895     -0.7982    117.3263
   765.3000      7.9616      2.6472      0.0406      0.1714    123.9320
   765.4000      7.9616      2.6425      0.0807      0.4571    126.0104
   765.5000      7.9469      2.6421      0.1026      0.4808    123.6799
   765.6000      7.9469      2.6393      0.0843      0.6490    121.5079
   765.7000      7.9469      2.6452      0.0505      0.2901    120.7779
   765.8000      7.9394      2.6575      0.1003     -0.4523    120.3281
   765.9000      7.9394      2.6565      0.0999     -0.3917    121.2287
   766.0000      7.9439      2.6351      0.0450      0.9026    122.8180
   766.1000      7.9439      2.6004      0.0529      3.0081    121.5752
   766.2000      7.9439      2.5656     -0.0323      5.1172    117.9717
   766.3000      7.9523      2.5446      0.0093      6.3900    116.8828
   766.4000      7.9523      2.5360      0.0683      6.9061    119.2029
   766.5000      7.9575      2.5381      0.0217      6.7813    122.4568
   766.6000      7.9575      2.5487      0.0788      6.1424    127.4516
   766.7000      7.9575      2.5522      0.0826      5.9255    135.1367
   766.8000      7.9638      2.5442      0.0509      6.4102    141.3812
   766.9000      7.9638      2.5375      0.0528      6.8185    141.7401
   767.0000      7.9735      2.5403      0.0765      6.6489    138.8338
   767.1000      7.9735      2.5468      0.0859      6.2518    139.2696
   767.2000      7.9735      2.5485      0.1010      6.1533    141.8761
   767.3000      7.9811      2.5504      0.0574      6.0386    141.9685
   767.4000      7.9811      2.5613      0.1387      5.3776    139.3907
   767.5000      7.9817      2.5739      0.1052      4.6120    135.1154
   767.6000      7.9817      2.5799      0.1101      4.2461    131.0320
   767.7000      7.9817      2.5775      0.1073      4.3912    128.5229
   767.8000      7.9790      2.5698      0.0674      4.8629    127.6115
   767.9000      7.9790      2.5685      0.0668      4.9390    126.9162
   768.0000      7.9791      2.5872      0.0511      3.8049    126.4541
   768.1000      7.9791      2.6227      0.1206      1.6543    128.4379
   768.2000      7.9791      2.6539      0.1152     -0.2344    129.2488
   768.3000      7.9753      2.6800      0.0699     -1.8205    124.7044
   768.4000      7.9753      2.7168      0.1070     -4.0484    118.6536
   768.5000      7.9657      2.7581      0.1061     -6.5512    114.7394
   768.6000      7.9657      2.7826      0.1064     -8.0357    111.8522
   768.7000      7.9657      2.7784      0.1019     -7.7832    110.2936
   768.8000      7.9553      2.7498      0.0905     -6.0508    109.8384
   768.9000      7.9553      2.7140      0.0553     -3.8779    108.2014
   769.0000      7.9477      2.6898     -0.0067     -2.4129    104.1778
   769.1000      7.9477      2.6788     -0.0052     -1.7481     96.9965
   769.2000      7.9477      2.6711     -0.0246     -1.2776     89.9256
   769.3000      7.9522      2.6652     -0.0060     -0.9217     88.9870
   769.4000      7.9522      2.6646     -0.0367     -0.8860     95.8261
   769.5000      7.9681      2.6650     -0.0071     -0.9076    105.7915
   769.6000      7.9681      2.6546      0.0272     -0.2799    110.1734
   769.7000      7.9681      2.6385      0.0070      0.6976    107.2826
   769.8000      7.9734      2.6338      0.0570      0.9806    157.7872
   769.9000      7.9734      2.6407      0.0711      0.5608    160.6907
   770.0000      7.9630      2.6485      0.0657      0.0910    163.3653
   770.1000      7.9630      2.6480      0.0577      0.1182    161.7418
   770.2000      7.9630      2.6353      0.0579      0.8916    158.2832
   770.3000      7.9478      2.6202      0.0253      1.8082    155.0484
   770.4000      7.9478      2.6162      0.0590      2.0477    149.9455
   770.5000      7.9357      2.6198      0.0424      1.8332    142.4353
   770.6000      7.9357      2.6201      0.0559      1.8131    136.4577
   770.7000      7.9357      2.6102      0.0671      2.4095    135.7188
   770.8000      7.9291      2.5939      0.0309      3.3995    136.1682
   770.9000      7.9291      2.5868      0.0274      3.8320    134.8200
   771.0000      7.9277      2.5902      0.0673      3.6216    136.1971
   771.1000      7.9277      2.5932      0.0425      3.4405    141.5383
   771.2000      7.9277      2.5998      0.0647      3.0446    148.1504
   771.3000      7.9304      2.6168      0.0880      2.0112    153.5219
   771.4000      7.9304      2.6350      0.1374      0.9105    154.9974
   771.5000      7.9335      2.6457      0.0944      0.2635    152.1044
   771.6000      7.9335      2.6534      0.0904     -0.2085    146.9942
   771.7000      7.9335      2.6545      0.1230     -0.2726    141.1022
   771.8000      7.9361      2.6425      0.0565      0.4521    135.9454
   771.9000      7.9361      2.6285      0.0834      1.3049    132.7268
   772.0000      7.9382      2.6273      0.0147      1.3748    129.6226
   772.1000      7.9382      2.6441      0.0471      0.3585    125.8934
   772.2000      7.9382      2.6627      0.1008     -0.7683    126.3869
   772.3000      7.9383      2.6605      0.0780     -0.6356    133.4534
   772.4000      7.9383      2.6427      0.0257      0.4442    138.4131
   772.5000      7.9371      2.6339      0.0120      0.9780    135.1603
   772.6000      7.9371      2.6424      0.0616      0.4606    128.9786
   772.7000      7.9371      2.6533      0.0356     -0.2014    126.2285
   772.8000      7.9360      2.6486      0.0771      0.0822    126.8539
   772.9000      7.9360      2.6240      0.0347      1.5769    125.0750
   773.0000      7.9353      2.5894      0.0552      3.6757    119.2591
   773.1000      7.9353      2.5600     -0.0040      5.4521    116.5020
   773.2000      7.9353      2.5488     -0.0266      6.1333    121.4775
   773.3000      7.9353      2.5488      0.0160      6.1329    129.0989
   773.4000      7.9353      2.5442      0.0084      6.4150    133.3873
   773.5000      7.9351      2.5399      0.0239      6.6701    131.6240
   773.6000      7.9351      2.5500     -0.0062      6.0622    122.6611
   773.7000      7.9351      2.5728      0.0550      4.6773    114.2971
   773.8000      7.9344      2.5943      0.0453      3.3730    116.4317
   773.9000      7.9344      2.6028      0.0577      2.8603    123.6046
   774.0000      7.9341      2.5963      0.0379      3.2540    125.1907
   774.1000      7.9341      2.5870      0.0143      3.8179    120.7610
   774.2000      7.9341      2.5868      0.0382      3.8302    115.3997
   774.3000      7.9349      2.5914      0.0827      3.5526    112.9503
   774.4000      7.9349      2.5936      0.0248      3.4182    110.5939
   774.5000      7.9362      2.5954      0.0682      3.3116    106.0522
   774.6000      7.9362      2.6012      0.0615      2.9571    105.1326
   774.7000      7.9362      2.6091      0.0890      2.4801    110.6346
   774.8000      7.9346      2.6077      0.0816      2.5660    116.8288
   774.9000      7.9346      2.5923      0.0701      3.4960    121.1388
   775.0000      7.9263      2.5734      0.0481      4.6411    127.6629
   775.1000      7.9263      2.5647      0.0594      5.1672    136.0380
   775.2000      7.9263      2.5618      0.0925      5.3429    140.0516
   775.3000      7.9132      2.5482      0.0502      6.1678    137.3800
   775.4000      7.9132      2.5297      0.0307      7.2921    130.9185
   775.5000      7.9042      2.5290      0.0373      7.3303    122.1195
   775.6000      7.9042      2.5520      0.0384      5.9386    111.0302
   775.7000      7.9042      2.5773      0.1041      4.4062    100.4919
   775.8000      7.8980      2.5871      0.0758      3.8107     93.2423
   775.9000      7.8980      2.5815      0.1262      4.1499     90.1228
