~Version Information
VERS.                      2.0: CWLS Log ASCII Standard - VERSION 2.0
WRAP.                       NO: One line per depth step
~Well Information Block
STRT.FT                 0.5000: 
STOP.FT              2166.0000: 
STEP.FT                 0.2500: 
NULL.                -999.2500: 
COMP.          Pioneer Natural Resources: COMPANY
WELL.          Bear Cub Federal 11-23: WELL
FLD.           Purgatoire River: FIELD
LOC.           1225' FNL & 1268 ' FWL--: LOCATION
CNTY.               Las Animas: COUNTY
SRVC.                Patterson: SERVICE COMPANY
DATE.          Mon Jul 17 10:21:31 2006: LOG DATE
UWI.           05 071 08509 00: UNIQUE WELL ID
STAT.                 Colorado: STATE
~Curve Information Block
DEPT.FT            0 000 00 00: Depth
CCL.                          : Casing Collar Locator
TT3.usec                      : CBL 3' Travel Time
AMP3.mV                       : CBL 3' Amplitude
GR.GAPI                       : Gamma Ray
~Parameter Information Block
~A  Depth       CCL         TT3         AMP3         GR     
     0.5000   -999.2500   -999.2500   -999.2500    101.8219
     0.7500   -999.2500   -999.2500   -999.2500    100.7156
     1.0000   -999.2500   -999.2500   -999.2500    101.2410
     1.2500   -999.2500   -999.2500   -999.2500    103.2522
     1.5000   -999.2500   -999.2500   -999.2500    107.3959
     1.7500   -999.2500   -999.2500   -999.2500    110.2449
     2.0000   -999.2500   -999.2500   -999.2500    113.6467
     2.2500   -999.2500   -999.2500   -999.2500    114.2623
     2.5000   -999.2500   -999.2500   -999.2500    110.7619
     2.7500   -999.2500   -999.2500   -999.2500    105.3439
     3.0000   -999.2500   -999.2500   -999.2500     94.6180
     3.2500   -999.2500   -999.2500   -999.2500     87.5156
     3.5000   -999.2500   -999.2500   -999.2500     79.8270
     3.7500   -999.2500   -999.2500   -999.2500     78.1366
     4.0000   -999.2500   -999.2500   -999.2500     82.1397
     4.2500   -999.2500   -999.2500   -999.2500     88.6057
     4.5000   -999.2500   -999.2500   -999.2500    100.7772
     4.7500   -999.2500   -999.2500   -999.2500    108.4844
     5.0000   -999.2500   -999.2500   -999.2500    117.2960
     5.2500   -999.2500   -999.2500   -999.2500    120.6121
     5.5000   -999.2500   -999.2500   -999.2500    120.0550
     5.7500   -999.2500   1479.0000      1.3282    114.9187
     6.0000   -999.2500   1479.0000      1.3409    100.0128
     6.2500   -999.2500   1479.0000      1.3334     86.9636
     6.5000   -999.2500   1479.0000      1.3101     67.5865
     6.7500   -999.2500   1479.0000      1.2981     57.5182
     7.0000   -999.2500   1479.0000      1.2929     49.0426
     7.2500   -999.2500   1479.0000      1.2944     47.3518
     7.5000   -999.2500   1479.0000      1.2955     47.7246
     7.7500   -999.2500   1479.0000      1.2921     47.9878
     8.0000   -999.2500   1479.0000      1.2791     46.6171
     8.2500   -999.2500   1479.0000      1.2692     44.4720
     8.5000   -999.2500   1479.0000      1.2675     40.1400
     8.7500   -999.2500   1479.0000      1.2811     37.0787
     9.0000   -999.2500   1479.0000      1.3146     33.5477
     9.2500   -999.2500   1479.0000      1.3339     32.8769
     9.5000   -999.2500   1479.0000      1.3468     35.5109
     9.7500   -999.2500   1479.0000      1.3475     39.3884
    10.0000   -999.2500   1479.0000      1.3477     46.2346
    10.2500   -999.2500   1479.0000      1.3509     50.0912
    10.5000   -999.2500   1479.0000      1.3584     53.7444
    10.7500   -999.2500   1479.0000      1.3606     54.9223
    11.0000   -999.2500   1479.0000      1.3550     55.1585
    11.2500      0.0000   1479.0000      1.3474     54.2183
    11.5000      0.0000   1479.0000      1.3356     51.6807
    11.7500      0.0000   1479.0000      1.3268     50.5331
    12.0000      0.0000   1479.0000      1.3108     52.2256
    12.2500      0.0000   1479.0000      1.3027     55.8650
    12.5000      0.0000   1479.0000      1.3012     62.5875
    12.7500      0.0000   1479.0000      1.3046     66.0217
    13.0000      0.0000   1479.0000      1.3082     68.0169
    13.2500      0.0000   1479.0000      1.3106     67.3700
    13.5000      0.0000   1479.0000      1.3195     64.5580
    13.7500      0.0000   1479.0000      1.3260     62.3722
    14.0000      0.0000   1479.0000      1.3257     60.1303
    14.2500      0.0000   1479.0000      1.3187     59.7664
    14.5000      0.0000   1479.0000      1.3082     60.6592
    14.7500      0.0000   1479.0000      1.3043     61.6261
    15.0000      0.0000   1479.0000      1.3012     62.2913
    15.2500      0.0000   1479.0000      1.3014     61.5992
    15.5000      0.0000   1479.0000      1.3072     58.8125
    15.7500      0.0000   1479.0000      1.3123     56.3198
    16.0000      0.0000   1479.0000      1.3175     52.6614
    16.2500      0.0000   1478.9011      1.3255     50.6115
    16.5000      0.0000   1477.9183      1.3732     48.2687
    16.7500      0.0000   1475.0481      1.4705     47.1593
    17.0000      0.0000   1458.4332      1.9274     45.9777
    17.2500      0.0000   1427.5109      2.7057     45.3807
    17.5000      0.0000   1321.6444      5.2213     44.8432
    17.7500      0.0000   1197.7615      8.0689     45.0791
    18.0000      0.0000    942.5882     13.9431     47.1004
    18.2500      0.0000    757.2474     18.4668     49.6408
    18.5000      0.0000    522.3459     25.2232     54.4079
    18.7500      0.0000    416.6010     29.3179     57.4917
    19.0000      0.0000    329.5753     34.5077     61.1723
    19.2500      0.0000    302.8806     37.2763     62.8857
    19.5000      0.0000    284.1448     40.4668     64.3733
    19.7500      0.0000    277.7393     42.0251     64.6048
    20.0000      0.0000    272.1158     43.5859     63.7326
    20.2500      0.0000    270.1155     44.1651     62.4055
    20.5000      0.0000    268.7495     44.5493     59.9815
    20.7500      0.0000    268.4440     44.6317     58.9551
    21.0000      0.0000    268.3365     44.6617     60.1317
    21.2500      0.0000    268.3406     44.6412     63.1954
    21.5000      0.0000    268.3724     44.5246     69.9854
    21.7500      0.0000    268.4032     44.3902     74.4145
    22.0000      0.0000    268.4576     44.1572     78.6689
    22.2500      0.0000    268.4912     44.0164     79.8316
    22.5000      0.0000    268.5264     43.8480     81.1265
    22.7500      0.0000    268.5423     43.7560     83.0194
    23.0000      0.0000    268.5676     43.6278     87.3297
    23.2500      0.0000    268.5898     43.5351     89.7170
    23.5000      0.0000    268.6315     43.3508     90.3134
    23.7500      0.0000    268.6665     43.1847     88.8371
    24.0000      0.0000    268.7345     42.8942     85.8904
    24.2500      0.0000    268.7870     42.7105     84.5963
    24.5000      0.0000    268.8580     42.5181     84.5155
    24.7500      0.0000    268.8882     42.4707     85.6901
    25.0000      0.0000    268.9014     42.5209     88.7880
    25.2500      0.0000    268.8949     42.6027     91.3560
    25.5000      0.0000    268.8800     42.7010     95.4212
    25.7500      0.0000    268.8755     42.6993     97.9393
    26.0000      0.0000    268.8830     42.5723    100.6340
    26.2500      0.0000    268.8965     42.4277    101.4844
    26.5000      0.0000    268.9256     42.1798    102.0887
    26.7500      0.0000    268.9498     42.0240    102.8168
    27.0000      0.0000    268.9884     41.8424    104.8636
    27.2500      0.0000    269.0118     41.7618    106.4682
    27.5000      0.0000    269.0459     41.6701    108.5290
    27.7500      0.0000    269.0760     41.6018    109.6480
    28.0000      0.0000    269.1407     41.4729    111.1537
    28.2500      0.0000    269.1911     41.3763    111.9030
    28.5000      0.0000    269.2620     41.2106    111.7423
    28.7500      0.0000    269.3055     41.0680    110.1955
    29.0000      0.0000    269.3906     40.7853    105.8024
    29.2500      0.0000    269.4999     40.5555    102.3626
    29.5000      0.0000    270.0170     40.1301     97.9608
    29.7500      0.0000    271.0975     39.7221     95.6899
    30.0000      0.0000    275.6961     38.6615     92.7784
    30.2500      0.0000    282.2282     37.4476     91.1013
    30.5000      0.0000    298.2567     34.6071     89.4802
    30.7500      0.0000    311.2999     32.0775     89.3841
    31.0000      0.0000    327.6211     27.8096     91.0510
    31.2500      0.0000    332.9355     25.0459     93.1488
    31.5000      0.0000    332.2982     21.6063     96.6077
    31.7500      0.0000    328.7589     19.9674     98.3046
    32.0000      0.0000    323.5547     18.4618     99.3155
    32.2500      0.0000    321.6785     17.9134     99.4698
    32.5000      0.0000    322.6232     17.3924    100.6462
    32.7500      2.0000    326.8461     17.0951    102.5886
    33.0000      0.0000    340.6121     16.6837    106.5604
    33.2500      0.0000    354.0266     16.5450    109.2604
    33.5000      0.0000    372.5161     16.8679    112.9923
    33.7500      0.0000    376.9452     17.5503    115.2020
