~Version Information
 VERS.                                  2.0 : CWLS LAS VERSION
 WRAP.                                   NO : WRAPING MODE
 SWARE .                 MController 2.5.0N : SOFTWARE VERSION
~Well Information
 WELL.                       ALABASTER 11-8 : WELL
 COMP.    PIONEER NATURAL RESOURCES USA INC : COMPANY
 FLD.                      PURGATOIRE RIVER : FIELD
 LOC.                 NW/NW SEC 8 T33S R66W : LOCATION
 DATE.                             01/18/06 : DATE(S) LOGGED
 SRVC.       BLANCO GEOLOGICAL SERVICES LLC : SERVICE COMPANY
 STAT.                             COLORADO : STATE
 CNTY.                           LAS ANIMAS : COUNTY
 CTRY.                                  USA : COUNTRY
 API.                       05-071-08642-00 : API NUMBER
 STRT.FT                             555.00 : START DEPTH
 STOP.FT                            2045.00 : STOP DEPTH
 STEP.FT                               1.00 : DEPTH INCREMENT
 NULL.                                -9999 : NULL VALUE
~Curve information
 DEPTH.FT                                   :
 ROP.MIN/FT                                 :
 GAS.UNITS                                  :
~ASCII Log data
# ...
      1355.0         0.27         11.9 
      1356.0         0.27         12.1 
      1357.0         0.23         11.4 
      1358.0         0.27         11.8 
      1359.0         0.23         11.7 
      1360.0         0.23         11.7 
      1361.0         0.23         11.3 
      1362.0         0.20         11.4 
      1363.0         0.25         11.5 
      1364.0         0.20         11.3 
      1365.0         0.20         10.8 
      1366.0         0.23         10.7 
      1367.0         0.23         10.2 
      1368.0         0.20          9.8 
      1369.0         0.23         10.3 
      1370.0         0.27         10.4 
      1371.0         0.23         11.5 
      1372.0         0.23         12.3 
      1373.0         0.30         12.4 
      1374.0         0.23         12.1 
      1375.0         0.23         12.0 
      1376.0         1.75         18.8 
      1377.0         0.53          4.9 
      1378.0         0.27          4.8 
      1379.0         0.30          5.3 
      1380.0         0.30          4.9 
      1381.0         0.33          7.5 
      1382.0         0.30          9.3 
      1383.0         0.28         10.5 
      1384.0         0.30         11.7 
      1385.0         0.27         11.2 
      1386.0         0.27         10.9 
      1387.0         0.13         10.1 
      1388.0         0.23          9.5 
      1389.0         0.30         10.4 
      1390.0         0.20         10.7 
      1391.0         0.33         11.3 
      1392.0         0.33         12.7 
      1393.0         0.17         12.5 
      1394.0         0.17         12.4 
      1395.0         0.20         12.2 
      1396.0         0.32         12.1 
      1397.0         0.30         12.4 
      1398.0         0.23         12.5 
      1399.0         0.30         12.4 
      1400.0         0.20         12.4 
      1401.0         0.23         12.4 
      1402.0         0.23         11.9 
      1403.0         0.23         11.8 
      1404.0         0.30         12.4 
      1405.0         0.33         13.4 
      1406.0         1.92         17.2 
      1407.0         0.33          4.9 
      1408.0         0.17          4.8 
      1409.0         0.20          5.2 
      1410.0         0.27          7.9 
      1411.0         0.23          8.5 
      1412.0         0.23          9.5 
      1413.0         0.23         10.8 
      1414.0         0.23         11.9 
      1415.0         0.23         11.5 
      1416.0         0.25         11.2 
      1417.0         0.20         11.7 
      1418.0         0.20         12.6 
      1419.0         0.23         11.9 
      1420.0         0.20         12.4 
      1421.0         0.30         13.1 
      1422.0         0.23         13.7 
      1423.0         0.27         14.2 
      1424.0         0.20         14.3 
      1425.0         0.30         13.9 
      1426.0         0.30         13.7 
      1427.0         0.23         13.4 
      1428.0         0.23         12.9 
      1429.0         0.23         12.7 
      1430.0         0.15         12.4 
      1431.0         0.23         11.7 
      1432.0         0.23         10.7 
      1433.0         0.20         10.7 
      1434.0         0.23         10.8 
      1435.0         0.23         13.1 
      1436.0         2.32         19.5 
      1437.0         0.33          4.7 
      1438.0         0.20          6.5 
      1439.0         0.17          7.9 
      1440.0         0.20          8.7 
      1441.0         0.23          9.7 
      1442.0         0.20         10.4 
      1443.0         0.17         11.1 
      1444.0         0.17         11.0 
      1445.0         0.10         10.5 
      1446.0         0.13         10.3 
      1447.0         0.13         11.9 
      1448.0         0.17         12.3 
      1449.0         0.23         12.3 
      1450.0         0.20         11.4 
      1451.0         0.13         11.5 
      1452.0         0.17         11.7 
      1453.0         0.13         11.7 
      1454.0         0.12         11.8 
      1455.0         0.20         14.1 
      1456.0         0.20         15.7 
      1457.0         0.17         15.5 
      1458.0         0.17         11.6 
      1459.0         0.27         13.8 
      1460.0         0.43         13.3 
      1461.0         0.33         13.1 
      1462.0         0.17         13.0 
      1463.0         0.13         12.8 
      1464.0         0.10         12.4 
      1465.0         0.23         13.5 
      1466.0         0.70         20.2 
      1467.0         0.18          7.8 
      1468.0         0.27          6.1 
      1469.0         0.37          4.7 
      1470.0         0.37          4.7 
      1471.0         0.30          4.7 
      1472.0         0.27          5.3 
      1473.0         0.17          7.1 
      1474.0         0.13          8.1 
      1475.0         0.20          8.3 
      1476.0         0.23          8.6 
      1477.0         0.27          9.4 
      1478.0         0.30         10.1 
      1479.0         0.23         10.3 
      1480.0         0.25         11.2 
      1481.0         0.30         11.6 
      1482.0         0.33         11.7 
      1483.0         0.27         12.0 
      1484.0         0.33         13.1 
      1485.0         0.27         13.9 
      1486.0         0.30         13.9 
      1487.0         0.13         12.4 
      1488.0         0.17         12.5 
      1489.0         0.17         12.5 
      1490.0         0.17         12.1 
      1491.0         0.17         11.8 
      1492.0         0.13         11.8 
      1493.0         0.17         11.8 
      1494.0         0.13         12.1 
      1495.0         0.13         12.1 
      1496.0         1.82         19.0 
      1497.0         0.37          4.7 
      1498.0         0.30          4.5 
      1499.0         0.23          4.6 
      1500.0         0.23          4.5 
      1501.0         0.23          4.8 
      1502.0         0.20          6.0 
      1503.0         0.28          7.9 
      1504.0         0.23          8.8 
      1505.0         0.23         10.4 
      1506.0         0.20         10.4 
      1507.0         0.23         10.6 
      1508.0         0.20         10.3 
      1509.0         0.20         10.8 
      1510.0         0.23         11.4 
      1511.0         0.20         11.5 
      1512.0         0.23         11.9 
      1513.0         0.23         13.0 
      1514.0         0.27         13.8 
      1515.0         0.20         14.4 
      1516.0         0.30         14.5 
      1517.0         0.28         14.8 
      1518.0         0.23         13.8 
      1519.0         0.37         13.1 
      1520.0         0.23         12.7 
      1521.0         0.27         12.7 
      1522.0         0.33         11.7 
      1523.0         0.23         12.0 
      1524.0         0.27         12.0 
      1525.0         0.27         10.8 
      1526.0         2.82         16.5 
      1527.0         0.40          4.8 
      1528.0         0.40          4.6 
      1529.0         0.33          4.6 
      1530.0         0.20          4.7 
      1531.0         0.28          8.4 
      1532.0         0.27          9.8 
      1533.0         0.23         10.2 
      1534.0         0.30         10.2 
      1535.0         0.30         10.2 
      1536.0         0.33          9.9 
      1537.0         0.23          9.5 
      1538.0         0.20          9.1 
      1539.0         0.20          8.8 
      1540.0         0.27         10.0 
      1541.0         0.23         12.0 
      1542.0         0.27         12.4 
      1543.0         0.27         12.5 
      1544.0         0.17         12.2 
      1545.0         0.18         12.0 
      1546.0         0.17         11.8 
      1547.0         0.17         11.0 
      1548.0         0.20         11.4 
      1549.0         0.20         11.7 
      1550.0         0.20         12.0 
      1551.0         0.37         12.5 
      1552.0         0.37         13.4 
      1553.0         0.23         13.3 
      1554.0         0.20         12.4 
