~Version Information
VERS.                      2.0: CWLS Log ASCII Standard - VERSION 2.0
WRAP.                       NO: One line per depth step
~Well Information Block
STRT.FT                -7.5000: 
STOP.FT              1310.7500: 
STEP.FT                 0.2500: 
NULL.                -999.2500: 
COMP.          Pioneer Natural Resources: COMPANY
WELL.          Challenger 31-29: WELL
FLD.           Purgatorie River: FIELD
LOC.           51' FNL & 1923' FEL------: LOCATION
STAT.                       CO: State
CNTY.               Las Animas: COUNTY
CTRY. USA : Country
SECT. 29 : Section
TOWN. 33S : Township
RANG. 65W : Range
SRVC.          Patterson Wireline: SERVICE COMPANY
DATE.          Wed Sep 21 12:11:38 2005: LOG DATE
API.           05 071 08514 00: UNIQUE WELL ID
~Curve Information Block
DEPT.FT            0 000 00 00: Depth
CCL.                          : Casing Collar Locator
TT3.usec                      : CBL 3' Travel Time
AMP3.mV                       : CBL 3' Amplitude
GR.GAPI                       : Gamma Ray
~Parameter Information Block
~A  Depth       CCL         TT3         AMP3         GR     
# ...
    93.0000      0.0000    919.5958     11.3174     93.9946
    93.2500      0.0000    884.5289     11.2370     94.6208
    93.5000      0.0000    839.8224     11.1941     96.0545
    93.7500      0.0000    801.2985     11.2050     97.4904
    94.0000      0.0000    777.0992     11.3010     98.6052
    94.2500      0.0000    765.5790     11.5130     99.9189
    94.5000      0.0000    761.3566     11.8506    102.0791
    94.7500      0.0000    760.4753     12.2880    104.9622
    95.0000      0.0000    760.8913     12.7680    107.3602
    95.2500      0.0000    760.5748     13.2334    107.4439
    95.5000      0.0000    756.7745     13.6609    103.7501
    95.7500      0.0000    747.8293     14.0658     96.0289
    96.0000      0.0000    735.6019     14.4761     85.3887
    96.2500      0.0000    724.7607     14.9086     73.7063
    96.5000      0.0000    718.6531     15.3607     62.7758
    96.7500      0.0000    716.3683     15.8097     53.7595
    97.0000      0.0000    714.6851     16.2155     47.1656
    97.2500      0.0000    712.0500     16.5365     43.0937
    97.5000      0.0000    709.0401     16.7530     41.3657
    97.7500      0.0000    705.5075     16.8738     41.6334
    98.0000      0.0000    698.6201     16.9259     43.7897
    98.2500      0.0000    683.3858     16.9438     48.2572
    98.5000      0.0000    656.4203     16.9621     55.3221
    98.7500      0.0000    623.5157     17.0036     63.9685
    99.0000      0.0000    602.7661     17.0708     71.9552
    99.2500      0.0000    612.2095     17.1526     77.5144
    99.5000      0.0000    650.4309     17.2334     80.6892
    99.7500      0.0000    694.3567     17.2973     82.7016
   100.0000      0.0000    718.1083     17.3347     84.4049
   100.2500      0.0000    709.3204     17.3558     85.7623
   100.5000      0.0000    669.0728     17.3950     86.5777
   100.7500      0.0000    606.8210     17.4871     87.1208
   101.0000      0.0000    539.9223     17.6350     87.8894
   101.2500      0.0000    489.9535     17.8054     89.0624
   101.5000      0.0000    471.0911     17.9558     90.3407
   101.7500      0.0000    480.4231     18.0676     91.1613
   102.0000      0.0000    500.2327     18.1528     91.0459
   102.2500      0.0000    509.9181     18.2354     89.9625
   102.5000      0.0000    497.9403     18.3269     88.4802
   102.7500      0.0000    466.9732     18.4168     87.4762
   103.0000      0.0000    430.1008     18.4819     87.6498
   103.2500      0.0000    401.1660     18.5101     89.2474
   103.5000      0.0000    386.9835     18.5189     91.9664
   103.7500      0.0000    387.4297     18.5460     94.8502
   104.0000      0.0000    399.7982     18.6145     96.5648
   104.2500      0.0000    419.7950     18.7133     96.4012
   104.5000      0.0000    438.9370     18.8199     95.0852
   104.7500      0.0000    445.9655     18.9332     94.2049
   105.0000      0.0000    434.9258     19.0731     94.7858
   105.2500      0.0000    410.7203     19.2474     96.4053
   105.5000      0.0000    384.8748     19.4288     97.2703
   105.7500      0.0000    366.8946     19.5657     95.1529
   106.0000      0.0000    359.9421     19.6218     89.0840
   106.2500      0.0000    361.7144     19.6126     80.6660
   106.5000      0.0000    367.4302     19.5959     73.3755
   106.7500      0.0000    372.9369     19.6184     70.1218
   107.0000      0.0000    376.4108     19.6742     71.3167
   107.2500      0.0000    377.9144     19.7227     75.0569
   107.5000      0.0000    377.8673     19.7418     78.8563
   107.7500      0.0000    376.0561     19.7528     81.1467
   108.0000      0.0000    371.6081     19.7972     81.5461
   108.2500      0.0000    363.8951     19.8940     80.2752
   108.5000      0.0000    353.7256     20.0203     77.5626
   108.7500      0.0000    343.3672     20.1292     73.5614
   109.0000      0.0000    334.7310     20.1882     68.7470
   109.2500      0.0000    327.7796     20.2026     64.2168
   109.5000      0.0000    321.3951     20.2016     61.3270
   109.7500      0.0000    315.3344     20.2067     60.7461
   110.0000      0.0000    310.4524     20.2153     61.7393
   110.2500      0.0000    307.4085     20.2162     62.5673
   110.5000      0.0000    306.0018     20.2162     61.8375
   110.7500      0.0000    305.6768     20.2425     59.4607
   111.0000      0.0000    306.5477     20.3126     56.3169
   111.2500      0.0000    310.6741     20.4023     53.3349
   111.5000      0.0000    323.8305     20.4501     51.0452
   111.7500      0.0000    356.1811     20.3950     49.6197
   112.0000      0.0000    418.3690     20.2092     48.8902
   112.2500      0.0000    512.1465     19.9049     48.2744
   112.5000      0.0000    622.7670     19.5223     46.8873
   112.7500      0.0000    723.5826     19.1136     43.9656
   113.0000      0.0000    792.1846     18.7289     39.5009
   113.2500      0.0000    823.5266     18.4029     34.6175
   113.5000      0.0000    828.1375     18.1481     31.1209
   113.7500      0.0000    820.5048     17.9546     30.3271
   114.0000      0.0000    811.3672     17.7936     32.1529
   114.2500      0.0000    808.0651     17.6273     35.2974
   114.5000      0.0000    816.0432     17.4282     38.3330
   114.7500      0.0000    837.4443     17.1959     40.6619
   115.0000      0.0000    869.7076     16.9503     42.5154
   115.2500      0.0000    906.7308     16.7118     44.3446
   115.5000      0.0000    941.1263     16.4919     46.4816
   115.7500      0.0000    965.8301     16.2993     49.0966
   116.0000      0.0000    975.7865     16.1420     52.0237
   116.2500      0.0000    969.9933     16.0170     54.7591
   116.5000      0.0000    952.2766     15.9062     56.9971
   116.7500      0.0000    929.2844     15.7888     59.0775
   117.0000      0.0000    906.6490     15.6539     61.6615
   117.2500      0.0000    886.4401     15.5006     64.9897
   117.5000      0.0000    867.6292     15.3353     68.5781
   117.7500      0.0000    848.3622     15.1700     71.6115
   118.0000      0.0000    828.2404     15.0161     73.4942
   118.2500      0.0000    809.1983     14.8793     73.9030
   118.5000      0.0000    794.0977     14.7624     72.4915
   118.7500      0.0000    784.3732     14.6691     69.0565
   119.0000      0.0000    779.0286     14.5967     64.2250
   119.2500      0.0000    775.5489     14.5267     59.5698
   119.5000      0.0000    771.1848     14.4269     56.6126
   119.7500      0.0000    764.3251     14.2697     55.7452
   120.0000      0.0000    756.2998     14.0425     56.3167
   120.2500      0.0000    752.7497     13.7282     57.6740
   120.5000      0.0000    761.6447     13.2912     59.7107
   120.7500      0.0000    787.6820     12.7360     62.1894
   121.0000      0.0000    827.2967     12.1806     64.0275
   121.2500      0.0000    869.7692     11.8015     63.9393
   121.5000      0.0000    903.9958     11.6805     61.6967
   121.7500      0.0000    924.5383     11.7489     58.3407
   122.0000     -2.0000    931.5569     11.8871     55.3043
   122.2500      0.0000    926.3220     12.0452     53.5748
   122.5000      0.0000    908.3508     12.2850     53.3441
   122.7500      0.0000    877.0052     12.7386     54.1130
   123.0000      0.0000    835.1464     13.4926     55.2496
   123.2500      0.0000    790.9512     14.4537     56.3907
   123.5000      0.0000    756.0918     15.3389     57.2476
   123.7500      0.0000    740.5315     15.8626     57.4989
   124.0000      0.0000    746.7820     15.9433     57.3142
   124.2500      0.0000    770.4406     15.7154     57.6162
   124.5000      0.0000    807.8348     15.3810     59.1261
   124.7500      0.0000    860.3594     15.0792     61.1936
   125.0000      0.0000    928.0428     14.8527     62.2494
   125.2500      0.0000   1001.3707     14.6746     61.6106
   125.5000      0.0000   1063.2838     14.4999     60.3038
   125.7500      0.0000   1098.7887     14.3129     60.0482
   126.0000      0.0000   1100.2979     14.1394     61.9149
   126.2500      0.0000   1066.9198     14.0197     65.7363
