~Version Information
VERS.                      2.0: CWLS Log ASCII Standard - VERSION 2.0
WRAP.                       NO: One line per depth step
~Well Information Block
STRT.FT                -7.0000: 
STOP.FT              2517.5000: 
STEP.FT                 0.2500: 
NULL.                -999.2500: 
COMP.          Pioneer Natural Resources: COMPANY
WELL.          Horsefeathers 24-34: WELL
FLD.           Purgatoire River: FIELD
LOC.           183' FSL & 1570' FWL: LOCATION
CNTY.               Las Animas: COUNTY
SRVC.                         : SERVICE COMPANY
DATE.          Fri Mar 17 10:06:37 2006: LOG DATE
UWI.           05 071 08675 00: UNIQUE WELL ID
STAT.                       CO: STATE
~Curve Information Block
DEPT.FT            0 000 00 00: Depth
GR.GAPI                       : Gamma Ray
CCL.                          : Casing Collar Locator
TT3.usec                      : CBL 3' Travel Time
AMP3.mV                       : CBL 3' Amplitude
~Parameter Information Block
~A  Depth        GR         CCL         TT3         AMP3    
# ...
  1165.5000    127.7096      0.0000    657.7204      5.2513
  1165.7500    124.5701      0.0000    668.9975      5.1718
  1166.0000    122.9076      0.0000    676.8060      5.0719
  1166.2500    122.2738      0.0000    684.5512      4.9892
  1166.5000    121.8927      0.0000    693.4809      4.9561
  1166.7500    121.4223      0.0000    702.8079      4.9794
  1167.0000    120.8675      0.0000    710.4609      5.0381
  1167.2500    120.4604      0.0000    714.0254      5.0968
  1167.5000    120.9559      0.0000    712.3352      5.1203
  1167.7500    123.3047      0.0000    706.7703      5.0799
  1168.0000    127.4078      0.0000    700.7401      4.9522
  1168.2500    131.5933      0.0000    697.5800      4.7286
  1168.5000    134.0665      0.0000    698.8262      4.4431
  1168.7500    134.8770      0.0000    703.8956      4.1815
  1169.0000    135.7907      0.0000    710.8106      4.0291
  1169.2500    137.9199      0.0000    717.4039      3.9958
  1169.5000    140.0358      0.0000    722.2081      4.0230
  1169.7500    139.6747      0.0000    724.6176      4.0725
  1170.0000    135.4956      0.0000    724.7750      4.1711
  1170.2500    128.2347      0.0000    723.5228      4.3499
  1170.5000    120.0063      0.0000    721.9539      4.5782
  1170.7500    113.1063     -2.0000    720.7240      4.7864
  1171.0000    108.9091      2.0000    719.8915      4.9311
  1171.2500    107.3319      0.0000    719.0097      5.0254
  1171.5000    107.4602      0.0000    717.0115      5.1243
  1171.7500    108.7894      0.0000    712.5644      5.2774
  1172.0000    111.6801      0.0000    705.2249      5.4615
  1172.2500    116.6482      0.0000    696.1429      5.5644
  1172.5000    123.3344      0.0000    687.3869      5.4819
  1172.7500    129.9984      0.0000    680.6104      5.2387
  1173.0000    133.9636      0.0000    676.3000      4.9801
  1173.2500    132.9480      0.0000    674.0590      4.8410
  1173.5000    126.3576      0.0000    673.4186      4.8471
  1173.7500    115.6235      0.0000    674.5437      4.9352
  1174.0000    103.6934      0.0000    678.3120      5.0326
  1174.2500     94.1253      0.0000    685.4796      5.1067
  1174.5000     89.8238      0.0000    695.3365      5.1614
  1174.7500     91.7342      0.0000    705.4170      5.2091
  1175.0000     98.5013      0.0000    713.0303      5.2481
  1175.2500    107.4368      0.0000    716.7261      5.2625
  1175.5000    115.8167      0.0000    715.6611      5.2418
  1175.7500    121.5840      0.0000    708.2263      5.1994
  1176.0000    123.6332      0.0000    691.9889      5.1639
  1176.2500    122.0794      0.0000    664.3475      5.1526
  1176.5000    118.2264      0.0000    623.5355      5.1604
  1176.7500    113.8716      0.0000    571.2367      5.1724
  1177.0000    110.5478      0.0000    514.9078      5.1761
  1177.2500    109.3961      0.0000    465.1974      5.1593
  1177.5000    111.1982      0.0000    429.4897      5.1091
  1177.7500    115.8777      0.0000    408.5866      5.0260
  1178.0000    122.0722      0.0000    399.2032      4.9301
  1178.2500    127.6992      0.0000    397.6755      4.8440
  1178.5000    131.1560      0.0000    401.0246      4.7746
  1178.7500    132.0902      0.0000    406.4421      4.7191
  1179.0000    131.3192      0.0000    411.4502      4.6807
  1179.2500    130.0202      0.0000    414.7517      4.6660
  1179.5000    128.7778      0.0000    416.4889      4.6710
  1179.7500    127.4009      0.0000    417.8125      4.6778
  1180.0000    125.7464      0.0000    420.8063      4.6677
  1180.2500    124.3042      0.0000    429.3825      4.6391
  1180.5000    123.3929      0.0000    449.7334      4.6110
  1180.7500    121.9289      0.0000    487.5664      4.6086
  1181.0000    117.9731      0.0000    542.2033      4.6416
  1181.2500    111.0754      0.0000    603.4981      4.6957
  1181.5000    103.5585      0.0000    657.2041      4.7452
  1181.7500     98.9069      0.0000    694.2426      4.7708
  1182.0000     99.0706      0.0000    713.7727      4.7674
  1182.2500    103.2464      0.0000    718.6247      4.7405
  1182.5000    108.6844      0.0000    710.5422      4.7007
  1182.7500    112.7384      0.0000    689.4221      4.6594
  1183.0000    114.6495      0.0000    654.6773      4.6263
  1183.2500    115.4477      0.0000    607.0319      4.6079
  1183.5000    116.2511      0.0000    550.6785      4.6073
  1183.7500    117.0790      0.0000    494.1125      4.6228
  1184.0000    117.3376      0.0000    447.2151      4.6471
  1184.2500    116.9493      0.0000    416.1405      4.6686
  1184.5000    116.7884      0.0000    400.8015      4.6734
  1184.7500    118.0822      0.0000    396.7182      4.6498
  1185.0000    121.3859      0.0000    398.2466      4.5972
  1185.2500    125.9516      0.0000    400.5324      4.5307
  1185.5000    129.9396      0.0000    400.5846      4.4723
  1185.7500    131.5060      0.0000    398.0327      4.4378
  1186.0000    130.2292      0.0000    394.9563      4.4338
  1186.2500    127.6535      0.0000    394.7564      4.4599
  1186.5000    126.1160      0.0000    401.1065      4.5090
  1186.7500    126.7679      0.0000    416.8811      4.5684
  1187.0000    128.9090      0.0000    441.7404      4.6261
  1187.2500    131.2411      0.0000    469.0899      4.6752
  1187.5000    133.2583      0.0000    486.9546      4.7124
  1187.7500    135.1985      0.0000    485.6669      4.7341
  1188.0000    137.0612      0.0000    466.6168      4.7365
  1188.2500    138.0913      0.0000    442.3795      4.7205
  1188.5000    137.4375      0.0000    427.9560      4.6995
  1188.7500    135.2654      0.0000    432.4331      4.6949
  1189.0000    132.8549      0.0000    456.3421      4.7192
  1189.2500    131.2412      0.0000    492.1989      4.7639
  1189.5000    130.0175      0.0000    527.5463      4.8114
  1189.7500    127.9902      0.0000    552.5414      4.8529
  1190.0000    124.9476      0.0000    566.7665      4.8920
  1190.2500    122.2459      0.0000    575.9698      4.9361
  1190.5000    121.3238      0.0000    582.2558      4.9866
  1190.7500    121.8941      0.0000    582.1804      5.0357
  1191.0000    122.2470      0.0000    575.4090      5.0730
  1191.2500    121.4428      0.0000    570.1443      5.0951
  1191.5000    120.5928      0.0000    576.4588      5.1055
  1191.7500    121.6147      0.0000    596.2603      5.1034
  1192.0000    125.2527      0.0000    622.3256      5.0816
  1192.2500    130.6806      0.0000    645.8360      5.0448
  1192.5000    136.4501      0.0000    662.8330      5.0204
  1192.7500    141.1237      0.0000    674.4798      5.0409
  1193.0000    143.5648      0.0000    683.5279      5.1150
  1193.2500    143.7072      0.0000    691.1727      5.2212
  1193.5000    143.0030      0.0000    696.6603      5.3275
  1193.7500    143.1854      0.0000    699.2714      5.4108
  1194.0000    144.4458      0.0000    700.1669      5.4633
  1194.2500    145.5264      0.0000    701.9203      5.4891
  1194.5000    145.5008      0.0000    706.4521      5.4962
  1194.7500    144.7433      0.0000    713.8127      5.4890
  1195.0000    144.1500      0.0000    722.4954      5.4665
  1195.2500    143.9519      0.0000    730.4011      5.4259
  1195.5000    143.4600      0.0000    735.8002      5.3645
  1195.7500    141.9074      0.0000    737.8799      5.2811
  1196.0000    139.4581      0.0000    736.7129      5.1777
  1196.2500    137.1408      0.0000    733.2540      5.0615
  1196.5000    135.7326      0.0000    729.5542      4.9445
  1196.7500    135.0496      0.0000    728.1229      4.8411
  1197.0000    134.4390      0.0000    730.1245      4.7626
  1197.2500    133.3884      0.0000    734.3439      4.7125
  1197.5000    131.3611      0.0000    738.3287      4.6879
  1197.7500    127.5882      0.0000    740.0166      4.6864
  1198.0000    121.6211      0.0000    737.6024      4.7101
  1198.2500    114.0451      0.0000    728.0025      4.7614
  1198.5000    106.5677      0.0000    706.5038      4.8328
  1198.7500    101.6528      0.0000    669.8163      4.9028
