~Version Information
VERS.                      2.0: CWLS Log ASCII Standard - VERSION 2.0
WRAP.                       NO: One line per depth step
~Well Information Block
STRT.FT               322.3000: 
STOP.FT              1375.0000: 
STEP.FT                 0.1000: 
NULL.                -999.2500: 
COMP.          Pioneer Natural Resources: COMPANY
WELL.          Buffet 41-36 Tr: WELL
FLD.           Purgatoire River: FIELD
LOC.           119' FNL & 271' FEL: LOCATION
PROV.                 Colorado: PROVINCE
CNTY.               Las Animas: COUNTRY
SRVC.                Patterson: SERVICE COMPANY
DATE.          Thu Dec 29 07:13:13 2005: LOG DATE
UWI.           05 071 08627 00: UNIQUE WELL ID
~Curve Information Block
DEPT.FT            0 000 00 00: Depth
DCAL.in                       : CDL Caliper
RHOB.g/cc                     : CDL Bulk Density
RHOC.g/cc                     : CDL Density Correction
DPOR.pu                       : CDL Density Porosity
GR.GAPI                       : Gamma Ray
~Parameter Information Block
~A  Depth       DCAL        RHOB        RHOC        DPOR         GR     
# ...
   344.7000      3.3523      2.2079      0.4644     26.7944     92.0464
   344.8000      3.3548      2.2038      0.4850     27.0441     89.2024
   344.9000      3.3548      2.2020      0.4560     27.1512     86.6770
   345.0000      3.3577      2.2047      0.5053     26.9867     85.5540
   345.1000      3.3577      2.2106      0.4854     26.6285     83.2411
   345.2000      3.3577      2.2169      0.4900     26.2486     82.0289
   345.3000      3.3575      2.2249      0.4894     25.7654     84.0276
   345.4000      3.3575      2.2358      0.5053     25.1030     84.5130
   345.5000      3.3576      2.2387      0.5329     24.9291     82.7111
   345.6000      3.3576      2.2232      0.5142     25.8671     80.8841
   345.7000      3.3576      2.2015      0.4782     27.1818     76.1319
   345.8000      3.3601      2.1895      0.4821     27.9116     68.3181
   345.9000      3.3601      2.1910      0.4564     27.8202     63.8868
   346.0000      3.3607      2.2095      0.4599     26.6997     67.6369
   346.1000      3.3607      2.2437      0.4906     24.6220     77.7440
   346.2000      3.3607      2.2763      0.5289     22.6503     85.2421
   346.3000      3.3586      2.2885      0.5352     21.9120     81.8628
   346.4000      3.3586      2.2816      0.5360     22.3285     72.2860
   346.5000      3.3558      2.2755      0.5015     22.6953     66.5760
   346.6000      3.3558      2.2887      0.4938     21.8945     66.8391
   346.7000      3.3558      2.3084      0.5591     20.7043     69.1229
   346.8000      3.3553      2.3041      0.5335     20.9651     72.2424
   346.9000      3.3553      2.2758      0.4987     22.6775     77.6959
   347.0000      3.3573      2.2472      0.4985     24.4116     84.1873
   347.1000      3.3573      2.2299      0.5038     25.4631     87.9365
   347.2000      3.3573      2.2187      0.5062     26.1408     87.5572
   347.3000      3.3594      2.2061      0.4567     26.9029     86.8366
   347.4000      3.3594      2.1919      0.4632     27.7622     88.0870
   347.5000      3.3592      2.1831      0.4342     28.2963     89.1138
   347.6000      3.3592      2.1882      0.4716     27.9866     86.8280
   347.7000      3.3592      2.2080      0.4657     26.7867     79.8446
   347.8000      3.3582      2.2305      0.5350     25.4244     73.6998
   347.9000      3.3582      2.2391      0.5251     24.9046     74.5682
   348.0000      3.3581      2.2321      0.5056     25.3289     79.3748
   348.1000      3.3581      2.2222      0.5149     25.9265     80.9157
   348.2000      3.3581      2.2174      0.4894     26.2192     78.9363
   348.3000      3.3593      2.2151      0.5033     26.3604     79.3152
   348.4000      3.3593      2.2119      0.4956     26.5494     81.6629
   348.5000      3.3618      2.2064      0.5084     26.8820     80.0427
   348.6000      3.3618      2.1969      0.5089     27.4631     76.6199
   348.7000      3.3618      2.1914      0.4767     27.7928     77.3919
   348.8000      3.3617      2.1986      0.5006     27.3595     82.5121
   348.9000      3.3617      2.2069      0.5367     26.8531     89.5399
   349.0000      3.3602      2.2034      0.5050     27.0644     96.6969
   349.1000      3.3602      2.1893      0.5044     27.9198    101.3982
   349.2000      3.3602      2.1697      0.4823     29.1101    101.2036
   349.3000      3.3609      2.1498      0.4561     30.3141     95.8874
   349.4000      3.3609      2.1348      0.4724     31.2259     87.9461
   349.5000      3.3620      2.1255      0.4522     31.7853     82.0256
   349.6000      3.3620      2.1202      0.4923     32.1099     83.0673
   349.7000      3.3620      2.1187      0.4562     32.1979     89.9861
   349.8000      3.3643      2.1220      0.4735     31.9993     95.1497
   349.9000      3.3643      2.1200      0.5025     32.1193     96.4741
   350.0000      3.3658      2.1077      0.4613     32.8671     97.8439
   350.1000      3.3658      2.1033      0.4470     33.1346    100.1970
   350.2000      3.3658      2.1185      0.4910     32.2129    100.5992
   350.3000      3.3655      2.1353      0.5444     31.1915     96.6812
   350.4000      3.3655      2.1369      0.5230     31.0979     89.6157
   350.5000      3.3650      2.1333      0.5126     31.3141     84.8108
   350.6000      3.3650      2.1393      0.4939     30.9502     86.1609
   350.7000      3.3650      2.1491      0.5373     30.3592     89.4934
   350.8000      3.3665      2.1474      0.5410     30.4594     89.6016
   350.9000      3.3665      2.1363      0.4991     31.1327     89.1774
   351.0000      3.3674      2.1291      0.5161     31.5668     90.0064
   351.1000      3.3674      2.1293      0.5285     31.5552     89.6463
   351.2000      3.3674      2.1285      0.5483     31.6082     90.2876
   351.3000      3.3651      2.1169      0.5060     32.3100     94.6549
   351.4000      3.3651      2.0983      0.4950     33.4384    100.7118
   351.5000      3.3643      2.0828      0.4790     34.3755    102.8592
   351.6000      3.3643      2.0739      0.4967     34.9147     98.2853
   351.7000      3.3643      2.0737      0.4794     34.9295     91.7762
   351.8000      3.3645      2.0807      0.5264     34.5045     88.7452
   351.9000      3.3645      2.0828      0.5387     34.3773     91.4339
   352.0000      3.3645      2.0770      0.4904     34.7249    101.6570
   352.1000      3.3645      2.0778      0.4738     34.6766    113.7796
   352.2000      3.3645      2.0924      0.5149     33.7948    116.5401
   352.3000      3.3648      2.1083      0.5436     32.8278    109.4667
   352.4000      3.3648      2.1117      0.5504     32.6231    101.5319
   352.5000      3.3672      2.1067      0.5015     32.9259     98.2715
   352.6000      3.3672      2.1102      0.5446     32.7154     97.3389
   352.7000      3.3672      2.1286      0.5593     31.6024     93.4711
   352.8000      3.3696      2.1484      0.5705     30.3979     90.4253
   352.9000      3.3696      2.1539      0.5439     30.0644     94.3024
   353.0000      3.3688      2.1496      0.5300     30.3300     99.2441
   353.1000      3.3688      2.1503      0.5837     30.2849     98.0694
   353.2000      3.3688      2.1570      0.5621     29.8763     92.1212
   353.3000      3.3672      2.1591      0.5886     29.7504     84.5697
   353.4000      3.3672      2.1498      0.5729     30.3152     78.7273
   353.5000      3.3677      2.1369      0.5422     31.0988     77.9891
   353.6000      3.3677      2.1335      0.5418     31.3054     82.7137
   353.7000      3.3677      2.1419      0.5601     30.7969     88.0510
   353.8000      3.3693      2.1548      0.5514     30.0140     90.3541
   353.9000      3.3693      2.1582      0.5881     29.8087     92.4001
   354.0000      3.3721      2.1411      0.5371     30.8453     95.4480
   354.1000      3.3721      2.1172      0.4826     32.2917     94.8996
   354.2000      3.3721      2.1101      0.5220     32.7196     91.1136
   354.3000      3.3745      2.1215      0.5641     32.0296     92.7059
   354.4000      3.3745      2.1395      0.5475     30.9368     98.3139
   354.5000      3.3747      2.1514      0.5913     30.2194     98.6495
   354.6000      3.3747      2.1472      0.5636     30.4740     95.2013
   354.7000      3.3747      2.1378      0.5354     31.0448     92.0364
   354.8000      3.3723      2.1416      0.5576     30.8136     88.1160
   354.9000      3.3723      2.1547      0.6139     30.0169     83.0789
   355.0000      3.3690      2.1622      0.5515     29.5649     80.3863
   355.1000      3.3690      2.1621      0.5850     29.5696     81.4923
   355.2000      3.3690      2.1596      0.5811     29.7214     82.7761
   355.3000      3.3681      2.1587      0.5478     29.7772     84.7103
   355.4000      3.3681      2.1604      0.5537     29.6739     88.9520
   355.5000      3.3698      2.1618      0.5712     29.5875     92.5372
   355.6000      3.3698      2.1632      0.5592     29.5031     94.9405
   355.7000      3.3698      2.1668      0.5707     29.2877     96.2406
   355.8000      3.3696      2.1679      0.5724     29.2186     93.6587
