~Version Information
VERS.                      2.0: CWLS Log ASCII Standard - VERSION 2.0
WRAP.                       NO: One line per depth step
~Well Information Block
STRT.FT                 5.0000: 
STOP.FT               880.0000: 
STEP.FT                 0.2500: 
NULL.                -999.2500: 
COMP.          Pioneer Natural Resources: COMPANY
WELL.          Bienville 31-28: WELL
FLD.           Purgatoire River: FIELD
LOC.           1212' FNL & 2271' FEL: LOCATION
PROV.                 Colorado: PROVINCE
CNTY.               Las Animas: COUNTRY
SRVC.                Patterson: SERVICE COMPANY
DATE.          Tue Jan 24 11:44:03 2006: LOG DATE
UWI.           05 071 08666 00: UNIQUE WELL ID
~Curve Information Block
DEPT.FT            0 000 00 00: Depth
GR.GAPI                       : Gamma Ray
CCL.                          : Casing Collar Locator
TT3.usec                      : CBL 3' Travel Time
AMP3.mV                       : CBL 3' Amplitude
~Parameter Information Block
~A  Depth        GR         CCL         TT3         AMP3    
# ...
   675.0000     93.8043      0.0000    777.6023      9.8623
   675.2500     92.3458      0.0000    772.7629      9.4850
   675.5000     91.2694      0.0000    769.0931      9.1200
   675.7500     90.6394      0.0000    767.5843      8.7998
   676.0000     89.8668      0.0000    768.1011      8.5483
   676.2500     87.8497      0.0000    769.5693      8.3852
   676.5000     83.8289      0.0000    770.6295      8.3331
   676.7500     78.1400      0.0000    770.1398      8.4098
   677.0000     72.0201      0.0000    767.4314      8.5944
   677.2500     66.7164      0.0000    762.3162      8.7960
   677.5000     62.8504      0.0000    755.3502      8.8656
   677.7500     60.4893      0.0000    748.2618      8.6386
   678.0000     59.5402      0.0000    743.2210      7.9728
   678.2500     59.8595      0.0000    741.4476      6.8260
   678.5000     60.9829      0.0000    743.4774      5.3785
   678.7500     61.9302      0.0000    750.7292      4.0260
   679.0000     61.5837      0.0000    765.2248      3.1381
   679.2500     59.5049      0.0000    787.0646      2.8088
   679.5000     56.4231      0.0000    812.6533      2.8639
   679.7500     53.8722      0.0000    836.0497      3.0519
   680.0000     53.2076      0.0000    852.5018      3.2178
   680.2500     54.7185      0.0000    860.5096      3.3880
   680.5000     57.4682      0.0000    860.1282      3.7505
   680.7500     59.8889      0.0000    850.9363      4.4978
   681.0000     60.7017      0.0000    833.9062      5.6404
   681.2500     59.5999      0.0000    814.0995      6.9923
   681.5000     57.3415      0.0000    798.5717      8.3201
   681.7500     55.3760      0.0000    791.1941      9.4599
   682.0000     55.2291      0.0000    790.6444     10.3318
   682.2500     57.6624      0.0000    792.9707     10.9231
   682.5000     61.9810      0.0000    794.8804     11.2729
   682.7500     66.2131      0.0000    795.0275     11.4426
   683.0000     68.2414      0.0000    793.7051     11.4823
   683.2500     67.0831      0.0000    792.3127     11.4245
   683.5000     63.4503      0.0000    792.6086     11.3006
   683.7500     59.1304      0.0000    795.3856     11.1501
   684.0000     55.5836      0.0000    799.5729     11.0093
   684.2500     53.0687      0.0000    802.9868     10.8963
   684.5000     51.1285      0.0000    803.7515     10.8159
   684.7500     49.5173      0.0000    800.8539     10.7755
   685.0000     48.4161      0.0000    794.2521     10.7835
   685.2500     48.1125      0.0000    785.4344     10.8314
   685.5000     48.7951      0.0000    777.5277     10.8823
   685.7500     50.5019      0.0000    773.7551     10.8844
   686.0000     53.0962      0.0000    775.3611     10.7981
   686.2500     56.2376      0.0000    781.0585     10.6196
   686.5000     59.3411      0.0000    787.9243     10.3828
   686.7500     61.7944      0.0000    792.7115     10.1327
   687.0000     63.5161      0.0000    793.3404      9.8919
   687.2500     65.1617      0.0000    790.0371      9.6545
   687.5000     67.4804      0.0000    784.8050      9.4153
   687.7500     70.4611      0.0000    779.5772      9.1941
   688.0000     73.2161      0.0000    775.1558      9.0217
   688.2500     74.6388      0.0000    771.7411      8.9043
   688.5000     74.1925      0.0000    769.5674      8.8156
   688.7500     72.2568      0.0000    768.8289      8.7308
   689.0000     69.8813      0.0000    769.5762      8.6588
   689.2500     68.1948      0.0000    771.7746      8.6367
   689.5000     67.8512      0.0000    775.2607      8.6980
   689.7500     68.7660      0.0000    779.8657      8.8482
   690.0000     70.3339      0.0000    785.5721      9.0676
   690.2500     72.0369      0.0000    792.0167      9.3269
   690.5000     73.8038      0.0000    797.8224      9.5974
   690.7500     75.7638      0.0000    800.8929      9.8504
   691.0000     77.9502      0.0000    799.3687     10.0591
   691.2500     80.4630      0.0000    792.4824     10.2071
   691.5000     83.6046      0.0000    781.3017     10.2903
   691.7500     87.4084      0.0000    769.0903     10.3066
   692.0000     91.1438      0.0000    760.1284     10.2497
   692.2500     93.6911      0.0000    757.2087     10.1173
   692.5000     94.4591      0.0000    759.9044      9.9204
   692.7500     93.6781      0.0000    765.2307      9.6815
   693.0000     91.9336      0.0000    769.9065      9.4334
   693.2500     89.8455      0.0000    772.2491      9.2269
   693.5000     88.1219      0.0000    772.6744      9.1350
   693.7500     87.3952      0.0000    772.9924      9.2372
   694.0000     87.8334      0.0000    774.8701      9.5840
   694.2500     88.9787      0.0000    778.2545     10.1620
   694.5000     89.8687      0.0000    781.2664     10.8846
   694.7500     89.4639      0.0000    782.1176     11.6187
   695.0000     87.3422      0.0000    781.1568     12.2349
   695.2500     84.0691      0.0000    780.4437     12.6468
   695.5000     80.7994      0.0000    781.1348     12.8280
   695.7500     78.5265      0.0000    781.9548     12.8234
   696.0000     77.5035      0.0000    780.7070     12.7546
   696.2500     77.1109      0.0000    776.8939     12.7970
   696.5000     76.3898      0.0000    772.3061     13.1151
   696.7500     74.8483      0.0000    769.4119     13.7792
   697.0000     72.6202      0.0000    769.8240     14.7135
   697.2500     69.8408      0.0000    773.9616     15.7182
   697.5000     66.2196      0.0000    781.1213     16.5610
   697.7500     61.4222      0.0000    789.5029     17.0806
   698.0000     55.7343      0.0000    796.7454     17.2369
   698.2500     50.2731      0.0000    800.9153     17.0942
   698.5000     46.7005      0.0000    801.0513     16.7656
   698.7500     46.7211      0.0000    797.1183     16.3662
   699.0000     51.4240      0.0000    790.0736     15.9880
   699.2500     60.5513      0.0000    782.0143     15.6938
   699.5000     72.1970      0.0000    775.6611     15.5250
   699.7500     83.4038      0.0000    773.1748     15.5162
   700.0000     91.4329      0.0000    775.1436     15.6882
   700.2500     94.8763      0.0000    780.1508     16.0087
   700.5000     93.9555      0.0000    785.0378     16.3666
   700.7500     90.0381      0.0000    786.2347     16.6147
   701.0000     84.8943      0.0000    781.8990     16.6579
   701.2500     80.2855      0.0000    773.3271     16.5017
   701.5000     77.7949      0.0000    764.2374     16.2178
   701.7500     78.3136      0.0000    758.2928     15.8783
   702.0000     81.3063      0.0000    756.8177     15.5243
   702.2500     84.8567      0.0000    758.5612     15.1713
   702.5000     86.8505      0.0000    761.4543     14.8139
   702.7500     86.3072      0.0000    764.4940     14.4222
   703.0000     83.7694      0.0000    768.1555     13.9570
   703.2500     80.7138      0.0000    773.3342     13.4053
   703.5000     78.5660      0.0000    779.8675     12.8045
   703.7500     77.8083      0.0000    785.9233     12.2336
   704.0000     77.6848      0.0000    789.1549     11.7824
   704.2500     76.8434      0.0000    788.7804     11.5168
   704.5000     74.5559      0.0000    786.3320     11.4570
   704.7500     71.3685      0.0000    784.0287     11.5702
   705.0000     68.5679      0.0000    782.6346     11.7772
   705.2500     67.2383      0.0000    781.1813     11.9757
   705.5000     67.8282      0.0000    778.4863     12.0759
   705.7500     70.1590      0.0000    774.5202     12.0336
   706.0000     73.4521      0.0000    770.3645     11.8619
   706.2500     76.6042      0.0000    767.1747     11.6154
   706.5000     78.9194      0.0000    765.3637     11.3545
   706.7500     80.6935      0.0000    764.6530     11.1095
   707.0000     82.9220      0.0000    764.6138     10.8716
   707.2500     86.4228      0.0000    765.0594     10.6196
   707.5000     91.1798      0.0000    766.1070     10.3517
   707.7500     96.1749      0.0000    767.9647     10.0919
   708.0000     99.6685      0.0000    770.4869      9.8646
   708.2500     99.9290      0.0000    772.7897      9.6707
