~Version Information
VERS.                      2.0: CWLS Log ASCII Standard - VERSION 2.0
WRAP.                       NO: One line per depth step
~Well Information Block
STRT.FT               550.0000: 
STOP.FT              1981.5000: 
STEP.FT                 0.2500: 
NULL.                -999.2500: 
COMP.          Pioneer Natural Resources: COMPANY
WELL.          Flying Horse 12-11 Tr: WELL
FLD.           Purgatoire River: FIELD
LOC.           2459' FNL & 410' FWL: LOCATION
STAT.                 Colorado: State
CNTY.               Las Animas: COUNTY
CTRY. USA : Country
SECT. 11 : Section
TOWN. 32S : Township
RANG. 66W : Range
SRVC.                Patterson: SERVICE COMPANY
DATE.          Sat Sep 03 20:17:31 2005: LOG DATE
API.           05 071 08485 00: UNIQUE WELL ID
~Curve Information Block
DEPT.FT            0 000 00 00: Depth
SN.Ohm-m                      : IEL Short Normal
SP.mV                         : IEL Spontaneous Potential
DIR.Ohm-m                     : IEL Induction Resistivity
GR.GAPI                       : Gamma Ray
~Parameter Information Block
~A  Depth        SN          SP         DIR          GR     
   550.0000   2000.0000   2000.0000      7.3796     62.1031
   550.2500   2000.0000   2000.0000      7.4034     61.8995
   550.5000   2000.0000   2000.0000      7.4236     61.7280
   550.7500   2000.0000   2000.0000      7.4320     61.6742
   551.0000   2000.0000   2000.0000      7.4171     61.2840
   551.2500   2000.0000   2000.0000      7.3718     60.7604
   551.5000   2000.0000   2000.0000      7.3017     59.8791
   551.7500   2000.0000   2000.0000      7.2259     59.4481
   552.0000   2000.0000   2000.0000      7.1681     59.3364
   552.2500   2000.0000   2000.0000      7.1453     59.7215
   552.5000   2000.0000   2000.0000      7.1619     60.8154
   552.7500   2000.0000   2000.0000      7.2088     61.5233
   553.0000   2000.0000   2000.0000      7.2685     61.9208
   553.2500   2000.0000   2000.0000      7.3227     61.7151
   553.5000   2000.0000   2000.0000      7.3594     61.3573
   553.7500   2000.0000   2000.0000      7.3774     61.6562
   554.0000   2000.0000   2000.0000      7.3840     63.5129
   554.2500   2000.0000   2000.0000      7.3886     65.4779
   554.5000   2000.0000   2000.0000      7.3971     68.1753
   554.7500   2000.0000   2000.0000      7.4101     68.9052
   555.0000   2000.0000   2000.0000      7.4236     67.7378
   555.2500   2000.0000   2000.0000      7.4315     65.7691
   555.5000   2000.0000   2000.0000      7.4276     62.1510
   555.7500   2000.0000   2000.0000      7.4085     59.7965
   556.0000   2000.0000   2000.0000      7.3763     56.6829
   556.2500   2000.0000   2000.0000      7.3389     54.9631
   556.5000   2000.0000   2000.0000      7.3064     53.1824
   556.7500   2000.0000   2000.0000      7.2854     52.7322
   557.0000   2000.0000   2000.0000      7.2769     53.3508
   557.2500   2000.0000   2000.0000      7.2759     54.6156
   557.5000   2000.0000   2000.0000      7.2743     57.9200
   557.7500   2000.0000   2000.0000      7.2618     61.3597
   558.0000   2000.0000   2000.0000      7.2272     68.7971
   558.2500   2000.0000   2000.0000      7.1601     75.0152
   558.5000   2000.0000   2000.0000      7.0560     84.8099
   558.7500   2000.0000   2000.0000      6.9222     90.6591
   559.0000   2000.0000   2000.0000      6.7789     97.3755
   559.2500   2000.0000   2000.0000      6.6536    100.5641
   559.5000   2000.0000   2000.0000      6.5704    104.4848
   559.7500   2000.0000   2000.0000      6.5405    107.0507
   560.0000   2000.0000   2000.0000      6.5579    110.4703
   560.2500   2000.0000   2000.0000      6.6025    111.6499
   560.5000   2000.0000   2000.0000      6.6487    110.7762
   560.7500   2000.0000   2000.0000      6.6765    108.7897
   561.0000   2000.0000   2000.0000      6.6808    105.9962
   561.2500   2000.0000   2000.0000      6.6759    105.8009
   561.5000   2000.0000   2000.0000      6.6970    108.9226
   561.7500   2000.0000   2000.0000      6.7982    112.2558
   562.0000   2000.0000   2000.0000      7.0453    115.9573
   562.2500   2000.0000   2000.0000      7.4998    116.2762
   562.5000   2000.0000   2000.0000      8.1894    113.9709
   562.7500   2000.0000   2000.0000      9.0588    112.0473
   563.0000   2000.0000   2000.0000      9.9276    110.8594
   563.2500   2000.0000   2000.0000     10.5462    111.2926
   563.5000   2000.0000   2000.0000     10.7822    111.9209
   563.7500   2000.0000   2000.0000     10.7406    111.1733
   564.0000   2000.0000   2000.0000     10.6772    108.1086
   564.2500   2000.0000   2000.0000     10.8939    105.7030
   564.5000   2000.0000   2000.0000     11.8212    103.2853
   564.7500   2000.0000   2000.0000     14.4921    102.7386
   565.0000   2000.0000   2000.0000     23.2027    102.7863
   565.2500   2000.0000   2000.0000    118.1958    102.9178
   565.5000   2000.0000   2000.0000 100000.0000    103.2112
   565.7500   2000.0000   2000.0000 100000.0000    100.3573
   566.0000   2000.0000   2000.0000 100000.0000    102.3538
   566.2500   2000.0000   2000.0000 100000.0000    104.4572
   566.5000   2000.0000   2000.0000 100000.0000    108.7355
   566.7500   2000.0000   2000.0000 100000.0000    100.9411
   567.0000   2000.0000   2000.0000 100000.0000    107.7802
   567.2500   2000.0000   2000.0000 100000.0000    112.9681
   567.5000   2000.0000   2000.0000 100000.0000    119.7422
   567.7500   2000.0000   2000.0000 100000.0000    108.5280
   568.0000   2000.0000   2000.0000 100000.0000    110.6811
   568.2500   2000.0000   2000.0000 100000.0000    112.0719
   568.5000   2000.0000   2000.0000 100000.0000    116.3389
   568.7500   2000.0000   2000.0000 100000.0000    105.6267
   569.0000   2000.0000   2000.0000     36.9197    115.1063
   569.2500   2000.0000   2000.0000      7.0410    122.1414
   569.5000   2000.0000   2000.0000      4.0656    130.6143
   569.7500   2000.0000   2000.0000      3.2581    133.2451
   570.0000   2000.0000   2000.0000      3.1731    131.9706
   570.2500   2000.0000   2000.0000      3.5335    128.7080
   570.5000   2000.0000   2000.0000      4.3378    123.2951
   570.7500   2000.0000   2000.0000      5.7991    120.7259
   571.0000   2000.0000   2000.0000      8.6558    118.6492
   571.2500   2000.0000   2000.0000     15.7641    117.5430
   571.5000   2000.0000   2000.0000     47.6394    114.7251
   571.7500   2000.0000   2000.0000 100000.0000    111.8272
   572.0000   2000.0000   2000.0000 100000.0000    106.5038
   572.2500   2000.0000   2000.0000 100000.0000    102.7642
   572.5000   2000.0000   2000.0000    147.0513     97.4726
   572.7500   2000.0000   2000.0000     39.5829     94.3639
   573.0000   2000.0000   2000.0000     25.0799     90.3997
   573.2500   2000.0000   2000.0000     20.6866     88.0722
   573.5000   2000.0000   2000.0000     19.3519     84.6235
   573.7500   2000.0000   2000.0000     19.2228     82.2278
   574.0000   2000.0000   2000.0000     19.5701     78.8021
   574.2500   2000.0000   2000.0000     20.0835     77.0255
   574.5000   2000.0000   2000.0000     20.6694     75.6555
   574.7500   2000.0000   2000.0000     21.3825     75.6359
   575.0000   2000.0000   2000.0000     22.3974     76.5926
   575.2500   2000.0000   2000.0000     23.9457     77.7077
   575.5000   2000.0000   2000.0000     26.1463     80.1164
   575.7500   2000.0000   2000.0000     28.7167     82.2428
   576.0000   2000.0000   2000.0000     30.7607     85.9696
   576.2500   2000.0000   2000.0000     31.2026     88.7126
   576.5000   2000.0000   2000.0000     29.8285     93.6703
   576.7500   2000.0000   2000.0000     27.4404     98.0189
   577.0000   2000.0000   2000.0000     24.9138    106.3555
   577.2500   2000.0000   2000.0000     22.6508    112.7149
   577.5000   2000.0000   2000.0000     20.7124    122.3877
   577.7500   2000.0000   2000.0000     19.0745    128.4084
   578.0000   2000.0000   2000.0000     17.7451    135.9526
   578.2500   2000.0000   2000.0000     16.7579    139.4798
   578.5000   2000.0000   2000.0000     16.1259    142.3544
   578.7500   2000.0000   2000.0000     15.8140    143.2564
   579.0000   2000.0000   2000.0000     15.7418    144.4228
   579.2500   2000.0000   2000.0000     15.8090    145.2726
   579.5000   2000.0000   2000.0000     15.9320    145.8679
   579.7500   2000.0000   2000.0000     16.0717    145.3555
   580.0000   2000.0000   2000.0000     16.2351    143.3182
   580.2500   2000.0000   2000.0000     16.4497    141.3584
   580.5000   2000.0000   2000.0000     16.7323    137.2655
   580.7500   2000.0000   2000.0000     17.0756    133.3298
   581.0000   2000.0000   2000.0000     17.4563    125.5452
   581.2500   2000.0000   2000.0000     17.8552    119.7547
   581.5000   2000.0000   2000.0000     18.2699    111.7054
   581.7500   2000.0000   2000.0000     18.7137    107.2964
   582.0000   2000.0000   2000.0000     19.2058    102.1821
   582.2500   2000.0000   2000.0000     19.7619     99.6608
   582.5000   2000.0000   2000.0000     20.3862     97.1357
   582.7500   2000.0000   2000.0000     21.0606     96.1337
   583.0000   2000.0000   2000.0000     21.7334     94.9260
   583.2500   2000.0000   2000.0000     22.3245     93.9123
