~Version Information
VERS.                      2.0: CWLS Log ASCII Standard - VERSION 2.0
WRAP.                       NO: One line per depth step
~Well Information Block
STRT.FT               830.0000: 
STOP.FT              1792.5000: 
STEP.FT                 0.1000: 
NULL.                -999.2500: 
COMP.          Pioneer Natural Resources: COMPANY
WELL.           Rolls 14-14 Tr: WELL
FLD.           Purgatoire River: FIELD
LOC.           473' FSL & 817' FWL: LOCATION
PROV.                 Colorado: PROVINCE
CNTY.               Las Animas: COUNTRY
SRVC.                Patterson: SERVICE COMPANY
DATE.          Wed Aug 03 07:11:37 2005: LOG DATE
UWI.           05 071 08454 00: UNIQUE WELL ID
~Curve Information Block
DEPT.FT            0 000 00 00: Depth
DCAL.in                       : CDL Caliper
RHOB.g/cc                     : CDL Bulk Density
RHOC.g/cc                     : CDL Density Correction
DPOR.pu                       : CDL Density Porosity
GR.GAPI                       : Gamma Ray
NPOR.pu                       : Neutron Porosity
~Parameter Information Block
~A  Depth       DCAL        RHOB        RHOC        DPOR         GR         NPOR    
# ...
  1588.4000      7.9852      2.5408      0.0586      6.6188    146.5481     24.8854
  1588.5000      8.0213      2.5470      0.0416      6.2433    150.8977     24.3597
  1588.6000      8.0213      2.5462      0.0064      6.2921    151.9384     24.3257
  1588.7000      8.0213      2.5478      0.0137      6.1922    148.6219     24.7438
  1588.8000      7.9983      2.5564      0.0381      5.6699    146.7050     25.2749
  1588.9000      7.9983      2.5576      0.0880      5.6013    149.6419     25.2226
  1589.0000      8.0165      2.5444      0.0355      6.4019    150.9855     24.4541
  1589.1000      8.0165      2.5262      0.0289      7.5004    147.6265     24.0358
  1589.2000      8.0165      2.5076      0.0425      8.6283    145.6712     24.4360
  1589.3000      8.0133      2.4881      0.0140      9.8123    148.6239     24.6331
  1589.4000      8.0133      2.4718      0.0063     10.8002    150.1977     24.3903
  1589.5000      8.0160      2.4628     -0.0192     11.3432    143.5312     24.6661
  1589.6000      8.0160      2.4568     -0.0199     11.7096    133.5465     25.6331
  1589.7000      8.0160      2.4459     -0.0138     12.3692    130.7241     26.5892
  1589.8000      8.0050      2.4312     -0.0069     13.2611    134.0050     26.7765
  1589.9000      8.0050      2.3954      0.0544     15.4295    136.5034     26.2829
  1590.0000      8.0015      2.3064     -0.0043     20.8240    137.9795     26.1230
  1590.1000      8.0015      2.1840     -0.0883     28.2446    140.2277     26.8539
  1590.2000      8.0015      2.0806     -0.0975     34.5088    142.3917     27.8493
  1590.3000      8.0131      2.0037     -0.0853     39.1675    141.0240     28.5137
  1590.4000      8.0131      1.9205     -0.0484     44.2131    134.8640     28.7552
  1590.5000      8.0321      1.8228     -0.0730     50.1334    129.0381     28.7768
  1590.6000      8.0321      1.7496     -0.0998     54.5672    124.7269     29.0673
  1590.7000      8.0321      1.7340      0.0158     55.5122    118.8785     29.9220
  1590.8000      8.0212      1.7625      0.1264     53.7900    114.0842     30.7286
  1590.9000      8.0212      1.8101      0.1211     50.9017    110.9130     30.8714
  1591.0000      8.0356      1.8703      0.1652     47.2548    106.4739     31.0422
  1591.1000      8.0356      1.9296      0.1695     43.6592    102.4493     31.7123
  1591.2000      8.0356      1.9746      0.1342     40.9325    100.7164     32.6146
  1591.3000      8.1304      2.0200      0.0646     38.1827    101.5046     33.6341
  1591.4000      8.1304      2.0727      0.1034     34.9880    103.9248     33.9516
  1591.5000      8.1329      2.1012      0.1172     33.2600    106.1226     33.0101
  1591.6000      8.1329      2.0812      0.1027     34.4711    109.9201     31.7869
  1591.7000      8.1329      2.0215      0.0742     38.0881    116.8003     31.6751
  1591.8000      8.1410      1.9391      0.0638     43.0847    121.8907     32.4916
  1591.9000      8.1410      1.8501      0.0103     48.4788    122.0369     32.6908
  1592.0000      8.2480      1.7849     -0.1554     52.4273    118.6143     32.2800
  1592.1000      8.2480      1.7703     -0.0718     53.3149    112.3424     32.6472
  1592.2000      8.2480      1.7934     -0.0302     51.9125    104.1444     33.5126
  1592.3000      8.2632      1.8358     -0.0167     49.3448     95.6280     33.5000
  1592.4000      8.2632      1.9138      0.0151     44.6211     88.3860     32.6680
  1592.5000      8.1125      2.0356      0.1593     37.2371     84.5336     32.0289
  1592.6000      8.1125      2.1734      0.2218     28.8871     87.6475     31.6450
  1592.7000      8.1125      2.3055      0.2667     20.8817     96.6151     30.9461
  1592.8000      8.1307      2.4200      0.2875     13.9392    103.5381     30.0024
  1592.9000      8.1307      2.4962      0.1928      9.3205    103.2040     29.2784
  1593.0000      8.3429      2.5314      0.0804      7.1899     96.4091     28.4418
  1593.1000      8.3429      2.5458      0.0878      6.3148     88.1256     26.7415
  1593.2000      8.3429      2.5552      0.0709      5.7465     83.5765     24.3991
  1593.3000      8.1865      2.5641      0.0428      5.2074     84.7713     22.8815
  1593.4000      8.1865      2.5690      0.0708      4.9097     91.3380     23.2927
  1593.5000      8.0188      2.5641      0.0631      5.2068     99.3313     24.5720
  1593.6000      8.0188      2.5550      0.0828      5.7567    104.1640     24.8907
  1593.7000      8.0188      2.5520      0.0703      5.9377    106.7995     24.1429
  1593.8000      7.9765      2.5531      0.1066      5.8706    107.9111     23.5241
  1593.9000      7.9765      2.5464      0.0869      6.2805    105.4190     23.6737
  1594.0000      7.9783      2.5371      0.0010      6.8434    100.3992     24.0261
  1594.1000      7.9783      2.5421      0.0173      6.5400     95.0038     23.9156
  1594.2000      7.9783      2.5525      0.0324      5.9068     93.7678     23.5816
  1594.3000      7.9982      2.5500      0.0435      6.0600    101.3139     23.5068
  1594.4000      7.9982      2.5337      0.0329      7.0479    113.2988     23.5796
  1594.5000      8.0231      2.5147     -0.0169      8.1980    120.9382     23.4704
  1594.6000      8.0231      2.4981      0.0104      9.2043    121.3986     22.9508
  1594.7000      8.0231      2.4805      0.0233     10.2745    118.0016     22.4451
  1594.8000      8.0287      2.4648     -0.0145     11.2259    114.4612     22.6012
  1594.9000      8.0287      2.4557     -0.0007     11.7732    111.6674     23.6304
  1595.0000      8.0367      2.4551      0.0051     11.8108    109.5425     25.2690
  1595.1000      8.0367      2.4719     -0.0222     10.7949    109.9000     26.4924
  1595.2000      8.0367      2.5025      0.0953      8.9398    113.6264     26.4647
  1595.3000      8.0323      2.5293      0.0748      7.3146    120.1912     25.6132
  1595.4000      8.0323      2.5565      0.0422      5.6666    128.2708     24.5386
  1595.5000      8.0200      2.5881      0.1283      3.7527    133.6414     23.5442
  1595.6000      8.0200      2.6078      0.1178      2.5559    133.0804     23.0054
  1595.7000      8.0200      2.6158      0.1124      2.0755    129.3619     22.5498
  1595.8000      7.9744      2.6243      0.1258      1.5572    123.5991     22.0957
  1595.9000      7.9744      2.6291      0.1464      1.2642    114.7695     22.4238
  1596.0000      7.9437      2.6278      0.1012      1.3441    107.8409     23.1684
  1596.1000      7.9437      2.6325      0.0957      1.0627    107.3388     23.2312
  1596.2000      7.9437      2.6443      0.0848      0.3471    107.6355     22.6425
  1596.3000      7.9466      2.6527      0.0470     -0.1660    102.6852     22.4130
  1596.4000      7.9466      2.6480      0.1042      0.1222     97.6645     22.8715
  1596.5000      7.9613      2.6246      0.0605      1.5419     99.9562     23.0865
  1596.6000      7.9613      2.5939      0.0602      3.4028    107.3330     22.4726
  1596.7000      7.9613      2.5740      0.0701      4.6079    114.0884     21.5697
  1596.8000      7.9674      2.5692      0.0709      4.8970    118.8100     21.2056
  1596.9000      7.9674      2.5757      0.0189      4.5006    121.4470     21.6312
  1597.0000      7.9522      2.5912      0.0604      3.5653    122.5490     22.1562
  1597.1000      7.9522      2.6124      0.0627      2.2814    123.6602     22.2253
  1597.2000      7.9522      2.6335      0.0350      1.0027    120.6300     22.4573
  1597.3000      7.9549      2.6477      0.0762      0.1395    110.8465     23.0678
  1597.4000      7.9549      2.6487      0.0576      0.0783    100.5793     23.1641
  1597.5000      7.9755      2.6342      0.0644      0.9567     98.1241     22.8804
  1597.6000      7.9755      2.6128     -0.0075      2.2534    104.4407     23.3162
  1597.7000      7.9755      2.5965      0.0159      3.2422    109.3239     24.4380
  1597.8000      7.9853      2.5868      0.0027      3.8325    107.9614     24.9597
  1597.9000      7.9853      2.5773      0.0255      4.4075    108.0158     24.3492
