~Version Information
VERS.                      2.0: CWLS Log ASCII Standard - VERSION 2.0
WRAP.                       NO: One line per depth step
~Well Information Block
STRT.FT               795.0000: 
STOP.FT              2276.0000: 
STEP.FT                 0.1000: 
NULL.                -999.2500: 
COMP.          Pioneer Natural Resources: COMPANY
WELL.            Wildcard 31-5: WELL
FLD.           Purgatoire River: FIELD
LOC.           624' FNL & 1852' FEL--: LOCATION
CNTY.               Las Animas: COUNTY
SRVC.                Patterson: SERVICE COMPANY
DATE.          Tue Mar 07 07:04:10 2006: LOG DATE
UWI.           05 071 08707 00: UNIQUE WELL ID
STAT.                 Colorado: STATE
~Curve Information Block
DEPT.FT            0 000 00 00: Depth
DCAL.in                       : CDL Caliper
DPOR.pu                       : CDL Density Porosity
NPOR.pu                       : Neutron Porosity
RHOB.g/cc                     : CDL Bulk Density
RHOC.g/cc                     : CDL Density Correction
GR.GAPI                       : Gamma Ray
~Parameter Information Block
~A  Depth       DCAL        DPOR        NPOR        RHOB        RHOC         GR     
# ...
  1678.2000      7.9566      5.9057     20.2801      2.5526      0.0312     40.3942
  1678.3000      7.9593      6.8826     20.6377      2.5364      0.0379     41.3166
  1678.4000      7.9593      7.7350     20.8127      2.5224      0.0188     48.9097
  1678.5000      7.9580      7.9585     20.9316      2.5187      0.0147     59.3147
  1678.6000      7.9580      7.6197     20.9972      2.5243      0.0341     63.1365
  1678.7000      7.9580      7.7620     20.6394      2.5219      0.0935     59.8547
  1678.8000      7.9581      8.4721     20.0819      2.5102      0.0217     54.7018
  1678.9000      7.9581      8.6769     20.0609      2.5068      0.0357     47.0415
  1679.0000      7.9618      8.0097     20.5525      2.5178      0.0524     41.5852
  1679.1000      7.9618      7.0646     20.9208      2.5334      0.0231     46.4709
  1679.2000      7.9618      6.4304     20.9624      2.5439      0.0517     56.6419
  1679.3000      7.9634      6.3488     20.8496      2.5452      0.0698     60.6500
  1679.4000      7.9634      6.7270     20.7333      2.5390      0.0666     57.3264
  1679.5000      7.9608      7.1153     20.7409      2.5326      0.0540     54.8832
  1679.6000      7.9608      6.9784     20.7250      2.5349      0.0480     56.2640
  1679.7000      7.9608      6.5556     20.5519      2.5418      0.0571     60.5478
  1679.8000      7.9554      6.5675     20.4796      2.5416      0.0816     64.1866
  1679.9000      7.9554      6.6677     20.6217      2.5400      0.0441     57.5858
  1680.0000      7.9543      5.9125     20.5040      2.5524      0.0541     43.8192
  1680.1000      7.9543      4.7094     19.9445      2.5723      0.0784     37.9043
  1680.2000      7.9543      4.2683     19.5629      2.5796      0.0904     42.4904
  1680.3000      7.9733      5.1105     19.5153      2.5657      0.0884     49.9989
  1680.4000      7.9733      6.9976     19.4627      2.5345      0.0455     55.9903
  1680.5000      7.9924      8.7315     19.5498      2.5059      0.0115     56.5630
  1680.6000      7.9924      8.6411     19.8979      2.5074     -0.0331     53.2276
  1680.7000      7.9924      7.1563     20.1763      2.5319      0.0732     53.3699
  1680.8000      7.9745      6.7737     20.0769      2.5382      0.0372     57.2951
  1680.9000      7.9745      7.9003     19.8704      2.5196      0.0258     62.0087
  1681.0000      7.9519      8.9559     19.8848      2.5022      0.0166     66.2864
  1681.1000      7.9519      9.0753     19.7611      2.5003      0.0255     66.3724
  1681.2000      7.9519      8.1008     19.5634      2.5163      0.0289     62.8524
  1681.3000      7.9463      6.6256     19.6943      2.5407      0.0485     59.1185
  1681.4000      7.9463      6.0717     19.9882      2.5498      0.0718     56.6810
  1681.5000      7.9466      6.8218     20.2131      2.5374      0.0334     57.0389
  1681.6000      7.9466      7.7322     20.3306      2.5224      0.0465     56.6593
  1681.7000      7.9466      8.2388     20.4261      2.5141      0.0613     55.2537
  1681.8000      7.9467      8.6600     20.7977      2.5071      0.0403     57.8073
  1681.9000      7.9467      8.7229     21.3271      2.5061      0.0076     60.8270
  1682.0000      7.9465      7.7832     21.4080      2.5216     -0.0014     57.3899
  1682.1000      7.9465      6.4865     21.2080      2.5430      0.0721     47.6266
  1682.2000      7.9465      5.8584     21.2888      2.5533      0.0404     41.0518
  1682.3000      7.9467      5.4624     21.5259      2.5599      0.0463     44.8654
  1682.4000      7.9467      4.9214     21.3883      2.5688      0.0575     49.7946
  1682.5000      7.9469      4.8554     20.8711      2.5699      0.0817     46.2486
  1682.6000      7.9469      5.5779     20.5741      2.5580      0.0225     44.5819
  1682.7000      7.9469      6.7804     20.6908      2.5381      0.0461     55.2813
  1682.8000      7.9458      7.9733     20.8494      2.5184      0.0264     70.4955
  1682.9000      7.9458      8.4336     20.9061      2.5108      0.0220     78.8662
  1683.0000      7.9444      8.0715     21.1858      2.5168      0.0028     75.0040
  1683.1000      7.9444      7.7068     21.6990      2.5228      0.0177     62.9758
  1683.2000      7.9444      8.1049     22.0399      2.5163      0.0224     53.3627
  1683.3000      7.9418      9.3218     21.7361      2.4962      0.0021     47.3924
  1683.4000      7.9418     10.9800     20.9456      2.4688      0.0069     45.4830
  1683.5000      7.9389     12.2771     20.5751      2.4474     -0.0442     47.8293
  1683.6000      7.9389     12.0839     20.8073      2.4506     -0.0335     47.2875
  1683.7000      7.9389     10.5202     21.2267      2.4764      0.0184     43.8121
  1683.8000      7.9372      9.0419     21.7754      2.5008      0.0527     43.2834
  1683.9000      7.9372      8.6303     22.3000      2.5076      0.0241     44.3531
  1684.0000      7.9368      9.4053     22.4588      2.4948      0.0554     43.5824
  1684.1000      7.9368     11.1866     22.1283      2.4654      0.0099     43.3578
  1684.2000      7.9368     13.0880     21.7277      2.4340     -0.0155     44.8206
  1684.3000      7.9380     13.7919     21.6136      2.4224     -0.0138     46.4482
  1684.4000      7.9380     12.7428     21.6376      2.4397     -0.0196     45.9982
  1684.5000      7.9450     10.9221     21.6720      2.4698      0.0583     41.4941
  1684.6000      7.9450     10.1142     21.8487      2.4831      0.0730     37.9287
  1684.7000      7.9450     10.6057     22.1838      2.4750      0.0298     38.8122
  1684.8000      7.9553     11.1664     22.5752      2.4658      0.0365     40.4621
  1684.9000      7.9553     11.1263     22.9148      2.4664      0.0414     40.1579
  1685.0000      7.9599     10.8077     22.8792      2.4717      0.0147     40.9541
  1685.1000      7.9599     10.9805     22.5241      2.4688      0.0753     44.2494
  1685.2000      7.9599     11.8448     22.5421      2.4546      0.0006     45.9331
  1685.3000      7.9593     12.3838     22.9000      2.4457      0.0014     43.5391
  1685.4000      7.9593     11.7598     22.9423      2.4560     -0.0093     36.5043
  1685.5000      7.9591     10.4138     22.9904      2.4782      0.0528     27.5107
  1685.6000      7.9591      9.5066     23.3781      2.4931      0.0842     22.6330
  1685.7000      7.9591      9.7176     23.4175      2.4897      0.0715     23.7571
  1685.8000      7.9604     10.7589     22.9777      2.4725      0.0684     26.8454
  1685.9000      7.9604     11.5471     22.6799      2.4595      0.0188     27.5647
  1686.0000      7.9599     11.3056     22.5167      2.4635      0.0560     27.9852
  1686.1000      7.9599     10.7336     22.2458      2.4729      0.0620     32.3985
  1686.2000      7.9599     10.5515     22.2393      2.4759      0.0698     39.1722
  1686.3000      7.9601     10.1883     22.4737      2.4819      0.0257     41.7681
  1686.4000      7.9601      9.3704     22.3747      2.4954      0.0973     37.0208
  1686.5000      7.9726      8.8031     21.7496      2.5047      0.0683     30.5921
  1686.6000      7.9726      8.6633     21.0170      2.5071      0.0652     30.0455
  1686.7000      7.9726      8.6235     20.5849      2.5077      0.0598     31.9637
  1686.8000      7.9862      8.4112     20.1843      2.5112      0.0844     28.9660
  1686.9000      7.9862      7.7962     19.5952      2.5214      0.0765     25.2942
  1687.0000      7.9711      7.0871     19.3058      2.5331      0.0900     27.6549
  1687.1000      7.9711      7.2597     19.6612      2.5302      0.0607     31.9886
  1687.2000      7.9711      8.5217     20.3388      2.5094      0.0489     33.7463
  1687.3000      7.9478      9.6682     20.8972      2.4905      0.0129     35.3908
  1687.4000      7.9478      9.9375     21.0718      2.4860      0.0501     38.2015
  1687.5000      7.9361     10.1700     20.9425      2.4822      0.0499     38.4174
  1687.6000      7.9361     10.9980     20.8017      2.4685      0.0578     34.9962
  1687.7000      7.9361     11.5477     20.8904      2.4595      0.0072     32.9278
