~Version Information
VERS.                      2.0: CWLS Log ASCII Standard - VERSION 2.0
WRAP.                       NO: One line per depth step
~Well Information Block
STRT.FT                -8.7500: 
STOP.FT              1860.5000: 
STEP.FT                 0.2500: 
NULL.                -999.2500: 
COMP.          Pioneer Natural Resources: COMPANY
WELL.          Cortina 23-25 Tr: WELL
FLD.           Purgatorie River: FIELD
LOC.           --2521' FSL & 2345' FWL------: LOCATION
STAT.                       CO: PROVINCE
CNTY.               Las Animas: COUNTY
CTRY. USA : country
SECT. 25 : Section
TOWN. 32S : Township
RANG. 67W : Range
SRVC.          Patterson Wireline: SERVICE COMPANY
DATE.          Thu Sep 29 11:30:45 2005: LOG DATE
API.           05 071 08534 00: UNIQUE WELL ID
~Curve Information Block
DEPT.FT            0 000 00 00: Depth
CCL.                          : Casing Collar Locator
TT3.usec                      : CBL 3' Travel Time
AMP3.mV                       : CBL 3' Amplitude
GR.GAPI                       : Gamma Ray
~Parameter Information Block
~A  Depth       CCL         TT3         AMP3         GR     
# ...
   728.2500      0.0000    321.4624     26.2983     58.4862
   728.5000      0.0000    321.5437     26.0242     56.7200
   728.7500      0.0000    321.7565     25.5668     55.9691
   729.0000      0.0000    322.0793     24.9853     54.8918
   729.2500      0.0000    322.4947     24.3414     53.4485
   729.5000      0.0000    322.9684     23.6872     52.7308
   729.7500      0.0000    323.4209     23.0691     53.3004
   730.0000      0.0000    323.7469     22.5336     54.4838
   730.2500      0.0000    323.8819     22.1170     55.4863
   730.5000      0.0000    323.8491     21.8296     56.5662
   730.7500      0.0000    323.7356     21.6530     58.5564
   731.0000      0.0000    323.6284     21.5525     61.3691
   731.2500      0.0000    323.5724     21.4935     63.5936
   731.5000      0.0000    323.5730     21.4535     63.8611
   731.7500      0.0000    323.6241     21.4268     62.2679
   732.0000      0.0000    323.7243     21.4179     60.1395
   732.2500      0.0000    323.8694     21.4295     58.6679
   732.5000      0.0000    324.0310     21.4594     58.1676
   732.7500      0.0000    324.1544     21.5095     58.4780
   733.0000      0.0000    324.1877     21.5882     59.5995
   733.2500      0.0000    324.1179     21.7020     61.6932
   733.5000      0.0000    323.9780     21.8465     64.5529
   733.7500      0.0000    323.8217     22.0097     67.2903
   734.0000      0.0000    323.6910     22.1817     68.6453
   734.2500      0.0000    323.6002     22.3612     67.6401
   734.5000      0.0000    323.5391     22.5545     64.1387
   734.7500      0.0000    323.4886     22.7693     59.0156
   735.0000      0.0000    323.4371     23.0032     53.8375
   735.2500      0.0000    323.3837     23.2372     50.2180
   735.5000      0.0000    323.3311     23.4413     49.1217
   735.7500      0.0000    323.2767     23.5873     50.4255
   736.0000      0.0000    323.2175     23.6528     53.1279
   736.2500      0.0000    323.1644     23.6138     56.1319
   736.5000      0.0000    323.1449     23.4443     58.7446
   736.7500      0.0000    323.1851     23.1384     60.5243
   737.0000      0.0000    323.2866     22.7321     61.2237
   737.2500      0.0000    323.4240     22.2954     61.1242
   737.5000      0.0000    323.5622     21.8965     60.9650
   737.7500      0.0000    323.6765     21.5690     61.2782
   738.0000      0.0000    323.7638     21.3055     62.0120
   738.2500      0.0000    323.8416     21.0749     62.7860
   738.5000      0.0000    323.9703     20.8436     63.1944
   738.7500      0.0000    324.3185     20.5929     62.9519
   739.0000      0.0000    325.5218     20.3247     62.2044
   739.2500      0.0000    329.5936     20.0538     61.8097
   739.5000      0.0000    341.3509     19.7917     63.0150
   739.7500      0.0000    368.4420     19.5360     66.5370
   740.0000      0.0000    416.6113     19.2816     71.8580
   740.2500      0.0000    480.3094     19.0481     77.4475
   740.5000      0.0000    537.7380     18.8863     81.7322
   740.7500      0.0000    561.1195     18.8432     83.9813
   741.0000      0.0000    537.5782     18.9187     84.6172
   741.2500      0.0000    480.1299     19.0654     85.0989
   741.5000      0.0000    416.6260     19.2338     87.3135
   741.7500      0.0000    368.9032     19.4089     92.3423
   742.0000      0.0000    342.8804     19.5991     99.3505
   742.2500      0.0000    334.1835     19.7960    105.8671
   742.5000      0.0000    338.1556     19.9545    109.4968
   742.7500      0.0000    353.4802     20.0141    109.6792
   743.0000      0.0000    378.2141     19.9395    108.0738
   743.2500      0.0000    404.8842     19.7475    107.2981
   743.5000      0.0000    423.8640     19.4987    109.0904
   743.7500      0.0000    433.9547     19.2588    113.3319
   744.0000      0.0000    446.1651     19.0599    118.3911
   744.2500      0.0000    473.3625     18.8936    122.1919
   744.5000      0.0000    518.7377     18.7323    123.4063
   744.7500      0.0000    575.7138     18.5530    122.1163
   745.0000      0.0000    634.0766     18.3456    119.5048
   745.2500      0.0000    684.0219     18.1126    117.1222
   745.5000      0.0000    719.1111     17.8647    116.2454
   745.7500      0.0000    738.8166     17.6152    117.0519
   746.0000      0.0000    747.5037     17.3752    118.1103
   746.2500      0.0000    750.4628     17.1528    117.5107
   746.5000      0.0000    751.1956     16.9605    114.9958
   746.7500      0.0000    751.2529     16.8213    112.6081
   747.0000      0.0000    751.1924     16.7562    113.0000
   747.2500      0.0000    751.2058     16.7622    117.2371
   747.5000      0.0000    751.3571     16.8088    124.0778
   747.7500      0.0000    751.5836     16.8614    130.9749
   748.0000      0.0000    751.7794     16.9013    135.7265
   748.2500      0.0000    751.8791     16.9218    137.7038
   748.5000      0.0000    751.8887     16.9162    138.0721
   748.7500      0.0000    751.8497     16.8821    138.5783
   749.0000      0.0000    751.7855     16.8307    139.5665
   749.2500      0.0000    751.6865     16.7859    139.5085
   749.5000      0.0000    751.5446     16.7729    137.0020
   749.7500      0.0000    751.3930     16.8041    132.7859
   750.0000      0.0000    751.2964     16.8721    129.2005
   750.2500      0.0000    751.2970     16.9597    127.9918
   750.5000      0.0000    751.3514     17.0596    129.0152
   750.7500      0.0000    751.2866     17.1846    130.7005
   751.0000      0.0000    750.4760     17.3575    131.3192
   751.2500      0.0000    746.9159     17.5930    130.0766
   751.5000      0.0000    735.7292     17.8884    127.5694
   751.7500      0.0000    709.0793     18.2290    125.2138
   752.0000      0.0000    660.6345     18.6002    124.0421
   752.2500      0.0000    594.4210     18.9836    124.1533
   752.5000      0.0000    529.2690     19.3358    125.3098
   752.7500      0.0000    489.6738     19.5835    127.4967
   753.0000      0.0000    489.0643     19.6580    130.6333
   753.2500      0.0000    522.8472     19.5349    134.2446
   753.5000      0.0000    576.1460     19.2370    137.5195
   753.7500      0.0000    633.6867     18.8122    139.3708
   754.0000      0.0000    683.5095     18.3201    138.9097
   754.2500      0.0000    718.4981     17.8229    136.5758
   754.5000      0.0000    737.9905     17.3689    134.5009
   754.7500      0.0000    746.3528     16.9852    135.3000
   755.0000      0.0000    748.8798     16.6893    140.3609
   755.2500      0.0000    748.8655     16.4905    148.8323
   755.5000      0.0000    747.1236     16.3637    157.7825
   755.7500      0.0000    742.6543     16.2211    163.6324
   756.0000      0.0000    733.7498     15.9366    164.3350
   756.2500      0.0000    719.7847     15.4377    160.7913
   756.5000      0.0000    703.0078     14.7902    155.9926
   756.7500      0.0000    689.0867     14.1656    152.1994
   757.0000      0.0000    685.3156     13.7147    149.0032
   757.2500      0.0000    696.3875     13.4877    144.5475
   757.5000      0.0000    719.8904     13.4487    138.2578
   757.7500      0.0000    746.4127     13.5118    131.7188
   758.0000      2.0000    766.0601     13.5689    127.2743
   758.2500     -2.0000    774.8397     13.5195    126.3348
   758.5000      0.0000    773.6885     13.3039    128.5989
   758.7500      0.0000    762.1642     12.9781    132.4980
   759.0000      0.0000    735.5397     12.8073    136.6211
   759.2500      0.0000    690.3309     13.1985    140.6990
   759.5000      0.0000    632.0516     14.3866    144.9092
   759.7500      0.0000    573.4310     16.1676    148.5692
   760.0000      0.0000    522.7210     18.0332    150.1758
   760.2500      0.0000    477.3620     19.5553    148.6939
   760.5000      0.0000    432.2101     20.5930    144.4451
   760.7500      0.0000    389.5095     21.2177    138.8974
   761.0000      0.0000    356.5725     21.5662    133.9622
   761.2500      0.0000    337.1374     21.7624    131.3503
   761.5000      0.0000    329.1904     21.8864    132.0116
