~Version Information
VERS.                      2.0: CWLS Log ASCII Standard - VERSION 2.0
WRAP.                       NO: One line per depth step
~Well Information Block
STRT.FT               -11.5000: 
STOP.FT              1961.7500: 
STEP.FT                 0.2500: 
NULL.                -999.2500: 
COMP.          Petrogulf Corporation: COMPANY
WELL.           State 16-23R-X: WELL
FLD.           Purgatorie River: FIELD
LOC.           2381' FSL & 2072' FWL--: LOCATION
PROV.                       CO: PROVINCE
CNTY.               Las Animas: COUNTRY
SRVC.          Patterson Wireline: SERVICE COMPANY
DATE.          Fri Sep 09 14:32:42 2005: LOG DATE
UWI.           05 071 08324 00: UNIQUE WELL ID
~Curve Information Block
DEPT.FT            0 000 00 00: Depth
CCL.                          : Casing Collar Locator
TT3.usec                      : CBL 3' Travel Time
AMP3.mV                       : CBL 3' Amplitude
GR.GAPI                       : Gamma Ray
~Parameter Information Block
~A  Depth       CCL         TT3         AMP3         GR     
# ...
  1295.0000      0.0000    287.1065     46.7136    117.4601
  1295.2500      0.0000    300.0544     40.4746    116.0610
  1295.5000      0.0000    317.9259     34.3440    113.2215
  1295.7500      0.0000    342.9922     28.5345    108.1805
  1296.0000      0.0000    376.0918     23.4477    101.5218
  1296.2500      0.0000    418.3103     19.4836     95.7743
  1296.5000      0.0000    473.6172     16.6885     93.6870
  1296.7500      0.0000    544.2888     14.7267     95.9250
  1297.0000      0.0000    621.3062     13.2165    100.5660
  1297.2500      0.0000    685.1246     11.9871    104.4202
  1297.5000      0.0000    720.8873     11.0396    104.9842
  1297.7500      0.0000    729.8713     10.4028    102.2677
  1298.0000     -2.0000    723.3099     10.0599     99.2547
  1298.2500      0.0000    708.8763      9.9609     99.8169
  1298.5000      0.0000    686.6486     10.0718    105.4967
  1298.7500      0.0000    655.5775     10.3944    114.2459
  1299.0000      0.0000    618.8465     10.9301    122.1706
  1299.2500      0.0000    581.3152     11.6529    126.4784
  1299.5000      0.0000    543.8276     12.5676    127.1530
  1299.7500      0.0000    503.2317     13.7709    126.4086
  1300.0000      0.0000    458.5000     15.4218    126.7452
  1300.2500      0.0000    414.0784     17.6769    129.1450
  1300.5000      0.0000    375.8695     20.6583    132.6118
  1300.7500      0.0000    346.3676     24.4188    135.1822
  1301.0000      0.0000    324.6317     28.9071    135.5055
  1301.2500      0.0000    308.5660     33.9913    133.7983
  1301.5000      0.0000    296.0597     39.5097    131.4794
  1301.7500      0.0000    285.4648     45.2341    129.9896
  1302.0000      0.0000    276.2693     50.7388    130.1319
  1302.2500      0.0000    269.0867     55.3376    132.2178
  1302.5000      0.0000    264.7513     58.2233    135.9662
  1302.7500      0.0000    263.8848     58.7437    139.8741
  1303.0000      0.0000    267.5411     56.6555    141.4744
  1303.2500      0.0000    278.3129     52.2430    139.0754
  1303.5000      0.0000    300.5913     46.2487    132.9235
  1303.7500      0.0000    339.1354     39.6157    124.5456
  1304.0000      0.0000    396.1204     33.1729    115.8873
  1304.2500      0.0000    468.1905     27.4344    109.0676
  1304.5000      0.0000    545.7116     22.5821    105.6450
  1304.7500      0.0000    615.5902     18.5817    105.8192
  1305.0000      0.0000    666.9063     15.3248    108.8603
  1305.2500      0.0000    695.8655     12.7113    113.8622
  1305.5000      0.0000    706.2411     10.6583    119.6798
  1305.7500      0.0000    705.7747      9.0840    124.8721
  1306.0000      0.0000    702.3994      7.9076    128.1525
  1306.2500      0.0000    702.0905      7.0632    128.4865
  1306.5000      0.0000    707.4350      6.5014    125.1390
  1306.7500      0.0000    717.0484      6.1736    118.6777
  1307.0000      0.0000    727.1177      6.0190    111.9592
  1307.2500      0.0000    734.4148      5.9682    109.0378
  1307.5000      0.0000    738.0140      5.9562    112.2507
  1307.7500      0.0000    738.5674      5.9372    120.2919
  1308.0000      0.0000    736.6924      5.8911    129.0352
  1308.2500      0.0000    732.4399      5.8177    134.1717
  1308.5000      0.0000    726.0938      5.7247    133.7562
  1308.7500      0.0000    718.9131      5.6281    129.2151
  1309.0000      0.0000    712.6120      5.5579    124.1440
  1309.2500      0.0000    708.0538      5.5499    121.6165
  1309.5000      0.0000    704.7739      5.6234    122.1999
  1309.7500      0.0000    701.9305      5.7687    124.3257
  1310.0000      0.0000    699.4985      5.9538    126.3079
  1310.2500      0.0000    698.2811      6.1415    127.8920
  1310.5000      0.0000    698.7914      6.3055    130.1185
  1310.7500      0.0000    700.4462      6.4371    133.9630
  1311.0000      0.0000    701.9639      6.5393    139.0888
  1311.2500      0.0000    702.1913      6.6161    143.8305
  1311.5000      0.0000    700.3129      6.6679    146.5285
  1311.7500      0.0000    695.7100      6.6945    147.1188
  1312.0000      0.0000    688.2339      6.7006    147.2715
  1312.2500      0.0000    678.8845      6.6960    148.6007
  1312.5000      0.0000    670.1874      6.6932    150.8029
  1312.7500      0.0000    665.5027      6.7015    151.9989
  1313.0000      0.0000    666.9501      6.7207    150.8431
  1313.2500      0.0000    673.0164      6.7400    147.7055
  1313.5000      0.0000    678.6542      6.7447    143.8572
  1313.7500      0.0000    679.0748      6.7285    140.4321
  1314.0000      0.0000    673.9907      6.7017    138.4437
  1314.2500      0.0000    667.7513      6.6927    138.8050
  1314.5000      0.0000    665.2648      6.7435    141.5253
  1314.7500      0.0000    668.3244      6.8970    145.1180
  1315.0000      0.0000    675.6754      7.1763    147.4443
  1315.2500      0.0000    685.0879      7.5634    147.3995
  1315.5000      0.0000    694.4813      7.9986    145.6494
  1315.7500      0.0000    702.0860      8.4061    143.6930
  1316.0000      0.0000    706.7967      8.7319    142.1991
  1316.2500      0.0000    708.5070      8.9688    140.2507
  1316.5000      0.0000    707.9009      9.1663    136.5199
  1316.7500      0.0000    706.1812      9.4236    131.4453
  1317.0000      0.0000    705.1288      9.8556    127.8338
  1317.2500      0.0000    706.7996     10.5382    128.6881
  1317.5000      0.0000    712.3635     11.4718    134.4549
  1317.7500      0.0000    720.7532     12.5933    142.6239
  1318.0000      0.0000    728.0020     13.8263    149.6371
  1318.2500      0.0000    726.8830     15.1339    152.9315
  1318.5000      0.0000    707.2689     16.5506    151.8793
  1318.7500      0.0000    660.0636     18.1745    147.7723
  1319.0000      0.0000    585.2499     20.1124    143.1059
  1319.2500      0.0000    496.6880     22.3948    140.3156
  1319.5000      0.0000    415.5803     24.9156    140.5512
  1319.7500      0.0000    357.1049     27.4478    143.0412
  1320.0000      0.0000    323.4101     29.7438    145.3269
  1320.2500      0.0000    307.5884     31.6685    144.6904
  1320.5000      0.0000    301.3391     33.2776    140.3267
  1320.7500      0.0000    299.0772     34.7825    134.2901
  1321.0000      0.0000    297.9928     36.4204    129.9442
  1321.2500      0.0000    296.6976     38.3112    129.3907
  1321.5000      0.0000    294.2246     40.3919    132.4247
  1321.7500      0.0000    289.8568     42.4608    137.5560
  1322.0000      0.0000    283.6046     44.2979    143.4497
  1322.2500      0.0000    276.5164     45.7884    149.3183
  1322.5000      0.0000    270.1685     46.9804    154.5701
  1322.7500      0.0000    265.6382     48.0366    158.5922
  1323.0000      0.0000    263.0046     49.0968    160.7911
  1323.2500      0.0000    261.7478     50.1415    160.7279
  1323.5000      0.0000    261.4472     50.9627    158.4650
  1323.7500      0.0000    262.1856     51.2691    154.8913
  1324.0000      0.0000    264.5263     50.8481    151.3858
  1324.2500      0.0000    269.0557     49.6964    148.6862
  1324.5000      0.0000    275.6349     48.0664    146.0495
  1324.7500      0.0000    283.0045     46.3858    142.1294
  1325.0000      0.0000    289.3503     45.0673    136.8916
  1325.2500      0.0000    293.3657     44.3342    132.0126
  1325.5000      0.0000    294.6633     44.1902    129.1644
  1325.7500      0.0000    293.2910     44.5148    128.5470
  1326.0000      0.0000    289.3134     45.1788    129.2797
  1326.2500      0.0000    283.1325     46.1111    130.5272
  1326.5000      0.0000    275.9554     47.3131    131.7427
  1326.7500      0.0000    269.4592     48.8302    132.3489
  1327.0000      0.0000    264.8178     50.6880    131.8661
  1327.2500      0.0000    262.1577     52.8179    130.2202
  1327.5000      0.0000    260.8908     55.0223    127.7164
  1327.7500      0.0000    260.3553     57.0156    125.0295
  1328.0000      0.0000    260.1465     58.5151    123.3317
  1328.2500      0.0000    260.1336     59.3119    123.8207
