~Version Information
VERS.                      2.0: CWLS Log ASCII Standard - VERSION 2.0
WRAP.                       NO: One line per depth step
~Well Information Block
STRT.FT               545.0000: 
STOP.FT              1452.5000: 
STEP.FT                 0.1000: 
NULL.                -999.2500: 
COMP.          Pioneer Natural Resources: COMPANY
WELL.          Parklane 43-34 Tr: WELL
FLD.           Purgatoire River: FIELD
LOC.           1643' FSL & 966' FEL: LOCATION
PROV.                 Colorado: PROVINCE
CNTY.               Las Animas: COUNTRY
SRVC.                Patterson: SERVICE COMPANY
DATE.          Fri Jul 29 07:27:28 2005: LOG DATE
UWI.           05 071 08452 00: UNIQUE WELL ID
~Curve Information Block
DEPT.FT            0 000 00 00: Depth
DCAL.in                       : CDL Caliper
RHOB.g/cc                     : CDL Bulk Density
RHOC.g/cc                     : CDL Density Correction
DPOR.pu                       : CDL Density Porosity
GR.GAPI                       : Gamma Ray
NPOR.pu                       : Neutron Porosity
~Parameter Information Block
~A  Depth       DCAL        RHOB        RHOC        DPOR         GR         NPOR    
# ...
  1380.2000      7.9666      2.5454     -0.0151      6.3419    131.9043     23.8005
  1380.3000      7.9915      2.5393      0.0007      6.7064    131.7615     23.4914
  1380.4000      7.9915      2.5423     -0.0172      6.5244    130.2830     24.4679
  1380.5000      8.0117      2.5548     -0.0448      5.7694    129.4553     26.4423
  1380.6000      8.0117      2.5737      0.0068      4.6258    133.9513     28.1935
  1380.7000      8.0117      2.5937      0.0208      3.4131    138.1366     28.4789
  1380.8000      7.9737      2.6147      0.0440      2.1391    135.3427     27.1040
  1380.9000      7.9737      2.6250      0.0607      1.5168    128.6875     25.2292
  1381.0000      7.9996      2.6084      0.0699      2.5203    122.0245     24.2170
  1381.1000      7.9996      2.5806     -0.0400      4.2084    116.5542     24.3515
  1381.2000      7.9996      2.5626      0.0287      5.2988    112.3461     24.9393
  1381.3000      7.9571      2.5511     -0.0294      5.9940    109.3764     25.1041
  1381.4000      7.9571      2.5485     -0.0001      6.1529    108.8707     24.4828
  1381.5000      7.9415      2.5591      0.0224      5.5088    110.2754     23.4853
  1381.6000      7.9415      2.5732      0.0432      4.6556    110.7738     22.7493
  1381.7000      7.9415      2.5882      0.0492      3.7455    109.8142     21.9847
  1381.8000      7.9378      2.6025      0.0728      2.8786    108.8321     20.9419
  1381.9000      7.9378      2.6008      0.0638      2.9809    105.2888     20.2319
  1382.0000      7.9386      2.5828      0.0447      4.0747     95.9278     19.7898
  1382.1000      7.9386      2.5723     -0.0019      4.7092     87.0413     19.1349
  1382.2000      7.9386      2.5790      0.0535      4.3056     85.0208     18.2372
  1382.3000      7.9299      2.5860      0.0664      3.8812     84.0931     17.0673
  1382.4000      7.9299      2.5868      0.0045      3.8283     77.1924     15.8219
  1382.5000      7.9296      2.5893      0.0453      3.6795     64.2062     15.1821
  1382.6000      7.9296      2.5924      0.0238      3.4883     51.6063     15.4767
  1382.7000      7.9296      2.5910      0.0454      3.5772     46.2916     16.0203
  1382.8000      7.9394      2.5751      0.0277      4.5395     46.0166     16.3861
  1382.9000      7.9394      2.5503      0.0024      6.0443     45.2993     16.7192
  1383.0000      7.9349      2.5426      0.0201      6.5120     43.9660     16.5939
  1383.1000      7.9349      2.5513      0.0637      5.9806     42.2605     15.4630
  1383.2000      7.9349      2.5538      0.0480      5.8278     40.4161     13.9085
  1383.3000      7.9182      2.5530      0.0127      5.8764     39.7729     13.0328
  1383.4000      7.9182      2.5663      0.0183      5.0720     40.6968     12.9933
  1383.5000      7.9174      2.5878      0.0489      3.7674     40.5534     13.0513
  1383.6000      7.9174      2.5977      0.0296      3.1693     37.6307     12.8019
  1383.7000      7.9174      2.5937      0.0740      3.4145     33.6709     12.4136
  1383.8000      7.9412      2.5943      0.0336      3.3781     32.0869     12.1788
  1383.9000      7.9412      2.6102      0.0368      2.4106     33.8860     12.4116
  1384.0000      7.9329      2.6246      0.1007      1.5368     36.2758     13.1394
  1384.1000      7.9329      2.6249      0.0383      1.5228     37.2227     13.5236
  1384.2000      7.9329      2.6232      0.0752      1.6218     37.1992     12.9565
  1384.3000      7.8698      2.6260      0.0328      1.4563     35.6526     12.1158
  1384.4000      7.8698      2.6295      0.0411      1.2443     32.2450     11.4746
  1384.5000      7.8762      2.6287      0.0687      1.2937     28.9643     11.0939
  1384.6000      7.8762      2.6177      0.0453      1.9568     27.9707     11.3314
  1384.7000      7.8762      2.6019      0.0476      2.9168     30.0699     12.0667
  1384.8000      7.9098      2.5916      0.0632      3.5424     33.9865     12.5939
  1384.9000      7.9098      2.5951      0.0100      3.3269     36.7357     12.4965
  1385.0000      7.9114      2.6172      0.0382      1.9906     36.7808     12.3561
  1385.1000      7.9114      2.6555     -0.0100     -0.3339     35.7851     12.8117
  1385.2000      7.9114      2.7029      0.0167     -3.2070     35.9929     13.2394
  1385.3000      7.9059      2.7436      0.0912     -5.6704     36.4528     13.2605
  1385.4000      7.9059      2.7586      0.1041     -6.5811     33.4415     13.4159
  1385.5000      7.9107      2.7439      0.1062     -5.6916     28.3483     13.7067
  1385.6000      7.9107      2.7063      0.0534     -3.4133     26.3933     14.0694
  1385.7000      7.9107      2.6533      0.0087     -0.1977     27.9990     14.8607
  1385.8000      7.8867      2.5961     -0.0172      3.2677     31.8414     15.6862
  1385.9000      7.8867      2.5630     -0.1274      5.2728     37.0989     15.5260
  1386.0000      7.8950      2.5806     -0.0925      4.2040     40.4503     14.4882
  1386.1000      7.8950      2.6264      0.0530      1.4294     38.7604     13.7279
  1386.2000      7.8950      2.6510      0.0853     -0.0585     34.3020     13.8916
  1386.3000      7.9122      2.6459      0.0438      0.2489     32.5518     14.8483
  1386.4000      7.9122      2.6396      0.1042      0.6281     34.2150     15.7761
  1386.5000      7.9295      2.6512      0.1388     -0.0737     37.0733     15.6882
  1386.6000      7.9295      2.6750      0.1429     -1.5123     41.4663     15.0428
  1386.7000      7.9295      2.6922      0.1438     -2.5593     47.2276     15.0131
  1386.8000      7.8511      2.6890      0.1155     -2.3635     54.1499     15.6877
  1386.9000      7.8511      2.6651      0.0910     -0.9162     61.0999     16.5871
  1387.0000      7.8440      2.6366      0.0693      0.8129     65.7888     17.4096
  1387.1000      7.8440      2.6204      0.0866      1.7923     67.4400     17.4523
  1387.2000      7.8440      2.6127      0.1169      2.2578     66.7716     16.6451
  1387.3000      7.8689      2.5984      0.0739      3.1255     65.7200     15.9763
  1387.4000      7.8689      2.5835      0.0347      4.0279     66.0351     15.8252
  1387.5000      7.8933      2.5902      0.0113      3.6267     67.3616     15.8979
  1387.6000      7.8933      2.6180      0.0720      1.9405     66.8217     15.9339
  1387.7000      7.8933      2.6387      0.0969      0.6840     61.1527     15.9467
  1387.8000      7.9319      2.6323      0.0445      1.0706     51.8484     15.9644
  1387.9000      7.9319      2.6073      0.0426      2.5874     46.1818     15.9324
  1388.0000      7.9343      2.5833      0.0152      4.0400     48.6829     15.9295
  1388.1000      7.9343      2.5723      0.0412      4.7070     55.4835     15.7438
  1388.2000      7.9343      2.5754      0.0452      4.5202     58.0251     15.4433
  1388.3000      7.9284      2.5917      0.0645      3.5320     53.0457     15.6242
  1388.4000      7.9284      2.6125      0.0727      2.2733     46.4352     16.0511
  1388.5000      7.9214      2.6187      0.0669      1.8988     42.7310     16.1685
  1388.6000      7.9214      2.6074      0.0233      2.5805     43.3596     16.3164
  1388.7000      7.9214      2.6071     -0.0322      2.6004     46.6105     16.7880
  1388.8000      7.9308      2.6528     -0.0308     -0.1698     49.0257     17.7350
  1388.9000      7.9308      2.7321      0.0629     -4.9788     50.1578     19.5728
  1389.0000      7.9422      2.7815      0.1477     -7.9680     50.5603     21.7548
  1389.1000      7.9422      2.7669      0.0852     -7.0818     51.4600     22.8276
  1389.2000      7.9422      2.7123      0.0576     -3.7779     55.7444     22.9991
  1389.3000      7.9388      2.6540      0.0291     -0.2403     64.1692     23.5425
  1389.4000      7.9388      2.6156     -0.0078      2.0822     71.9739     23.9709
  1389.5000      7.9280      2.5913     -0.0153      3.5568     76.8783     23.7707
  1389.6000      7.9280      2.5530     -0.0520      5.8772     84.2687     24.0604
  1389.7000      7.9280      2.5058     -0.1267      8.7407     95.9945     25.3357
