~Version Information
VERS.                      2.0: CWLS Log ASCII Standard - VERSION 2.0
WRAP.                       NO: One line per depth step
~Well Information Block
STRT.FT               -14.0000: 
STOP.FT               951.0000: 
STEP.FT                 0.2500: 
NULL.                -999.2500: 
COMP.          Pioneer Natural Resources: COMPANY
WELL.             Giggle 21-22: WELL
FLD.           Purgatoire River: FIELD
LOC.           950' FNL & 2094' FWL: LOCATION
CNTY.               Las Animas: COUNTY
SRVC.                         : SERVICE COMPANY
DATE.          Mon Apr 17 17:51:33 2006: LOG DATE
UWI.           05 071 08726 00: UNIQUE WELL ID
STAT.                       CO: STATE
~Curve Information Block
DEPT.FT            0 000 00 00: Depth
CCL.                          : Casing Collar Locator
TT3.usec                      : CBL 3' Travel Time
AMP3.mV                       : CBL 3' Amplitude
GR.GAPI                       : Gamma Ray
~Parameter Information Block
~A  Depth       CCL         TT3         AMP3         GR     
   -14.0000   -999.2500   -999.2500   -999.2500     93.2942
   -13.7500   -999.2500   -999.2500   -999.2500     94.1712
   -13.5000   -999.2500   -999.2500   -999.2500     96.0053
   -13.2500   -999.2500   -999.2500   -999.2500     98.0281
   -13.0000   -999.2500   -999.2500   -999.2500     98.7449
   -12.7500   -999.2500   -999.2500   -999.2500     97.2128
   -12.5000   -999.2500   -999.2500   -999.2500     94.1538
   -12.2500   -999.2500   -999.2500   -999.2500     91.5049
   -12.0000   -999.2500   -999.2500   -999.2500     90.7144
   -11.7500   -999.2500   -999.2500   -999.2500     91.7968
   -11.5000   -999.2500   -999.2500   -999.2500     94.0144
   -11.2500   -999.2500   -999.2500   -999.2500     96.7511
   -11.0000   -999.2500   -999.2500   -999.2500     99.4190
   -10.7500   -999.2500   -999.2500   -999.2500    101.2011
   -10.5000   -999.2500   -999.2500   -999.2500    101.4855
   -10.2500   -999.2500   -999.2500   -999.2500    100.4943
   -10.0000   -999.2500   -999.2500   -999.2500     99.2299
    -9.7500   -999.2500   -999.2500   -999.2500     98.5873
    -9.5000   -999.2500   -999.2500   -999.2500     98.3796
    -9.2500   -999.2500   -999.2500   -999.2500     97.3829
    -9.0000   -999.2500   1356.0000      1.5390     94.6697
    -8.7500   -999.2500   1356.0000      1.5098     90.9420
    -8.5000   -999.2500   1356.0000      1.4690     88.2223
    -8.2500   -999.2500   1356.0000      1.4213     88.1735
    -8.0000   -999.2500   1356.0000      1.3705     90.8703
    -7.7500   -999.2500   1356.0000      1.3284     94.8186
    -7.5000   -999.2500   1356.0000      1.3152     97.7460
    -7.2500   -999.2500   1356.0000      1.3396     97.9034
    -7.0000   -999.2500   1356.0000      1.3833     95.3678
    -6.7500   -999.2500   1356.0000      1.4149     91.9667
    -6.5000   -999.2500   1356.0000      1.4206     89.4370
    -6.2500   -999.2500   1356.0000      1.4142     87.8431
    -6.0000   -999.2500   1356.0000      1.4152     86.2067
    -5.7500   -999.2500   1356.0000      1.4266     84.3623
    -5.5000   -999.2500   1356.0000      1.4376     83.4861
    -5.2500   -999.2500   1356.0000      1.4424     84.6993
    -5.0000   -999.2500   1356.0000      1.4447     87.5820
    -4.7500   -999.2500   1356.0000      1.4466     90.3425
    -4.5000   -999.2500   1356.0000      1.4439     91.2396
    -4.2500   -999.2500   1356.0000      1.4354     89.6859
    -4.0000   -999.2500   1356.0000      1.4287     86.3777
    -3.7500   -999.2500   1356.0000      1.4322     82.7459
    -3.5000      0.0000   1356.0000      1.4454     80.0961
    -3.2500      0.0000   1356.0000      1.4577     78.9898
    -3.0000      0.0000   1356.0000      1.4594     79.4715
    -2.7500      0.0000   1356.0000      1.4516     81.6022
    -2.5000      0.0000   1356.0000      1.4455     85.2053
    -2.2500      0.0000   1356.0000      1.4491     89.2154
    -2.0000      0.0000   1356.0000      1.4608     91.9664
    -1.7500      0.0000   1356.0000      1.4739     92.3063
    -1.5000      0.0000   1356.0000      1.4831     90.2358
    -1.2500      0.0000   1356.0000      1.4864     86.7425
    -1.0000      0.0000   1356.0000      1.4845     83.3578
    -0.7500      0.0000   1356.0000      1.4783     81.5153
    -0.5000      0.0000   1356.0000      1.4678     81.5304
    -0.2500     -2.4472   1356.0000      1.4562     81.9863
     0.0000      5.0000   1356.0000      1.4498     80.5764
     0.2500     -5.0000   1356.0000      1.4492     68.7945
     0.5000      5.0000   1356.0000      1.4429     60.7883
     0.7500      5.0000   1356.0000      1.4275     52.9721
     1.0000      0.0000   1356.0000      1.4053     45.3593
     1.2500     -2.9874   1356.0000      1.3860     38.1945
     1.5000      0.0000   1356.0000      1.3820     32.6148
     1.7500      0.0000   1356.0000      1.3944     29.7441
     2.0000      0.0000   1356.0000      1.4111     29.8116
     2.2500      0.0000   1356.0000      1.4181     32.5296
     2.5000      0.0000   1355.9879      1.4092     37.7212
     2.7500      0.0000   1355.8510      1.3900     45.0670
     3.0000      0.0000   1355.0684      1.3854     53.5129
     3.2500      0.0000   1351.5394      1.4685     61.2855
     3.5000      0.0000   1338.9468      1.8593     66.5178
     3.7500      0.0000   1303.4017      3.1346     68.1010
     4.0000      0.0000   1224.0989      6.4159     66.4012
     4.2500      0.0000   1084.3990     13.1255     63.1773
     4.5000      0.0000    890.3103     23.9945     60.4133
     4.7500      0.0000    677.8960     37.8329     59.1419
     5.0000      0.0000    495.0348     51.3790     59.4844
     5.2500      0.0000    371.5840     60.8858     61.4330
     5.5000      0.0000    307.0310     64.2728     64.8631
     5.7500      0.0000    282.6359     61.9826     68.7492
     6.0000      0.0000    279.3052     56.0722     71.1781
     6.2500      0.0000    285.3758     48.7068     70.8157
     6.5000      0.0000    295.7002     41.3098     68.2200
     6.7500      0.0000    309.6834     34.5614     65.3646
     7.0000      0.0000    330.7310     28.7095     63.9798
     7.2500      0.0000    363.7856     23.7783     64.5374
     7.5000      0.0000    408.9049     19.6597     66.5151
     7.7500      0.0000    455.8995     16.2017     69.1717
     8.0000      0.0000    488.6908     13.3042     72.1155
     8.2500      0.0000    498.0265     10.9622     75.4497
     8.5000      0.0000    488.6613      9.2214     79.3698
     8.7500      0.0000    472.8049      8.0813     83.3503
     9.0000      2.2485    459.0038      7.4417     85.8185
     9.2500      0.0000    448.5926      7.1421     85.2311
     9.5000      0.0000    439.6772      7.0322     81.7104
     9.7500      0.0000    431.3749      7.0017     77.3368
    10.0000      0.0000    424.5276      6.9820     74.6953
    10.2500      0.0000    420.2899      6.9521     75.1647
    10.5000      0.0000    419.1625      6.9283     78.2639
    10.7500      0.0000    421.1298      6.9341     82.2185
    11.0000      0.0000    425.9846      6.9839     85.1870
    11.2500      0.0000    433.0495      7.0792     86.4157
    11.5000      0.0000    440.8829      7.2050     86.4845
    11.7500      0.0000    447.7961      7.3396     86.3723
    12.0000      0.0000    452.9467      7.4709     86.3061
    12.2500      0.0000    456.9661      7.5889     85.6566
    12.5000      0.0000    461.6709      7.6715     83.8877
    12.7500      0.0000    469.2399      7.6978     81.2906
    13.0000      0.0000    481.3640      7.6657     78.6558
    13.2500      0.0000    498.4866      7.5929     76.6258
    13.5000      0.0000    518.8159      7.5138     75.6554
    13.7500      0.0000    537.2278      7.4566     76.1128
    14.0000      0.0000    545.9537      7.4025     77.8086
    14.2500      0.0000    538.8223      7.2994     79.6595
    14.5000      0.0000    516.3675      7.1387     80.3078
    14.7500      0.0000    486.2385      6.9827     78.9731
    15.0000      0.0000    458.2046      6.8952     75.6500
    15.2500      2.2348    439.1409      6.8811     71.0901
    15.5000     -5.0000    432.6439      6.8987     66.8120
    15.7500     -5.0000    441.9340      6.9027     64.4236
    16.0000      0.0000    470.5625      6.8723     64.3760
    16.2500      0.0000    517.9469      6.8256     65.6642
    16.5000      0.0000    573.7917      6.8176     66.9871
    16.7500      0.0000    619.0610      6.9108     67.8893
    17.0000      0.0000    635.6206      7.1275     68.6332
    17.2500      0.0000    618.1688      7.4194     69.3907
    17.5000      0.0000    578.7654      7.6949     69.8528
    17.7500      0.0000    539.1998      7.8821     69.5041
    18.0000      0.0000    516.6918      7.9634     68.1930
    18.2500      0.0000    514.2210      7.9694     66.5408
    18.5000      0.0000    521.2789      7.9518     65.6890
    18.7500      0.0000    522.8903      7.9518     66.4604
    19.0000      0.0000    510.7842      7.9811     68.7944
    19.2500      0.0000    488.5429      8.0260     72.0149
