~Version Information
VERS.                      2.0: CWLS Log ASCII Standard - VERSION 2.0
WRAP.                       NO: One line per depth step
~Well Information Block
STRT.FT               245.0000: 
STOP.FT              1006.0000: 
STEP.FT                 0.1000: 
NULL.                -999.2500: 
COMP.          Pioneer Natural Resources: COMPANY
WELL.              Atlas 32-18: WELL
FLD.           Purgatoire River: FIELD
LOC.           1892' FNL & 1456' FEL: LOCATION
PROV.                 Colorado: PROVINCE
CNTY.               Las Animas: COUNTRY
SRVC.                Patterson: SERVICE COMPANY
DATE.          Mon Nov 21 08:58:56 2005: LOG DATE
UWI.           05 071 08556 00: UNIQUE WELL ID
~Curve Information Block
DEPT.FT            0 000 00 00: Depth
DCAL.in                       : CDL Caliper
RHOB.g/cc                     : CDL Bulk Density
RHOC.g/cc                     : CDL Density Correction
DPOR.pu                       : CDL Density Porosity
GR.GAPI                       : Gamma Ray
NPOR.pu                       : Neutron Porosity
~Parameter Information Block
~A  Depth       DCAL        RHOB        RHOC        DPOR         GR         NPOR    
# ...
   897.8000      7.9574      2.5704      0.0495      4.8252    119.0664     27.9789
   897.9000      7.9574      2.5799      0.0986      4.2487    123.9134     27.6261
   898.0000      7.9481      2.5925      0.1060      3.4844    120.6605     26.1278
   898.1000      7.9481      2.6026      0.0995      2.8729    116.5423     25.2541
   898.2000      7.9481      2.6083      0.1451      2.5277    115.8827     25.2513
   898.3000      7.9374      2.6091      0.1312      2.4778    112.0462     25.2701
   898.4000      7.9374      2.6175      0.1001      1.9711    102.8541     24.6664
   898.5000      7.9049      2.6382      0.1422      0.7135     94.8682     23.6525
   898.6000      7.9049      2.6454      0.1520      0.2816     91.9772     23.4032
   898.7000      7.9049      2.6202      0.1366      1.8046     91.4996     24.3394
   898.8000      7.9555      2.5812      0.0375      4.1683     89.2417     25.4901
   898.9000      7.9555      2.5608     -0.0325      5.4072     87.0256     25.5626
   899.0000      7.9520      2.5701      0.0550      4.8436     86.3724     24.2861
   899.1000      7.9520      2.5897      0.0766      3.6555     85.3845     22.8906
   899.2000      7.9520      2.5963      0.0890      3.2520     86.9756     22.3957
   899.3000      7.9073      2.5845      0.0677      3.9691     90.4031     22.5503
   899.4000      7.9073      2.5659      0.0578      5.0945     89.6370     23.0352
   899.5000      7.8780      2.5540      0.0825      5.8164     85.2044     23.6394
   899.6000      7.8780      2.5515      0.0981      5.9697     80.7734     24.1419
   899.7000      7.8780      2.5554      0.0873      5.7338     78.2864     24.6593
   899.8000      7.9142      2.5627      0.0744      5.2894     80.5090     25.0354
   899.9000      7.9142      2.5669      0.1137      5.0383     87.4202     24.7464
   900.0000      7.9309      2.5645      0.0612      5.1844     92.8883     23.7192
   900.1000      7.9309      2.5659      0.0447      5.0964     92.8908     22.7199
   900.2000      7.9309      2.5735      0.0805      4.6359     89.5262     22.3112
   900.3000      7.9349      2.5730      0.1001      4.6644     84.6142     22.3074
   900.4000      7.9349      2.5569      0.1010      5.6433     79.9873     22.6580
   900.5000      7.9531      2.5342      0.0693      7.0178     78.0223     23.2829
   900.6000      7.9531      2.5199      0.0562      7.8823     77.6630     23.6434
   900.7000      7.9531      2.5216      0.0111      7.7789     78.6792     23.3401
   900.8000      7.9568      2.5357      0.0300      6.9281     82.0933     22.4564
   900.9000      7.9568      2.5493      0.0640      6.1036     86.1166     21.7699
   901.0000      7.9617      2.5475      0.0638      6.2118     87.4040     21.9145
   901.1000      7.9617      2.5326      0.0333      7.1161     86.1855     22.8107
   901.2000      7.9617      2.5284      0.0359      7.3688     84.2523     24.0280
   901.3000      7.9579      2.5500      0.0709      6.0586     83.4506     24.5857
   901.4000      7.9579      2.5811      0.0982      4.1772     85.5723     23.9539
   901.5000      7.9672      2.5920      0.1308      3.5179     86.8542     23.3022
   901.6000      7.9672      2.5789      0.0667      4.3081     83.8476     23.8347
   901.7000      7.9672      2.5686      0.0311      4.9357     82.7009     24.8893
   901.8000      7.9548      2.5743      0.0581      4.5891     86.3762     25.3897
   901.9000      7.9548      2.5766      0.1145      4.4461     88.5376     25.3189
   902.0000      7.9455      2.5620      0.0646      5.3316     87.5898     24.8832
   902.1000      7.9455      2.5449      0.0339      6.3695     88.9980     24.4677
   902.2000      7.9455      2.5393      0.0503      6.7076     94.2365     24.5333
   902.3000      7.9514      2.5361      0.0381      6.9006     99.1664     24.6277
   902.4000      7.9514      2.5201      0.0851      7.8715    100.3909     24.3570
   902.5000      7.9522      2.4954      0.0064      9.3690     96.4584     24.0122
   902.6000      7.9522      2.4785      0.0346     10.3962     88.1029     24.0642
   902.7000      7.9522      2.4732      0.0209     10.7129     80.9864     25.0813
   902.8000      7.9609      2.4771      0.0263     10.4797     78.7997     26.6139
   902.9000      7.9609      2.4890      0.0290      9.7594     79.6159     27.1127
   903.0000      8.0113      2.5046      0.0412      8.8141     82.3140     25.9460
   903.1000      8.0113      2.5192      0.0443      7.9254     84.9469     24.3490
   903.2000      8.0113      2.5297      0.0573      7.2879     83.3751     23.3971
   903.3000      8.0348      2.5294      0.0924      7.3093     76.9279     23.0613
   903.4000      8.0348      2.5185      0.0699      7.9678     70.1189     23.1799
   903.5000      7.9744      2.5086      0.0736      8.5693     66.8834     23.6249
   903.6000      7.9744      2.5037      0.0576      8.8648     67.9695     24.1137
   903.7000      7.9744      2.5002      0.0540      9.0784     70.8813     24.1930
   903.8000      7.9678      2.4976      0.0275      9.2337     71.5331     23.4998
   903.9000      7.9678      2.4983      0.0483      9.1945     68.6867     22.5437
   904.0000      7.9794      2.5080      0.0447      8.6035     65.2672     22.0749
   904.1000      7.9794      2.5301      0.1041      7.2680     65.7344     22.1235
   904.2000      7.9794      2.5480      0.1489      6.1795     68.7528     22.7107
   904.3000      7.9597      2.5445      0.0989      6.3940     71.6861     23.6318
   904.4000      7.9597      2.5332      0.0555      7.0810     73.9472     23.8994
   904.5000      7.9647      2.5351      0.0830      6.9659     73.6933     22.8395
   904.6000      7.9647      2.5429      0.1201      6.4879     71.4025     21.4708
   904.7000      7.9647      2.5428      0.0578      6.4941     68.2904     21.4389
   904.8000      7.9636      2.5386      0.0807      6.7494     65.4789     22.6300
   904.9000      7.9636      2.5369      0.0893      6.8557     63.7884     23.3070
   905.0000      7.9732      2.5360      0.0499      6.9084     61.2713     22.8962
   905.1000      7.9732      2.5267      0.1017      7.4705     56.9236     22.4375
   905.2000      7.9732      2.5082      0.0508      8.5912     53.8541     22.6503
   905.3000      7.9880      2.4981      0.0535      9.2068     54.5188     23.1717
   905.4000      7.9880      2.5102      0.0445      8.4757     57.1169     23.1782
   905.5000      7.9588      2.5412      0.0894      6.5931     59.4973     22.7479
   905.6000      7.9588      2.5741      0.1024      4.6014     60.2931     22.6162
   905.7000      7.9588      2.5909      0.1124      3.5798     59.1466     22.9307
   905.8000      7.9608      2.5875      0.0954      3.7884     58.2852     23.0606
   905.9000      7.9608      2.5694      0.0752      4.8854     59.6848     22.4837
   906.0000      7.9678      2.5509      0.0127      6.0045     62.5723     21.6800
   906.1000      7.9678      2.5497      0.0418      6.0816     63.7987     21.4945
   906.2000      7.9678      2.5526      0.0919      5.9058     61.2968     22.2560
   906.3000      7.9780      2.5336      0.0450      7.0525     57.9748     23.5736
   906.4000      7.9780      2.5054      0.0318      8.7636     58.2652     24.7992
   906.5000      7.9690      2.4920      0.0100      9.5753     61.1374     25.6482
   906.6000      7.9690      2.4900      0.0394      9.7000     61.3226     25.8543
   906.7000      7.9690      2.4849      0.0428     10.0046     59.0747     25.2490
   906.8000      7.9676      2.4786      0.0194     10.3865     59.2108     24.3870
   906.9000      7.9676      2.4790      0.0641     10.3612     60.9009     23.9291
   907.0000      7.9627      2.4804      0.0136     10.2811     60.9923     23.5413
   907.1000      7.9627      2.4748      0.0375     10.6152     59.3799     22.7880
   907.2000      7.9627      2.4657      0.0393     11.1696     57.5264     22.0210
   907.3000      7.9565      2.4631      0.0450     11.3289     57.8731     21.7560
