~Version Information
VERS.                      2.0: CWLS Log ASCII Standard - VERSION 2.0
WRAP.                       NO: One line per depth step
~Well Information Block
STRT.FT               245.0000: 
STOP.FT              1208.2500: 
STEP.FT                 0.2500: 
NULL.                -999.2500: 
COMP.          Pioneer Natural Resources: COMPANY
WELL.              Davida 34-8: WELL
FLD.           Purgatoire River: FIELD
LOC.           418' FSL & 1923' FEL--: LOCATION
CNTY.               Las Animas: COUNTY
SRVC.                Patterson: SERVICE COMPANY
DATE.          Sat Mar 18 07:00:13 2006: LOG DATE
UWI.           05 071 08722 00: UNIQUE WELL ID
STAT.                 Colorado: STATE
~Curve Information Block
DEPT.FT            0 000 00 00: Depth
GR.GAPI                       : Gamma Ray
DIR.Ohm-m                     : IEL Induction Resistivity
~Parameter Information Block
~A  Depth        GR         DIR     
# ...
   523.7500    110.7503     16.4585
   524.0000    111.5058     16.8129
   524.2500    111.8374     17.1524
   524.5000    112.1685     17.4426
   524.7500    112.4465     17.6564
   525.0000    112.9366     17.7841
   525.2500    113.1717     17.8323
   525.5000    113.2036     17.8119
   525.7500    112.9781     17.7251
   526.0000    112.4027     17.5621
   526.2500    112.1728     17.3065
   526.5000    113.0325     16.9446
   526.7500    115.0308     16.4731
   527.0000    120.7843     15.9036
   527.2500    126.3022     15.2638
   527.5000    135.8428     14.5926
   527.7500    142.0115     13.9294
   528.0000    149.6091     13.3034
   528.2500    153.2401     12.7281
   528.5000    156.3111     12.2039
   528.7500    156.5589     11.7254
   529.0000    154.1355     11.2871
   529.2500    151.2535     10.8856
   529.5000    147.1020     10.5191
   529.7500    145.4691     10.1861
   530.0000    144.8079      9.8852
   530.2500    144.8259      9.6154
   530.5000    144.5277      9.3752
   530.7500    144.1860      9.1603
   531.0000    144.2138      8.9625
   531.2500    144.8839      8.7698
   531.5000    146.8337      8.5693
   531.7500    148.5683      8.3504
   532.0000    151.3682      8.1092
   532.2500    153.0709      7.8488
   532.5000    154.9203      7.5785
   532.7500    155.5453      7.3114
   533.0000    155.8739      7.0611
   533.2500    156.2428      6.8397
   533.5000    157.9530      6.6560
   533.7500    159.8136      6.5151
   534.0000    162.4232      6.4180
   534.2500    163.2254      6.3626
   534.5000    162.5590      6.3437
   534.7500    161.0845      6.3558
   535.0000    157.5619      6.3936
   535.2500    154.1012      6.4539
   535.5000    146.7959      6.5358
   535.7500    140.8452      6.6405
   536.0000    132.2184      6.7709
   536.2500    128.0521      6.9299
   536.5000    125.4926      7.1179
   536.7500    125.9074      7.3295
   537.0000    127.4931      7.5500
   537.2500    127.5461      7.7555
   537.5000    124.1023      7.9166
   537.7500    119.3857      8.0072
   538.0000    110.7529      8.0146
   538.2500    105.9393      7.9446
   538.5000    103.1221      7.8179
   538.7500    104.9307      7.6613
   539.0000    112.4570      7.4976
   539.2500    119.4169      7.3410
   539.5000    130.1595      7.1973
   539.7500    136.3284      7.0677
   540.0000    143.2136      6.9537
   540.2500    146.2182      6.8597
   540.5000    148.3811      6.7918
   540.7500    148.1929      6.7547
   541.0000    145.9884      6.7483
   541.2500    144.2630      6.7679
   541.5000    143.4348      6.8062
   541.7500    144.5585      6.8547
   542.0000    147.6716      6.9052
   542.2500    149.5950      6.9491
   542.5000    151.2970      6.9769
   542.7500    151.9399      6.9800
   543.0000    153.1781      6.9539
   543.2500    154.3280      6.9004
   543.5000    155.7481      6.8284
   543.7500    155.9727      6.7516
   544.0000    155.1000      6.6848
   544.2500    153.9607      6.6409
   544.5000    151.6659      6.6298
   544.7500    149.7293      6.6581
   545.0000    146.4682      6.7303
   545.2500    144.5308      6.8488
   545.5000    142.7449      7.0133
   545.7500    142.2662      7.2195
   546.0000    141.8590      7.4589
   546.2500    141.4704      7.7199
   546.5000    140.9603      7.9894
   546.7500    141.0647      8.2551
   547.0000    142.1693      8.5073
   547.2500    143.3230      8.7411
   547.5000    145.1924      8.9555
   547.7500    146.4357      9.1519
   548.0000    148.1935      9.3304
   548.2500    149.0464      9.4881
   548.5000    149.3166      9.6185
   548.7500    148.7520      9.7146
   549.0000    147.3239      9.7739
   549.2500    146.5427      9.8022
   549.5000    146.4457      9.8134
   549.7500    147.1868      9.8248
   550.0000    148.8596      9.8511
   550.2500    149.7820      9.9002
   550.5000    150.1340      9.9746
   550.7500    149.3682     10.0750
   551.0000    146.1724     10.2035
   551.2500    142.5317     10.3643
   551.5000    135.2177     10.5623
   551.7500    129.5744     10.8011
   552.0000    120.7137     11.0813
   552.2500    115.0382     11.3998
   552.5000    108.1268     11.7483
   552.7500    105.3727     12.1105
   553.0000    104.7073     12.4589
   553.2500    106.3789     12.7560
   553.5000    110.8584     12.9636
   553.7500    114.2059     13.0580
   554.0000    118.4185     13.0427
   554.2500    120.4239     12.9466
   554.5000    122.5464     12.8103
   554.7500    123.5485     12.6689
   555.0000    124.1580     12.5443
   555.2500    123.5457     12.4457
   555.5000    120.3636     12.3745
   555.7500    116.6257     12.3266
   556.0000    109.6075     12.2915
   556.2500    105.2677     12.2488
   556.5000    101.5590     12.1695
   556.7500    101.6401     12.0238
   557.0000    105.2867     11.7944
   557.2500    109.4775     11.4842
   557.5000    117.7626     11.1147
   557.7500    124.5478     10.7158
   558.0000    136.0211     10.3157
   558.2500    143.4710      9.9381
   558.5000    152.0867      9.6031
   558.7500    155.4623      9.3284
   559.0000    157.4038      9.1284
   559.2500    157.0497      9.0116
   559.5000    153.8160      8.9809
   559.7500    149.3373      9.0349
   560.0000    139.0337      9.1712
   560.2500    130.7167      9.3888
   560.5000    118.8441      9.6891
   560.7500    112.6893     10.0742
   561.0000    106.5926     10.5441
   561.2500    103.9236     11.0902
   561.5000    100.3789     11.6883
   561.7500     97.6769     12.2937
   562.0000     92.8875     12.8467
   562.2500     89.5743     13.2903
   562.5000     85.7194     13.5929
   562.7500     84.6757     13.7579
   563.0000     85.9404     13.8151
   563.2500     88.4527     13.8021
   563.5000     94.2552     13.7517
   563.7500     99.4053     13.6864
   564.0000    108.5341     13.6168
   564.2500    114.5716     13.5407
   564.5000    121.2588     13.4450
   564.7500    123.2788     13.3132
   565.0000    123.0667     13.1390
   565.2500    121.9861     12.9348
   565.5000    121.4117     12.7322
   565.7500    122.4430     12.5712
   566.0000    125.0581     12.4864
   566.2500    125.8250     12.4975
   566.5000    122.7318     12.6071
   566.7500    117.4378     12.8061
   567.0000    106.4884     13.0816
   567.2500     98.8893     13.4214
   567.5000     89.2016     13.8088
   567.7500     84.3893     14.2104
   568.0000     79.6817     14.5670
   568.2500     78.0756     14.8003
   568.5000     77.8364     14.8385
   568.7500     79.2784     14.6462
   569.0000     84.4831     14.2374
   569.2500     90.2598     13.6668
   569.5000    101.8520     13.0088
   569.7500    110.4790     12.3370
   570.0000    122.4862     11.7085
   570.2500    128.8658     11.1579
   570.5000    135.2765     10.6999
   570.7500    137.4255     10.3371
   571.0000    137.7294     10.0684
   571.2500    136.2652      9.8933
   571.5000    132.3714      9.8117
   571.7500    129.2913      9.8204
   572.0000    124.9627      9.9094
   572.2500    122.5325     10.0596
   572.5000    119.3886     10.2444
   572.7500    117.4737     10.4351
   573.0000    115.1926     10.6082
   573.2500    114.5885     10.7517
   573.5000    115.8044     10.8669
   573.7500    117.9801     10.9643
   574.0000    122.1728     11.0564
   574.2500    124.5403     11.1519
   574.5000    125.6992     11.2532
   574.7500    124.3317     11.3585
   575.0000    119.4762     11.4655
   575.2500    115.3327     11.5756
   575.5000    109.9963     11.6960
   575.7500    108.1848     11.8397
   576.0000    108.8910     12.0213
   576.2500    111.1268     12.2499
   576.5000    114.9858     12.5197
   576.7500    116.5744     12.8019
   577.0000    116.1284     13.0419
   577.2500    113.9094     13.1718
   577.5000    108.9647     13.1352
   577.7500    105.9023     12.9163
   578.0000    103.8581     12.5500
   578.2500    104.8115     12.1056
   578.5000    109.3385     11.6564
   578.7500    113.7499     11.2556
   579.0000    121.3956     10.9285
   579.2500    126.6905     10.6781
