~Version Information
VERS.                      2.0: CWLS Log ASCII Standard - VERSION 2.0
WRAP.                       NO: One line per depth step
~Well Information Block
STRT.FT               687.7500: 
STOP.FT              1252.7500: 
STEP.FT                 0.2500: 
NULL.                -999.2500: 
COMP.          Pioneer Natural Resources: COMPANY
WELL.          Rock Island 44-24 Tr: WELL
FLD.           Purgatoire River: FIELD
LOC.           814' FSL & 761' FEL--: LOCATION
CNTY.               Las Animas: COUNTY
SRVC.                Patterson: SERVICE COMPANY
DATE.          Wed Apr 19 21:31:44 2006: LOG DATE
UWI.           05 071 08680 00: UNIQUE WELL ID
STAT.                 Colorado: STATE
~Curve Information Block
DEPT.FT            0 000 00 00: Depth
DIR.Ohm-m                     : IEL Induction Resistivity
GR.GAPI                       : Gamma Ray
~Parameter Information Block
~A  Depth       DIR          GR     
# ...
   799.2500     14.1812    120.9095
   799.5000     15.2186    109.3162
   799.7500     16.4840    100.3485
   800.0000     17.9911     87.7869
   800.2500     19.7454     81.4398
   800.5000     21.7321     75.6638
   800.7500     23.8995     73.6390
   801.0000     26.1531     71.6572
   801.2500     28.3685     70.5127
   801.5000     30.4181     69.1974
   801.7500     32.1907     68.9057
   802.0000     33.6004     69.6318
   802.2500     34.6077     70.7905
   802.5000     35.2574     72.9883
   802.7500     35.6910     74.3624
   803.0000     36.0980     75.8231
   803.2500     36.6295     76.3215
   803.5000     37.3328     76.3856
   803.7500     38.1444     75.9893
   804.0000     38.9459     74.8405
   804.2500     39.6420     73.8497
   804.5000     40.2103     72.2670
   804.7500     40.6909     71.1495
   805.0000     41.1413     69.1679
   805.2500     41.5921     67.5760
   805.5000     42.0281     65.0556
   805.7500     42.3996     63.5935
   806.0000     42.6586     62.0095
   806.2500     42.7914     61.2230
   806.5000     42.8216     59.9919
   806.7500     42.7862     59.0623
   807.0000     42.7173     57.8887
   807.2500     42.6360     57.5730
   807.5000     42.5439     58.0788
   807.7500     42.4046     58.9840
   808.0000     42.1483     60.6272
   808.2500     41.7212     61.4943
   808.5000     41.1468     62.1431
   808.7500     40.5323     62.3128
   809.0000     40.0102     62.5559
   809.2500     39.6702     62.6836
   809.5000     39.5350     62.5001
   809.7500     39.5812     62.0574
   810.0000     39.7729     61.1611
   810.2500     40.0819     60.6137
   810.5000     40.4861     59.9626
   810.7500     40.9610     59.4849
   811.0000     41.4759     58.3032
   811.2500     41.9987     57.1267
   811.5000     42.5030     55.0928
   811.7500     42.9630     53.8655
   812.0000     43.3303     52.5206
   812.2500     43.5107     51.9301
   812.5000     43.3722     51.4266
   812.7500     42.8039     51.4789
   813.0000     41.7895     52.6869
   813.2500     40.4252     54.5754
   813.5000     38.8662     59.1481
   813.7500     37.2523     62.9898
   814.0000     35.6679     68.7712
   814.2500     34.1384     72.0201
   814.5000     32.6454     75.5842
   814.7500     31.1440     77.1643
   815.0000     29.5803     78.4646
   815.2500     27.9112     78.5613
   815.5000     26.1263     77.6694
   815.7500     24.2621     76.8647
   816.0000     22.3929     76.7234
   816.2500     20.6018     78.0826
   816.5000     18.9515     83.0241
   816.7500     17.4719     88.3588
   817.0000     16.1641     98.9089
   817.2500     15.0136    106.7932
   817.5000     14.0028    117.9739
   817.7500     13.1192    124.1940
   818.0000     12.3577    131.2978
   818.2500     11.7169    134.6413
   818.5000     11.1956    137.8482
   818.7500     10.7908    139.0029
   819.0000     10.4985    139.5476
   819.2500     10.3148    139.1605
   819.5000     10.2360    137.7438
   819.7500     10.2571    136.7589
   820.0000     10.3711    136.2098
   820.2500     10.5705    136.5840
   820.5000     10.8489    137.2842
   820.7500     11.2021    136.8767
   821.0000     11.6276    133.6163
   821.2500     12.1242    129.5105
   821.5000     12.6915    121.4379
   821.7500     13.3330    115.9693
   822.0000     14.0566    109.9361
   822.2500     14.8723    108.1373
   822.5000     15.7831    108.1921
   822.7500     16.7755    108.9013
   823.0000     17.8178    109.1963
   823.2500     18.8710    108.5427
   823.5000     19.9091    106.5498
   823.7500     20.9342    104.6884
   824.0000     21.9744    101.0720
   824.2500     23.0665     98.1366
   824.5000     24.2363     93.2144
   824.7500     25.4884     89.7571
   825.0000     26.8094     84.5219
   825.2500     28.1791     81.1265
   825.5000     29.5794     76.3610
   825.7500     30.9950     73.4178
   826.0000     32.4061     69.2853
   826.2500     33.7815     66.7465
   826.5000     35.0769     63.5015
   826.7500     36.2392     61.9320
   827.0000     37.2128     60.9238
   827.2500     37.9406     61.4271
   827.5000     38.3660     64.1774
   827.7500     38.4453     67.1418
   828.0000     38.1699     72.2691
   828.2500     37.5751     75.4064
   828.5000     36.7147     78.9072
   828.7500     35.6079     80.4366
   829.0000     34.1988     82.0460
   829.2500     32.3784     83.0281
   829.5000     30.0867     84.7459
   829.7500     27.4418     85.9808
   830.0000     24.7715     87.3146
   830.2500     22.4997     87.4417
   830.5000     21.0113     86.5464
   830.7500     20.6441     85.8710
   831.0000     21.8389     86.0940
   831.2500     25.4752     87.2747
   831.5000     33.5816     89.4918
   831.7500     50.6268     90.3430
   832.0000     80.4028     90.1416
   832.2500     92.9473     89.5505
   832.5000     62.7710     89.3010
   832.7500     37.8831     89.8645
   833.0000     26.6358     91.2585
   833.2500     23.3415     92.0131
   833.5000     27.5361     92.3056
   833.7500     65.0674     91.9193
   834.0000 100000.0000     91.0587
   834.2500 100000.0000     91.0387
   834.5000 100000.0000     93.2129
   834.7500 100000.0000     96.3435
   835.0000 100000.0000    102.3473
   835.2500 100000.0000    106.1217
   835.5000 100000.0000    110.4363
   835.7500 100000.0000    112.6004
   836.0000 100000.0000    115.6761
   836.2500 100000.0000    118.0465
   836.5000 100000.0000    122.4123
   836.7500 100000.0000    125.6556
   837.0000 100000.0000    129.5572
   837.2500 100000.0000    130.2512
   837.5000 100000.0000    127.1935
   837.7500      5.7889    122.9846
   838.0000      1.7817    115.9595
   838.2500      0.9804    112.1102
   838.5000      0.6992    108.1811
   838.7500      0.6133    106.3143
   839.0000      0.6550    103.4714
   839.2500      0.8309    101.0496
   839.5000      1.1626     96.1381
   839.7500      1.4692     91.9057
   840.0000      1.2354     84.5186
   840.2500      0.7014     79.5930
   840.5000      0.3381     73.6828
   840.7500      0.1472     71.2363
   841.0000      0.0619     69.5732
   841.2500      0.0290     69.2398
   841.5000      0.0163     68.9976
   841.7500      0.0110     68.6829
   842.0000      0.0086     67.6836
   842.2500      0.0076     66.7011
   842.5000      0.0074     65.4052
   842.7500      0.0083     65.2446
   843.0000      0.0108     66.8288
   843.2500      0.0172     69.3293
   843.5000      0.0339     75.4752
   843.7500      0.0813     81.1799
   844.0000      0.2093     91.4881
   844.2500      0.5176     98.6328
   844.5000      1.4013    107.9182
   844.7500      7.8162    112.3994
   845.0000 100000.0000    116.1188
   845.2500 100000.0000    116.6969
   845.5000 100000.0000    115.3947
   845.7500 100000.0000    113.7804
   846.0000 100000.0000    111.5468
   846.2500 100000.0000    110.6851
   846.5000 100000.0000    110.4979
   846.7500 100000.0000    110.8567
   847.0000 100000.0000    111.4478
   847.2500 100000.0000    111.6840
   847.5000 100000.0000    112.2733
   847.7500 100000.0000    113.3383
   848.0000 100000.0000    116.1573
   848.2500 100000.0000    118.3145
   848.5000 100000.0000    120.7552
   848.7500 100000.0000    121.6169
   849.0000 100000.0000    122.3095
   849.2500 100000.0000    122.7811
   849.5000 100000.0000    123.6002
   849.7500 100000.0000    123.9379
   850.0000 100000.0000    123.7081
   850.2500 100000.0000    123.1672
   850.5000     43.2849    122.3974
   850.7500     13.3998    122.1477
   851.0000      8.6757    121.9135
   851.2500      7.0222    121.5034
   851.5000      6.3536    120.3330
   851.7500      6.1212    119.4751
   852.0000      6.1226    118.6696
   852.2500      6.2783    118.5242
   852.5000      6.5617    118.7156
   852.7500      6.9627    119.0851
   853.0000      7.4632    119.9667
   853.2500      8.0238    120.5697
   853.5000      8.5858    121.0266
   853.7500      9.0886    121.0091
   854.0000      9.4905    120.9667
   854.2500      9.7791    121.1356
   854.5000      9.9662    121.4844
   854.7500     10.0759    121.5976
