~Version Information
 VERS.                                  2.0 : CWLS LAS VERSION
 WRAP.                                   NO : WRAPING MODE
 SWARE .                 MController 2.5.0J : SOFTWARE VERSION
~Well Information
 WELL.                     Hemisphere 32-24 : WELL
 COMP.    Pioneer Natural Resources USA Inc : COMPANY
 FLD.                      Purgatoire River : FIELD
 LOC.                 SE/SW Sec 24 T33 R67W : LOCATION
 DATE.                             08/14/05 : DATE(S) LOGGED
 SRVC.       BLANCO Geological Services LLC : SERVICE COMPANY
 STAT.                                   CO : STATE
 CNTY.                           Las Animas : COUNTY
 CTRY.                                  USA : COUNTRY
 API.                       05-071-08440-00 : API NUMBER
 STRT.FT                             399.00 : START DEPTH
 STOP.FT                            2171.00 : STOP DEPTH
 STEP.FT                               1.00 : DEPTH INCREMENT
 NULL.                                -9999 : NULL VALUE
~Curve information
 DEPTH.FT                                   :
 ROP.MIN/FT                                 :
 GAS.UNITS                                  :
~ASCII Log data
# ...
      1799.0         0.47         60.3 
      1800.0         0.43         56.8 
      1801.0         0.47         32.8 
      1802.0         0.40         45.8 
      1803.0         0.37         50.1 
      1804.0         0.37         50.2 
      1805.0         0.40         49.1 
      1806.0         0.45         47.8 
      1807.0         0.37         44.4 
      1808.0         0.33         44.3 
      1809.0         0.27         44.3 
      1810.0         0.30         44.1 
      1811.0         0.27         44.1 
      1812.0         0.30         43.9 
      1813.0         0.30         42.4 
      1814.0         0.30         42.9 
      1815.0         0.27         41.0 
      1816.0         0.28         41.3 
      1817.0         0.30         40.9 
      1818.0         0.30         41.6 
      1819.0         0.30         42.8 
      1820.0         0.23         43.0 
      1821.0         0.40         43.4 
      1822.0         0.33         44.3 
      1823.0         0.30         43.6 
      1824.0         0.43         42.8 
      1825.0         0.30         42.9 
      1826.0         2.62         45.2 
      1827.0         0.70         88.8 
      1828.0         0.48         88.2 
      1829.0         0.40         75.1 
      1830.0         0.33         63.3 
      1831.0         0.33         66.4 
      1832.0         0.20         66.4 
      1833.0         0.23         66.5 
      1834.0         0.40         61.2 
      1835.0         0.37         58.0 
      1836.0         0.40         56.3 
      1837.0         0.27         54.8 
      1838.0         0.20         52.0 
      1839.0         0.25         52.0 
      1840.0         0.27         52.4 
      1841.0         0.33         59.2 
      1842.0         0.40         61.3 
      1843.0         0.40         61.0 
      1844.0         0.37         59.4 
      1845.0         0.33         57.9 
      1846.0         0.33         55.7 
      1847.0         0.33         51.9 
      1848.0         0.33         51.8 
      1849.0         0.42         51.4 
      1850.0         0.33         50.5 
      1851.0         0.37         49.3 
      1852.0         0.33         47.4 
      1853.0         0.43         48.0 
      1854.0         0.40         47.2 
      1855.0         0.33         46.7 
      1856.0         4.22        108.8 
      1857.0         0.62         96.0 
      1858.0         0.43         68.8 
      1859.0         0.47         67.8 
      1860.0         0.33         64.8 
      1861.0         0.33         60.2 
      1862.0         0.47         55.5 
      1863.0         0.33         49.6 
      1864.0         0.37         47.2 
      1865.0         0.35         45.6 
      1866.0         0.30         44.4 
      1867.0         0.30         44.2 
      1868.0         0.30         43.7 
      1869.0         0.30         44.3 
      1870.0         0.33         44.7 
      1871.0         0.37         46.2 
      1872.0         0.33         46.5 
      1873.0         0.33         45.2 
      1874.0         0.33         44.5 
      1875.0         0.42         44.3 
      1876.0         0.33         44.1 
      1877.0         0.37         43.8 
      1878.0         0.37         44.0 
      1879.0         0.43         43.5 
      1880.0         0.20         43.1 
      1881.0         0.17         43.1 
      1882.0         0.20         42.3 
      1883.0         0.20         41.8 
      1884.0         0.27         42.7 
      1885.0         0.27         30.9 
      1886.0         4.57        193.2 
      1887.0         0.43        107.8 
      1888.0         0.37         77.1 
      1889.0         0.27         70.9 
      1890.0         0.50         70.8 
      1891.0         0.43         59.5 
      1892.0         0.37         51.0 
      1893.0         0.35         46.5 
      1894.0         0.33         45.7 
      1895.0         0.30         42.9 
      1896.0         0.27         43.1 
      1897.0         0.30         43.6 
      1898.0         0.37         43.5 
      1899.0         0.33         44.3 
      1900.0         0.40         44.5 
      1901.0         0.30         44.1 
      1902.0         0.30         44.5 
      1903.0         0.35         44.2 
      1904.0         0.37         43.8 
      1905.0         0.30         43.9 
      1906.0         0.33         43.7 
      1907.0         0.33         43.5 
      1908.0         0.33         43.5 
      1909.0         0.33         43.3 
      1910.0         0.33         43.2 
      1911.0         0.37         43.1 
      1912.0         0.37         42.5 
      1913.0         0.25         42.2 
      1914.0         0.17         41.7 
      1915.0         0.13         40.8 
      1916.0         3.15         93.6 
      1917.0         0.43         84.8 
      1918.0         0.37         75.8 
      1919.0         0.40         79.4 
      1920.0         0.37         79.3 
      1921.0         0.30         69.3 
      1922.0         0.30         66.0 
      1923.0         0.30         58.9 
      1924.0         0.33         52.5 
      1925.0         0.32         47.6 
      1926.0         0.33         47.6 
      1927.0         0.37         45.6 
      1928.0         0.33         44.2 
      1929.0         0.30         42.9 
      1930.0         0.27         43.5 
      1931.0         0.27         42.8 
      1932.0         0.27         43.0 
      1933.0         0.33         43.6 
      1934.0         0.30         44.3 
      1935.0         0.33         44.3 
      1936.0         0.35         43.1 
      1937.0         0.23         42.8 
      1938.0         0.23         43.5 
      1939.0         0.23         43.5 
      1940.0         0.27         43.8 
      1941.0         0.27         44.5 
      1942.0         0.13         44.5 
      1943.0         0.30         46.7 
      1944.0         0.40         46.0 
      1945.0         0.90         51.8 
      1946.0         2.15         89.1 
      1947.0         0.53         94.1 
      1948.0         0.50         85.3 
      1949.0         0.58         73.0 
      1950.0         0.57         70.2 
      1951.0         0.57         61.8 
      1952.0         0.47         51.7 
      1953.0         0.43         43.9 
      1954.0         0.43         42.7 
      1955.0         0.40         41.3 
      1956.0         0.42         41.1 
      1957.0         0.47         41.6 
      1958.0         0.37         41.1 
      1959.0         0.43         40.5 
      1960.0         0.33         41.7 
      1961.0         0.43         41.0 
      1962.0         0.33         40.7 
      1963.0         0.40         41.3 
      1964.0         0.40         41.6 
      1965.0         0.42         41.6 
      1966.0         0.43         41.1 
      1967.0         0.40         40.9 
      1968.0         0.37         40.7 
      1969.0         0.40         40.5 
      1970.0         0.40         39.8 
      1971.0         0.40         39.9 
      1972.0         0.43         39.7 
      1973.0         0.48         39.6 
      1974.0         0.50         39.0 
      1975.0         0.47         38.8 
      1976.0         3.05         80.3 
      1977.0         0.77         84.3 
      1978.0         0.43         59.9 
      1979.0         0.43         61.9 
      1980.0         0.37         60.8 
      1981.0         0.23         58.1 
      1982.0         0.22         56.0 
      1983.0         0.43         51.0 
      1984.0         0.43         49.4 
      1985.0         0.37         49.8 
      1986.0         0.33         49.5 
      1987.0         0.30         45.7 
      1988.0         0.33         41.9 
      1989.0         0.30         41.9 
      1990.0         0.33         41.3 
      1991.0         0.37         41.1 
      1992.0         0.32         40.7 
      1993.0         0.13         41.1 
      1994.0         0.13         41.1 
      1995.0         0.10         41.1 
      1996.0         0.17         41.3 
      1997.0         0.23         43.2 
      1998.0         0.23         49.7 
