~Version Information
VERS.                      2.0: CWLS Log ASCII Standard - VERSION 2.0
WRAP.                       NO: One line per depth step
~Well Information Block
STRT.FT               555.0000: 
STOP.FT              2322.2000: 
STEP.FT                 0.1000: 
NULL.                -999.2500: 
COMP.          Pioneer Natural Resources: COMPANY
WELL.          Fittipaldi 21-12: WELL
FLD.           Purgatoire River: FIELD
LOC.           207' FNL & 2110' FWL--: LOCATION
CNTY.               Las Animas: COUNTY
SRVC.                Patterson: SERVICE COMPANY
DATE.          Wed Mar 22 07:11:06 2006: LOG DATE
UWI.           05 071 08492 00: UNIQUE WELL ID
STAT.                 Colorado: STATE
~Curve Information Block
DEPT.FT            0 000 00 00: Depth
DCAL.in                       : CDL Caliper
RHOB.g/cc                     : CDL Bulk Density
RHOC.g/cc                     : CDL Density Correction
DPOR.pu                       : CDL Density Porosity
NPOR.pu                       : Neutron Porosity
GR.GAPI                       : Gamma Ray
~Parameter Information Block
~A  Depth       DCAL        RHOB        RHOC        DPOR        NPOR         GR     
# ...
  2292.6000      7.7040      2.5133      0.0342      8.2867     19.8653   -999.2500
  2292.7000      7.7040      2.4951      0.0560      9.3864     20.0117   -999.2500
  2292.8000      7.7063      2.4791     -0.0016     10.3601     20.1476   -999.2500
  2292.9000      7.7063      2.4725     -0.0141     10.7573     20.2545   -999.2500
  2293.0000      7.7081      2.4821      0.0057     10.1772     20.4403   -999.2500
  2293.1000      7.7081      2.5005      0.0697      9.0582     20.6368   -999.2500
  2293.2000      7.7081      2.5139      0.0478      8.2484     20.6478   -999.2500
  2293.3000      7.7081      2.5200      0.0329      7.8805     20.3983   -999.2500
  2293.4000      7.7081      2.5241      0.0292      7.6305     20.2148   -999.2500
  2293.5000      7.7078      2.5209      0.0605      7.8257     19.9794   -999.2500
  2293.6000      7.7078      2.5100      0.0231      8.4862     19.1145   -999.2500
  2293.7000      7.7078      2.5012      0.0362      9.0164     17.9742   -999.2500
  2293.8000      7.7054      2.4966      0.0260      9.2955     17.5444   -999.2500
  2293.9000      7.7054      2.5008      0.0052      9.0446     18.0817   -999.2500
  2294.0000      7.7012      2.5162      0.0362      8.1070     18.7797   -999.2500
  2294.1000      7.7012      2.5314      0.0784      7.1890     19.0233   -999.2500
  2294.2000      7.7012      2.5389      0.0736      6.7319     19.1223   -999.2500
  2294.3000      7.7005      2.5487      0.0483      6.1390     19.1038   -999.2500
  2294.4000      7.7005      2.5663      0.0793      5.0732     18.8947   -999.2500
  2294.5000      7.7018      2.5791      0.0653      4.2961     18.7050   -999.2500
  2294.6000      7.7018      2.5757      0.0793      4.5033     18.5923   -999.2500
  2294.7000      7.7018      2.5571      0.0367      5.6282     18.5930   -999.2500
  2294.8000      7.6996      2.5314     -0.0120      7.1896     18.6739   -999.2500
  2294.9000      7.6996      2.5133     -0.0010      8.2874     18.5986   -999.2500
  2295.0000      7.6935      2.5198      0.0059      7.8915     18.3206   -999.2500
  2295.1000      7.6935      2.5447      0.0362      6.3788     18.1304   -999.2500
  2295.2000      7.6935      2.5574      0.0740      5.6120     18.1458   -999.2500
  2295.3000      7.6862      2.5444      0.0313      6.3983     18.6156   -999.2500
  2295.4000      7.6862      2.5264      0.0351      7.4904     21.1313   -999.2500
  2295.5000      7.6824      2.5254      0.0214      7.5528     28.2424   -999.2500
  2295.6000      7.6824      2.5391      0.0331      6.7208     38.5625   -999.2500
  2295.7000      7.6824      2.5506      0.0722      6.0268     45.9898   -999.2500
  2295.8000      7.6821      2.5534      0.0449      5.8574     48.7411   -999.2500
  2295.9000      7.6821      2.5523      0.0416      5.9203     49.2876   -999.2500
  2296.0000      7.6822      2.5459      0.0171      6.3116     49.3456   -999.2500
  2296.1000      7.6822      2.5346     -0.0011      6.9965     49.3489   -999.2500
  2296.2000      7.6822      2.5300      0.0279      7.2735   -999.2500   -999.2500
  2296.3000      7.6818      2.5314      0.0794      7.1878   -999.2500   -999.2500
  2296.4000      7.6818      2.5264      0.0747      7.4879   -999.2500   -999.2500
  2296.5000      7.6820      2.5158      0.0557      8.1327   -999.2500   -999.2500
  2296.6000      7.6820      2.5020      0.0290      8.9685   -999.2500   -999.2500
  2296.7000      7.6820      2.4845      0.0136     10.0275   -999.2500   -999.2500
  2296.8000      7.6881      2.4776      0.0077     10.4469   -999.2500   -999.2500
  2296.9000      7.6881      2.4963      0.0213      9.3172   -999.2500   -999.2500
  2297.0000      7.6990      2.5322      0.0286      7.1397   -999.2500   -999.2500
  2297.1000      7.6990      2.5619      0.0989      5.3381   -999.2500   -999.2500
  2297.2000      7.6990      2.5737      0.0792      4.6255   -999.2500   -999.2500
  2297.3000      7.7030      2.5741      0.0957      4.6002   -999.2500   -999.2500
  2297.4000      7.7030      2.5672      0.0756      5.0173   -999.2500   -999.2500
  2297.5000      7.6976      2.5530      0.0697      5.8800   -999.2500   -999.2500
  2297.6000      7.6976      2.5390      0.0256      6.7276   -999.2500   -999.2500
  2297.7000      7.6976      2.5303      0.0615      7.2547   -999.2500   -999.2500
  2297.8000      7.6897      2.5240      0.0375      7.6336   -999.2500   -999.2500
  2297.9000      7.6897      2.5268      0.0359      7.4677   -999.2500   -999.2500
  2298.0000      7.6893      2.5446      0.0451      6.3896   -999.2500   -999.2500
  2298.1000      7.6893      2.5670      0.0575      5.0275   -999.2500   -999.2500
  2298.2000      7.6893      2.5745      0.0741      4.5738   -999.2500   -999.2500
  2298.3000      7.6965      2.5543      0.0339      5.7979   -999.2500   -999.2500
  2298.4000      7.6965      2.5209     -0.0029      7.8215   -999.2500   -999.2500
  2298.5000      7.7010      2.5069     -0.0086      8.6730   -999.2500   -999.2500
  2298.6000      7.7010      2.5226      0.0287      7.7199   -999.2500   -999.2500
  2298.7000      7.7010      2.5462      0.0363      6.2880   -999.2500   -999.2500
  2298.8000      7.6980      2.5569      0.0498      5.6401   -999.2500   -999.2500
  2298.9000      7.6980      2.5544      0.0245      5.7933   -999.2500   -999.2500
  2299.0000      7.6880      2.5444      0.0426      6.3986   -999.2500   -999.2500
  2299.1000      7.6880      2.5308      0.0278      7.2269   -999.2500   -999.2500
  2299.2000      7.6880      2.5268      0.0070      7.4665   -999.2500   -999.2500
  2299.3000      7.6815      2.5411      0.0170      6.6030   -999.2500   -999.2500
  2299.4000      7.6815      2.5604      0.0368      5.4324   -999.2500   -999.2500
  2299.5000      7.6829      2.5716      0.0530      4.7528   -999.2500   -999.2500
  2299.6000      7.6829      2.5772      0.0486      4.4147   -999.2500   -999.2500
  2299.7000      7.6829      2.5795      0.0654      4.2735   -999.2500   -999.2500
  2299.8000      7.6900      2.5679      0.0669      4.9762   -999.2500   -999.2500
  2299.9000      7.6900      2.5402      0.0228      6.6536   -999.2500   -999.2500
  2300.0000      7.6947      2.5240     -0.0164      7.6373   -999.2500   -999.2500
  2300.1000      7.6947      2.5417      0.0091      6.5650   -999.2500   -999.2500
  2300.2000      7.6947      2.5698      0.0891      4.8593   -999.2500   -999.2500
  2300.3000      7.6879      2.5820      0.0169      4.1210   -999.2500   -999.2500
  2300.4000      7.6879      2.5864      0.0413      3.8527   -999.2500   -999.2500
  2300.5000      7.6705      2.5896      0.0481      3.6605   -999.2500   -999.2500
  2300.6000      7.6705      2.5861      0.0653      3.8724   -999.2500   -999.2500
  2300.7000      7.6705      2.5754      0.0312      4.5215   -999.2500   -999.2500
  2300.8000      7.6422      2.5675      0.0505      5.0012   -999.2500   -999.2500
  2300.9000      7.6422      2.5704      0.0701      4.8262   -999.2500   -999.2500
  2301.0000      7.6083      2.5770      0.1041      4.4243   -999.2500   -999.2500
  2301.1000      7.6083      2.5739      0.0620      4.6108   -999.2500   -999.2500
  2301.2000      7.6083      2.5573      0.0500      5.6169   -999.2500   -999.2500
  2301.3000      7.5868      2.5275      0.0376      7.4221   -999.2500   -999.2500
  2301.4000      7.5868      2.4895      0.0072      9.7281   -999.2500   -999.2500
  2301.5000      7.5804      2.4610     -0.0485     11.4518   -999.2500   -999.2500
  2301.6000      7.5804      2.4582     -0.0232     11.6269   -999.2500   -999.2500
  2301.7000      7.5804      2.4758      0.0249     10.5576   -999.2500   -999.2500
  2301.8000      7.5805      2.4960      0.0174      9.3332   -999.2500   -999.2500
  2301.9000      7.5805      2.5120      0.0167      8.3608   -999.2500   -999.2500
  2302.0000      7.5805      2.5249      0.0733      7.5806   -999.2500   -999.2500
  2302.1000      7.5805      2.5310      0.0823      7.2116   -999.2500   -999.2500
