~Version Information
VERS.                      2.0: CWLS Log ASCII Standard - VERSION 2.0
WRAP.                       NO: One line per depth step
~Well Information Block
STRT.FT               625.0000: 
STOP.FT              2053.7000: 
STEP.FT                 0.1000: 
NULL.                -999.2500: 
COMP.          Pioneer Natural Resources: COMPANY
WELL.            Zink 44-10 Tr: WELL
FLD.           Purgatoire River: FIELD
LOC.           486' FSL & 554' FEL--: LOCATION
PROV.                 Colorado: PROVINCE
CNTY.               Las Animas: COUNTRY
SRVC.                Patterson: SERVICE COMPANY
DATE.          Sun Jul 24 08:46:57 2005: LOG DATE
UWI.           05 071 08446 00: UNIQUE WELL ID
~Curve Information Block
DEPT.FT            0 000 00 00: Depth
DCAL.in                       : CDL Caliper
RHOB.g/cc                     : CDL Bulk Density
RHOC.g/cc                     : CDL Density Correction
DPOR.pu                       : CDL Density Porosity
NPOR.pu                       : Neutron Porosity
GR.GAPI                       : Gamma Ray
~Parameter Information Block
~A  Depth       DCAL        RHOB        RHOC        DPOR        NPOR         GR     
# ...
  1277.8000      7.8897      2.6701      0.1385     -1.2201     30.8226     94.4802
  1277.9000      7.8897      2.6796      0.1389     -1.7930     30.6249     93.3478
  1278.0000      7.8789      2.6956      0.1606     -2.7666     30.4861     99.3710
  1278.1000      7.8789      2.7070      0.1559     -3.4519     30.7332    110.6062
  1278.2000      7.8789      2.7059      0.1219     -3.3894     30.9650    119.4407
  1278.3000      7.8740      2.6897      0.1149     -2.4042     31.1229    118.9458
  1278.4000      7.8740      2.6588      0.1024     -0.5305     31.5767    111.3351
  1278.5000      7.8784      2.6302      0.0155      1.2013     32.1951    107.1785
  1278.6000      7.8784      2.6212      0.0297      1.7434     32.5365    109.4470
  1278.7000      7.8784      2.6179      0.0172      1.9430     32.2812    109.8674
  1278.8000      7.8850      2.6055     -0.0275      2.6992     31.4338    105.7183
  1278.9000      7.8850      2.5899      0.0044      3.6437     30.4996    104.9508
  1279.0000      7.8908      2.5791      0.0133      4.2952     29.6421    112.9007
  1279.1000      7.8908      2.5792      0.0514      4.2887     28.6006    124.5583
  1279.2000      7.8908      2.5841      0.0715      3.9933     27.6361    130.0308
  1279.3000      7.8933      2.5768      0.0717      4.4355     27.0932    125.2806
  1279.4000      7.8933      2.5610      0.0300      5.3953     26.9496    118.4883
  1279.5000      7.8946      2.5615      0.0323      5.3627     26.9491    116.4141
  1279.6000      7.8946      2.5853      0.0561      3.9186     26.8770    115.6148
  1279.7000      7.8946      2.6074      0.1194      2.5838     26.9378    113.9102
  1279.8000      7.8977      2.6006      0.0999      2.9929     27.1770    114.0958
  1279.9000      7.8977      2.5730      0.0237      4.6682     27.2367    117.8796
  1280.0000      7.9018      2.5497      0.0527      6.0796     26.9823    123.5029
  1280.1000      7.9018      2.5402      0.0164      6.6564     26.7532    126.1592
  1280.2000      7.9018      2.5426      0.0583      6.5106     26.8269    124.5170
  1280.3000      7.9051      2.5479      0.0495      6.1868     27.0946    122.4125
  1280.4000      7.9051      2.5458      0.0773      6.3154     27.5005    120.2802
  1280.5000      7.9079      2.5431      0.0336      6.4777     28.2187    118.4845
  1280.6000      7.9079      2.5555      0.0510      5.7285     28.8732    120.8687
  1280.7000      7.9079      2.5747      0.0821      4.5614     28.6760    123.3547
  1280.8000      7.9034      2.5807      0.0522      4.2022     27.4980    118.5060
  1280.9000      7.9034      2.5690      0.0790      4.9073     26.1584    112.7287
  1281.0000      7.8884      2.5507      0.0294      6.0199     25.4587    114.4317
  1281.1000      7.8884      2.5421      0.0507      6.5365     25.4934    116.1564
  1281.2000      7.8884      2.5523      0.0402      5.9236     26.1307    110.9055
  1281.3000      7.8761      2.5703      0.0918      4.8326     27.1087    104.8284
  1281.4000      7.8761      2.5768      0.0769      4.4385     27.8055    102.1298
  1281.5000      7.8707      2.5755      0.0407      4.5153     27.9756    101.0328
  1281.6000      7.8707      2.5876      0.0661      3.7820     28.2493    101.0421
  1281.7000      7.8707      2.6222      0.0724      1.6859     28.9905    100.3229
  1281.8000      7.8656      2.6681      0.1166     -1.0970     29.7939     96.3757
  1281.9000      7.8656      2.7055      0.0877     -3.3635     30.3788     90.8269
  1282.0000      7.8556      2.7189      0.1436     -4.1749     30.6682     85.6246
  1282.1000      7.8556      2.7010      0.1087     -3.0915     30.7935     82.6252
  1282.2000      7.8556      2.6644      0.0973     -0.8731     31.0680     82.0083
  1282.3000      7.8344      2.6318      0.0421      1.1017     31.4937     82.1938
  1282.4000      7.8344      2.6100      0.0383      2.4239     31.8453     84.0905
  1282.5000      7.8103      2.5919      0.0011      3.5242     32.0301     89.3955
  1282.6000      7.8103      2.5764      0.0095      4.4603     32.2022     97.9456
  1282.7000      7.8103      2.5697     -0.0369      4.8652     32.3833    106.3313
  1282.8000      7.8198      2.5732     -0.0326      4.6535     32.3062    112.0091
  1282.9000      7.8198      2.5841     -0.0530      3.9948     31.6720    115.9138
  1283.0000      7.8550      2.5982      0.0280      3.1411     30.5595    116.0725
  1283.1000      7.8550      2.6041      0.0509      2.7805     29.6222    112.6005
  1283.2000      7.8550      2.5953      0.0598      3.3177     29.2220    111.1632
  1283.3000      7.8747      2.5794      0.0323      4.2772     29.2030    111.5562
  1283.4000      7.8747      2.5650      0.0912      5.1486     29.3059    109.8096
  1283.5000      7.8775      2.5559      0.0412      5.7003     29.1826    110.2919
  1283.6000      7.8775      2.5592      0.0446      5.5022     28.7774    119.5360
  1283.7000      7.8775      2.5672      0.0788      5.0202     28.5523    130.4872
  1283.8000      7.8772      2.5624      0.0658      5.3097     28.6907    129.6335
  1283.9000      7.8772      2.5512      0.0281      5.9876     28.5105    119.7583
  1284.0000      7.8772      2.5522      0.0312      5.9278     27.4291    111.4583
  1284.1000      7.8772      2.5664      0.0248      5.0670     25.7524    107.6203
  1284.2000      7.8772      2.5759      0.0617      4.4913     24.2993    107.1943
  1284.3000      7.8777      2.5680      0.0231      4.9707     23.7687    108.8110
  1284.4000      7.8777      2.5530      0.0224      5.8803     24.2135    112.4070
  1284.5000      7.8830      2.5451      0.0574      6.3580     25.0453    114.3473
  1284.6000      7.8830      2.5421      0.0876      6.5390     25.6438    110.8459
  1284.7000      7.8830      2.5313      0.0716      7.1922     25.5909    107.7572
  1284.8000      7.8923      2.5077      0.0533      8.6250     24.8814    109.8729
  1284.9000      7.8923      2.4825      0.0075     10.1515     23.7919    112.9212
  1285.0000      7.8975      2.4763     -0.0020     10.5250     22.6466    113.5517
  1285.1000      7.8975      2.4932      0.0493      9.5034     21.8401    114.0527
  1285.2000      7.8975      2.5091      0.1007      8.5364     21.5107    115.4179
  1285.3000      7.9007      2.5043      0.0877      8.8320     21.3153    115.5103
  1285.4000      7.9007      2.4906      0.0368      9.6618     20.9953    113.1984
  1285.5000      7.9049      2.4958      0.0399      9.3474     20.3491    109.9814
  1285.6000      7.9049      2.5266      0.1181      7.4772     19.3879    109.4288
  1285.7000      7.9049      2.5654      0.1075      5.1256     19.2369    112.2318
  1285.8000      7.9068      2.5941      0.1285      3.3880     21.1272    113.3905
  1285.9000      7.9068      2.6028      0.1170      2.8592     24.7787    109.3261
  1286.0000      7.9060      2.5977      0.0879      3.1690     27.9002    102.6532
  1286.1000      7.9060      2.5964      0.0872      3.2500     28.8549    147.5005
  1286.2000      7.9060      2.6069      0.0764      2.6097     30.7365    145.0800
  1286.3000      7.9032      2.6238      0.0709      1.5899     36.9977    145.0312
  1286.4000      7.9032      2.6374      0.0527      0.7643     43.7143    147.0552
  1286.5000      7.9009      2.6467      0.0787      0.2005     45.0352    144.9026
  1286.6000      7.9009      2.6584      0.0715     -0.5120     42.7547    136.0109
  1286.7000      7.9009      2.6697      0.1128     -1.1943     43.8961    127.7878
  1286.8000      7.9012      2.6702      0.0831     -1.2215     47.9259    123.1931
  1286.9000      7.9012      2.6760      0.0370     -1.5751     47.4811    116.3578
  1287.0000      7.9008      2.7112      0.0653     -3.7108     41.2725    108.4630
  1287.1000      7.9008      2.7570      0.1207     -6.4864     36.5379    109.3741
  1287.2000      7.9008      2.7724      0.1387     -7.4166     37.7536    115.5995
  1287.3000      7.8919      2.7389      0.0987     -5.3879     40.8769    114.1844
