~Version Information
 VERS.                                  2.0 : CWLS LAS VERSION
 WRAP.                                   NO : WRAPING MODE
 SWARE .                 MController 2.5.0J : SOFTWARE VERSION
~Well Information
 WELL.                     McDonald 33-31 R : WELL
 COMP.  Pioneer Natural Resources USA, Inc. : COMPANY
 FLD.                      Purgatoire River : FIELD
 LOC.                NW/SE Sec 31 T32S R66W : LOCATION
 DATE.                             09/22/05 : DATE(S) LOGGED
 SRVC.       BLANCO Geological Services LLC : SERVICE COMPANY
 STAT.                                   CO : STATE
 CNTY.                           Las Animas : COUNTY
 CTRY.                                  USA : COUNTRY
 API.                       05-071-08533-00 : API NUMBER
 STRT.FT                             377.00 : START DEPTH
 STOP.FT                            2310.00 : STOP DEPTH
 STEP.FT                               1.00 : DEPTH INCREMENT
 NULL.                                -9999 : NULL VALUE
~Curve information
 DEPTH.FT                                   :
 ROP.MIN/FT                                 :
 GAS.UNITS                                  :
~ASCII Log data
# ...
      1577.0         0.13        128.2 
      1578.0         0.17        127.3 
      1579.0         0.20        127.1 
      1580.0         0.22        127.2 
      1581.0         0.23        127.3 
      1582.0         0.23        126.9 
      1583.0         0.20        126.8 
      1584.0         0.27        125.1 
      1585.0         0.20        123.2 
      1586.0         0.23        123.8 
      1587.0         0.30        113.3 
      1588.0         0.27         82.0 
      1589.0         0.33         91.6 
      1590.0         3.92       1296.3 
      1591.0         0.48        870.1 
      1592.0         0.30        739.7 
      1593.0         0.27        694.0 
      1594.0         0.30        665.7 
      1595.0         0.23        649.8 
      1596.0         0.27        641.3 
      1597.0         0.27        633.3 
      1598.0         0.27        630.5 
      1599.0         0.27        621.9 
      1600.0         0.27        617.1 
      1601.0         0.23        614.6 
      1602.0         0.28        612.7 
      1603.0         0.23        616.5 
      1604.0         0.27        615.2 
      1605.0         0.23        610.2 
      1606.0         0.23        612.1 
      1607.0         0.27        613.3 
      1608.0         0.27        615.2 
      1609.0         0.23        609.5 
      1610.0         0.23        609.8 
      1611.0         0.23        608.3 
      1612.0         0.23        603.2 
      1613.0         0.23        602.9 
      1614.0         0.22        606.0 
      1615.0         0.23        607.9 
      1616.0         0.23        587.0 
      1617.0         0.23        528.6 
      1618.0         0.23        536.2 
      1619.0         0.27        550.8 
      1620.0         2.88       1043.1 
      1621.0         0.23        855.8 
      1622.0         0.50        840.9 
      1623.0         0.40        751.1 
      1624.0         0.30        681.9 
      1625.0         0.30        643.8 
      1626.0         0.35        645.1 
      1627.0         0.37        644.4 
      1628.0         0.27        638.1 
      1629.0         0.27        634.9 
      1630.0         0.23        632.7 
      1631.0         0.20        629.2 
      1632.0         0.20        620.6 
      1633.0         0.20        619.4 
      1634.0         0.17        618.1 
      1635.0         0.23        620.0 
      1636.0         0.20        613.3 
      1637.0         0.13        608.3 
      1638.0         0.17        610.8 
      1639.0         0.13        610.5 
      1640.0         0.17        607.6 
      1641.0         0.28        606.7 
      1642.0         0.17        595.6 
      1643.0         0.20        597.5 
      1644.0         0.20        598.4 
      1645.0         0.17        591.1 
      1646.0         0.17        539.7 
      1647.0         0.17        520.3 
      1648.0         0.13        528.6 
      1649.0         0.17        540.7 
      1650.0         0.20        553.4 
      1651.0         3.02       1065.9 
      1652.0         0.37        895.8 
      1653.0         0.27        804.1 
      1654.0         0.27        726.3 
      1655.0         0.23        690.1 
      1656.0         0.28        672.7 
      1657.0         0.23        654.9 
      1658.0         0.23        647.0 
      1659.0         0.20        641.9 
      1660.0         0.20        637.5 
      1661.0         0.20        634.0 
      1662.0         0.23        630.5 
      1663.0         0.20        626.3 
      1664.0         0.17        622.2 
      1665.0         0.20        619.7 
      1666.0         0.23        613.0 
      1667.0         0.20        610.2 
      1668.0         0.30        608.9 
      1669.0         0.23        608.9 
      1670.0         0.27        606.4 
      1671.0         0.32        598.1 
      1672.0         0.33        580.0 
      1673.0         0.33        563.2 
      1674.0         0.30        544.1 
      1675.0         0.30        531.1 
      1676.0         0.30        521.9 
      1677.0         0.30        512.7 
      1678.0         0.30        502.3 
      1679.0         0.33        495.3 
      1680.0         4.00        487.0 
      1681.0         0.23         18.2 
      1682.0         0.20         15.6 
      1683.0         0.20         14.3 
      1684.0         0.20         13.9 
      1685.0         0.27         13.3 
      1686.0         0.20         12.7 
      1687.0         0.23         12.8 
      1688.0         0.30         12.2 
      1689.0         0.27         12.3 
      1690.0         0.30         12.3 
      1691.0         0.33         11.9 
      1692.0         0.27         12.0 
      1693.0         0.32         12.6 
      1694.0         0.23         12.5 
      1695.0         0.30         12.3 
      1696.0         0.27         12.4 
      1697.0         0.30         12.3 
      1698.0         0.27         12.4 
      1699.0         0.33         12.0 
      1700.0         0.27         11.2 
      1701.0         0.27         11.4 
      1702.0         0.23         10.5 
      1703.0         0.17         11.0 
      1704.0         0.20         10.7 
      1705.0         0.17         11.4 
      1706.0         0.18         12.9 
      1707.0         0.17         14.7 
      1708.0         0.23         15.2 
      1709.0         0.33         16.1 
      1710.0         3.55         16.2 
      1711.0         0.30        104.1 
      1712.0         0.30        144.6 
      1713.0         0.20        147.9 
      1714.0         0.23        147.6 
      1715.0         0.27        143.7 
      1716.0         0.23        140.4 
      1717.0         0.27        148.0 
      1718.0         0.27        148.2 
      1719.0         0.22        141.5 
      1720.0         0.13        138.5 
      1721.0         0.17        137.7 
      1722.0         0.23        136.6 
      1723.0         0.20        134.3 
      1724.0         0.20        134.7 
      1725.0         0.27        134.6 
      1726.0         0.23        131.9 
      1727.0         0.27        131.6 
      1728.0         0.30        134.6 
      1729.0         0.27        137.9 
      1730.0         0.27        138.5 
      1731.0         0.27        138.1 
      1732.0         0.23        132.0 
      1733.0         0.22        130.3 
      1734.0         0.30        128.0 
      1735.0         0.23        128.0 
      1736.0         0.30        114.9 
      1737.0         0.23         79.3 
      1738.0         0.23         85.8 
      1739.0         0.27         91.6 
      1740.0         3.58       1315.1 
      1741.0         0.50        840.3 
      1742.0         0.40        793.9 
      1743.0         0.33        739.7 
      1744.0         0.32        700.6 
      1745.0         0.30        675.9 
      1746.0         0.30        664.8 
      1747.0         0.30        659.0 
      1748.0         0.30        652.4 
      1749.0         0.30        638.4 
      1750.0         0.30        628.6 
      1751.0         0.27        627.3 
      1752.0         0.30        626.0 
      1753.0         0.23        617.5 
      1754.0         0.23        614.9 
      1755.0         0.32        615.6 
      1756.0         0.43        613.3 
      1757.0         0.50        588.3 
      1758.0         0.50        511.8 
      1759.0         0.53        463.5 
      1760.0         0.57        441.3 
      1761.0         0.48         17.4 
      1762.0         0.27         14.4 
      1763.0         0.27         14.5 
      1764.0         0.30         14.4 
      1765.0         0.30         14.2 
      1766.0         0.17         13.4 
      1767.0         0.23         13.9 
      1768.0         0.20         14.8 
      1769.0         0.20         18.9 
      1770.0         3.45         26.2 
      1771.0         0.47          9.8 
      1772.0         0.33          9.8 
      1773.0         0.27          9.8 
      1774.0         0.28          9.9 
      1775.0         0.23         18.1 
      1776.0         0.23         85.6 
