~Version Information
VERS.                      2.0: CWLS Log ASCII Standard - VERSION 2.0
WRAP.                       NO: One line per depth step
~Well Information Block
STRT.FT                -7.5000: 
STOP.FT              1350.7500: 
STEP.FT                 0.2500: 
NULL.                -999.2500: 
COMP.          Pioneer Natural Resources: COMPANY
WELL.            Gamma 13-3 Tr: WELL
FLD.           Purgatorie River: FIELD
LOC.           2127' FSL & 738' FWL: LOCATION
STAT.                       CO: State
CNTY.               Las Animas: COUNTY
CTRY.                      USA: Country
SECT.                        3: Section
TOWN.                      33S: Township
RANG.                      67W: Range
SRVC.          Patterson Wireline: SERVICE COMPANY
DATE.          Fri Sep 23 13:24:40 2005: LOG DATE
API.           05 071 08524 00: API
~Curve Information Block
DEPT.FT            0 000 00 00: Depth
CCL.                          : Casing Collar Locator
TT3.usec                      : CBL 3' Travel Time
AMP3.mV                       : CBL 3' Amplitude
GR.GAPI                       : Gamma Ray
~Parameter Information Block
~A  Depth       CCL         TT3         AMP3         GR     
# ...
  1165.0000      0.0000    667.0194      8.0318    112.3405
  1165.2500      0.0000    667.3242      8.1448    115.4623
  1165.5000      0.0000    668.3255      8.2293    117.7790
  1165.7500      0.0000    670.3012      8.2658    118.1635
  1166.0000      0.0000    673.2028      8.2431    116.2836
  1166.2500      0.0000    676.1077      8.1602    113.1457
  1166.5000      0.0000    677.5526      8.0298    110.8671
  1166.7500      0.0000    676.7390      7.8799    111.2927
  1167.0000      0.0000    674.3079      7.7435    114.5255
  1167.2500      0.0000    671.7151      7.6441    118.8431
  1167.5000      0.0000    670.0762      7.5927    122.0775
  1167.7500      0.0000    669.7958      7.5942    123.2037
  1168.0000      0.0000    670.9168      7.6548    122.7296
  1168.2500      0.0000    673.2614      7.7831    121.5866
  1168.5000      0.0000    676.2034      7.9814    119.7822
  1168.7500      0.0000    678.7703      8.2297    116.5550
  1169.0000      0.0000    680.2314      8.4812    112.0469
  1169.2500      0.0000    680.3636      8.6817    108.2523
  1169.5000      0.0000    679.1776      8.7967    107.5762
  1169.7500      0.0000    676.8726      8.8223    110.6202
  1170.0000      0.0000    674.0786      8.7769    116.0202
  1170.2500      0.0000    671.6299      8.6891    122.1786
  1170.5000      0.0000    669.9685      8.5919    128.3032
  1170.7500      0.0000    668.9508      8.5169    133.8665
  1171.0000      0.0000    668.0545      8.4823    138.1048
  1171.2500      0.0000    666.5074      8.4798    140.5666
  1171.5000      0.0000    663.2042      8.4770    141.7754
  1171.7500      0.0000    657.0423      8.4393    142.8504
  1172.0000      0.0000    648.2844      8.3546    144.3366
  1172.2500      0.0000    639.8649      8.2420    145.7008
  1172.5000      0.0000    635.9962      8.1364    146.2756
  1172.7500      0.0000    637.7639      8.0639    146.4561
  1173.0000      0.0000    640.2223      8.0308    147.2719
  1173.2500      0.0000    635.2121      8.0299    148.7442
  1173.5000      0.0000    618.0261      8.0511    149.5505
  1173.7500      0.0000    591.9991      8.0837    148.7442
  1174.0000      0.0000    567.2705      8.1146    147.0182
  1174.2500      0.0000    555.1095      8.1305    145.7021
  1174.5000      0.0000    562.0880      8.1255    145.3711
  1174.7500      0.0000    586.9853      8.1066    146.2456
  1175.0000      0.0000    621.1959      8.0906    148.8808
  1175.2500      0.0000    652.9370      8.0918    152.8938
  1175.5000      0.0000    673.4896      8.1129    155.8057
  1175.7500      0.0000    681.0961      8.1447    155.2019
  1176.0000      0.0000    679.8169      8.1743    151.7713
  1176.2500      0.0000    675.3542      8.1901    148.2279
  1176.5000      0.0000    671.5895      8.1853    145.4831
  1176.7500      0.0000    669.3576      8.1614    141.8400
  1177.0000      0.0000    666.5231      8.1271    135.9695
  1177.2500      0.0000    658.6510      8.0914    129.0952
  1177.5000      0.0000    641.3213      8.0577    123.8121
  1177.7500      0.0000    614.2344      8.0265    121.4449
  1178.0000      0.0000    583.5020      8.0025    120.9706
  1178.2500      0.0000    558.3710      7.9955    120.4990
  1178.5000      0.0000    544.9234      8.0121    119.4299
  1178.7500      0.0000    543.3031      8.0478    118.7166
  1179.0000      0.0000    550.5084      8.0924    119.2870
  1179.2500      0.0000    564.0268      8.1412    121.0371
  1179.5000      0.0000    581.6686      8.1988    123.4756
  1179.7500      0.0000    599.1806      8.2704    126.4771
  1180.0000      0.0000    611.0557      8.3547    129.9503
  1180.2500      0.0000    615.4370      8.4470    133.2201
  1180.5000      0.0000    616.9468      8.5451    135.2168
  1180.7500      0.0000    622.6771      8.6495    135.1566
  1181.0000      0.0000    635.5823      8.7603    132.9082
  1181.2500      0.0000    653.0157      8.8732    128.9205
  1181.5000      0.0000    671.4254      8.9796    124.0856
  1181.7500      0.0000    690.4874      9.0751    119.5556
  1182.0000      0.0000    711.4818      9.1645    116.3714
  1182.2500      0.0000    733.0199      9.2547    115.0824
  1182.5000      0.0000    750.2803      9.3417    115.4535
  1182.7500      0.0000    758.4691      9.4112    116.3170
  1183.0000      0.0000    756.4856      9.4516    116.0605
  1183.2500      0.0000    747.4863      9.4570    113.8716
  1183.5000      0.0000    736.4604      9.4210    110.5493
  1183.7500      0.0000    727.3775      9.3359    107.6955
  1184.0000      0.0000    721.9886      9.1997    106.1559
  1184.2500      0.0000    720.0808      9.0211    105.6223
  1184.5000      0.0000    720.1572      8.8198    105.7154
  1184.7500      0.0000    720.4150      8.6246    106.8895
  1185.0000      0.0000    720.0837      8.4636    109.9463
  1185.2500      0.0000    720.2382      8.3495    114.9592
  1185.5000      0.0000    723.2850      8.2747    121.0390
  1185.7500      0.0000    731.2557      8.2242    127.0482
  1186.0000      0.0000    743.8158      8.1897    132.3013
  1186.2500      0.0000    757.3314      8.1739    136.7050
  1186.5000      0.0000    766.2717      8.1845    140.4109
  1186.7500      0.0000    766.4474      8.2229    143.2760
  1187.0000      0.0000    757.7160      8.2664    144.6792
  1187.2500      0.0000    743.9573      8.2589    143.9486
  1187.5000      0.0000    730.2835      8.1242    140.8575
  1187.7500      0.0000    719.6000      7.8011    135.7402
  1188.0000      0.0000    711.2595      7.2847    129.5814
  1188.2500      0.0000    703.1670      6.6558    123.9989
  1188.5000      0.0000    695.6970      6.0737    120.4027
  1188.7500      0.0000    693.5499      5.7069    118.7713
  1189.0000      0.0000    702.6732      5.6406    117.5203
  1189.2500      0.0000    724.5385      5.8404    114.8674
  1189.5000      0.0000    753.8461      6.1921    110.5774
  1189.7500      0.0000    782.2856      6.5556    106.4338
  1190.0000     -2.0000    804.2402      6.8112    104.6835
  1190.2500     -2.0000    818.2620      6.9051    105.9697
  1190.5000      0.0000    824.1498      6.8761    109.0607
  1190.7500      0.0000    821.0224      6.8406    112.2684
  1191.0000      0.0000    809.2863      6.9364    114.5772
  1191.2500      0.0000    793.2150      7.2340    115.8151
  1191.5000      0.0000    779.6347      7.6593    116.5320
  1191.7500      0.0000    773.0054      8.0264    117.6526
  1192.0000      0.0000    772.1645      8.1900    119.9057
  1192.2500      0.0000    772.1958      8.1597    123.4917
  1192.5000      0.0000    768.7409      8.0483    127.9836
  1192.7500      0.0000    760.5864      7.9465    132.2753
  1193.0000      0.0000    749.5194      7.8737    134.9236
  1193.2500      0.0000    738.7465      7.8158    134.9947
  1193.5000      0.0000    731.1337      7.7647    132.8227
  1193.7500      0.0000    728.0424      7.7230    129.9745
  1194.0000      0.0000    729.1037      7.6942    128.2470
  1194.2500      0.0000    732.8489      7.6783    128.3774
  1194.5000      0.0000    737.8881      7.6759    129.6577
  1194.7500      0.0000    743.4415      7.6893    130.7825
  1195.0000      0.0000    748.6617      7.7189    131.0338
  1195.2500      0.0000    752.1211      7.7608    130.7974
  1195.5000      0.0000    752.7360      7.8063    131.0972
  1195.7500      0.0000    750.7781      7.8440    132.5359
  1196.0000      0.0000    747.3647      7.8629    134.7536
  1196.2500      0.0000    743.3774      7.8615    137.0740
  1196.5000      0.0000    739.3466      7.8508    139.3483
  1196.7500      0.0000    735.9086      7.8406    141.7165
  1197.0000      0.0000    733.6411      7.8257    143.6655
  1197.2500      0.0000    732.3691      7.7946    143.7359
  1197.5000      0.0000    730.9933      7.7484    140.4808
  1197.7500      0.0000    728.3350      7.7046    133.9541
  1198.0000      0.0000    724.2427      7.6815    126.1607
  1198.2500      0.0000    719.7174      7.6836    119.8141
