~Version Information
VERS.                      2.0: CWLS Log ASCII Standard - VERSION 2.0
WRAP.                       NO: One line per depth step
~Well Information Block
STRT.FT                 0.0000: 
STOP.FT              2086.0000: 
STEP.FT                 0.2500: 
NULL.                -999.2500: 
COMP.          Petrogulf Corporation: COMPANY
WELL.               YWAM 7-32R: WELL
FLD.           Purgatorie River: FIELD
LOC.           2355' FNL & 2376' FEL: LOCATION
STAT.                 Colorado: State
CNTY.               Las Animas: COUNTY
CTRY. USA : Country
SECT. 7 : Section
TOWN. 33S : Township
RANG. 67W : Range
SRVC.                Patterson: SERVICE COMPANY
DATE.          Wed Nov 09 16:33:59 2005: LOG DATE
API. 05-071-08518                         : UNIQUE WELL ID
~Curve Information Block
DEPT.FT            0 000 00 00: Depth
CCL.                          : Casing Collar Locator
TT3.usec                      : CBL 3' Travel Time
AMP3.mV                       : CBL 3' Amplitude
GR.GAPI                       : Gamma Ray
~Parameter Information Block
~A  Depth       CCL         TT3         AMP3         GR     
     0.0000   -999.2500   1197.0000      0.9036     40.4118
     0.2500   -999.2500   1197.0000      0.9030     47.8496
     0.5000   -999.2500   1197.0000      0.8429     57.5169
     0.7500      0.0000   1197.0000      0.7839     67.5759
     1.0000      0.0000   1197.0000      0.7881     76.3410
     1.2500      0.0000   1197.0000      0.8464     81.7550
     1.5000      0.0000   1197.0000      0.8893     82.0896
     1.7500      0.0000   1197.0000      0.8690     77.6067
     2.0000      0.0000   1197.0000      0.8146     70.7970
     2.2500      0.0000   1197.0000      0.7941     64.5449
     2.5000      0.0000   1197.0000      0.8334     60.2987
     2.7500      0.0000   1197.0000      0.8904     57.9531
     3.0000      0.0000   1197.0000      0.9133     56.9167
     3.2500      0.0000   1197.0000      0.9085     56.9121
     3.5000      0.0000   1197.0000      0.9092     58.0046
     3.7500      0.0000   1197.0000      0.9057     60.4183
     4.0000      0.0000   1197.0000      0.8824     64.4540
     4.2500      0.0000   1197.0000      0.8681     70.1324
     4.5000      0.0000   1197.0000      0.8767     76.5304
     4.7500      0.0000   1197.0000      0.8767     81.7357
     5.0000      0.0000   1197.0000      0.8643     84.0971
     5.2500      0.0000   1197.0000      0.8694     83.7024
     5.5000      0.0000   1197.0000      0.8799     82.2020
     5.7500      0.0000   1197.0000      0.8669     80.9769
     6.0000      0.0000   1197.0000      0.8544     79.8935
     6.2500      0.0000   1197.0000      0.8642     78.0210
     6.5000      0.0000   1197.0000      0.8760     75.0596
     6.7500      0.0000   1197.0000      0.8882     71.5725
     7.0000      0.0000   1197.0000      0.9129     68.1053
     7.2500      0.0000   1197.0000      0.9349     64.6568
     7.5000      0.0000   1197.0000      0.9487     60.9956
     7.7500      0.0000   1197.0000      0.9595     56.9778
     8.0000      0.0000   1197.0000      0.9476     52.4947
     8.2500      0.0000   1197.0000      0.9099     47.6514
     8.5000      0.0000   1197.0000      0.8783     43.2938
     8.7500      0.0000   1197.0000      0.8666     40.9639
     9.0000      0.0000   1197.0000      0.8612     41.8335
     9.2500      0.0000   1197.0000      0.8467     45.5542
     9.5000      0.0000   1197.0000      0.8251     50.2123
     9.7500      0.0000   1197.0000      0.8253     53.5401
    10.0000      0.0000   1197.0000      0.8560     54.3547
    10.2500      0.0000   1197.0000      0.8814     52.9945
    10.5000      0.0000   1196.9691      0.8855     50.6753
    10.7500      0.0000   1196.5603      0.8914     48.7100
    11.0000      0.0000   1193.3208      0.9672     48.0583
    11.2500      0.0000   1176.3569      1.5284     48.9993
    11.5000      0.0000   1117.1687      4.1036     51.0677
    11.7500      0.0000    978.6270     11.6908     53.4063
    12.0000      0.0000    760.3085     26.1894     55.1336
    12.2500      0.0000    528.9209     44.0784     55.4884
    12.5000      0.0000    364.8271     58.2618     54.1214
    12.7500      0.0000    287.5586     65.4846     51.5441
    13.0000      0.0000    263.6070     67.9180     49.0930
    13.2500      0.0000    258.7686     68.6039     48.0630
    13.5000      0.0000    258.1419     68.9142     48.5876
    13.7500      0.0000    258.0848     69.1167     49.3758
    14.0000      0.0000    258.0637     69.2403     48.7856
    14.2500      0.0000    258.0310     69.3298     46.2859
    14.5000      0.0000    257.9988     69.4081     42.9039
    14.7500      0.0000    257.9820     69.4757     40.3993
    15.0000      0.0000    257.9868     69.5545     40.0573
    15.2500      0.0000    258.0035     69.6503     41.9993
    15.5000      0.0000    258.0135     69.7352     45.2560
    15.7500      0.0000    258.0107     69.8066     48.4043
    16.0000      0.0000    258.0039     69.8861     50.3611
    16.2500      0.0000    257.9980     69.9776     50.8507
    16.5000      0.0000    257.9924     70.0657     50.3860
    16.7500      0.0000    257.9922     70.1513     49.9361
    17.0000      0.0000    257.9983     70.2599     50.3905
    17.2500      0.0000    258.0015     70.4007     52.0076
    17.5000      0.0000    258.0026     70.5564     54.2214
    17.7500      0.0000    258.0085     70.6866     56.0444
    18.0000      0.0000    258.0217     70.7025     56.8232
    18.2500      0.0000    258.0865     70.3517     56.6613
    18.5000      0.0000    258.3690     68.9727     56.0117
    18.7500      0.0000    259.1402     65.7130     55.0268
    19.0000      0.0000    260.5283     60.6903     53.6628
    19.2500      0.0000    262.2732     55.4912     52.3332
    19.5000      0.0000    263.9158     51.7288     51.9074
    19.7500      0.0000    265.1585     49.8275     52.8287
    20.0000      0.0000    265.9321     49.3472     54.4584
    20.2500      0.0000    266.3240     49.5150     55.5695
    20.5000      2.0000    266.4960     49.6840     55.5029
    20.7500     -2.0000    266.5740     49.6801     54.6211
    21.0000      0.0000    266.5983     49.6507     53.6250
    21.2500      0.0000    266.5186     49.8444     52.9300
    21.5000      0.0000    266.2059     50.6557     53.0222
    21.7500      0.0000    265.5260     52.6945     54.8978
    22.0000      0.0000    264.4528     56.3157     59.3216
    22.2500      0.0000    263.1126     60.8043     65.5172
    22.5000      0.0000    261.7104     64.9279     71.1861
    22.7500      0.0000    260.4747     68.1528     74.3356
    23.0000      0.0000    259.6266     70.3769     74.9462
    23.2500      0.0000    259.2162     71.5898     74.6776
    23.5000      0.0000    259.0830     72.0957     75.2600
    23.7500      0.0000    259.0492     72.2902     77.4446
    24.0000      0.0000    259.0398     72.3710     80.9792
    24.2500      0.0000    259.0421     72.3650     84.9457
    24.5000      0.0000    259.0468     72.2981     88.3099
    24.7500      0.0000    259.0444     72.2627     90.6827
    25.0000      0.0000    259.0371     72.3180     92.6064
    25.2500      0.0000    259.0327     72.4283     94.9031
    25.5000      0.0000    259.0410     72.5103     97.8601
    25.7500      0.0000    259.0714     72.5097    101.1713
    26.0000      0.0000    259.1173     72.4553    104.4088
    26.2500      0.0000    259.1553     72.4198    107.1765
    26.5000      0.0000    259.1685     72.4419    108.8896
    26.7500      0.0000    259.1624     72.5239    108.9266
    27.0000      0.0000    259.1490     72.6473    107.2094
    27.2500      0.0000    259.1291     72.7791    104.4052
    27.5000      0.0000    259.1040     72.8970    101.5074
    27.7500      0.0000    259.0854     72.9855     99.4433
    28.0000      0.0000    259.0830     73.0266     98.9154
    28.2500      0.0000    259.0947     73.0113    100.1571
    28.5000      0.0000    259.1078     72.9590    102.7698
    28.7500      0.0000    259.1093     72.9286    105.9160
    29.0000      0.0000    259.0939     72.9688    108.6511
    29.2500      0.0000    259.0535     73.0508    110.2327
    29.5000      0.0000    258.9644     73.0655    110.4012
    29.7500      0.0000    258.8029     72.9089    109.3649
    30.0000      0.0000    258.5934     72.6165    107.5939
    30.2500      0.0000    258.4303     72.3917    105.8069
    30.5000      0.0000    258.3892     72.3964    104.8266
    30.7500      0.0000    258.4404     72.5752    105.0370
    31.0000      0.0000    258.5015     72.7795    106.0888
    31.2500      0.0000    258.5309     72.9340    107.3018
    31.5000      0.0000    258.5434     73.0280    108.2102
    31.7500      0.0000    258.5649     73.0892    108.7092
    32.0000      0.0000    258.5946     73.1674    108.8056
    32.2500      0.0000    258.6215     73.2626    108.3235
    32.5000      0.0000    258.6458     73.3167    107.1838
    32.7500      0.0000    258.6699     73.3036    106.0450
    33.0000      0.0000    258.6933     73.2683    106.0752
    33.2500      0.0000    258.7194     73.2583    107.7580
