~Version Information
VERS.                      2.0: CWLS Log ASCII Standard - VERSION 2.0
WRAP.                       NO: One line per depth step
~Well Information Block
STRT.FT               686.2000: 
STOP.FT              1252.7000: 
STEP.FT                 0.1000: 
NULL.                -999.2500: 
COMP.          Pioneer Natural Resources: COMPANY
WELL.          Rock Island 44-24 Tr: WELL
FLD.           Purgatoire River: FIELD
LOC.           814' FSL & 761' FEL--: LOCATION
CNTY.               Las Animas: COUNTY
SRVC.                Patterson: SERVICE COMPANY
DATE.          Thu Apr 20 08:34:45 2006: LOG DATE
UWI.           05 071 08680 00: UNIQUE WELL ID
STAT.                 Colorado: STATE
~Curve Information Block
DEPT.FT            0 000 00 00: Depth
DCAL.in                       : CDL Caliper
RHOB.g/cc                     : CDL Bulk Density
RHOC.g/cc                     : CDL Density Correction
DPOR.pu                       : CDL Density Porosity
GR.GAPI                       : Gamma Ray
~Parameter Information Block
~A  Depth       DCAL        RHOB        RHOC        DPOR         GR     
# ...
   798.2000      8.0449      2.5886      0.1241      3.7242    132.6032
   798.3000      8.0166      2.5928      0.1021      3.4663    134.9276
   798.4000      8.0166      2.5922      0.0763      3.5042    135.8378
   798.5000      7.9943      2.5862      0.0609      3.8691    133.5738
   798.6000      7.9943      2.5733      0.0522      4.6485    132.7322
   798.7000      7.9943      2.5572     -0.0056      5.6242    133.9890
   798.8000      7.9909      2.5482      0.0382      6.1680    134.4643
   798.9000      7.9909      2.5547     -0.0024      5.7775    133.8476
   799.0000      7.9936      2.5746      0.0831      4.5701    133.9077
   799.1000      7.9936      2.5906      0.0569      3.6001    134.0796
   799.2000      7.9936      2.5937      0.0554      3.4133    130.6002
   799.3000      7.9910      2.5904      0.0661      3.6127    124.2643
   799.4000      7.9910      2.5916      0.0538      3.5415    120.0151
   799.5000      7.9828      2.5986      0.0884      3.1147    116.5834
   799.6000      7.9828      2.5925      0.1032      3.4854    109.7949
   799.7000      7.9828      2.5663      0.0646      5.0704    100.8353
   799.8000      7.9750      2.5487      0.0072      6.1365     92.4927
   799.9000      7.9750      2.5578      0.0757      5.5849     84.4037
   800.0000      7.9705      2.5715      0.0521      4.7565     75.8215
   800.1000      7.9705      2.5721      0.0109      4.7198     69.6978
   800.2000      7.9705      2.5646      0.0144      5.1771     67.9773
   800.3000      7.9664      2.5552      0.0224      5.7439     68.9895
   800.4000      7.9664      2.5491      0.0291      6.1125     70.6570
   800.5000      7.9604      2.5561      0.0444      5.6902     72.3944
   800.6000      7.9604      2.5753      0.0757      4.5287     73.9118
   800.7000      7.9604      2.5878      0.0806      3.7719     75.1193
   800.8000      7.9545      2.5811      0.0749      4.1730     76.0809
   800.9000      7.9545      2.5706      0.0432      4.8138     76.8536
   801.0000      7.9553      2.5787      0.0593      4.3203     76.7653
   801.1000      7.9553      2.6041      0.0855      2.7828     73.2905
   801.2000      7.9553      2.6270      0.0602      1.3949     67.6130
   801.3000      7.9675      2.6283      0.0912      1.3133     64.3630
   801.4000      7.9675      2.6073      0.0517      2.5884     64.7964
   801.5000      7.9844      2.5902      0.0321      3.6258     67.4796
   801.6000      7.9844      2.5946      0.0291      3.3595     69.2197
   801.7000      7.9844      2.6066      0.0708      2.6309     68.3287
   801.8000      7.9947      2.6109      0.0327      2.3671     66.4102
   801.9000      7.9947      2.6067      0.0270      2.6246     65.7756
   802.0000      7.9962      2.5909      0.0311      3.5813     67.2694
   802.1000      7.9962      2.5651      0.0109      5.1444     68.7858
   802.2000      7.9962      2.5440     -0.0336      6.4244     68.6960
   802.3000      7.9949      2.5406     -0.0187      6.6320     68.5512
   802.4000      7.9949      2.5527     -0.0171      5.8964     71.1930
   802.5000      7.9936      2.5631      0.0402      5.2675     75.7242
   802.6000      7.9936      2.5599      0.0372      5.4614     77.9871
   802.7000      7.9936      2.5489      0.0358      6.1267     77.3148
   802.8000      7.9890      2.5371      0.0812      6.8412     76.5527
   802.9000      7.9890      2.5259      0.0461      7.5206     76.2692
   803.0000      7.9790      2.5206      0.0638      7.8436     76.4565
   803.1000      7.9790      2.5253      0.0683      7.5599     77.5934
   803.2000      7.9790      2.5364      0.0699      6.8820     77.0641
   803.3000      7.9713      2.5471      0.1137      6.2375     75.1263
   803.4000      7.9713      2.5492      0.0863      6.1093     75.2483
   803.5000      7.9745      2.5403      0.0745      6.6506     77.7393
   803.6000      7.9745      2.5287      0.0709      7.3545     79.5987
   803.7000      7.9745      2.5233      0.0634      7.6775     79.2404
   803.8000      7.9845      2.5181      0.1046      7.9910     78.3791
   803.9000      7.9845      2.5060      0.0459      8.7287     76.9964
   804.0000      7.9945      2.5008      0.0072      9.0415     74.0397
   804.1000      7.9945      2.5118      0.0793      8.3746     71.6871
   804.2000      7.9945      2.5301      0.0268      7.2694     72.0444
   804.3000      8.0009      2.5490      0.0809      6.1213     73.8240
   804.4000      8.0009      2.5652      0.0690      5.1380     74.5678
   804.5000      8.0053      2.5776      0.0957      4.3883     73.3185
   804.6000      8.0053      2.5857      0.0865      3.8939     70.1970
   804.7000      8.0053      2.5892      0.1092      3.6860     67.6771
   804.8000      8.0105      2.5852      0.1382      3.9248     69.3005
   804.9000      8.0105      2.5817      0.1138      4.1403     73.0133
   805.0000      8.0084      2.5879      0.1673      3.7613     73.9962
   805.1000      8.0084      2.5927      0.1455      3.4706     72.2540
   805.2000      8.0084      2.5878      0.1271      3.7680     70.3985
   805.3000      7.9980      2.5773      0.1106      4.4077     67.8653
   805.4000      7.9980      2.5646      0.0849      5.1773     63.0396
   805.5000      7.9850      2.5535      0.0520      5.8493     59.7809
   805.6000      7.9850      2.5362      0.0836      6.8988     61.5656
   805.7000      7.9850      2.4982      0.0536      9.1974     63.9063
   805.8000      7.9755      2.4521      0.0074     11.9968     62.7967
   805.9000      7.9755      2.4326     -0.0445     13.1747     60.5557
   806.0000      7.9776      2.4557      0.0284     11.7738     58.8652
   806.1000      7.9776      2.4971      0.0794      9.2673     57.7770
   806.2000      7.9776      2.5340      0.0640      7.0280     59.7323
   806.3000      7.9881      2.5759      0.0905      4.4912     63.7900
   806.4000      7.9881      2.6251      0.1364      1.5106     66.6286
   806.5000      7.9945      2.6597      0.1524     -0.5854     66.5488
   806.6000      7.9945      2.6729      0.1079     -1.3904     63.1747
   806.7000      7.9945      2.6756      0.1530     -1.5491     57.8762
   806.8000      7.9959      2.6703      0.1049     -1.2303     52.9599
   806.9000      7.9959      2.6644      0.0634     -0.8743     51.1080
   807.0000      7.9956      2.6643      0.0960     -0.8678     53.6301
   807.1000      7.9956      2.6577      0.0409     -0.4677     58.2585
   807.2000      7.9956      2.6397      0.0117      0.6225     60.1607
   807.3000      7.9945      2.6181      0.0413      1.9356     58.1711
   807.4000      7.9945      2.6002      0.0088      3.0180     55.9271
   807.5000      7.9934      2.5867      0.0474      3.8374     54.8207
   807.6000      7.9934      2.5659      0.0699      5.0951     54.3858
   807.7000      7.9934      2.5399      0.0636      6.6726     55.6406
   807.8000      7.9931      2.5276      0.0372      7.4193     57.4328
   807.9000      7.9931      2.5360      0.0342      6.9112     58.9092
   808.0000      7.9958      2.5540      0.0572      5.8189     62.1700
   808.1000      7.9958      2.5614      0.0735      5.3678     66.5497
   808.2000      7.9958      2.5474      0.0774      6.2165     68.3166
   808.3000      8.0048      2.5243      0.0229      7.6194     67.1651
   808.4000      8.0048      2.5080      0.0432      8.6050     64.1463
   808.5000      8.0168      2.4981      0.0129      9.2075     61.3818
   808.6000      8.0168      2.4920      0.0117      9.5736     60.4758
   808.7000      8.0168      2.4875      0.0717      9.8478     59.2055
   808.8000      8.0234      2.4821      0.0079     10.1729     57.5901
   808.9000      8.0234      2.4841      0.0443     10.0574     58.1788
   809.0000      8.0230      2.4959      0.0143      9.3414     61.2323
   809.1000      8.0230      2.5078      0.0570      8.6198     65.6602
   809.2000      8.0230      2.5079      0.0494      8.6096     68.2688
   809.3000      8.0193      2.4983      0.0138      9.1912     66.9377
