~Version Information
VERS.                      2.0: CWLS Log ASCII Standard - VERSION 2.0
WRAP.                       NO: One line per depth step
~Well Information Block
STRT.FT                -6.0000: 
STOP.FT              1295.2500: 
STEP.FT                 0.2500: 
NULL.                -999.2500: 
COMP.          Pioneer Natural Resources: COMPANY
WELL.            Erin 21-15 Tr: WELL
FLD.           Purgatoire River: FIELD
LOC.           1217' FNL & 2284' FWL--: LOCATION
CNTY.               Las Animas: COUNTY
SRVC.                         : SERVICE COMPANY
DATE.          Fri Mar 10 09:14:17 2006: LOG DATE
UWI.           05 071 08712 00: UNIQUE WELL ID
STAT.                       CO: STATE
~Curve Information Block
DEPT.FT            0 000 00 00: Depth
GR.GAPI                       : Gamma Ray
CCL.                          : Casing Collar Locator
TT3.usec                      : CBL 3' Travel Time
AMP3.mV                       : CBL 3' Amplitude
~Parameter Information Block
~A  Depth        GR         CCL         TT3         AMP3    
# ...
   999.0000     60.7276      0.0000    715.6033      7.1132
   999.2500     67.1044      0.0000    711.6558      7.2001
   999.5000     75.2828      0.0000    706.1976      7.2611
   999.7500     82.5396      0.0000    701.1287      7.3204
  1000.0000     86.6419      0.0000    698.8959      7.3970
  1000.2500     87.0558      0.0000    700.4413      7.4927
  1000.5000     85.0803      0.0000    704.1246      7.5919
  1000.7500     82.7490      0.0000    706.9631      7.6667
  1001.0000     81.4400      0.0000    706.9894      7.6892
  1001.2500     81.5238      0.0000    704.4064      7.6476
  1001.5000     83.1857      0.0000    700.9801      7.5526
  1001.7500     87.0548      0.0000    698.9375      7.4270
  1002.0000     93.5881      0.0000    700.0563      7.2932
  1002.2500    101.9603      0.0000    704.6909      7.1703
  1002.5000    109.9661      0.0000    711.3132      7.0721
  1002.7500    115.2357      0.0000    717.5080      7.0016
  1003.0000    116.6902      0.0000    721.7005      6.9480
  1003.2500    115.0257      0.0000    723.8560      6.8963
  1003.5000    111.9806      0.0000    724.7941      6.8395
  1003.7500    109.2131      0.0000    725.2393      6.7813
  1004.0000    107.6504      0.0000    725.4611      6.7308
  1004.2500    107.4055      0.0000    725.3693      6.6977
  1004.5000    107.8841      0.0000    724.7256      6.6909
  1004.7500    108.0797      0.0000    723.3121      6.7153
  1005.0000    107.2045      0.0000    721.0778      6.7685
  1005.2500    105.1896      0.0000    718.3327      6.8394
  1005.5000    102.5243      0.0000    715.8660      6.9149
  1005.7500     99.8816      0.0000    714.5767      6.9875
  1006.0000     98.0380      0.0000    714.6237      7.0537
  1006.2500     97.6422      0.0000    715.0982      7.1069
  1006.5000     98.5529      0.0000    714.9698      7.1416
  1006.7500     99.4993      0.0000    714.3749      7.1641
  1007.0000     98.7385      0.0000    714.6567      7.1946
  1007.2500     95.2558      0.0000    717.1697      7.2498
  1007.5000     89.5212      0.0000    722.3616      7.3256
  1007.7500     83.2370      0.0000    729.7980      7.3946
  1008.0000     78.3468      0.0000    738.1993      7.4209
  1008.2500     76.1118      0.0000    745.2032      7.3825
  1008.5000     76.7939      0.0000    748.0851      7.2884
  1008.7500     79.8003      0.0000    745.6542      7.1771
  1009.0000     83.9169      0.0000    739.3344      7.0938
  1009.2500     87.5589      0.0000    731.9161      7.0604
  1009.5000     89.3462      0.0000    725.3234      7.0575
  1009.7500     89.0294      0.0000    720.0390      7.0307
  1010.0000     87.8853      0.0000    716.5871      6.9183
  1010.2500     87.7903      0.0000    716.9319      6.6825
  1010.5000     89.7153      0.0000    723.5589      6.3359
  1010.7500     93.2001      0.0000    736.7295      5.9579
  1011.0000     97.0942      0.0000    752.6221      5.6725
  1011.2500    100.3589      0.0000    764.5240      5.5720
  1011.5000    102.0319      0.0000    766.5709      5.6518
  1011.7500    101.0101      0.0000    757.4618      5.8372
  1012.0000     96.6458      0.0000    741.5353      6.0571
  1012.2500     89.7067      0.0000    726.3510      6.2707
  1012.5000     82.2349      0.0000    718.5204      6.4502
  1012.7500     76.1517      0.0000    720.6614      6.5778
  1013.0000     72.2105     -2.0000    730.7315      6.6571
  1013.2500     70.2722      0.0000    743.3336      6.7179
  1013.5000     70.0324      0.0000    752.6159      6.8126
  1013.7500     71.1185      0.0000    755.5010      6.9788
  1014.0000     72.8454      0.0000    752.9951      7.1809
  1014.2500     74.4489      0.0000    748.9123      7.3149
  1014.5000     75.6919      0.0000    747.1423      7.3128
  1014.7500     76.9612      0.0000    749.5051      7.2134
  1015.0000     78.5930      0.0000    755.6186      7.0977
  1015.2500     80.2409      0.0000    764.0585      6.9966
  1015.5000     81.0408      0.0000    772.8307      6.8956
  1015.7500     80.3796      0.0000    778.9705      6.7883
  1016.0000     78.5441      0.0000    779.0021      6.6911
  1016.2500     76.6835      0.0000    771.1898      6.6218
  1016.5000     76.0052      0.0000    757.6230      6.5889
  1016.7500     76.9344      0.0000    743.2289      6.5979
  1017.0000     79.0601      0.0000    732.2230      6.6557
  1017.2500     81.6706      0.0000    725.6312      6.7626
  1017.5000     84.1300      0.0000    721.9498      6.9027
  1017.7500     86.0707      0.0000    719.4731      7.0491
  1018.0000     87.6044      0.0000    717.9865      7.1800
  1018.2500     89.1811      0.0000    718.8638      7.2902
  1018.5000     91.0176      0.0000    723.9855      7.3891
  1018.7500     92.7125      0.0000    734.4702      7.4868
  1019.0000     93.4764      0.0000    749.7441      7.5806
  1019.2500     92.7780      0.0000    767.0151      7.6532
  1019.5000     90.8796      0.0000    781.7909      7.6887
  1019.7500     88.7839      0.0000    789.9873      7.6868
  1020.0000     87.5549      0.0000    790.2872      7.6569
  1020.2500     87.5881      0.0000    784.5447      7.6041
  1020.5000     88.5491      0.0000    776.0314      7.5272
  1020.7500     89.9558      0.0000    767.7541      7.4281
  1021.0000     91.5759      0.0000    762.4380      7.3180
  1021.2500     93.0683      0.0000    762.7589      7.2135
  1021.5000     93.4827      0.0000    769.8020      7.1263
  1021.7500     91.7728      0.0000    781.0513      7.0515
  1022.0000     88.1678      0.0000    791.1794      6.9675
  1022.2500     84.5455      0.0000    795.6461      6.8557
  1022.5000     82.8757      0.0000    793.5421      6.7242
  1022.7500     83.4908      0.0000    787.3193      6.6074
  1023.0000     85.2125      0.0000    780.3918      6.5400
  1023.2500     86.8148      0.0000    774.8693      6.5310
  1023.5000     87.8350      0.0000    770.7836      6.5642
  1023.7500     88.1819      0.0000    766.7224      6.6204
  1024.0000     87.6928      0.0000    761.0483      6.6943
  1024.2500     86.4410      0.0000    753.1367      6.7913
  1024.5000     85.3225      0.0000    744.2567      6.9130
  1024.7500     85.8541      0.0000    737.3849      7.0502
  1025.0000     88.8719      0.0000    735.3831      7.1906
  1025.2500     93.3303      0.0000    738.6094      7.3318
  1025.5000     96.8462      0.0000    744.3492      7.4857
  1025.7500     97.8100      0.0000    748.9965      7.6685
  1026.0000     96.9191      0.0000    750.7418      7.8844
  1026.2500     96.4459      0.0000    750.0806      8.1183
  1026.5000     97.9584      0.0000    748.4941      8.3412
  1026.7500    100.7479      0.0000    747.4528      8.5214
  1027.0000    102.4398      0.0000    748.2890      8.6332
  1027.2500    101.1209      0.0000    751.8171      8.6653
  1027.5000     97.0032      0.0000    757.5363      8.6240
  1027.7500     92.2612      0.0000    763.7189      8.5265
  1028.0000     89.4402      0.0000    768.6974      8.3889
  1028.2500     89.9136      0.0000    771.9019      8.2187
  1028.5000     93.4243      0.0000    773.6800      8.0248
  1028.7500     98.5422      0.0000    774.5399      7.8358
  1029.0000    103.4034      0.0000    774.6689      7.7024
  1029.2500    106.3909      0.0000    773.8578      7.6719
  1029.5000    106.7977      0.0000    771.6707      7.7562
  1029.7500    105.2663      0.0000    767.9724      7.9266
  1030.0000    103.5101      0.0000    763.6247      8.1375
  1030.2500    103.3665      0.0000    760.4819      8.3489
  1030.5000    105.9858      0.0000    760.0982      8.5305
  1030.7500    111.6222      0.0000    762.2147      8.6575
  1031.0000    119.5629      0.0000    764.7650      8.7123
  1031.2500    127.9860      0.0000    765.4295      8.6944
  1031.5000    134.4407      0.0000    763.2597      8.6247
  1031.7500    137.3168      0.0000    759.3343      8.5361
  1032.0000    137.0132      0.0000    756.1584      8.4547
  1032.2500    135.2637      0.0000    755.9055      8.3841
