~Version Information
 VERS.                                  2.0 : CWLS LAS VERSION
 WRAP.                                   NO : WRAPING MODE
 SWARE .                 MController 2.5.0N : SOFTWARE VERSION
~Well Information
 WELL.                       Blue Sky 44-17 : WELL
 COMP.     Pioneer Natural Resource USA Inc : COMPANY
 FLD.                      Purgatoire River : FIELD
 LOC.                 SE/SE SEC17 T33S R66W : LOCATION
 DATE.                             09/07/05 : DATE(S) LOGGED
 SRVC.       Blanco Geological Services LLC : SERVICE COMPANY
 STAT.                             Colorado : STATE
 CNTY.                           Las Animas : COUNTY
 CTRY.                                  USA : COUNTRY
 API.                       05-071-08511-00 : API NUMBER
 STRT.FT                             434.00 : START DEPTH
 STOP.FT                            1625.00 : STOP DEPTH
 STEP.FT                               1.00 : DEPTH INCREMENT
 NULL.                                -9999 : NULL VALUE
~Curve information
 DEPTH.FT                                   :
 ROP.MIN/FT                                 :
 GAS.UNITS                                  :
~ASCII Log data
# ...
       834.0         0.30         41.2 
       835.0         0.27         36.9 
       836.0         3.98        391.2 
       837.0         0.20         95.8 
       838.0         0.33         89.8 
       839.0         0.32         82.5 
       840.0         0.30         79.9 
       841.0         0.23         74.1 
       842.0         0.23         72.2 
       843.0         0.23         71.2 
       844.0         0.23         68.5 
       845.0         0.23         66.4 
       846.0         0.27         67.0 
       847.0         0.23         66.6 
       848.0         0.23         65.4 
       849.0         0.27         64.9 
       850.0         0.23         58.2 
       851.0         0.27         57.0 
       852.0         1.78         99.7 
       853.0         0.37         81.2 
       854.0         0.33         72.3 
       855.0         0.33         67.6 
       856.0         0.30         64.6 
       857.0         0.30         66.7 
       858.0         0.32         69.0 
       859.0         0.33         68.8 
       860.0         0.30         67.8 
       861.0         0.33         66.6 
       862.0         0.33         70.5 
       863.0         0.33         69.7 
       864.0         0.33         60.7 
       865.0         0.37         39.2 
       866.0         4.22        440.0 
       867.0         0.28        116.7 
       868.0         0.37        107.7 
       869.0         0.40         91.6 
       870.0         0.33         82.2 
       871.0         0.30         75.5 
       872.0         0.33         69.4 
       873.0         0.27         68.2 
       874.0         0.30         67.9 
       875.0         0.27         66.3 
       876.0         0.27         66.1 
       877.0         0.30         65.6 
       878.0         0.28         65.5 
       879.0         0.30         64.1 
       880.0         0.30         64.1 
       881.0         0.27         64.4 
       882.0         0.23         64.0 
       883.0         0.23         63.5 
       884.0         0.17         63.5 
       885.0         0.30         64.3 
       886.0         0.27         64.7 
       887.0         0.17         64.7 
       888.0         0.23         65.1 
       889.0         0.23         65.1 
       890.0         0.23         65.3 
       891.0         0.25         67.8 
       892.0         0.27         65.3 
       893.0         0.27         60.3 
       894.0         0.27         47.9 
       895.0         0.60         39.4 
       896.0         5.43        429.0 
       897.0         0.30         73.1 
       898.0         0.30         64.5 
       899.0         0.27         62.7 
       900.0         0.27         61.7 
       901.0         0.27         60.3 
       902.0         0.23         57.6 
       903.0         0.27         60.3 
       904.0         0.23         59.1 
       905.0         0.23         53.7 
       906.0         0.27         39.2 
       907.0         0.23         31.5 
       908.0         0.17         31.5 
       909.0         0.25         35.1 
       910.0         2.07         71.0 
       911.0         0.87         89.5 
       912.0         0.35         66.3 
       913.0         0.37         63.7 
       914.0         0.27         53.0 
       915.0         0.27         50.5 
       916.0         0.23         52.1 
       917.0         0.27         52.5 
       918.0         0.23         53.6 
       919.0         0.23         55.5 
       920.0         0.20         62.3 
       921.0         0.23         64.7 
       922.0         0.27         55.0 
       923.0         0.23         40.9 
       924.0         0.27         31.3 
       925.0         0.35         28.4 
       926.0         3.68        332.7 
       927.0         0.70         80.3 
       928.0         0.33         63.4 
       929.0         0.33         56.9 
       930.0         0.27         52.3 
       931.0         0.27         52.7 
       932.0         0.27         51.2 
       933.0         0.30         50.9 
       934.0         0.30         35.0 
       935.0         0.28         28.9 
       936.0         0.30         32.4 
       937.0         0.27         38.6 
       938.0         2.85         67.7 
       939.0         0.23         55.8 
       940.0         0.47         53.4 
       941.0         0.40         47.0 
       942.0         0.30         42.9 
       943.0         0.30         43.0 
       944.0         0.27         43.0 
       945.0         0.23         42.7 
       946.0         0.33         42.6 
       947.0         0.33         42.6 
       948.0         0.35         43.0 
       949.0         0.27         43.0 
       950.0         0.27         43.2 
       951.0         0.23         44.0 
       952.0         0.33         40.6 
       953.0         0.30         39.6 
       954.0         0.23         21.1 
       955.0         0.33         18.7 
       956.0         6.70       1207.7 
       957.0         0.40         58.4 
       958.0         0.37         52.8 
       959.0         0.27         46.9 
       960.0         0.42         45.6 
       961.0         0.33         43.7 
       962.0         0.33         43.9 
       963.0         0.37         44.0 
       964.0         0.27         43.6 
       965.0         0.33         42.5 
       966.0         0.40         40.8 
       967.0         0.37         40.1 
       968.0         0.27         40.3 
       969.0         0.30         39.9 
       970.0         0.32         39.2 
       971.0         0.30         41.0 
       972.0         0.20         40.7 
       973.0         0.23         41.4 
       974.0         0.27         41.8 
       975.0         0.23         40.6 
       976.0         0.27         40.5 
       977.0         0.23         40.9 
       978.0         0.30         39.9 
       979.0         0.23         40.3 
       980.0         0.23         41.2 
       981.0         0.23         41.6 
       982.0         0.23         35.0 
       983.0         0.17         23.9 
       984.0         0.22         18.6 
       985.0         0.20         18.6 
       986.0         3.98        130.5 
       987.0         0.30         53.7 
       988.0         0.27         48.0 
       989.0         0.20         43.1 
       990.0         0.23         41.3 
       991.0         0.23         41.0 
       992.0         0.20         42.2 
       993.0         0.17         42.2 
       994.0         0.20         40.3 
       995.0         0.23         38.0 
       996.0         0.42         22.7 
       997.0         0.20         23.3 
       998.0         0.17         25.6 
       999.0         2.70         55.2 
      1000.0         0.45         46.6 
      1001.0         0.37         41.2 
      1002.0         0.37         36.3 
      1003.0         0.33         35.4 
      1004.0         0.30         36.2 
      1005.0         0.30         35.6 
      1006.0         0.27         35.8 
      1007.0         0.20         35.9 
      1008.0         0.23         35.8 
      1009.0         0.20         36.5 
      1010.0         0.23         35.1 
      1011.0         0.28         31.7 
      1012.0         0.30         21.4 
      1013.0         0.27         15.8 
      1014.0         0.33         17.2 
      1015.0         0.40         20.3 
      1016.0         3.22        156.6 
      1017.0         0.37         56.3 
      1018.0         0.33         48.7 
      1019.0         0.43         40.6 
      1020.0         0.33         42.9 
      1021.0         0.27         39.4 
      1022.0         0.33         38.0 
      1023.0         0.35         24.3 
      1024.0         0.27         31.1 
      1025.0         1.37         35.0 
      1026.0         0.90         34.8 
      1027.0         0.78         33.4 
      1028.0         0.80         35.0 
      1029.0         0.80         34.1 
      1030.0         0.83         33.0 
      1031.0         0.75         32.5 
      1032.0         0.73         33.0 
      1033.0         0.63         35.6 
