~Version Information
VERS.                      2.0: CWLS Log ASCII Standard - VERSION 2.0
WRAP.                       NO: One line per depth step
~Well Information Block
STRT.FT               335.0000: 
STOP.FT              1013.5000: 
STEP.FT                 0.1000: 
NULL.                -999.2500: 
COMP.          Pioneer Natural Resources: COMPANY
WELL.             Giggle 21-22: WELL
FLD.           Purgatoire River: FIELD
LOC.           950' FNL & 2094' FWL: LOCATION
CNTY.               Las Animas: COUNTY
SRVC.                Patterson: SERVICE COMPANY
DATE.          Thu Apr 13 09:31:38 2006: LOG DATE
UWI.           05 071 08726 00: UNIQUE WELL ID
STAT.                 Colorado: STATE
~Curve Information Block
DEPT.FT            0 000 00 00: Depth
DCAL.in                       : CDL Caliper
RHOB.g/cc                     : CDL Bulk Density
RHOC.g/cc                     : CDL Density Correction
DPOR.pu                       : CDL Density Porosity
GR.GAPI                       : Gamma Ray
NPOR.pu                       : Neutron Porosity
~Parameter Information Block
~A  Depth       DCAL        RHOB        RHOC        DPOR         GR         NPOR    
# ...
   911.0000      7.9111      2.4329     -0.0219     13.1550     92.1733     19.5985
   911.1000      7.9111      2.4387     -0.0435     12.8055     89.0577     19.4611
   911.2000      7.9111      2.4861     -0.0049      9.9327     83.5592     18.9607
   911.3000      7.9110      2.5506      0.0830      6.0217     76.0466     18.5212
   911.4000      7.9110      2.5822      0.1493      4.1103     67.7874     18.4915
   911.5000      7.9128      2.5676      0.0663      4.9919     62.7544     18.9002
   911.6000      7.9128      2.5451      0.1316      6.3577     62.3781     19.4530
   911.7000      7.9128      2.5425      0.0889      6.5179     64.7828     19.8165
   911.8000      7.9112      2.5524      0.1388      5.9153     67.3870     19.8841
   911.9000      7.9112      2.5503      0.1359      6.0429     69.0131     19.6426
   912.0000      7.9099      2.5245      0.0724      7.6047     69.0246     19.2898
   912.1000      7.9099      2.4941      0.0167      9.4507     67.6280     19.0640
   912.2000      7.9099      2.4847      0.0241     10.0188     65.7933     19.0592
   912.3000      7.9111      2.4958      0.0264      9.3452     64.4421     19.0624
   912.4000      7.9111      2.5135      0.0381      8.2707     63.4018     18.8231
   912.5000      7.9142      2.5392      0.0725      6.7164     63.0962     18.4899
   912.6000      7.9142      2.5694      0.1105      4.8844     64.8096     18.2853
   912.7000      7.9142      2.5771      0.1137      4.4182     67.2641     18.1792
   912.8000      7.9112      2.5557      0.0780      5.7177     68.7239     18.0331
   912.9000      7.9112      2.5352      0.0434      6.9590     68.8330     17.8561
   913.0000      7.9105      2.5354      0.0597      6.9454     66.3640     17.7062
   913.1000      7.9105      2.5545      0.0123      5.7909     62.2406     17.6221
   913.2000      7.9105      2.5801      0.0808      4.2344     60.4192     17.5687
   913.3000      7.9090      2.5956      0.0321      3.2982     61.4036     17.5450
   913.4000      7.9090      2.5971      0.0480      3.2062     62.3593     17.5363
   913.5000      7.9124      2.5791      0.0834      4.2953     62.9686     17.4617
   913.6000      7.9124      2.5459     -0.0125      6.3101     64.4783     17.5528
   913.7000      7.9124      2.5237      0.0384      7.6529     66.1605     18.0956
   913.8000      7.9101      2.5185      0.0465      7.9695     66.8504     18.7447
   913.9000      7.9101      2.5175      0.0439      8.0330     67.0719     18.9482
   914.0000      7.9084      2.5209      0.0207      7.8216     67.7607     18.7293
   914.1000      7.9084      2.5289      0.0340      7.3422     68.6359     18.4099
   914.2000      7.9084      2.5411      0.0094      6.6019     68.5805     18.3248
   914.3000      7.9109      2.5619      0.0646      5.3386     68.7636     18.5239
   914.4000      7.9109      2.5798      0.0274      4.2516     70.7500     18.6353
   914.5000      7.9117      2.5851      0.0516      3.9309     74.2164     18.5480
   914.6000      7.9117      2.5867      0.0747      3.8348     79.3269     18.5254
   914.7000      7.9117      2.5942      0.1128      3.3830     87.1509     18.5855
   914.8000      7.9099      2.5974      0.1334      3.1900     94.4870     18.6144
   914.9000      7.9099      2.5831      0.0965      4.0548     93.7284     18.6898
   915.0000      7.9159      2.5587      0.0277      5.5315     85.0317     18.9858
   915.1000      7.9159      2.5377      0.0338      6.8031     78.1283     19.6238
   915.2000      7.9159      2.5287     -0.0168      7.3495     76.2044     20.3479
   915.3000      7.9099      2.5387      0.0243      6.7425     75.6344     20.8772
   915.4000      7.9099      2.5561      0.0533      5.6884     75.5365     21.1319
   915.5000      7.9031      2.5612      0.0094      5.3823     73.9165     21.1827
   915.6000      7.9031      2.5486      0.0215      6.1450     69.2734     21.2069
   915.7000      7.9031      2.5234     -0.0096      7.6745     64.1380     20.9563
   915.8000      7.9097      2.4924      0.0381      9.5521     61.2299     20.3714
   915.9000      7.9097      2.4718     -0.0246     10.8013     60.5252     19.8741
   916.0000      7.9087      2.4776     -0.0285     10.4480     59.8654     19.4926
   916.1000      7.9087      2.4987      0.0164      9.1724     58.8765     19.1494
   916.2000      7.9087      2.5167     -0.0063      8.0805     61.0893     19.1997
   916.3000      7.9100      2.5334      0.0286      7.0647     70.7648     19.5961
   916.4000      7.9100      2.5508      0.0938      6.0130     83.2450     19.6999
   916.5000      7.9115      2.5679      0.0652      4.9767     88.5476     19.1634
   916.6000      7.9115      2.5814      0.1257      4.1563     85.2950     18.5227
   916.7000      7.9115      2.5852      0.0643      3.9278     78.8563     18.4106
   916.8000      7.9092      2.5880      0.0980      3.7599     74.8378     18.6277
   916.9000      7.9092      2.5952      0.1268      3.3241     77.3049     18.6028
   917.0000      7.9133      2.5963      0.1147      3.2553     82.7955     18.2380
   917.1000      7.9133      2.5903      0.0679      3.6173     83.7767     17.8546
   917.2000      7.9133      2.5919      0.0497      3.5215     80.1237     17.6058
   917.3000      7.9129      2.5995      0.0799      3.0630     78.8225     17.6000
   917.4000      7.9129      2.5915      0.1105      3.5464     82.6962     17.8462
   917.5000      7.9093      2.5680      0.0373      4.9719     85.7847     18.1221
   917.6000      7.9093      2.5473      0.0156      6.2267     82.7733     18.2254
   917.7000      7.9093      2.5358      0.0034      6.9193     77.0489     18.2248
   917.8000      7.9105      2.5289      0.0252      7.3419     74.5166     18.5523
   917.9000      7.9105      2.5251     -0.0034      7.5688     75.5567     19.1599
   918.0000      7.9109      2.5304      0.0336      7.2465     77.0313     19.5872
   918.1000      7.9109      2.5443      0.0249      6.4090     75.8854     19.8333
   918.2000      7.9109      2.5609      0.0533      5.3983     70.6198     20.0778
   918.3000      7.9097      2.5783      0.0443      4.3479     63.5330     20.1867
   918.4000      7.9097      2.5967      0.0531      3.2287     59.7904     19.9096
   918.5000      7.9090      2.6144      0.0527      2.1589     63.2267     19.4646
   918.6000      7.9090      2.6237      0.0608      1.5938     70.5662     19.3473
   918.7000      7.9090      2.6121      0.1175      2.2941     73.1149     19.5100
   918.8000      7.9096      2.5798      0.0702      4.2518     69.7566     19.5659
   918.9000      7.9096      2.5493      0.0027      6.1022     66.3349     19.3406
   919.0000      7.9096      2.5339      0.0182      7.0389     64.7297     18.9383
   919.1000      7.9096      2.5258      0.0086      7.5301     62.4113     18.4851
   919.2000      7.9096      2.5174      0.0088      8.0351     58.1716     18.1678
   919.3000      7.9070      2.5154     -0.0233      8.1583     53.7788     18.2656
   919.4000      7.9070      2.5234      0.0203      7.6744     53.9216     18.6151
   919.5000      7.9094      2.5207      0.0232      7.8355     59.4225     18.5851
   919.6000      7.9094      2.4957     -0.0502      9.3496     65.6362     18.1731
   919.7000      7.9094      2.4715     -0.0484     10.8179     71.0504     17.7762
   919.8000      7.9106      2.4729     -0.0393     10.7315     76.1545     17.4146
   919.9000      7.9106      2.4958      0.0395      9.3479     77.8474     17.3056
   920.0000      7.9084      2.5181      0.0222      7.9920     72.8350     17.6179
   920.1000      7.9084      2.5292      0.0313      7.3185     63.9807     17.9352
   920.2000      7.9084      2.5315      0.0308      7.1842     56.8393     17.9518
   920.3000      7.9102      2.5339      0.0020      7.0345     52.6448     17.7995
   920.4000      7.9102      2.5439      0.0203      6.4317     49.3672     17.5030
   920.5000      7.9094      2.5541      0.0687      5.8132     46.7093     16.9462
