~Version Information
VERS.                      2.0: CWLS Log ASCII Standard - VERSION 2.0
WRAP.                       NO: One line per depth step
~Well Information Block
STRT.FT               360.0000: 
STOP.FT              1349.5000: 
STEP.FT                 0.1000: 
NULL.                -999.2500: 
COMP.          Pioneer Natural Resources: COMPANY
WELL.          Challenger 31-29: WELL
FLD.           Purgatoire River: FIELD
LOC.           51' FNL & 1923' FEL: LOCATION
STAT.                 Colorado: State
CNTY.               Las Animas: COUNTY
CTRY. USA : Country
SECT. 29 : Section
TOWN. 33S : Township
RANG. 65W : Range
SRVC.                Patterson: SERVICE COMPANY
DATE.          Thu Sep 15 13:35:50 2005: LOG DATE
API.           05 071 08514 00: UNIQUE WELL ID
~Curve Information Block
DEPT.FT            0 000 00 00: Depth
DCAL.in                       : CDL Caliper
RHOB.g/cc                     : CDL Bulk Density
RHOC.g/cc                     : CDL Density Correction
DPOR.pu                       : CDL Density Porosity
GR.GAPI                       : Gamma Ray
NPOR.pu                       : Neutron Porosity
~Parameter Information Block
~A  Depth       DCAL        RHOB        RHOC        DPOR         GR         NPOR    
# ...
  1147.2000      8.0124      2.5441      0.0911      6.4198     82.7682     34.2789
  1147.3000      8.0102      2.5324      0.1092      7.1293     84.5650     33.9415
  1147.4000      8.0102      2.5375      0.0731      6.8203     86.5320     33.7682
  1147.5000      8.0138      2.5514      0.1485      5.9761     86.5060     34.0416
  1147.6000      8.0138      2.5523      0.1137      5.9200     84.8490     34.3612
  1147.7000      8.0138      2.5360      0.0969      6.9068     87.4561     34.4710
  1147.8000      8.0153      2.5231      0.0415      7.6887     95.0229     34.5573
  1147.9000      8.0153      2.5303      0.0891      7.2533     98.1178     34.7043
  1148.0000      8.0102      2.5530      0.1020      5.8808     93.3419     34.7400
  1148.1000      8.0102      2.5781      0.1330      4.3555     87.3233     34.4862
  1148.2000      8.0102      2.5927      0.1742      3.4716     82.1779     34.0293
  1148.3000      8.0166      2.5967      0.1104      3.2322     75.0919     33.7759
  1148.4000      8.0166      2.5974      0.1579      3.1889     66.6555     33.7199
  1148.5000      8.0050      2.5862      0.1084      3.8643     60.5706     33.3763
  1148.6000      8.0050      2.5634      0.0394      5.2502     57.5603     32.5614
  1148.7000      8.0050      2.5471      0.0507      6.2382     58.1523     31.6971
  1148.8000      8.0019      2.5473      0.0277      6.2214     63.2980     31.2735
  1148.9000      8.0019      2.5586      0.0825      5.5395     71.7089     31.1821
  1149.0000      8.0245      2.5686      0.0776      4.9334     78.4025     31.2180
  1149.1000      8.0245      2.5731      0.1076      4.6609     76.5433     31.4400
  1149.2000      8.0245      2.5758      0.0960      4.4970     68.0356     31.5543
  1149.3000      8.0505      2.5747      0.0928      4.5649     63.0530     31.2416
  1149.4000      8.0505      2.5650      0.0801      5.1533     65.3163     30.6302
  1149.5000      8.0580      2.5552      0.0461      5.7482     67.0875     30.0376
  1149.6000      8.0580      2.5536      0.0913      5.8444     62.5620     29.8474
  1149.7000      8.0580      2.5495      0.0896      6.0892     58.2188     30.2505
  1149.8000      8.0523      2.5436      0.0423      6.4476     59.5534     30.8328
  1149.9000      8.0523      2.5506      0.0780      6.0260     62.7432     31.3136
  1150.0000      8.0411      2.5661      0.0778      5.0836     61.5039     31.6550
  1150.1000      8.0411      2.5749      0.0807      4.5544     56.7315     31.4621
  1150.2000      8.0411      2.5743      0.0302      4.5905     54.7515     30.4474
  1150.3000      8.0324      2.5728      0.0542      4.6783     55.9065    -68.6222
  1150.4000      8.0324      2.5676      0.0973      4.9961     56.0565    -74.5606
  1150.5000      8.0362      2.5519      0.1019      5.9481     54.5375    -67.8722
  1150.6000      8.0362      2.5354      0.1124      6.9451     52.8202    -51.4428
  1150.7000      8.0362      2.5341      0.0522      7.0239     51.6209    -32.6477
  1150.8000      8.0423      2.5533      0.0808      5.8607     51.9087    -17.3262
  1150.9000      8.0423      2.5784      0.1077      4.3396     53.6716     -6.1996
  1151.0000      8.0250      2.5887      0.0969      3.7165     56.6087      0.3510
  1151.1000      8.0250      2.5875      0.0649      3.7893     60.7840      2.6431
  1151.2000      8.0250      2.5896      0.1265      3.6614     65.8343      2.9201
  1151.3000      8.0366      2.5915      0.1155      3.5464     69.5702      2.3077
  1151.4000      8.0366      2.5902      0.1219      3.6252     70.5721      1.4588
  1151.5000      8.0268      2.5887      0.1367      3.7164     71.6328      1.0599
  1151.6000      8.0268      2.5790      0.1314      4.3020     72.6074      1.1465
  1151.7000      8.0268      2.5612      0.0608      5.3793     70.8266      1.5443
  1151.8000      8.0235      2.5553      0.0430      5.7375     69.2532      2.2525
  1151.9000      8.0235      2.5718      0.0921      4.7385     69.7437      3.5772
  1152.0000      8.0227      2.5936      0.0787      3.4171     68.3727      5.7053
  1152.1000      8.0227      2.5981      0.1121      3.1456     64.5297      7.6428
  1152.2000      8.0227      2.5838      0.0686      4.0139     63.0324      8.1384
  1152.3000      8.0314      2.5732      0.0579      4.6528     66.4822      7.8648
  1152.4000      8.0314      2.5805      0.0896      4.2121     71.7717      8.0404
  1152.5000      8.0331      2.5972      0.0831      3.2030     72.5407      9.2065
  1152.6000      8.0331      2.6073      0.1092      2.5867     65.8384     10.2827
  1152.7000      8.0331      2.5946      0.1167      3.3605     56.9564      9.6111
  1152.8000      8.0325      2.5635      0.0615      5.2441     51.9133      8.7548
  1152.9000      8.0325      2.5403      0.0538      6.6484     51.9161      9.1493
  1153.0000      8.0282      2.5379      0.0764      6.7935     54.0814      9.7010
  1153.1000      8.0282      2.5449      0.0614      6.3721     55.0471      9.4307
  1153.2000      8.0282      2.5445      0.0497      6.3953     56.1130      8.7544
  1153.3000      8.0303      2.5373     -0.0208      6.8316     60.8583      8.2707
  1153.4000      8.0303      2.5346      0.0603      6.9920     67.0561      8.4296
  1153.5000      8.0292      2.5341      0.0338      7.0260     67.9875      8.6581
  1153.6000      8.0292      2.5333      0.0329      7.0746     64.9622      8.2092
  1153.7000      8.0292      2.5342      0.0711      7.0186     63.7272      7.9841
  1153.8000      8.0263      2.5258      0.0996      7.5291     64.2825      8.5822
  1153.9000      8.0263      2.5142      0.0191      8.2293     64.1329      9.0347
  1154.0000      8.0317      2.5260      0.0583      7.5174     62.8348      8.2665
  1154.1000      8.0317      2.5493      0.1255      6.1035     60.1487      6.9273
  1154.2000      8.0317      2.5559      0.0531      5.7022     55.3834      6.3275
  1154.3000      8.0207      2.5596      0.0480      5.4801     51.6327      7.0462
  1154.4000      8.0207      2.5768      0.1139      4.4335     53.6730      8.5073
  1154.5000      8.0167      2.5961      0.1281      3.2681     59.0136      9.2409
  1154.6000      8.0167      2.6084      0.0980      2.5229     61.5110      9.0469
  1154.7000      8.0167      2.6138      0.1082      2.1947     62.7158      8.8401
  1154.8000      8.0137      2.6142      0.1214      2.1714     65.2833      8.7686
  1154.9000      8.0137      2.6158      0.1068      2.0754     66.3248      8.5204
  1155.0000      7.9964      2.6183      0.1307      1.9238     64.6211      8.6161
  1155.1000      7.9964      2.6124      0.1222      2.2788     61.1622      9.4281
  1155.2000      7.9964      2.5987      0.1018      3.1078     56.2660     10.1403
  1155.3000      7.9934      2.5884      0.0614      3.7321     52.6596      9.9907
  1155.4000      7.9934      2.5823      0.0865      4.1006     53.4162      9.6052
  1155.5000      8.0301      2.5732      0.0542      4.6549     57.7188      9.9874
  1155.6000      8.0301      2.5645      0.0350      5.1813     61.6283     10.7920
  1155.7000      8.0301      2.5613      0.0420      5.3758     61.9057     10.9932
  1155.8000      8.0255      2.5585      0.0292      5.5473     59.4498     10.6463
  1155.9000      8.0255      2.5495      0.0296      6.0917     59.1649     10.3476
  1156.0000      8.0500      2.5345      0.0223      6.9985     64.1296     10.7665
  1156.1000      8.0500      2.5206     -0.0058      7.8402     69.4202     11.9560
  1156.2000      8.0500      2.5182     -0.0170      7.9886     70.8445     12.5694
  1156.3000      8.0518      2.5250      0.0706      7.5750     72.5857     12.2287
  1156.4000      8.0518      2.5294      0.0282      7.3067     76.2777     12.5481
  1156.5000      8.0591      2.5308      0.0351      7.2268     78.0216     13.7635
  1156.6000      8.0591      2.5340      0.0456      7.0323     79.0542     14.2222
  1156.7000      8.0591      2.5467      0.0667      6.2582     83.7572     13.8812
