~Version Information
VERS.                      2.0: CWLS Log ASCII Standard - VERSION 2.0
WRAP.                       NO: One line per depth step
~Well Information Block
STRT.FT               480.0000: 
STOP.FT              1946.0000: 
STEP.FT                 0.1000: 
NULL.                -999.2500: 
COMP.          XTO Energy Inc.: COMPANY
WELL.          Golden Eagle 19-15: WELL
FLD.           Purgatoire River: FIELD
LOC.           1121' FSL & 2332' FEL--: LOCATION
CNTY.               Las Animas: COUNTY
SRVC.                Patterson: SERVICE COMPANY
DATE.          Mon Mar 13 10:27:20 2006: LOG DATE
UWI.           05 071 08717 00: UNIQUE WELL ID
STAT.                 Colorado: STATE
~Curve Information Block
DEPT.FT            0 000 00 00: Depth
DCAL.in                       : CDL Caliper
RHOB.g/cc                     : CDL Bulk Density
RHOC.g/cc                     : CDL Density Correction
DPOR.pu                       : CDL Density Porosity
NPOR.pu                       : Neutron Porosity
GR.GAPI                       : Gamma Ray
~Parameter Information Block
~A  Depth       DCAL        RHOB        RHOC        DPOR        NPOR         GR     
# ...
  1910.4000      7.7202      2.5375      0.0777      6.8177     26.9564   -999.2500
  1910.5000      7.7192      2.5207      0.0295      7.8341     27.1015   -999.2500
  1910.6000      7.7192      2.5181      0.0610      7.9945     27.4452   -999.2500
  1910.7000      7.7192      2.5338      0.0379      7.0404     29.3768   -999.2500
  1910.8000      7.7164      2.5496      0.1136      6.0827     34.6790   -999.2500
  1910.9000      7.7164      2.5399      0.0863      6.6707     41.9441   -999.2500
  1911.0000      7.7147      2.5090      0.0482      8.5463     47.0432   -999.2500
  1911.1000      7.7147      2.4793      0.0509     10.3439     48.9312   -999.2500
  1911.2000      7.7147      2.4674      0.0222     11.0649     49.3068   -999.2500
  1911.3000      7.7169      2.4763      0.0546     10.5252     49.3466   -999.2500
  1911.4000      7.7169      2.4905      0.0737      9.6651     49.3489   -999.2500
  1911.5000      7.7214      2.4961      0.0671      9.3261   -999.2500   -999.2500
  1911.6000      7.7214      2.4959      0.0588      9.3422   -999.2500   -999.2500
  1911.7000      7.7214      2.4938      0.0615      9.4652   -999.2500   -999.2500
  1911.8000      7.7214      2.4913      0.0607      9.6198   -999.2500   -999.2500
  1911.9000      7.7214      2.4968      0.0505      9.2870   -999.2500   -999.2500
  1912.0000      7.7178      2.5159      0.0647      8.1266   -999.2500   -999.2500
  1912.1000      7.7178      2.5358      0.0957      6.9219   -999.2500   -999.2500
  1912.2000      7.7178      2.5375      0.0830      6.8202   -999.2500   -999.2500
  1912.3000      7.7171      2.5210      0.0692      7.8187   -999.2500   -999.2500
  1912.4000      7.7171      2.5022      0.0658      8.9597   -999.2500   -999.2500
  1912.5000      7.7196      2.4906      0.0262      9.6582   -999.2500   -999.2500
  1912.6000      7.7196      2.4831      0.0551     10.1131   -999.2500   -999.2500
  1912.7000      7.7196      2.4763      0.0436     10.5256   -999.2500   -999.2500
  1912.8000      7.7212      2.4757      0.0429     10.5645   -999.2500   -999.2500
  1912.9000      7.7212      2.4819      0.0685     10.1852   -999.2500   -999.2500
  1913.0000      7.7202      2.4907      0.0439      9.6545   -999.2500   -999.2500
  1913.1000      7.7202      2.5058      0.0597      8.7374   -999.2500   -999.2500
  1913.2000      7.7202      2.5229      0.0962      7.7012   -999.2500   -999.2500
  1913.3000      7.7181      2.5246      0.0972      7.5998   -999.2500   -999.2500
  1913.4000      7.7181      2.5075      0.0594      8.6334   -999.2500   -999.2500
  1913.5000      7.7177      2.4907      0.0315      9.6560   -999.2500   -999.2500
  1913.6000      7.7177      2.4891      0.0615      9.7506   -999.2500   -999.2500
  1913.7000      7.7177      2.5002      0.0865      9.0805   -999.2500   -999.2500
  1913.8000      7.7196      2.5136      0.0789      8.2694   -999.2500   -999.2500
  1913.9000      7.7196      2.5194      0.0769      7.9123   -999.2500   -999.2500
  1914.0000      7.7215      2.5171      0.0453      8.0572   -999.2500   -999.2500
  1914.1000      7.7215      2.5159      0.0833      8.1262   -999.2500   -999.2500
  1914.2000      7.7215      2.5187      0.0834      7.9577   -999.2500   -999.2500
  1914.3000      7.7221      2.5193      0.0754      7.9224   -999.2500   -999.2500
  1914.4000      7.7221      2.5129      0.0813      8.3078   -999.2500   -999.2500
  1914.5000      7.7219      2.5072      0.0193      8.6567   -999.2500   -999.2500
  1914.6000      7.7219      2.5144      0.0335      8.2207   -999.2500   -999.2500
  1914.7000      7.7219      2.5283      0.0878      7.3770   -999.2500   -999.2500
  1914.8000      7.7213      2.5398      0.0377      6.6812   -999.2500   -999.2500
  1914.9000      7.7213      2.5455      0.1103      6.3347   -999.2500   -999.2500
  1915.0000      7.7173      2.5357      0.0633      6.9272   -999.2500   -999.2500
  1915.1000      7.7173      2.5118      0.0590      8.3759   -999.2500   -999.2500
  1915.2000      7.7173      2.4971      0.0154      9.2664   -999.2500   -999.2500
  1915.3000      7.7090      2.5131      0.0455      8.2977   -999.2500   -999.2500
  1915.4000      7.7090      2.5484      0.0741      6.1547   -999.2500   -999.2500
  1915.5000      7.7027      2.5684      0.0816      4.9431   -999.2500   -999.2500
  1915.6000      7.7027      2.5541      0.0859      5.8095   -999.2500   -999.2500
  1915.7000      7.7027      2.5222      0.0234      7.7461   -999.2500   -999.2500
  1915.8000      7.7015      2.4995      0.0453      9.1198   -999.2500   -999.2500
  1915.9000      7.7015      2.4914      0.0452      9.6119   -999.2500   -999.2500
  1916.0000      7.7024      2.4913      0.0449      9.6208   -999.2500   -999.2500
  1916.1000      7.7024      2.4986      0.0332      9.1787   -999.2500   -999.2500
  1916.2000      7.7024      2.5167      0.0452      8.0784   -999.2500   -999.2500
  1916.3000      7.7020      2.5390      0.1071      6.7247   -999.2500   -999.2500
  1916.4000      7.7020      2.5475      0.0836      6.2111   -999.2500   -999.2500
  1916.5000      7.7020      2.5321      0.0829      7.1462   -999.2500   -999.2500
  1916.6000      7.7020      2.5001      0.0543      9.0862   -999.2500   -999.2500
  1916.7000      7.7020      2.4721      0.0099     10.7793   -999.2500   -999.2500
  1916.8000      7.7029      2.4698      0.0372     10.9212   -999.2500   -999.2500
  1916.9000      7.7029      2.4973      0.0619      9.2548   -999.2500   -999.2500
  1917.0000      7.7013      2.5378      0.0864      6.7993   -999.2500   -999.2500
  1917.1000      7.7013      2.5639      0.1242      5.2161   -999.2500   -999.2500
  1917.2000      7.7013      2.5587      0.1268      5.5352   -999.2500   -999.2500
  1917.3000      7.6982      2.5362      0.1034      6.8940   -999.2500   -999.2500
  1917.4000      7.6982      2.5236      0.1056      7.6608   -999.2500   -999.2500
  1917.5000      7.6963      2.5266      0.1416      7.4765   -999.2500   -999.2500
  1917.6000      7.6963      2.5358      0.1117      6.9186   -999.2500   -999.2500
  1917.7000      7.6963      2.5484      0.0448      6.1568   -999.2500   -999.2500
  1917.8000      7.6948      2.5598      0.0833      5.4683   -999.2500   -999.2500
  1917.9000      7.6948      2.5553      0.1074      5.7383   -999.2500   -999.2500
  1918.0000      7.6825      2.5297      0.0804      7.2898   -999.2500   -999.2500
  1918.1000      7.6825      2.5051      0.0118      8.7792   -999.2500   -999.2500
  1918.2000      7.6825      2.5216      0.0554      7.7838   -999.2500   -999.2500
  1918.3000      7.6004      2.6102      0.0723      2.4143   -999.2500   -999.2500
  1918.4000      7.6004      2.6426      0.1067      0.4491   -999.2500   -999.2500
  1918.5000      7.0954      2.2075      0.6361     26.8187   -999.2500   -999.2500
  1918.6000      7.0954      1.2509      0.0800     84.7917   -999.2500   -999.2500
  1918.7000      7.0954      0.4235      0.0800    134.9374   -999.2500   -999.2500
  1918.8000      5.1391      0.0803   -999.2500    155.7365   -999.2500   -999.2500
  1918.9000      5.1391      0.0083   -999.2500    160.1044   -999.2500   -999.2500
  1919.0000      1.9909      0.0004   -999.2500    160.5788   -999.2500   -999.2500
  1919.1000      1.9909      0.0000   -999.2500    160.6061   -999.2500   -999.2500
  1919.2000      1.9909      0.0000   -999.2500    160.6061   -999.2500   -999.2500
  1919.3000      0.0897   -999.2500   -999.2500   -999.2500   -999.2500   -999.2500
  1919.4000      0.0897   -999.2500   -999.2500   -999.2500   -999.2500   -999.2500
  1919.5000     -0.3341   -999.2500   -999.2500   -999.2500   -999.2500   -999.2500
  1919.6000     -0.3341   -999.2500   -999.2500   -999.2500   -999.2500   -999.2500
  1919.7000     -0.3341   -999.2500   -999.2500   -999.2500   -999.2500   -999.2500
  1919.8000     -0.3688   -999.2500   -999.2500   -999.2500   -999.2500   -999.2500
  1919.9000     -0.3688   -999.2500   -999.2500   -999.2500   -999.2500   -999.2500
