~Version Information
VERS.                      2.0: CWLS Log ASCII Standard - VERSION 2.0
WRAP.                       NO: One line per depth step
~Well Information Block
STRT.FT                -6.5000: 
STOP.FT              1564.2500: 
STEP.FT                 0.2500: 
NULL.                -999.2500: 
COMP.          Pioneer Natural Resources: COMPANY
WELL.            Bluesky 44-17: WELL
FLD.           Purgatorie River: FIELD
LOC.           --39' FSL & 288' FEL------: LOCATION
STAT.                       CO: State
CNTY.               Las Animas: COUNTY
CTRY. USA : Country
SECT. 17 : Section
TOWN. 33S : Township
RANG. 66W : Range
SRVC.          Patterson Wireline: SERVICE COMPANY
DATE.          Tue Sep 13 13:24:14 2005: LOG DATE
API.           05 071 08511 00: UNIQUE WELL ID
~Curve Information Block
DEPT.FT            0 000 00 00: Depth
CCL.                          : Casing Collar Locator
TT3.usec                      : CBL 3' Travel Time
AMP3.mV                       : CBL 3' Amplitude
GR.GAPI                       : Gamma Ray
~Parameter Information Block
~A  Depth       CCL         TT3         AMP3         GR     
# ...
  1534.5000      0.0000    782.5265      6.9497     92.4007
  1534.7500      0.0000    792.0605      6.9045     90.1267
  1535.0000      0.0000    799.7231      6.8429     89.0219
  1535.2500      0.0000    803.4545      6.7661     89.0039
  1535.5000      0.0000    802.1141      6.6763     89.4423
  1535.7500      0.0000    796.2413      6.5717     89.5469
  1536.0000      0.0000    788.0671      6.4455     88.6182
  1536.2500      0.0000    779.5977      6.2916     86.7716
  1536.5000      0.0000    770.4962      6.1121     85.5294
  1536.7500      0.0000    758.5828      5.9221     86.9804
  1537.0000      0.0000    743.1819      5.7443     91.9994
  1537.2500      0.0000    727.6686      5.5985     99.5156
  1537.5000      0.0000    717.5844      5.4966    107.2862
  1537.7500      0.0000    716.1987      5.4433    112.8729
  1538.0000      0.0000    722.5591      5.4368    114.4014
  1538.2500      0.0000    733.2473      5.4696    111.6241
  1538.5000      0.0000    745.0483      5.5291    106.2825
  1538.7500      0.0000    756.0975      5.6003    100.5599
  1539.0000      0.0000    765.3985      5.6694     95.1047
  1539.2500      0.0000    772.0898      5.7288     89.2086
  1539.5000      0.0000    775.4257      5.7803     82.8040
  1539.7500      0.0000    775.3236      5.8310     77.4085
  1540.0000      0.0000    772.7740      5.8846     74.8028
  1540.2500      0.0000    769.6870      5.9377     75.2618
  1540.5000      0.0000    767.9217      5.9808     77.3525
  1540.7500      0.0000    767.9398      6.0024     79.0629
  1541.0000      0.0000    768.3668      5.9930     78.9224
  1541.2500      0.0000    767.0569      5.9483     76.4474
  1541.5000      0.0000    762.4705      5.8679     71.9951
  1541.7500      0.0000    754.0532      5.7528     66.4700
  1542.0000      0.0000    742.3254      5.6098     61.1698
  1542.2500      0.0000    729.6830      5.4597     57.4523
  1542.5000      0.0000    720.3354      5.3340     55.9795
  1542.7500      0.0000    717.4606      5.2590     56.2926
  1543.0000      0.0000    720.0916      5.2413     57.2975
  1543.2500      0.0000    724.0887      5.2683     58.1521
  1543.5000      0.0000    726.2383      5.3205     58.7030
  1543.7500      0.0000    726.3300      5.3877     59.2334
  1544.0000      0.0000    725.4470      5.4830     59.9494
  1544.2500      0.0000    723.4453      5.6468     60.8422
  1544.5000      0.0000    718.5169      5.9340     61.8846
  1544.7500      0.0000    708.9771      6.3875     62.9090
  1545.0000      0.0000    695.4064      7.0158     63.3017
  1545.2500      0.0000    681.0839      7.7899     62.2831
  1545.5000      0.0000    670.1137      8.6543     59.7138
  1545.7500      0.0000    664.5510      9.5387     56.5693
  1546.0000      0.0000    662.8732     10.3627     54.5284
  1546.2500      0.0000    661.3262     11.0343     54.9457
  1546.5000      0.0000    657.0998     11.4602     57.9416
  1546.7500      0.0000    650.3121     11.5800     62.2636
  1547.0000      0.0000    643.1476     11.4021     66.0115
  1547.2500      0.0000    637.6090     11.0070     67.8467
  1547.5000      0.0000    634.2807     10.5122     67.8854
  1547.7500      0.0000    632.6783     10.0295     67.4045
  1548.0000      0.0000    632.0922      9.6401     67.4962
  1548.2500      0.0000    632.0261      9.3910     68.2003
  1548.5000      0.0000    632.2023      9.2996     68.9665
  1548.7500      0.0000    632.4532      9.3576     69.3744
  1549.0000      0.0000    632.6641      9.5292     69.0921
  1549.2500      0.0000    632.7678      9.7509     67.6042
  1549.5000      0.0000    632.7533      9.9436     64.4390
  1549.7500      0.0000    632.6588     10.0400     59.4971
  1550.0000      0.0000    632.5444     10.0132     52.8443
  1550.2500      0.0000    632.4599      9.8848     44.3397
  1550.5000      0.0000    632.4296      9.7036     34.0056
  1550.7500      0.0000    632.4579      9.5139     22.9028
  1551.0000      0.0000    632.5432      9.3441     13.0624
  1551.2500      0.0000    632.6904      9.2183      6.1386
  1551.5000      0.0000    632.9224      9.1586      2.3329
  1551.7500      0.0000    633.2867      9.1672      0.7081
  1552.0000      0.0000    633.8827      9.2166      0.1701
  1552.2500      0.0000    634.9113      9.2638      0.0320
  1552.5000      0.0000    636.7490      9.2707      0.0044
  1552.7500      0.0000    639.8912      9.2109   -999.2500
  1553.0000      0.0000    644.5801      9.0758   -999.2500
  1553.2500      0.0000    650.2477      8.8862   -999.2500
  1553.5000      0.0000    655.4288      8.6900   -999.2500
  1553.7500      0.0000    658.5555      8.5293   -999.2500
  1554.0000      0.0000    659.1145      8.4053   -999.2500
  1554.2500      0.0000    658.0598      8.2818   -999.2500
  1554.5000      0.0000    656.8903      8.1199   -999.2500
  1554.7500      0.0000    655.6171      7.9014   -999.2500
  1555.0000      0.0000    650.7920      7.6145   -999.2500
  1555.2500      0.0000    634.1868      7.2181   -999.2500
  1555.5000      0.0000    593.0118      6.6254   -999.2500
  1555.7500      0.0000    515.1263      5.7490   -999.2500
  1556.0000      0.0000    400.5038      4.6051   -999.2500
  1556.2500      0.0000    269.0376      3.3750   -999.2500
  1556.5000      0.0000    151.6944      2.3183   -999.2500
  1556.7500      0.0000     70.2567      1.6031   -999.2500
  1557.0000      0.0000     26.3193      1.2237   -999.2500
  1557.2500      0.0000      7.8875      1.0665   -999.2500
  1557.5000      0.0000      1.8744      1.0157   -999.2500
  1557.7500      0.0000      0.3482      1.0029   -999.2500
  1558.0000      0.0000   -999.2500   -999.2500   -999.2500
  1558.2500      0.0000   -999.2500   -999.2500   -999.2500
  1558.5000      0.0000   -999.2500   -999.2500   -999.2500
  1558.7500      0.0000   -999.2500   -999.2500   -999.2500
  1559.0000      0.0000   -999.2500   -999.2500   -999.2500
  1559.2500      0.0000   -999.2500   -999.2500   -999.2500
  1559.5000      0.0000   -999.2500   -999.2500   -999.2500
  1559.7500      0.0000   -999.2500   -999.2500   -999.2500
  1560.0000      0.0000   -999.2500   -999.2500   -999.2500
  1560.2500      0.0000   -999.2500   -999.2500   -999.2500
  1560.5000      0.0000   -999.2500   -999.2500   -999.2500
  1560.7500      0.0000   -999.2500   -999.2500   -999.2500
  1561.0000      0.0000   -999.2500   -999.2500   -999.2500
  1561.2500      0.0000   -999.2500   -999.2500   -999.2500
  1561.5000      0.0000   -999.2500   -999.2500   -999.2500
  1561.7500      0.0000   -999.2500   -999.2500   -999.2500
  1562.0000      0.0000   -999.2500   -999.2500   -999.2500
  1562.2500      0.0000   -999.2500   -999.2500   -999.2500
  1562.5000      0.0000   -999.2500   -999.2500   -999.2500
  1562.7500      0.0000   -999.2500   -999.2500   -999.2500
  1563.0000      0.0000   -999.2500   -999.2500   -999.2500
  1563.2500      0.0000   -999.2500   -999.2500   -999.2500
  1563.5000      0.0000   -999.2500   -999.2500   -999.2500
  1563.7500   -999.2500   -999.2500   -999.2500   -999.2500
  1564.0000   -999.2500   -999.2500   -999.2500   -999.2500
  1564.2500   -999.2500   -999.2500   -999.2500   -999.2500
