~Version Information
VERS.                      2.0: CWLS Log ASCII Standard - VERSION 2.0
WRAP.                       NO: One line per depth step
~Well Information Block
STRT.FT               575.0000: 
STOP.FT              1558.5000: 
STEP.FT                 0.2500: 
NULL.                -999.2500: 
COMP.          Pioneer Natural Resources: COMPANY
WELL.          McClaren 13-34 Tr: WELL
FLD.           Purgatoire River: FIELD
LOC.           1934' FSL & 826' FWL: LOCATION
PROV.                 Colorado: PROVINCE
CNTY.               Las Animas: COUNTRY
SRVC.                Patterson: SERVICE COMPANY
DATE.          Mon Jul 11 20:01:13 2005: LOG DATE
UWI.           05 071 08437 00: UNIQUE WELL ID
~Curve Information Block
DEPT.FT            0 000 00 00: Depth
SN.Ohm-m                      : IEL Short Normal
SP.mV                         : IEL Spontaneous Potential
DIR.Ohm-m                     : IEL Induction Resistivity
GR.GAPI                       : Gamma Ray
~Parameter Information Block
~A  Depth        SN          SP         DIR          GR     
# ...
  1010.5000   2000.0000   2000.0000     35.4467    110.2572
  1010.7500   2000.0000   2000.0000     34.6846    109.8526
  1011.0000   2000.0000   2000.0000     33.4498    108.5767
  1011.2500   2000.0000   2000.0000     31.7126    107.6312
  1011.5000   2000.0000   2000.0000     29.6082    106.5106
  1011.7500   2000.0000   2000.0000     27.4702    106.0123
  1012.0000   2000.0000   2000.0000     25.7438    105.5892
  1012.2500   2000.0000   2000.0000     24.8777    105.4891
  1012.5000   2000.0000   2000.0000     25.3322    105.4354
  1012.7500   2000.0000   2000.0000     27.7851    105.2819
  1013.0000   2000.0000   2000.0000     33.7205    104.7424
  1013.2500   2000.0000   2000.0000     47.5529    104.4211
  1013.5000   2000.0000   2000.0000     90.2868    104.8750
  1013.7500   2000.0000   2000.0000   1133.8488    106.2298
  1014.0000   2000.0000   2000.0000 100000.0000    109.8534
  1014.2500   2000.0000   2000.0000 100000.0000    112.8732
  1014.5000   2000.0000   2000.0000 100000.0000    117.1425
  1014.7500   2000.0000   2000.0000 100000.0000    119.2085
  1015.0000   2000.0000   2000.0000 100000.0000    120.5695
  1015.2500   2000.0000   2000.0000 100000.0000    120.2700
  1015.5000   2000.0000   2000.0000 100000.0000    118.3913
  1015.7500   2000.0000   2000.0000 100000.0000    116.6816
  1016.0000   2000.0000   2000.0000 100000.0000    114.5405
  1016.2500   2000.0000   2000.0000 100000.0000    113.8833
  1016.5000   2000.0000   2000.0000    535.8286    114.1313
  1016.7500   2000.0000   2000.0000    171.6912    114.7497
  1017.0000   2000.0000   2000.0000    139.0297    115.4815
  1017.2500   2000.0000   2000.0000    532.2531    115.4294
  1017.5000   2000.0000   2000.0000 100000.0000    114.2063
  1017.7500   2000.0000   2000.0000 100000.0000    112.7111
  1018.0000   2000.0000   2000.0000 100000.0000    110.1098
  1018.2500   2000.0000   2000.0000 100000.0000    108.6803
  1018.5000   2000.0000   2000.0000 100000.0000    107.6097
  1018.7500   2000.0000   2000.0000 100000.0000    107.5657
  1019.0000   2000.0000   2000.0000 100000.0000    107.7533
  1019.2500   2000.0000   2000.0000 100000.0000    107.4735
  1019.5000   2000.0000   2000.0000 100000.0000    106.0383
  1019.7500   2000.0000   2000.0000      7.4921    104.8184
  1020.0000   2000.0000   2000.0000      2.7644    103.9921
  1020.2500   2000.0000   2000.0000      1.6194    104.6393
  1020.5000   2000.0000   2000.0000      1.1557    106.9401
  1020.7500   2000.0000   2000.0000      0.9452    108.5606
  1021.0000   2000.0000   2000.0000      0.8771    110.2877
  1021.2500   2000.0000   2000.0000      0.9300    111.2640
  1021.5000   2000.0000   2000.0000      1.1310    113.5154
  1021.7500   2000.0000   2000.0000      1.5579    115.6412
  1022.0000   2000.0000   2000.0000      2.3140    118.5865
  1022.2500   2000.0000   2000.0000      3.2996    119.4290
  1022.5000   2000.0000   2000.0000      3.9303    118.0175
  1022.7500   2000.0000   2000.0000      3.9621    115.1979
  1023.0000   2000.0000   2000.0000      3.9432    108.2998
  1023.2500   2000.0000   2000.0000      4.3783    101.9616
  1023.5000   2000.0000   2000.0000      5.8304     89.8956
  1023.7500   2000.0000   2000.0000     10.5886     80.3713
  1024.0000   2000.0000   2000.0000     79.0805     64.8756
  1024.2500   2000.0000   2000.0000 100000.0000     54.6540
  1024.5000   2000.0000   2000.0000 100000.0000     41.1516
  1024.7500   2000.0000   2000.0000 100000.0000     34.0779
  1025.0000   2000.0000   2000.0000 100000.0000     26.8110
  1025.2500   2000.0000   2000.0000 100000.0000     24.0680
  1025.5000   2000.0000   2000.0000 100000.0000     22.5500
  1025.7500   2000.0000   2000.0000     61.5619     22.8597
  1026.0000   2000.0000   2000.0000     13.3967     24.4602
  1026.2500   2000.0000   2000.0000      8.4662     25.7182
  1026.5000   2000.0000   2000.0000      6.3792     27.0787
  1026.7500   2000.0000   2000.0000      4.7727     27.4764
  1027.0000   2000.0000   2000.0000      3.4141     27.7194
  1027.2500   2000.0000   2000.0000      2.4203     28.1223
  1027.5000   2000.0000   2000.0000      1.7818     29.8055
  1027.7500   2000.0000   2000.0000      1.4115     31.7675
  1028.0000   2000.0000   2000.0000      1.2391     35.4743
  1028.2500   2000.0000   2000.0000      1.2428     37.8865
  1028.5000   2000.0000   2000.0000      1.4808     40.5681
  1028.7500   2000.0000   2000.0000      2.2498     45.7092
  1029.0000   2000.0000   2000.0000      5.5752     46.2482
  1029.2500   2000.0000   2000.0000 100000.0000     46.1691
  1029.5000   2000.0000   2000.0000 100000.0000     45.7732
  1029.7500   2000.0000   2000.0000 100000.0000     49.4638
  1030.0000   2000.0000   2000.0000 100000.0000     48.2150
  1030.2500   2000.0000   2000.0000 100000.0000     46.9183
  1030.5000   2000.0000   2000.0000 100000.0000     44.4821
  1030.7500   2000.0000   2000.0000 100000.0000     42.8092
  1031.0000   2000.0000   2000.0000      9.4276     40.6392
  1031.2500   2000.0000   2000.0000      6.5767     39.4659
  1031.5000   2000.0000   2000.0000      8.8211     37.8656
  1031.7500   2000.0000   2000.0000     88.5778     36.8016
  1032.0000   2000.0000   2000.0000 100000.0000     35.5470
  1032.2500   2000.0000   2000.0000 100000.0000     35.3619
  1032.5000   2000.0000   2000.0000 100000.0000     36.6046
  1032.7500   2000.0000   2000.0000 100000.0000     38.5165
  1033.0000   2000.0000   2000.0000 100000.0000     42.8925
  1033.2500   2000.0000   2000.0000 100000.0000     46.6871
  1033.5000   2000.0000   2000.0000 100000.0000     53.2433
  1033.7500   2000.0000   2000.0000 100000.0000     57.7489
  1034.0000   2000.0000   2000.0000 100000.0000     63.8382
  1034.2500   2000.0000   2000.0000 100000.0000     67.0486
  1034.5000   2000.0000   2000.0000 100000.0000     70.1840
  1034.7500   2000.0000   2000.0000 100000.0000     70.9930
  1035.0000   2000.0000   2000.0000 100000.0000     70.1238
  1035.2500   2000.0000   2000.0000      9.8145     68.3142
  1035.5000   2000.0000   2000.0000      1.3586     64.6173
  1035.7500   2000.0000   2000.0000      0.5485     62.0545
  1036.0000   2000.0000   2000.0000      0.2788     58.4238
  1036.2500   2000.0000   2000.0000      0.1658     56.0131
  1036.5000   2000.0000   2000.0000      0.1232     52.2065
  1036.7500   2000.0000   2000.0000      0.1207     49.6601
  1037.0000   2000.0000   2000.0000      0.1545     46.3769
  1037.2500   2000.0000   2000.0000      0.2423     44.9157
  1037.5000   2000.0000   2000.0000      0.4277     44.2956
  1037.7500   2000.0000   2000.0000      0.8272     44.9883
  1038.0000   2000.0000   2000.0000      1.8897     47.2830
  1038.2500   2000.0000   2000.0000      6.3198     49.2314
  1038.5000   2000.0000   2000.0000    121.1537     52.1941
  1038.7500   2000.0000   2000.0000     77.8770     54.0170
  1039.0000   2000.0000   2000.0000      6.2183     56.2184
  1039.2500   2000.0000   2000.0000      2.0681     57.0341
  1039.5000   2000.0000   2000.0000      0.9909     56.9202
  1039.7500   2000.0000   2000.0000      0.5712     56.1355
  1040.0000   2000.0000   2000.0000      0.3730     54.8598
  1040.2500   2000.0000   2000.0000      0.2731     54.4919
  1040.5000   2000.0000   2000.0000      0.2245     54.8610
  1040.7500   2000.0000   2000.0000      0.2034     55.4784
  1041.0000   2000.0000   2000.0000      0.1949     56.9227
  1041.2500   2000.0000   2000.0000      0.1888     58.8645
  1041.5000   2000.0000   2000.0000      0.1791     65.0205
  1041.7500   2000.0000   2000.0000      0.1645     71.9725
  1042.0000   2000.0000   2000.0000      0.1492     86.1158
  1042.2500   2000.0000   2000.0000      0.1401     96.6737
  1042.5000   2000.0000   2000.0000      0.1456    111.0834
  1042.7500   2000.0000   2000.0000      0.1775    118.1671
  1043.0000   2000.0000   2000.0000      0.2580    123.7573
  1043.2500   2000.0000   2000.0000      0.4356    124.3080
  1043.5000   2000.0000   2000.0000      0.8487    121.4586
  1043.7500   2000.0000   2000.0000      2.1721    117.7835
