~Version Information
VERS.                      2.0: CWLS Log ASCII Standard - VERSION 2.0
WRAP.                       NO: One line per depth step
~Well Information Block
STRT.FT               597.2500: 
STOP.FT              1567.2500: 
STEP.FT                 0.2500: 
NULL.                -999.2500: 
COMP.          Pioneer Natural Resources: COMPANY
WELL.           Butch 33-10 Tr: WELL
FLD.           Purgatoire River: FIELD
LOC.           2309' FSL & 1337' FEL--: LOCATION
PROV.                 Colorado: PROVINCE
CNTY.               Las Animas: COUNTRY
SRVC.                Patterson: SERVICE COMPANY
DATE.          Sat Jan 14 05:18:29 2006: LOG DATE
UWI.           05 071 08649 00: UNIQUE WELL ID
~Curve Information Block
DEPT.FT            0 000 00 00: Depth
SN.Ohm-m                      : IEL Short Normal
SP.mV                         : IEL Spontaneous Potential
DIR.Ohm-m                     : IEL Induction Resistivity
GR.GAPI                       : Gamma Ray
~Parameter Information Block
~A  Depth        SN          SP         DIR          GR     
# ...
   764.7500     13.6081    -80.2578     11.2102    142.8811
   765.0000     13.4142    -80.0978     10.9643    144.7808
   765.2500     13.2305    -79.9243     10.6801    146.9406
   765.5000     13.0651    -79.7391     10.3827    150.5387
   765.7500     12.9059    -79.5459     10.0949    152.7688
   766.0000     12.7335    -79.3496      9.8365    155.9858
   766.2500     12.5306    -79.1552      9.6243    158.2766
   766.5000     12.2825    -78.9659      9.4717    161.5074
   766.7500     11.9724    -78.7816      9.3873    162.7248
   767.0000     11.5873    -78.5984      9.3743    161.9152
   767.2500     11.1444    -78.4100      9.4313    159.5928
   767.5000     10.7190    -78.2101      9.5553    154.6944
   767.7500     10.4447    -77.9960      9.7434    151.5617
   768.0000     10.4722    -77.7702      9.9939    148.3709
   768.2500     10.8995    -77.5410     10.3033    147.2540
   768.5000     11.7125    -77.3207     10.6612    145.8982
   768.7500     12.7761    -77.1215     11.0441    144.4149
   769.0000     13.8847    -76.9529     11.4152    140.8191
   769.2500     14.8438    -76.8189     11.7330    137.8356
   769.5000     15.5441    -76.7188     11.9666    133.7890
   769.7500     15.9843    -76.6497     12.1089    132.3002
   770.0000     16.2245    -76.6087     12.1765    132.7616
   770.2500     16.3184    -76.5969     12.1981    134.4915
   770.5000     16.2922    -76.6190     12.1993    137.3679
   770.7500     16.1617    -76.6815     12.1952    138.5255
   771.0000     15.9311    -76.7875     12.1926    138.9391
   771.2500     15.5800    -76.9305     12.1996    138.8556
   771.5000     15.0934    -77.0885     12.2330    138.8891
   771.7500     14.5372    -77.2232     12.3198    138.9876
   772.0000     14.1100    -77.2841     12.4922    138.8594
   772.2500     14.1049    -77.2197     12.7817    138.3935
   772.5000     14.7886    -76.9922     13.2164    136.8134
   772.7500     16.2608    -76.5906     13.8214    134.9906
   773.0000     18.3586    -76.0392     14.6171    130.9393
   773.2500     20.6775    -75.3952     15.6145    127.3547
   773.5000     22.7497    -74.7374     16.8043    120.7006
   773.7500     24.2851    -74.1477     18.1461    115.5669
   774.0000     25.2860    -73.6926     19.5648    107.6623
   774.2500     25.9510    -73.4089     20.9615    103.0237
   774.5000     26.4807    -73.2993     22.2375     98.1318
   774.7500     26.9709    -73.3367     23.3189     96.5038
   775.0000     27.4539    -73.4757     24.1671     96.4484
   775.2500     27.9638    -73.6660     24.7778     97.8385
   775.5000     28.5041    -73.8644     25.1722    101.2535
   775.7500     28.9869    -74.0417     25.3854    103.4430
   776.0000     29.2686    -74.1846     25.4547    104.7319
   776.2500     29.2540    -74.2927     25.4168    103.8147
   776.5000     28.9610    -74.3736     25.3147    100.7900
   776.7500     28.5092    -74.4379     25.2056     98.8763
   777.0000     28.0691    -74.4954     25.1577     97.6932
   777.2500     27.7895    -74.5524     25.2369     98.1598
   777.5000     27.7151    -74.6117     25.4893    100.2717
   777.7500     27.7550    -74.6728     25.9271    102.4791
   778.0000     27.7518    -74.7324     26.5202    106.8922
   778.2500     27.6011    -74.7860     27.1981    110.1737
   778.5000     27.3165    -74.8278     27.8629    114.3129
   778.7500     27.0074    -74.8521     28.4108    115.9264
   779.0000     26.8084    -74.8533     28.7510    116.4743
   779.2500     26.7953    -74.8263     28.8177    115.9150
   779.5000     26.9226    -74.7666     28.5806    114.3625
   779.7500     27.0394    -74.6698     28.0553    113.3002
   780.0000     26.9878    -74.5320     27.3058    112.9109
   780.2500     26.7019    -74.3509     26.4285    114.2444
   780.5000     26.2322    -74.1273     25.5243    118.7872
   780.7500     25.6913    -73.8669     24.6757    122.5710
   781.0000     25.1718    -73.5814     23.9357    127.1550
   781.2500     24.7009    -73.2887     23.3267    128.7251
   781.5000     24.2644    -73.0100     22.8435    129.0246
   781.7500     23.8530    -72.7663     22.4605    128.4674
   782.0000     23.4797    -72.5739     22.1445    127.4862
   782.2500     23.1702    -72.4413     21.8697    126.9706
   782.5000     22.9548    -72.3679     21.6275    126.1387
   782.7500     22.8593    -72.3450     21.4270    125.1189
   783.0000     22.8936    -72.3591     21.2880    122.2829
   783.2500     23.0414    -72.3952     21.2313    119.6560
   783.5000     23.2634    -72.4400     21.2684    115.8060
   783.7500     23.5126    -72.4830     21.3928    114.0615
   784.0000     23.7471    -72.5167     21.5787    113.1732
   784.2500     23.9270    -72.5356     21.7868    113.5218
   784.5000     24.0149    -72.5352     21.9717    114.5493
   784.7500     23.9852    -72.5115     22.0876    114.7737
   785.0000     23.8230    -72.4614     22.0925    112.9164
   785.2500     23.5165    -72.3837     21.9581    109.7653
   785.5000     23.0645    -72.2791     21.6825    102.9654
   785.7500     22.5030    -72.1507     21.2919     98.2728
   786.0000     21.9101    -72.0036     20.8282     93.0744
   786.2500     21.3661    -71.8439     20.3280     91.4656
   786.5000     20.8952    -71.6774     19.8102     92.0103
   786.7500     20.4400    -71.5093     19.2733     94.2981
   787.0000     19.8966    -71.3427     18.7029    100.4165
   787.2500     19.1898    -71.1790     18.0872    105.8716
   787.5000     18.3391    -71.0171     17.4318    114.7733
   787.7500     17.4609    -70.8542     16.7661    120.4023
   788.0000     16.7053    -70.6870     16.1328    127.9208
   788.2500     16.1785    -70.5127     15.5712    132.5391
   788.5000     15.9005    -70.3306     15.1035    139.1020
   788.7500     15.8090    -70.1432     14.7353    142.9474
   789.0000     15.7991    -69.9557     14.4634    147.2259
   789.2500     15.7819    -69.7750     14.2857    148.9008
   789.5000     15.7312    -69.6081     14.2034    149.6152
   789.7500     15.6860    -69.4597     14.2163    149.0381
   790.0000     15.7152    -69.3309     14.3170    147.5083
   790.2500     15.8763    -69.2191     14.4896    146.8317
   790.5000     16.1891    -69.1190     14.7156    146.9716
   790.7500     16.6335    -69.0239     14.9829    147.3501
   791.0000     17.1668    -68.9276     15.2919    146.3755
   791.2500     17.7467    -68.8254     15.6522    143.5850
   791.5000     18.3405    -68.7146     16.0726    135.9572
   791.7500     18.9220    -68.5945     16.5485    129.8126
   792.0000     19.4685    -68.4658     17.0566    122.2794
   792.2500     19.9605    -68.3307     17.5594    119.6965
   792.5000     20.3843    -68.1927     18.0215    119.4612
   792.7500     20.7371    -68.0560     18.4231    120.8140
   793.0000     21.0235    -67.9255     18.7613    123.5705
   793.2500     21.2455    -67.8059     19.0404    125.3948
   793.5000     21.4049    -67.7008     19.2639    127.7300
   793.7500     21.5128    -67.6115     19.4356    128.9726
   794.0000     21.5888    -67.5371     19.5674    130.5992
   794.2500     21.6523    -67.4741     19.6810    131.5990
   794.5000     21.7248    -67.4173     19.8032    132.3845
   794.7500     21.8310    -67.3605     19.9595    131.9055
   795.0000     21.9906    -67.2977     20.1679    129.5475
   795.2500     22.2110    -67.2241     20.4373    127.3257
   795.5000     22.4901    -67.1364     20.7659    123.8443
   795.7500     22.8251    -67.0328     21.1409    121.7890
   796.0000     23.2188    -66.9128     21.5408    119.8499
   796.2500     23.6741    -66.7766     21.9410    119.6144
   796.5000     24.1755    -66.6247     22.3203    120.1809
   796.7500     24.6835    -66.4579     22.6636    120.1467
   797.0000     25.1556    -66.2774     22.9615    117.9515
   797.2500     25.5620    -66.0855     23.2092    114.9939
   797.5000     25.8735    -65.8859     23.4061    109.8089
   797.7500     26.0564    -65.6840     23.5559    107.1632
   798.0000     26.1053    -65.4868     23.6654    106.0094
