~Version Information
VERS.                      2.0: CWLS Log ASCII Standard - VERSION 2.0
WRAP.                       NO: One line per depth step
~Well Information Block
STRT.FT                 0.0000: 
STOP.FT              1528.0000: 
STEP.FT                 0.1000: 
NULL.                -999.2500: 
COMP.          Pioneer Natural Resources: COMPANY
WELL.             Andrew 23-15: WELL
FLD.           Purgatorie River: FIELD
LOC.           2137' FSL & 2292' FWL: LOCATION
PROV.                 Colorado: PROVINCE
CNTY.               Las Animas: COUNTRY
SRVC.                Patterson: SERVICE COMPANY
DATE.          Sat Aug 13 12:06:57 2005: LOG DATE
UWI.                          : UNIQUE WELL ID
~Curve Information Block
DEPT.FT            0 000 00 00: Depth
DCAL.in                       : CDL Caliper
RHOB.g/cc                     : CDL Bulk Density
RHOC.g/cc                     : CDL Density Correction
DPOR.pu                       : CDL Density Porosity
GR.GAPI                       : Gamma Ray
NPOR.pu                       : Neutron Porosity
~Parameter Information Block
~A  Depth       DCAL        RHOB        RHOC        DPOR         GR         NPOR    
# ...
   912.0000      8.0816      2.5791      0.0894      4.2961    127.2148     28.1568
   912.1000      8.0816      2.5784      0.0730      4.3414    125.7160     28.1943
   912.2000      8.0816      2.5687      0.0568      4.9254    126.9632     27.7541
   912.3000      8.1733      2.5534      0.0243      5.8574    133.5076     26.9422
   912.4000      8.1733      2.5353      0.0279      6.9542    141.6358     26.0366
   912.5000      8.1424      2.5208      0.0007      7.8285    147.0371     25.3590
   912.6000      8.1424      2.5176      0.0228      8.0268    152.4239     24.9970
   912.7000      8.1424      2.5191      0.0212      7.9328    158.5194     24.7167
   912.8000      8.1198      2.5187      0.0314      7.9597    160.5947     24.4464
   912.9000      8.1198      2.5206      0.0298      7.8403    159.0916     24.2827
   913.0000      8.1790      2.5217      0.0704      7.7777    158.6088     24.1621
   913.1000      8.1790      2.5174      0.0012      8.0370    160.6382     24.0053
   913.2000      8.1790      2.5139      0.0430      8.2460    164.1309     23.8293
   913.3000      8.2341      2.5112      0.0640      8.4150    165.9488     23.7910
   913.4000      8.2341      2.5098      0.0257      8.4985    163.9063     24.0374
   913.5000      8.3299      2.5171      0.0395      8.0516    162.4028     24.3498
   913.6000      8.3299      2.5280      0.0715      7.3944    163.6606     24.4722
   913.7000      8.3299      2.5309      0.0518      7.2180    161.3239     24.5710
   913.8000      8.3646      2.5283      0.0452      7.3767    152.7748     24.8102
   913.9000      8.3646      2.5307      0.0204      7.2314    141.6231     25.1094
   914.0000      8.3598      2.5411      0.0559      6.6019    130.5032     25.3173
   914.1000      8.3598      2.5514      0.0545      5.9778    121.9951     25.3137
   914.2000      8.3598      2.5552      0.0662      5.7440    117.3037     25.1142
   914.3000      8.3420      2.5500      0.0793      6.0634    113.3019     24.8938
   914.4000      8.3420      2.5334      0.0537      7.0692    108.2111     24.7402
   914.5000      8.2799      2.5125      0.0073      8.3320    105.0425     24.5503
   914.6000      8.2799      2.5029      0.0008      8.9171    105.4337     24.2954
   914.7000      8.2799      2.5104      0.0235      8.4581    107.2323     24.0687
   914.8000      8.1719      2.5267      0.0503      7.4755    108.7626     23.9605
   914.9000      8.1719      2.5413      0.0493      6.5853    110.5183     23.8317
   915.0000      8.1447      2.5493      0.0422      6.1028    111.3985     23.6800
   915.1000      8.1447      2.5560      0.0261      5.6941    109.2081     23.6823
   915.2000      8.1447      2.5693      0.0619      4.8922    105.7569     23.5855
   915.3000      8.1474      2.5799      0.0390      4.2488    102.8810     23.3569
   915.4000      8.1474      2.5752      0.0561      4.5345    100.1620     23.2806
   915.5000      8.1386      2.5592      0.0339      5.5020     99.2083     23.1390
   915.6000      8.1386      2.5495      0.0184      6.0896    100.5130     22.7300
   915.7000      8.1386      2.5549      0.0281      5.7629    101.2832     22.3184
   915.8000      8.0967      2.5656      0.0518      5.1139    102.1013     22.1108
   915.9000      8.0967      2.5705      0.0472      4.8170    106.1701     22.1659
   916.0000      8.0824      2.5712      0.0557      4.7762    111.6164     22.4472
   916.1000      8.0824      2.5703      0.0480      4.8281    114.4023     22.7638
   916.2000      8.0824      2.5651      0.0481      5.1451    116.6087     23.0104
   916.3000      8.0546      2.5594      0.0193      5.4881    121.6354     23.2238
   916.4000      8.0546      2.5578      0.0269      5.5876    127.9047     23.4636
   916.5000      8.0482      2.5504      0.0372      6.0365    132.8304     23.5784
   916.6000      8.0482      2.5342     -0.0016      7.0188    135.3152     23.3918
   916.7000      8.0482      2.5225      0.0389      7.7263    136.5286     23.2660
   916.8000      8.0797      2.5184      0.0547      7.9752    139.9966     23.4802
   916.9000      8.0797      2.5160      0.0283      8.1210    146.8689     23.7025
   917.0000      8.1220      2.5171      0.0446      8.0517    153.5568     23.6507
   917.1000      8.1220      2.5256      0.0401      7.5413    156.8935     23.5428
   917.2000      8.1220      2.5371      0.0447      6.8409    157.7241     23.8072
   917.3000      8.1559      2.5430      0.0867      6.4864    159.5713     24.3674
   917.4000      8.1559      2.5416      0.0654      6.5680    163.4816     24.8621
   917.5000      8.2060      2.5376      0.1382      6.8107    165.7017     25.3308
   917.6000      8.2060      2.5393      0.0525      6.7120    166.0445     25.9140
   917.7000      8.2060      2.5573      0.0854      5.6169    166.8427     26.4090
   917.8000      8.2654      2.5842      0.1126      3.9888    165.6025     26.7598
   917.9000      8.2654      2.6025      0.0681      2.8815    160.5483     27.1416
   918.0000      8.3228      2.6135      0.0681      2.2127    153.0558     27.5563
   918.1000      8.3228      2.6347      0.0293      0.9288    144.0273     27.9803
   918.2000      8.3228      2.6747      0.0893     -1.4968    135.2624     28.4755
   918.3000      8.2694      2.7177      0.0934     -4.1032    128.6850     28.9173
   918.4000      8.2694      2.7428      0.1030     -5.6269    124.0886     29.2261
   918.5000      8.2248      2.7407      0.1224     -5.4950    121.4800     29.4546
   918.6000      8.2248      2.7191      0.0603     -4.1903    121.1728     29.4360
   918.7000      8.2248      2.7003      0.0047     -3.0495    121.6506     29.1070
   918.8000      8.1356      2.6944     -0.0238     -2.6883    121.9747     28.5534
   918.9000      8.1356      2.6944      0.0144     -2.6937    121.7651     27.9356
   919.0000      8.0022      2.6938      0.0561     -2.6554    119.3672     27.5553
   919.1000      8.0022      2.6896      0.0546     -2.4017    115.7592     27.3769
   919.2000      8.0022      2.6787      0.0617     -1.7369    114.2837     27.2072
   919.3000      8.0087      2.6597      0.0414     -0.5872    116.5299     26.8213
   919.4000      8.0087      2.6406      0.0174      0.5704    121.2291     25.9543
   919.5000      8.0195      2.6275      0.0480      1.3632    124.7574     24.9871
   919.6000      8.0195      2.6132      0.0664      2.2280    124.9456     24.4528
   919.7000      8.0195      2.5954      0.0314      3.3110    121.0835     24.2624
   919.8000      8.0032      2.5785      0.0576      4.3326    115.4526     23.9518
   919.9000      8.0032      2.5633      0.0350      5.2552    112.7298     23.4223
   920.0000      8.0127      2.5534      0.0209      5.8557    112.8782     23.0825
   920.1000      8.0127      2.5521      0.0362      5.9346    113.4900     23.1183
   920.2000      8.0127      2.5601      0.0130      5.4511    113.2956     23.1902
   920.3000      8.0016      2.5753      0.0584      4.5251    111.5804     23.0120
   920.4000      8.0016      2.5895      0.0761      3.6645    109.1954     22.8260
   920.5000      8.0275      2.5998      0.0544      3.0426    107.4911     22.9925
   920.6000      8.0275      2.6057      0.1190      2.6840    107.2579     23.3117
   920.7000      8.0275      2.5958      0.0701      3.2841    107.1106     23.4816
   920.8000      8.0163      2.5712      0.0491      4.7728    105.0744     23.5015
   920.9000      8.0163      2.5515      0.0182      5.9707    103.0730     23.3477
   921.0000      8.0099      2.5463      0.0187      6.2868    104.3413     23.1780
   921.1000      8.0099      2.5512      0.0367      5.9861    106.1276     23.2324
   921.2000      8.0099      2.5632      0.0244      5.2592    104.7967     23.3526
   921.3000      8.0259      2.5798      0.0675      4.2517    101.8851     23.2778
   921.4000      8.0259      2.5962      0.0463      3.2619    100.3939     23.0845
   921.5000      8.0342      2.6087      0.0634      2.5011    101.8788     23.1139
