~Version Information
VERS.                      2.0: CWLS Log ASCII Standard - VERSION 2.0
WRAP.                       NO: One line per depth step
~Well Information Block
STRT.FT               340.0000: 
STOP.FT              2342.7500: 
STEP.FT                 0.2500: 
NULL.                -999.2500: 
COMP.          Pioneer Natural Resources: COMPANY
WELL.          Pinkerton 41-12: WELL
FLD.           Purgatoire River: FIELD
LOC.           1222' FNL & 670' FEL--: LOCATION
CNTY.               Las Animas: COUNTY
SRVC.                Patterson: SERVICE COMPANY
DATE.          Wed Mar 15 10:37:39 2006: LOG DATE
UWI.           05 071 08500 00: UNIQUE WELL ID
STAT.                 Colorado: STATE
~Curve Information Block
DEPT.FT            0 000 00 00: Depth
SN.Ohm-m                      : IEL Short Normal
SP.mV                         : IEL Spontaneous Potential
DIR.Ohm-m                     : IEL Induction Resistivity
GR.GAPI                       : Gamma Ray
~Parameter Information Block
~A  Depth        SN          SP         DIR          GR     
# ...
  1914.5000     22.0313     75.3516     21.2112     64.7846
  1914.7500     22.6426     74.9046     21.9854     61.5804
  1915.0000     23.2204     74.4036     22.6564     58.5129
  1915.2500     23.7708     73.8902     23.2054     57.1446
  1915.5000     24.2769     73.4100     23.6300     55.2867
  1915.7500     24.7083     73.0047     23.9455     54.0059
  1916.0000     25.0341     72.7053     24.1736     52.1848
  1916.2500     25.2350     72.5270     24.3272     51.1998
  1916.5000     25.3108     72.4682     24.4079     50.2890
  1916.7500     25.2822     72.5129     24.4173     50.1399
  1917.0000     25.1819     72.6360     24.3730     50.4815
  1917.2500     25.0390     72.8093     24.3112     50.7787
  1917.5000     24.8694     73.0059     24.2728     50.4862
  1917.7500     24.6792     73.2041     24.2809     49.3167
  1918.0000     24.4736     73.3881     24.3259     45.8086
  1918.2500     24.2624     73.5474     24.3702     42.6720
  1918.5000     24.0610     73.6753     24.3700     38.1112
  1918.7500     23.8897     73.7667     24.3000     47.8902
  1919.0000     23.7672     73.8168     24.1622     45.9483
  1919.2500     23.7007     73.8199     23.9788     46.1504
  1919.5000     23.6792     73.7696     23.7788     48.0053
  1919.7500     23.6796     73.6595     23.5880     49.8196
  1920.0000     23.6829     73.4854     23.4225     52.6567
  1920.2500     23.6890     73.2475     23.2853     54.1675
  1920.5000     23.7187     72.9531     23.1688     55.0554
  1920.7500     23.8028     72.6182     23.0642     54.5151
  1921.0000     23.9643     72.2676     22.9739     53.0052
  1921.2500     24.2045     71.9334     22.9179     52.9615
  1921.5000     24.5013     71.6508     22.9276     56.5954
  1921.7500     24.8173     71.4541     23.0302     61.4889
  1922.0000     25.1143     71.3718     23.2326     69.8536
  1922.2500     25.3614     71.4230     23.5119     74.0217
  1922.5000     25.5339     71.6155     23.8161     76.1529
  1922.7500     25.6058     71.9461     24.0748     75.0442
  1923.0000     25.5461     72.4021     24.2153     71.3280
  1923.2500     25.3286     72.9640     24.1830     68.5359
  1923.5000     24.9512     73.6071     23.9555     65.3766
  1923.7500     24.4438     74.3037     23.5443     64.9119
  1924.0000     23.8524     75.0240     22.9830     68.6127
  1924.2500     23.2086     75.7366     22.3109     74.9430
  1924.5000     22.5125     76.4096     21.5635     90.2665
  1924.7500     21.7428     77.0116     20.7708    103.0849
  1925.0000     20.8853     77.5142     19.9621    122.5132
  1925.2500     19.9602     77.8937     19.1725    133.5987
  1925.5000     19.0299     78.1343     18.4441    145.7362
  1925.7500     18.1859     78.2300     17.8200    150.7966
  1926.0000     17.5197     78.1855     17.3340    154.3429
  1926.2500     17.0878     78.0168     17.0015    154.3678
  1926.5000     16.8810     77.7494     16.8151    151.9576
  1926.7500     16.8180     77.4159     16.7431    149.6059
  1927.0000     16.7741     77.0527     16.7314    145.9255
  1927.2500     16.6371     76.6960     16.7125    143.1660
  1927.5000     16.3575     76.3782     16.6242    137.7755
  1927.7500     15.9647     76.1251     16.4305    133.6917
  1928.0000     15.5381     75.9530     16.1332    129.6279
  1928.2500     15.1584     75.8686     15.7637    130.3124
  1928.5000     14.8735     75.8681     15.3632    137.8074
  1928.7500     14.6884     75.9395     14.9619    146.0436
  1929.0000     14.5717     76.0644     14.5696    159.4788
  1929.2500     14.4695     76.2218     14.1800    167.1055
  1929.5000     14.3278     76.3915     13.7842    174.9058
  1929.7500     14.1191     76.5573     13.3827    177.8028
  1930.0000     13.8560     76.7088     12.9906    179.4877
  1930.2500     13.5824     76.8425     12.6316    179.0167
  1930.5000     13.3489     76.9604     12.3288    175.8841
  1930.7500     13.1903     77.0690     12.0984    172.5145
  1931.0000     13.1184     77.1767     11.9508    167.1044
  1931.2500     13.1316     77.2922     11.8946    164.2927
  1931.5000     13.2277     77.4234     11.9391    162.0074
  1931.7500     13.4093     77.5769     12.0920    161.3876
  1932.0000     13.6788     77.7579     12.3541    160.4585
  1932.2500     14.0349     77.9704     12.7153    159.1829
  1932.5000     14.4748     78.2166     13.1565    155.8947
  1932.7500     14.9962     78.4963     13.6591    152.8556
  1933.0000     15.5959     78.8052     14.2171    147.0655
  1933.2500     16.2677     79.1342     14.8431    142.2876
  1933.5000     17.0058     79.4678     15.5616    133.9146
  1933.7500     17.8045     79.7849     16.3922    128.0843
  1934.0000     18.6478     80.0600     17.3314    120.4989
  1934.2500     19.4932     80.2662     18.3389    117.0376
  1934.5000     20.2636     80.3794     19.3319    114.7017
  1934.7500     20.8602     80.3828     20.1916    114.6487
  1935.0000     21.1966     80.2703     20.7889    115.9453
  1935.2500     21.2374     80.0489     21.0272    117.7829
  1935.5000     21.0164     79.7390     20.8859    123.1075
  1935.7500     20.6197     79.3717     20.4311    128.8687
  1936.0000     20.1430     78.9850     19.7845    140.1103
  1936.2500     19.6553     78.6191     19.0737    147.9963
  1936.5000     19.1875     78.3107     18.3981    157.7714
  1936.7500     18.7448     78.0892     17.8201    162.0221
  1937.0000     18.3261     77.9731     17.3715    165.2216
  1937.2500     17.9373     77.9684     17.0620    165.9255
  1937.5000     17.5967     78.0674     16.8863    165.4050
  1937.7500     17.3304     78.2501     16.8304    163.6543
  1938.0000     17.1620     78.4850     16.8782    158.1766
  1938.2500     17.1047     78.7331     17.0146    152.9794
  1938.5000     17.1581     78.9519     17.2237    145.1436
  1938.7500     17.3119     79.1003     17.4848    141.2373
  1939.0000     17.5469     79.1440     17.7714    137.1916
  1939.2500     17.8360     79.0601     18.0551    133.8389
  1939.5000     18.1467     78.8404     18.3111    123.9232
  1939.7500     18.4495     78.4922     18.5208    113.2241
  1940.0000     18.7263     78.0375     18.6737     93.5312
  1940.2500     18.9732     77.5088     18.7685     80.7815
  1940.5000     19.1916     76.9445     18.8139     66.1575
  1940.7500     19.3761     76.3833     18.8244     60.1222
  1941.0000     19.5126     75.8585     18.8141     55.4528
  1941.2500     19.5865     75.3949     18.7938     53.9858
  1941.5000     19.5932     75.0068     18.7736     52.5469
  1941.7500     19.5415     74.6986     18.7662     51.9356
  1942.0000     19.4530     74.4660     18.7880     52.9394
  1942.2500     19.3606     74.2989     18.8560     56.1762
  1942.5000     19.3011     74.1830     18.9868     66.1571
  1942.7500     19.3021     74.1018     19.1927     75.6439
  1943.0000     19.3742     74.0381     19.4754     90.5181
  1943.2500     19.5185     73.9756     19.8209     97.8078
  1943.5000     19.7408     73.9003     20.2037    100.2192
  1943.7500     20.0611     73.8031     20.6000     95.2945
  1944.0000     20.5096     73.6805     21.0014     80.8725
  1944.2500     21.1074     73.5361     21.4174     69.6880
  1944.5000     21.8418     73.3795     21.8670     55.2015
  1944.7500     22.6531     73.2253     22.3642     48.2283
  1945.0000     23.4524     73.0910     22.9082     41.4670
  1945.2500     24.1545     72.9944     23.4785     38.7557
  1945.5000     24.6987     72.9526     24.0376     36.4391
  1945.7500     25.0446     72.9802     24.5326     35.6655
  1946.0000     25.1634     73.0883     24.8973     35.1164
  1946.2500     25.0416     73.2837     25.0608     35.0277
  1946.5000     24.6955     73.5674     24.9704     35.7790
  1946.7500     24.1766     73.9331     24.6187     37.5637
  1947.0000     23.5569     74.3673     24.0502     43.3286
  1947.2500     22.9044     74.8485     23.3415     49.2214
  1947.5000     22.2654     75.3495     22.5687     59.3394
  1947.7500     21.6660     75.8401     21.7862     65.2899
