~Version Information
VERS.                      2.0: CWLS Log ASCII Standard - VERSION 2.0
WRAP.                       NO: One line per depth step
~Well Information Block
STRT.FT               230.0000: 
STOP.FT               707.5000: 
STEP.FT                 0.2500: 
NULL.                -999.2500: 
COMP.          Pioneer Natural Resources: COMPANY
WELL.          Razor Clam 23-27: WELL
FLD.           Purgatoire River: FIELD
LOC.           2499' FSL & 2636' FWL: LOCATION
CNTY.               Las Animas: COUNTY
SRVC.                Patterson: SERVICE COMPANY
DATE.          Sun Feb 12 15:35:16 2006: LOG DATE
UWI.           05 071 08667 00: UNIQUE WELL ID
STAT.                 Colorado: STATE
~Curve Information Block
DEPT.FT            0 000 00 00: Depth
SN.Ohm-m                      : IEL Short Normal
SP.mV                         : IEL Spontaneous Potential
DIR.Ohm-m                     : IEL Induction Resistivity
GR.GAPI                       : Gamma Ray
~Parameter Information Block
~A  Depth        SN          SP         DIR          GR     
# ...
   397.5000     18.5846     16.4532     19.4408     82.6927
   397.7500     18.7571     16.4722     19.3770     83.5393
   398.0000     18.9404     16.4800     19.3273     86.4460
   398.2500     19.0833     16.4617     19.3225     88.7056
   398.5000     19.2372     16.4288     19.3769     90.9149
   398.7500     19.4528     16.4025     19.4892     91.1379
   399.0000     19.6767     16.3961     19.6513     90.2040
   399.2500     19.8243     16.4104     19.8560     89.4541
   399.5000     19.8439     16.4406     20.0960     88.6565
   399.7500     19.7527     16.4815     20.3597     88.0686
   400.0000     19.6785     16.5281     20.6304     86.5770
   400.2500     19.7672     16.5752     20.8941     85.2337
   400.5000     20.0599     16.6164     21.1463     83.0675
   400.7500     20.5524     16.6431     21.3941     81.5450
   401.0000     21.2198     16.6477     21.6550     78.8058
   401.2500     21.9297     16.6332     21.9545     76.4707
   401.5000     22.6085     16.6215     22.3189     72.1006
   401.7500     23.3703     16.6466     22.7587     68.7328
   402.0000     24.2915     16.7315     23.2560     63.5053
   402.2500     25.3518     16.8706     23.7697     60.2893
   402.5000     26.5657     17.0318     24.2608     56.5015
   402.7500     27.8425     17.1736     24.7148     55.0567
   403.0000     28.8692     17.2625     25.1422     55.2121
   403.2500     29.2973     17.2883     25.5587     56.9599
   403.5000     28.9896     17.2705     25.9689     61.1321
   403.7500     28.2826     17.2461     26.3643     64.1245
   404.0000     27.8643     17.2418     26.7359     68.1574
   404.2500     28.0774     17.2521     27.0851     70.5270
   404.5000     28.6537     17.2430     27.4214     73.6032
   404.7500     29.2548     17.1758     27.7395     75.2137
   405.0000     29.8073     17.0328     27.9938     76.8908
   405.2500     30.2205     16.8259     28.1048     77.6134
   405.5000     30.2716     16.5891     28.0177     78.1642
   405.7500     29.9103     16.3608     27.7753     77.9697
   406.0000     29.4217     16.1684     27.5315     76.3598
   406.2500     29.2806     16.0175     27.4775     74.4087
   406.5000     29.8592     15.8894     27.7440     70.6399
   406.7500     31.1707     15.7512     28.3409     67.7721
   407.0000     32.9451     15.5749     29.1522     63.0369
   407.2500     34.8970     15.3587     29.9722     59.8631
   407.5000     36.7975     15.1378     30.5677     56.0186
   407.7500     38.5198     14.9802     30.7428     54.4108
   408.0000     40.1162     14.9656     30.3878     53.1132
   408.2500     41.6678     15.1567     29.5006     52.5800
   408.5000     43.0638     15.5805     28.1808     51.9044
   408.7500     43.9529     16.2299     26.5912     51.5296
   409.0000     43.7216     17.0793     24.9053     51.4070
   409.2500     41.6259     18.0985     23.2604     52.1937
   409.5000     37.3891     19.2516     21.7365     56.2366
   409.7500     31.7115     20.4897     20.3611     61.5269
   410.0000     25.9688     21.7489     19.1309     72.9850
   410.2500     21.3971     22.9583     18.0313     81.7922
   410.5000     18.4519     24.0526     17.0439     94.2481
   410.7500     16.7932     24.9871     16.1450    101.0590
   411.0000     15.8348     25.7463     15.3057    108.6773
   411.2500     15.1804     26.3402     14.5005    112.3601
   411.5000     14.6237     26.7886     13.7225    116.5980
   411.7500     14.0577     27.1066     12.9894    118.8430
   412.0000     13.5070     27.3043     12.3343    121.2645
   412.2500     13.0703     27.3966     11.7867    122.1438
   412.5000     12.7619     27.4111     11.3589    122.6934
   412.7500     12.5143     27.3861     11.0459    122.9918
   413.0000     12.3048     27.3619     10.8349    123.9334
   413.2500     12.1840     27.3690     10.7151    124.9465
   413.5000     12.1854     27.4198     10.6821    126.7826
   413.7500     12.2567     27.5069     10.7358    128.0855
   414.0000     12.3258     27.6110     10.8764    130.3130
   414.2500     12.3950     27.7120     11.1020    132.1462
   414.5000     12.5093     27.7990     11.4079    134.8795
   414.7500     12.6923     27.8714     11.7879    135.6393
   415.0000     12.9368     27.9316     12.2337    133.1475
   415.2500     13.2348     27.9763     12.7339    128.6290
   415.5000     13.6201     27.9966     13.2725    118.6068
   415.7500     14.1653     27.9835     13.8334    110.9283
   416.0000     14.9252     27.9355     14.4074     99.6796
   416.2500     15.8898     27.8619     14.9980     92.9108
   416.5000     16.9757     27.7831     15.6163     84.3260
   416.7500     18.0770     27.7248     16.2701     80.0728
   417.0000     19.1403     27.7086     16.9553     76.9323
   417.2500     20.1529     27.7413     17.6564     77.2355
   417.5000     21.0521     27.8105     18.3500     80.2543
   417.7500     21.6948     27.8907     19.0067     82.8089
   418.0000     21.9468     27.9554     19.5878     86.0414
   418.2500     21.8054     27.9905     20.0444     87.9176
   418.5000     21.4030     27.9995     20.3243     91.5324
   418.7500     20.8557     27.9997     20.3868     94.8838
   419.0000     20.1793     28.0117     20.2226    100.8505
   419.2500     19.4303     28.0522     19.8673    104.9933
   419.5000     18.7992     28.1304     19.3972    111.1175
   419.7500     18.4116     28.2495     18.9052    114.9936
   420.0000     18.1748     28.4055     18.4690    119.8456
   420.2500     17.9675     28.5857     18.1303    122.0574
   420.5000     17.7689     28.7689     17.8906    123.8912
   420.7500     17.5380     28.9305     17.7252    124.5541
   421.0000     17.2368     29.0497     17.6058    125.4470
   421.2500     16.9421     29.1142     17.5206    126.1264
   421.5000     16.7494     29.1226     17.4807    126.9663
   421.7500     16.6695     29.0853     17.5089    126.9415
   422.0000     16.6843     29.0235     17.6243    125.0343
   422.2500     16.7684     28.9583     17.8300    122.2648
   422.5000     16.8224     28.8946     18.1122    116.6443
   422.7500     16.7739     28.8149     18.4490    112.7833
   423.0000     16.7932     28.6861     18.8232    107.8551
   423.2500     17.1852     28.4691     19.2312    105.2135
   423.5000     18.0631     28.1235     19.6813    101.7931
   423.7500     19.2863     27.6150     20.1853     99.6699
   424.0000     20.6016     26.9261     20.7519     96.9800
   424.2500     21.7909     26.0644     21.3853     95.9679
   424.5000     22.8096     25.0597     22.0823     95.9655
   424.7500     23.7692     23.9533     22.8250     96.5018
   425.0000     24.7399     22.7901     23.5754     96.7746
   425.2500     25.6579     21.6137     24.2847     96.2036
   425.5000     26.4538     20.4637     24.9146     94.4850
   425.7500     27.1361     19.3744     25.4512     93.0493
   426.0000     27.7244     18.3740     25.8948     90.5580
   426.2500     28.2447     17.4851     26.2435     88.6127
   426.5000     28.7088     16.7203     26.4920     85.4242
   426.7500     29.0253     16.0736     26.6484     83.4568
   427.0000     29.1195     15.5207     26.7445     81.4953
   427.2500     29.0815     15.0301     26.8264     81.1094
   427.5000     29.0258     14.5779     26.9328     81.6419
   427.7500     28.9408     14.1575     27.0802     82.2139
   428.0000     28.7595     13.7831     27.2595     82.5601
   428.2500     28.5209     13.4845     27.4414     82.3988
   428.5000     28.3878     13.2965     27.5877     82.0954
   428.7500     28.4185     13.2443     27.6688     81.9520
   429.0000     28.4662     13.3339     27.6779     80.9918
   429.2500     28.4058     13.5513     27.6292     79.2147
   429.5000     28.2766     13.8694     27.5435     74.8285
   429.7500     28.1517     14.2571     27.4362     71.5679
   430.0000     27.9940     14.6851     27.3206     68.0702
   430.2500     27.6787     15.1311     27.2171     67.3937
   430.5000     27.1773     15.5826     27.1513     68.8797
   430.7500     26.6761     16.0355     27.1395     71.0518
