~Version Information
VERS.                      2.0: CWLS Log ASCII Standard - VERSION 2.0
WRAP.                       NO: One line per depth step
~Well Information Block
STRT.FT               240.0000: 
STOP.FT               713.7500: 
STEP.FT                 0.2500: 
NULL.                -999.2500: 
COMP.          Pioneer Natural Resources: COMPANY
WELL.           Belvedere 14-7: WELL
FLD.           Purgatorie River: FIELD
LOC.           786' FSL & 1283' FWL: LOCATION
PROV.                 Colorado: PROVINCE
CNTY.               Las Animas: COUNTRY
SRVC.                Patterson: SERVICE COMPANY
DATE.          Sun Nov 27 03:38:28 2005: LOG DATE
UWI.           05-071-08557               : UNIQUE WELL ID
~Curve Information Block
DEPT.FT            0 000 00 00: Depth
DIR.Ohm-m                     : IEL Induction Resistivity
GR.GAPI                       : Gamma Ray
~Parameter Information Block
~A  Depth       DIR          GR     
# ...
   295.7500     39.4213     75.1373
   296.0000     39.2578     77.5033
   296.2500     39.1401     78.3522
   296.5000     39.0699     77.3314
   296.7500     39.0414     75.2873
   297.0000     39.0450     72.0507
   297.2500     39.0640     71.0216
   297.5000     39.0693     71.7069
   297.7500     39.0233     72.7936
   298.0000     38.8967     73.3738
   298.2500     38.6880     72.6404
   298.5000     38.4284     70.9063
   298.7500     38.1662     70.3335
   299.0000     37.9429     71.2821
   299.2500     37.7780     72.8757
   299.5000     37.6701     75.4403
   299.7500     37.6090     76.5998
   300.0000     37.5847     77.2106
   300.2500     37.5871     77.0932
   300.5000     37.5999     76.6989
   300.7500     37.6003     76.5810
   301.0000     37.5689     77.0493
   301.2500     37.5038     77.9239
   301.5000     37.4295     79.7396
   301.7500     37.3913     80.6858
   302.0000     37.4371     80.5740
   302.2500     37.5948     79.3301
   302.5000     37.8559     76.7730
   302.7500     38.1776     75.5330
   303.0000     38.5025     75.1189
   303.2500     38.7867     75.5167
   303.5000     39.0175     76.0691
   303.7500     39.2093     75.9669
   304.0000     39.3823     75.0402
   304.2500     39.5429     74.2016
   304.5000     39.6772     73.2771
   304.7500     39.7599     73.0697
   305.0000     39.7645     72.9915
   305.2500     39.6703     72.5766
   305.5000     39.4689     70.7501
   305.7500     39.1718     68.8179
   306.0000     38.8143     65.6716
   306.2500     38.4448     63.8666
   306.5000     38.1015     61.8305
   306.7500     37.7937     60.8454
   307.0000     37.5021     59.9680
   307.2500     37.1985     60.0286
   307.5000     36.8689     61.5852
   307.7500     36.5238     63.6131
   308.0000     36.1888     67.5255
   308.2500     35.8848     70.3154
   308.5000     35.6123     74.7214
   308.7500     35.3476     78.0994
   309.0000     35.0514     83.9119
   309.2500     34.6830     87.6102
   309.5000     34.2146     90.8425
   309.7500     33.6421     90.7081
   310.0000     32.9895     88.1620
   310.2500     32.3031     86.5354
   310.5000     31.6382     85.9482
   310.7500     31.0410     86.3040
   311.0000     30.5358     85.9768
   311.2500     30.1199     84.6628
   311.5000     29.7682     81.5834
   311.7500     29.4447     79.3938
   312.0000     29.1173     77.0553
   312.2500     28.7701     76.8044
   312.5000     28.4062     78.7380
   312.7500     28.0409     81.0177
   313.0000     27.6902     84.4520
   313.2500     27.3676     86.1961
   313.5000     27.0881     87.9528
   313.7500     26.8730     88.8540
   314.0000     26.7450     90.2340
   314.2500     26.7190     91.1889
   314.5000     26.7964     92.5508
   314.7500     26.9660     93.4238
   315.0000     27.2056     94.6594
   315.2500     27.4833     95.1730
   315.5000     27.7602     94.6407
   315.7500     27.9949     93.0429
   316.0000     28.1464     89.1026
   316.2500     28.1681     86.2774
   316.5000     28.0027     83.4789
   316.7500     27.5895     83.2106
   317.0000     26.8871     85.2905
   317.2500     25.8993     87.9612
   317.5000     24.6869     92.9828
   317.7500     23.3555     96.5931
   318.0000     22.0219    102.3152
   318.2500     20.7783    106.5433
   318.5000     19.6717    113.6374
   318.7500     18.7035    118.5897
   319.0000     17.8454    125.4604
   319.2500     17.0586    129.2756
   319.5000     16.3102    134.2440
   319.7500     15.5827    137.9827
   320.0000     14.8740    145.6832
   320.2500     14.1935    152.1198
   320.5000     13.5561    161.8715
   320.7500     12.9772    167.0581
   321.0000     12.4694    171.3021
   321.2500     12.0398    171.6226
   321.5000     11.6893    169.2372
   321.7500     11.4135    166.6445
   322.0000     11.2035    162.8840
   322.2500     11.0481    161.1982
   322.5000     10.9347    160.3785
   322.7500     10.8524    160.8080
   323.0000     10.7941    162.3324
   323.2500     10.7582    163.5769
   323.5000     10.7479    165.1535
   323.7500     10.7683    165.8189
   324.0000     10.8246    166.8138
   324.2500     10.9220    168.2808
   324.5000     11.0663    172.8405
   324.7500     11.2639    177.4042
   325.0000     11.5200    185.0071
   325.2500     11.8376    189.2213
   325.5000     12.2166    192.0401
   325.7500     12.6552    190.7666
   326.0000     13.1510    184.2243
   326.2500     13.7024    177.6669
   326.5000     14.3100    166.2173
   326.7500     14.9769    157.8393
   327.0000     15.7079    143.7979
   327.2500     16.5084    133.4053
   327.5000     17.3826    117.2660
   327.7500     18.3324    107.0964
   328.0000     19.3538     93.9155
   328.2500     20.4304     86.5733
   328.5000     21.5263     77.0495
   328.7500     22.5844     71.3128
   329.0000     23.5388     63.5644
   329.2500     24.3349     59.1673
   329.5000     24.9495     53.9143
   329.7500     25.3958     51.2413
   330.0000     25.7133     48.3349
   330.2500     25.9496     47.1414
   330.5000     26.1447     46.5279
   330.7500     26.3236     46.8937
   331.0000     26.4962     48.3848
   331.2500     26.6637     49.6839
   331.5000     26.8230     51.2541
   331.7500     26.9709     51.6236
   332.0000     27.1043     51.0036
   332.2500     27.2229     50.1108
   332.5000     27.3316     48.9571
   332.7500     27.4431     48.8169
   333.0000     27.5760     50.0069
   333.2500     27.7506     51.6391
   333.5000     27.9811     54.5401
   333.7500     28.2690     56.1515
   334.0000     28.5971     57.3937
   334.2500     28.9270     57.4573
   334.5000     29.2046     57.0341
   334.7500     29.3787     56.9212
   335.0000     29.4243     57.6485
   335.2500     29.3524     58.6895
   335.5000     29.1959     60.3694
   335.7500     28.9850     61.2872
   336.0000     28.7341     62.8506
   336.2500     28.4462     64.4517
   336.5000     28.1253     67.0774
   336.7500     27.7844     67.6900
   337.0000     27.4441     65.0908
   337.2500     27.1240     61.3866
   337.5000     26.8365     55.6393
   337.7500     26.5878     53.0589
   338.0000     26.3859     51.1459
   338.2500     26.2446     50.4362
   338.5000     26.1747     49.7356
   338.7500     26.1669     49.9179
   339.0000     26.1801     51.5915
   339.2500     26.1453     53.0386
   339.5000     25.9882     53.8465
   339.7500     25.6551     52.9117
   340.0000     25.1305     50.1161
   340.2500     24.4369     48.3054
   340.5000     23.6243     46.8086
   340.7500     22.7537     46.7889
   341.0000     21.8837     48.0205
   341.2500     21.0611     49.3723
   341.5000     20.3152     51.4359
   341.7500     19.6580     52.6035
   342.0000     19.0858     54.8075
   342.2500     18.5827     57.6392
   342.5000     18.1252     65.6523
   342.7500     17.6892     73.8548
   343.0000     17.2565     89.7057
   343.2500     16.8201    101.6248
   343.5000     16.3848    119.4767
   343.7500     15.9613    130.3891
   344.0000     15.5595    144.1648
   344.2500     15.1832    151.0700
   344.5000     14.8321    157.3169
   344.7500     14.5059    158.9220
   345.0000     14.2081    159.0026
   345.2500     13.9448    158.5282
   345.5000     13.7219    157.8780
   345.7500     13.5428    157.3494
   346.0000     13.4092    155.4678
   346.2500     13.3215    152.8167
   346.5000     13.2792    146.3493
   346.7500     13.2787    141.2158
   347.0000     13.3120    135.3999
   347.2500     13.3650    134.5486
   347.5000     13.4195    138.7013
   347.7500     13.4569    144.2660
   348.0000     13.4646    154.5283
   348.2500     13.4395    161.3200
   348.5000     13.3893    168.9495
   348.7500     13.3284    170.9650
   349.0000     13.2722    168.8674
   349.2500     13.2337    165.2248
   349.5000     13.2219    159.1569
   349.7500     13.2426    155.3355
   350.0000     13.2981    148.6732
   350.2500     13.3875    142.6171
   350.5000     13.5042    131.7512
   350.7500     13.6355    125.3378
   351.0000     13.7633    120.8557
   351.2500     13.8682    122.1997
