~Version Information
VERS.                      2.0: CWLS Log ASCII Standard - VERSION 2.0
WRAP.                       NO: One line per depth step
~Well Information Block
STRT.FT               230.0000: 
STOP.FT               707.5000: 
STEP.FT                 0.2500: 
NULL.                -999.2500: 
COMP.          Pioneer Natural Resources: COMPANY
WELL.          Razor Clam 23-27: WELL
FLD.           Purgatoire River: FIELD
LOC.           2499' FSL & 2636' FWL: LOCATION
CNTY.               Las Animas: COUNTY
SRVC.                Patterson: SERVICE COMPANY
DATE.          Sun Feb 12 15:35:16 2006: LOG DATE
UWI.           05 071 08667 00: UNIQUE WELL ID
STAT.                 Colorado: STATE
~Curve Information Block
DEPT.FT            0 000 00 00: Depth
SN.Ohm-m                      : IEL Short Normal
SP.mV                         : IEL Spontaneous Potential
DIR.Ohm-m                     : IEL Induction Resistivity
GR.GAPI                       : Gamma Ray
~Parameter Information Block
~A  Depth        SN          SP         DIR          GR     
   230.0000   2000.0000   2000.0000     57.8680     98.1730
   230.2500   2000.0000   2000.0000     57.4057     96.2489
   230.5000   2000.0000   2000.0000     57.5084     94.8111
   230.7500   2000.0000   2000.0000     57.9876     95.1071
   231.0000   2000.0000   2000.0000     58.5499     96.5082
   231.2500   2000.0000   2000.0000     59.0890     96.8654
   231.5000   2000.0000   2000.0000     59.8289     94.3133
   231.7500   2000.0000   2000.0000     61.1511     90.0498
   232.0000   2000.0000   2000.0000     63.2483     81.2533
   232.2500   2000.0000   2000.0000     65.8432     75.5166
   232.5000   2000.0000   2000.0000     68.1603     69.5998
   232.7500   2000.0000   2000.0000     69.3193     67.8411
   233.0000   2000.0000   2000.0000     68.9966     67.4566
   233.2500   2000.0000   2000.0000     67.6531     67.8398
   233.5000   2000.0000   2000.0000     66.0531     68.7301
   233.7500   2000.0000   2000.0000     64.6954     69.7576
   234.0000   2000.0000   2000.0000     63.6918     72.6396
   234.2500   2000.0000   2000.0000     62.9682     75.6045
   234.5000   2000.0000   2000.0000     62.4750     81.2023
   234.7500   2000.0000   2000.0000     62.2389     85.3387
   235.0000   2000.0000   2000.0000     62.2933     91.7579
   235.2500   2000.0000   2000.0000     62.6075     95.8614
   235.5000   2000.0000   2000.0000     63.0817    100.3881
   235.7500   2000.0000   2000.0000     63.5909    101.3588
   236.0000   2000.0000   2000.0000     64.0295     99.6123
   236.2500   2000.0000   2000.0000     64.3442     97.6031
   236.5000   2000.0000   2000.0000     64.5375     96.3590
   236.7500   2000.0000   2000.0000     64.6514     97.6268
   237.0000   2000.0000   2000.0000     64.7331    101.9909
   237.2500   2000.0000   2000.0000     64.7961    105.4814
   237.5000   2000.0000   2000.0000     64.8041    109.9010
   237.7500   2000.0000   2000.0000     64.6899    111.5778
   238.0000   2000.0000   2000.0000     64.4139    111.4971
   238.2500   2000.0000   2000.0000     64.0161    109.8705
   238.5000   2000.0000   2000.0000     63.6110    106.4435
   238.7500   2000.0000   2000.0000     63.3277    104.5515
   239.0000   2000.0000   2000.0000     63.2428    103.4726
   239.2500   2000.0000   2000.0000     63.3532    103.9534
   239.5000   2000.0000   2000.0000     63.5937    105.6263
   239.7500   2000.0000   2000.0000     63.8787    106.6654
   240.0000   2000.0000   2000.0000     64.1455    107.1922
   240.2500   2000.0000   2000.0000     64.3790    106.8130
   240.5000   2000.0000   2000.0000     64.6002    105.9210
   240.7500   2000.0000   2000.0000     64.8263    105.6515
   241.0000   2000.0000   2000.0000     65.0297    106.0585
   241.2500   2000.0000   2000.0000     65.1339    106.7202
   241.5000   2000.0000   2000.0000     65.0573    108.0170
   241.7500   2000.0000   2000.0000     64.7725    109.0400
   242.0000   2000.0000   2000.0000     64.3301    110.7762
   242.2500   2000.0000   2000.0000     63.8292    112.0614
   242.5000   2000.0000   2000.0000     63.3623    114.4013
   242.7500   2000.0000   2000.0000     62.9722    116.4883
   243.0000   2000.0000   2000.0000     62.6498    120.5854
   243.2500   2000.0000   2000.0000     62.3717    123.5975
   243.5000   2000.0000   2000.0000     62.1466    127.0318
   243.7500   2000.0000   2000.0000     62.0244    127.6913
   244.0000   2000.0000   2000.0000     62.0538    125.9914
   244.2500   2000.0000   2000.0000     62.2249    123.8835
   244.5000   2000.0000   2000.0000     62.4550    121.1139
   244.7500   2000.0000   2000.0000     62.6084    119.9903
   245.0000   2000.0000   2000.0000     62.5243    118.5129
   245.2500   2000.0000   2000.0000     62.0250    116.6069
   245.5000   2000.0000   2000.0000     60.9295    111.1137
   245.7500   2000.0000   2000.0000     59.1222    105.8039
   246.0000   2000.0000   2000.0000     56.6700     96.5566
   246.2500   2000.0000   2000.0000     53.8809     90.2689
   246.5000   2000.0000   2000.0000     51.1826     81.8038
   246.7500   2000.0000   2000.0000     48.8895     72.4637
   247.0000   2000.0000   2000.0000     47.0358     70.1637
   247.2500   2000.0000   2000.0000     45.3918     71.4831
   247.5000   2000.0000   2000.0000     43.6372     77.4562
   247.7500   2000.0000   2000.0000     41.5667     77.3601
   248.0000   2000.0000   2000.0000     39.2024     86.1833
   248.2500   2000.0000   2000.0000     36.8008     91.2758
   248.5000   2000.0000   2000.0000     34.8281     96.3605
   248.7500   2000.0000   2000.0000     33.9358     90.5272
   249.0000   2000.0000   2000.0000     34.9891     91.5452
   249.2500   2000.0000   2000.0000     39.3555     91.7978
   249.5000   2000.0000   2000.0000     49.8935     91.3133
   249.7500   2000.0000   2000.0000     74.2088     89.8971
   250.0000   2000.0000   2000.0000    138.9153     85.8269
   250.2500   2000.0000   2000.0000    408.3309     82.3475
   250.5000   2000.0000   2000.0000 100000.0000     77.4954
   250.7500   2000.0000   2000.0000 100000.0000     75.1687
   251.0000   2000.0000   2000.0000 100000.0000     73.2485
   251.2500   2000.0000   2000.0000 100000.0000     72.5926
   251.5000   2000.0000   2000.0000 100000.0000     71.2324
   251.7500   2000.0000   2000.0000 100000.0000     69.4140
   252.0000   2000.0000   2000.0000 100000.0000     65.2425
   252.2500   2000.0000   2000.0000 100000.0000     62.0866
   252.5000   2000.0000   2000.0000 100000.0000     57.8986
   252.7500   2000.0000   2000.0000 100000.0000     55.7093
   253.0000   2000.0000   2000.0000 100000.0000     53.2932
   253.2500   2000.0000   2000.0000 100000.0000     52.3683
   253.5000   2000.0000   2000.0000 100000.0000     52.3474
   253.7500   2000.0000   2000.0000 100000.0000     53.1339
   254.0000   2000.0000   2000.0000 100000.0000     54.6395
   254.2500   2000.0000   2000.0000 100000.0000     55.2877
   254.5000   2000.0000   2000.0000 100000.0000     55.2775
   254.7500   2000.0000   2000.0000 100000.0000     54.8349
   255.0000   2000.0000   2000.0000 100000.0000     54.7328
   255.2500   2000.0000   2000.0000 100000.0000     55.8102
   255.5000   2000.0000   2000.0000 100000.0000     59.1876
   255.7500   2000.0000   2000.0000 100000.0000     61.6335
   256.0000   2000.0000   2000.0000    123.2084     63.5640
   256.2500   2000.0000   2000.0000      7.9769     63.2893
   256.5000   2000.0000   2000.0000      4.2920     61.3791
   256.7500   2000.0000   2000.0000      3.3222     59.7882
   257.0000   2000.0000   2000.0000      3.1197     57.4170
   257.2500   2000.0000   2000.0000      3.3089     55.8085
   257.5000   2000.0000   2000.0000      3.8056     53.2696
   257.7500   2000.0000   2000.0000      4.6740     51.5897
   258.0000   2000.0000   2000.0000      6.2109     49.4283
   258.2500   2000.0000   2000.0000      9.2991     48.3380
   258.5000   2000.0000   2000.0000     16.8016     47.0242
   258.7500   2000.0000   2000.0000     40.9954     46.1666
   259.0000   2000.0000   2000.0000    146.7054     44.9445
   259.2500   2000.0000   2000.0000    170.0007     44.4812
   259.5000   2000.0000   2000.0000     61.6456     44.9355
   259.7500   2000.0000   2000.0000     32.5818     46.1662
   260.0000   2000.0000   2000.0000     23.0336     49.1535
   260.2500   2000.0000   2000.0000     19.2956     51.4869
   260.5000   2000.0000   2000.0000     17.7868     54.5813
   260.7500   2000.0000   2000.0000     17.2361     55.9309
   261.0000   2000.0000   2000.0000     17.1168     56.5275
   261.2500   2000.0000   2000.0000     17.2222     55.9983
   261.5000   2000.0000   2000.0000     17.5059     54.2703
   261.7500   2000.0000   2000.0000     18.0285     52.9834
   262.0000   2000.0000   2000.0000     18.9400     51.7070
   262.2500   2000.0000   2000.0000     20.4479     51.5594
   262.5000   2000.0000   2000.0000     22.7144     52.4418
   262.7500   2000.0000   2000.0000     25.6489     53.7424
   263.0000   2000.0000   2000.0000     28.6488     56.8130
   263.2500   2000.0000   2000.0000     30.6618     59.5725
