~Version Information
VERS.                      2.0: CWLS Log ASCII Standard - VERSION 2.0
WRAP.                       NO: One line per depth step
~Well Information Block
STRT.FT               -11.5000: 
STOP.FT              1961.7500: 
STEP.FT                 0.2500: 
NULL.                -999.2500: 
COMP.          Petrogulf Corporation: COMPANY
WELL.           State 16-23R-X: WELL
FLD.           Purgatorie River: FIELD
LOC.           2381' FSL & 2072' FWL--: LOCATION
PROV.                       CO: PROVINCE
CNTY.               Las Animas: COUNTRY
SRVC.          Patterson Wireline: SERVICE COMPANY
DATE.          Fri Sep 09 14:32:42 2005: LOG DATE
UWI.           05 071 08324 00: UNIQUE WELL ID
~Curve Information Block
DEPT.FT            0 000 00 00: Depth
CCL.                          : Casing Collar Locator
TT3.usec                      : CBL 3' Travel Time
AMP3.mV                       : CBL 3' Amplitude
GR.GAPI                       : Gamma Ray
~Parameter Information Block
~A  Depth       CCL         TT3         AMP3         GR     
# ...
   390.5000      0.0000    655.6498      8.2396     51.2009
   390.7500      0.0000    675.2722      8.0543     52.5328
   391.0000      0.0000    690.6284      8.0901     52.7804
   391.2500      0.0000    714.5452      8.3621     52.1034
   391.5000      0.0000    750.4060      8.7671     51.1257
   391.7500      0.0000    790.3906      9.1413     50.2218
   392.0000      0.0000    824.4773      9.3765     49.5400
   392.2500      0.0000    849.0225      9.4680     49.5948
   392.5000      0.0000    865.4632      9.4766     51.0737
   392.7500      0.0000    873.6259      9.4801     53.6756
   393.0000      0.0000    870.2405      9.5427     55.7664
   393.2500      0.0000    854.2433      9.6905     55.8094
   393.5000      0.0000    830.7916      9.9060     53.7711
   393.7500      0.0000    808.4269     10.1469     50.7509
   394.0000      0.0000    793.1715     10.3704     47.7145
   394.2500      0.0000    785.6584     10.5436     45.0165
   394.5000      0.0000    782.4116     10.6482     42.7569
   394.7500      0.0000    778.8788     10.6831     41.1889
   395.0000      0.0000    772.6542     10.6676     40.9395
   395.2500      0.0000    765.3592     10.6416     42.9899
   395.5000      0.0000    760.7744     10.6582     48.1749
   395.7500      0.0000    760.4282     10.7614     56.4020
   396.0000      0.0000    761.8041     10.9592     66.3526
   396.2500      0.0000    760.9023     11.2186     75.9153
   396.5000      0.0000    754.7618     11.4862     83.0850
   396.7500      0.0000    740.6816     11.7178     87.0852
   397.0000      0.0000    714.6070     11.8991     89.1162
   397.2500      0.0000    672.4346     12.0507     91.5819
   397.5000      0.0000    614.0105     12.2202     95.7721
   397.7500      0.0000    545.7150     12.4714    100.2945
   398.0000      0.0000    478.3614     12.8606    102.3010
   398.2500      0.0000    422.0059     13.3897    100.3829
   398.5000      0.0000    382.2133     13.9772     96.1239
   398.7500      0.0000    359.6649     14.4993     92.8514
   399.0000      0.0000    351.5918     14.8755     92.7310
   399.2500      0.0000    353.3572     15.1210     94.8295
   399.5000      0.0000    359.8122     15.3328     96.1204
   399.7500      0.0000    366.5395     15.6377     94.4106
   400.0000      0.0000    370.7430     16.1317     89.9618
   400.2500      0.0000    371.3274     16.8369     84.4035
   400.5000      0.0000    368.5247     17.6860     78.8869
   400.7500      0.0000    363.7145     18.5391     73.5497
   401.0000      0.0000    359.2427     19.2347     68.3030
   401.2500      0.0000    357.4647     19.6620     63.6688
   401.5000      0.0000    359.7804     19.8015     60.5797
   401.7500      0.0000    366.9284     19.6982     59.3554
   402.0000      0.0000    380.2937     19.4011     59.3554
   402.2500      0.0000    401.7358     18.9307     59.9839
   402.5000      0.0000    430.4872     18.2941     61.5148
   402.7500      0.0000    460.4561     17.5124     64.3041
   403.0000      0.0000    485.1194     16.6202     67.4947
   403.2500      0.0000    508.3723     15.6391     69.3449
   403.5000      0.0000    545.9156     14.5742     69.0145
   403.7500      0.0000    609.1854     13.4563     67.4454
   404.0000      0.0000    689.2698     12.3819     66.2235
   404.2500      0.0000    761.7999     11.4870     65.9626
   404.5000      0.0000    807.2720     10.8673     65.9848
   404.7500      0.0000    824.3490     10.5192     65.1933
   405.0000      0.0000    825.8845     10.3511     63.0696
   405.2500      0.0000    826.0684     10.2513     60.0484
   405.5000      0.0000    831.4626     10.1581     57.1061
   405.7500      0.0000    840.6675     10.0827     55.0740
   406.0000      0.0000    848.8727     10.0753     54.3763
   406.2500      0.0000    851.8284     10.1769     55.1316
   406.5000      0.0000    848.0164     10.3979     57.0514
   406.7500      0.0000    839.2780     10.7266     59.2661
   407.0000      0.0000    828.8434     11.1451     60.6430
   407.2500      0.0000    817.0909     11.6424     60.5651
   407.5000      0.0000    799.2105     12.2166     59.3258
   407.7500      0.0000    768.1279     12.8542     57.5576
   408.0000      0.0000    720.9251     13.5014     55.4533
   408.2500      0.0000    663.2817     14.0704     52.9661
   408.5000      0.0000    608.4547     14.4908     50.6996
   408.7500      0.0000    572.2622     14.7569     50.0137
   409.0000      0.0000    566.5087     14.9193     51.8684
   409.2500      0.0000    591.5972     15.0338     55.7632
   409.5000      0.0000    633.2814     15.1201     60.1282
   409.7500      0.0000    670.7539     15.1665     63.7579
   410.0000      0.0000    690.0656     15.1677     66.6323
   410.2500      0.0000    687.6340     15.1599     69.3544
   410.5000      0.0000    663.9734     15.2098     72.0527
   410.7500      0.0000    621.7680     15.3605     73.9333
   411.0000      0.0000    570.2355     15.5942     73.7911
   411.2500      0.0000    523.7500     15.8565     70.9899
   411.5000      0.0000    493.2100     16.1086     66.1317
   411.7500      0.0000    481.8000     16.3462     60.9049
   412.0000      0.0000    488.0422     16.5706     57.1204
   412.2500      0.0000    507.6566     16.7528     55.5751
   412.5000      0.0000    533.4171     16.8257     55.8224
   412.7500      0.0000    559.3264     16.7063     57.1028
   413.0000      0.0000    584.7442     16.3346     59.1334
   413.2500      0.0000    610.2709     15.7133     61.6866
   413.5000      0.0000    632.4192     14.9221     63.8911
   413.7500      0.0000    648.2980     14.0845     64.7053
   414.0000      0.0000    662.8750     13.3111     63.9500
   414.2500      0.0000    684.4921     12.6664     62.3259
   414.5000      0.0000    713.6357     12.1698     60.5409
   414.7500      0.0000    741.5161     11.8109     58.8355
   415.0000      0.0000    759.9659     11.5665     57.1639
   415.2500      0.0000    768.6796     11.4114     55.3766
   415.5000      0.0000    771.7608     11.3177     53.3542
   415.7500      0.0000    770.8931     11.2515     51.3478
   416.0000      0.0000    764.7869     11.1882     50.0532
   416.2500      0.0000    753.0942     11.1329     50.1286
   416.5000      0.0000    737.7397     11.1132     51.8727
   416.7500      0.0000    721.2133     11.1472     55.4042
   417.0000      0.0000    705.6378     11.2261     60.6488
   417.2500      0.0000    692.9027     11.3255     66.8192
   417.5000      0.0000    683.8552     11.4266     72.3642
   417.7500      0.0000    676.9598     11.5260     76.1402
   418.0000      0.0000    667.7874     11.6317     78.7152
   418.2500      0.0000    650.0571     11.7508     82.0121
   418.5000      0.0000    619.3356     11.8775     87.3290
   418.7500      0.0000    577.9838     11.9914     93.8859
   419.0000      0.0000    535.5404     12.0736     99.5386
   419.2500      0.0000    502.2018     12.1252    102.7475
   419.5000      0.0000    481.8452     12.1691    103.6549
   419.7500      0.0000    471.3129     12.2374    103.4920
   420.0000      0.0000    464.2440     12.3623    103.2922
   420.2500      0.0000    454.4682     12.5779    103.1717
   420.5000      0.0000    437.8752     12.9183    102.5700
   420.7500      0.0000    414.1130     13.4021    101.0915
   421.0000      0.0000    387.3013     14.0135     99.1551
   421.2500      0.0000    363.6759     14.6933     97.7286
   421.5000      0.0000    347.4520     15.3503     97.2487
   421.7500      0.0000    338.8153     15.8943     96.9305
   422.0000      0.0000    335.4531     16.2747     95.6151
   422.2500      0.0000    335.1255     16.4962     93.3273
   422.5000      0.0000    336.7188     16.6028     91.4130
   422.7500      0.0000    339.5981     16.6544     91.0014
   423.0000      0.0000    342.6366     16.7224     91.7896
   423.2500      0.0000    344.2743     16.8912     92.5139
   423.5000      0.0000    343.6404     17.2287     92.2810
   423.7500      0.0000    341.3148     17.7340     91.2833
