~Version Information
VERS.                      2.0: CWLS Log ASCII Standard - VERSION 2.0
WRAP.                       NO: One line per depth step
~Well Information Block
STRT.FT                 2.0000: 
STOP.FT               698.7500: 
STEP.FT                 0.2500: 
NULL.                -999.2500: 
COMP.          XTO Energy Inc.: COMPANY
WELL.          Golden Eagle 20-14: WELL
FLD.           Purgatrorie River: FIELD
LOC.           587' FSL & 2478' FWL--: LOCATION
STAT.                       CO: State
CNTY.               Las Animas: COUNTY
CTRY. USA : Country
SECT. 20 : Section
TOWN. 33S : Township
RANG. 67W : Range
SRVC.          Patterson Wireline: SERVICE COMPANY
DATE.          Sat Dec 10 16:49:08 2005: LOG DATE
API.           05 071 08614 00: UNIQUE WELL ID
~Curve Information Block
DEPT.FT            0 000 00 00: Depth
MINMK.                        : Magnetic Mark Ticks
TEMP.degF                     : Downhole Temperature
DTMP.degF                     : Delta Temperature
~Parameter Information Block
~A  Depth      MINMK        TEMP        DTMP    
# ...
   628.2500      0.0000     73.6698      0.9883
   628.5000      0.0000     73.8030      1.0482
   628.7500      0.0000     73.9231      1.0985
   629.0000      0.0000     74.5200      1.1383
   629.2500      0.0000     74.9222      1.1925
   629.5000      0.0000     75.2625      1.2132
   629.7500      0.0000     75.5531      1.2286
   630.0000      0.0000     75.7993      0.9948
   630.2500      0.0000     76.0548      0.8494
   630.5000      0.0000     76.2294      0.7269
   630.7500      0.0000     76.3804      0.6226
   631.0000      0.0000     76.5096      0.5343
   631.2500      0.0000     76.6210      0.4364
   631.5000      0.0000     76.7163      0.3740
   631.7500      0.0000     76.7982      0.3193
   632.0000      0.0000     76.8680      0.2747
   632.2500      0.0000     76.9276      0.2317
   632.5000      0.0000     76.9774      0.1936
   632.7500      0.0000     77.0189      0.1593
   633.0000      0.0000     77.0591      0.1284
   633.2500      0.0000     77.0844      0.1001
   633.5000      0.0000     77.1034      0.0744
   633.7500      0.0000     77.1168      0.0505
   634.0000      0.0000     77.1248      0.0252
   634.2500      0.0000     77.1279      0.0053
   634.5000      0.0000     77.1262     -0.0161
   634.7500      0.0000     77.1200     -0.0341
   635.0000      0.0000     77.1095     -0.0510
   635.2500      0.0000     77.0950     -0.0671
   635.5000      0.0000     77.0712     -0.0865
   635.7500      0.0000     77.0486     -0.1008
   636.0000      0.0000     77.0227     -0.1096
   636.2500      0.0000     76.9937     -0.1221
   636.5000      0.0000     76.9532     -0.1310
   636.7500      0.0000     76.9183     -0.1415
   637.0000      0.0000     76.8904     -0.1512
   637.2500      0.0000     76.8508     -0.1662
   637.5000      0.0000     76.8092     -0.1700
   637.7500      0.0000     76.7657     -0.1774
   638.0000      0.0000     76.7204     -0.1887
   638.2500      0.0000     76.6613     -0.1946
   638.5000      0.0000     76.6131     -0.2001
   638.7500      0.0000     76.5634     -0.2113
   639.0000      0.0000     76.5130     -0.2155
   639.2500      0.0000     76.4616     -0.2129
   639.5000      0.0000     76.4091     -0.2160
   639.7500      0.0000     76.3430     -0.2185
   640.0000      0.0000     76.2893     -0.2205
   640.2500      0.0000     76.2356     -0.2288
   640.5000      0.0000     76.1811     -0.2297
   640.7500      0.0000     76.1264     -0.2239
   641.0000      0.0000     76.0719     -0.2306
   641.2500      0.0000     76.0039     -0.2304
   641.5000      0.0000     75.9496     -0.2299
   641.7500      0.0000     75.8952     -0.2288
   642.0000      0.0000     75.8281     -0.2277
   642.2500      0.0000     75.7748     -0.2197
   642.5000      0.0000     75.7214     -0.2247
   642.7500      0.0000     75.6687     -0.2230
   643.0000      0.0000     75.6164     -0.2149
   643.2500      0.0000     75.5645     -0.2134
   643.5000      0.0000     75.5003     -0.2118
   643.7500      0.0000     75.4491     -0.2102
   644.0000      0.0000     75.3982     -0.2086
   644.2500      0.0000     75.3480     -0.2130
   644.5000      0.0000     75.2978     -0.2050
   644.7500      0.0000     75.2483     -0.2030
   645.0000      0.0000     75.1993     -0.2010
   645.2500      0.0000     75.1385     -0.1991
   645.5000      0.0000     75.0903     -0.1966
   645.7500      0.0000     75.0431     -0.1999
   646.0000      0.0000     74.9962     -0.1974
   646.2500      0.0000     74.9499     -0.1942
   646.5000      0.0000     74.9046     -0.1916
   646.7500      0.0000     74.8486     -0.1894
   647.0000      0.0000     74.8046     -0.1870
   647.2500      0.0000     74.7500     -0.1899
   647.5000      0.0000     74.7071     -0.1878
   647.7500      0.0000     74.6642     -0.1801
   648.0000      0.0000     74.6221     -0.1783
   648.2500      0.0000     74.5702     -0.1708
   648.5000      0.0000     74.5290     -0.1688
   648.7500      0.0000     74.4884     -0.1667
   649.0000      0.0000     74.4480     -0.1646
   649.2500      0.0000     74.4084     -0.1618
   649.5000      0.0000     74.3694     -0.1598
   649.7500      0.0000     74.3309     -0.1575
   650.0000      0.0000     74.2930     -0.1552
   650.2500      0.0000     74.2465     -0.1574
   650.5000      0.0000     74.2095     -0.1552
   650.7500      0.0000     74.1733     -0.1531
   651.0000      0.0000     74.1376     -0.1511
   651.2500      0.0000     74.0937     -0.1446
   651.5000      0.0000     74.0590     -0.1424
   651.7500      0.0000     74.0247     -0.1447
   652.0000      0.0000     73.9908     -0.1428
   652.2500      0.0000     73.9573     -0.1367
   652.5000      0.0000     73.9247     -0.1388
   652.7500      0.0000     73.8840     -0.1369
   653.0000      0.0000     73.8519     -0.1350
   653.2500      0.0000     73.8203     -0.1330
   653.5000      0.0000     73.7815     -0.1311
   653.7500      0.0000     73.7509     -0.1249
   654.0000      0.0000     73.7209     -0.1227
   654.2500      0.0000     73.6913     -0.1204
   654.5000      0.0000     73.6625     -0.1173
   654.7500      0.0000     73.6342     -0.1147
   655.0000      0.0000     73.6065     -0.1119
   655.2500      0.0000     73.5795     -0.1089
   655.5000      0.0000     73.5468     -0.1059
   655.7500      0.0000     73.5216     -0.1054
   656.0000      0.0000     73.4972     -0.1021
   656.2500      0.0000     73.4735     -0.0987
   656.5000      0.0000     73.4507     -0.0919
   656.7500      0.0000     73.4233     -0.0884
   657.0000      0.0000     73.4023     -0.0869
   657.2500      0.0000     73.3821     -0.0830
   657.5000      0.0000     73.3630     -0.0791
   657.7500      0.0000     73.3447     -0.0722
   658.0000      0.0000     73.3234     -0.0681
   658.2500      0.0000     73.3075     -0.0638
   658.5000      0.0000     73.2926     -0.0606
   658.7500      0.0000     73.2788     -0.0560
   659.0000      1.0000     73.2661     -0.0503
   659.2500      1.0000     73.2545     -0.0457
   659.5000      1.0000     73.2417     -0.0411
   659.7500      1.0000     73.2326     -0.0365
   660.0000      0.0000     73.2229     -0.0320
   660.2500      0.0000     73.2161     -0.0275
   660.5000      0.0000     73.2105     -0.0221
   660.7500      0.0000     73.2058     -0.0179
   661.0000      0.0000     73.2021     -0.0129
   661.2500      0.0000     73.1994     -0.0089
   661.5000      0.0000     73.1974     -0.0050
   661.7500      0.0000     73.1967     -0.0012
   662.0000      0.0000     73.1970      0.0033
   662.2500      0.0000     73.1982      0.0071
   662.5000      0.0000     73.2004      0.0111
   662.7500      0.0000     73.2035      0.0147
   663.0000      0.0000     73.2087      0.0183
   663.2500      0.0000     73.2137      0.0229
   663.5000      0.0000     73.2195      0.0263
   663.7500      0.0000     73.2262      0.0296
   664.0000      0.0000     73.2336      0.0323
   664.2500      0.0000     73.2440      0.0353
   664.5000      0.0000     73.2531      0.0397
   664.7500      0.0000     73.2628      0.0426
   665.0000      0.0000     73.2732      0.0454
   665.2500      0.0000     73.2842      0.0487
   665.5000      0.0000     73.2990      0.0512
   665.7500      0.0000     73.3114      0.0537
   666.0000      0.0000     73.3243      0.0561
   666.2500      0.0000     73.3414      0.0584
   666.5000      0.0000     73.3555      0.0590
   666.7500      0.0000     73.3702      0.0609
   667.0000      0.0000     73.3853      0.0628
   667.2500      0.0000     73.4010      0.0628
   667.5000      0.0000     73.4169      0.0664
   667.7500      0.0000     73.4332      0.0679
   668.0000      0.0000     73.4499      0.0692
   668.2500      0.0000     73.4669      0.0704
   668.5000      0.0000     73.4884      0.0738
   668.7500      0.0000     73.5060      0.0749
   669.0000      0.0000     73.5238      0.0759
   669.2500      0.0000     73.5418      0.0767
   669.5000      0.0000     73.5645      0.0755
   669.7500      0.0000     73.5830      0.0762
