~Version Information
VERS.                      2.0: CWLS Log ASCII Standard - VERSION 2.0
WRAP.                       NO: One line per depth step
~Well Information Block
STRT.FT                -6.2500: 
STOP.FT              1327.5000: 
STEP.FT                 0.2500: 
NULL.                -999.2500: 
COMP.          Pioneer Natural Resources: COMPANY
WELL.            Avant 14-3 Tr: WELL
FLD.           Purgatorie River: FIELD
LOC.           170' FSL & 1174' FWL--: LOCATION
STAT.                       CO: State
CNTY.               Las Animas: COUNTY
CTRY. USA : Country
SECT. 3 : Section
TOWN. 33S : Township
RANG. 67W : Range
SRVC.          Patterson Wireline: SERVICE COMPANY
DATE.          Tue Aug 23 16:44:25 2005: LOG DATE
API.           05 071 08463 00: UNIQUE WELL ID
~Curve Information Block
DEPT.FT            0 000 00 00: Depth
CCL.                          : Casing Collar Locator
TT3.usec                      : CBL 3' Travel Time
AMP3.mV                       : CBL 3' Amplitude
GR.GAPI                       : Gamma Ray
~Parameter Information Block
~A  Depth       CCL         TT3         AMP3         GR     
# ...
   429.2500      0.0000    899.2768     19.4803     91.1086
   429.5000      0.0000    899.9417     19.4075     89.2834
   429.7500      0.0000    899.1129     19.3168     86.9508
   430.0000      0.0000    896.4876     19.2377     85.8859
   430.2500      0.0000    891.2255     19.1931     86.9174
   430.5000      0.0000    882.1335     19.1988     89.1045
   430.7500      0.0000    867.1442     19.2708     90.5485
   431.0000      0.0000    843.1665     19.4295     89.9246
   431.2500      0.0000    808.7205     19.6950     87.2135
   431.5000      0.0000    767.3640     20.0705     83.3656
   431.7500      0.0000    725.1714     20.5179     79.7577
   432.0000      0.0000    684.6708     20.9310     77.8724
   432.2500      0.0000    648.1859     21.1245     78.7472
   432.5000      0.0000    628.8179     20.8887     82.2244
   432.7500      0.0000    647.2836     20.1314     87.0381
   433.0000      0.0000    710.6925     19.0119     91.7517
   433.2500      0.0000    800.3903     17.8907     95.2044
   433.5000      0.0000    885.9166     17.0906     96.2872
   433.7500      0.0000    947.6188     16.6987     94.3281
   434.0000      0.0000    983.5032     16.5910     90.1469
   434.2500     -2.0000    999.6555     16.5990     86.0883
   434.5000      0.0000   1000.3220     16.6493     84.3387
   434.7500      0.0000    985.3959     16.8164     85.1436
   435.0000      0.0000    950.7158     17.2843     86.8101
   435.2500      0.0000    890.3949     18.1998     87.4420
   435.5000      0.0000    805.9026     19.4840     86.6715
   435.7500      0.0000    716.1636     20.8037     85.7708
   436.0000      0.0000    653.1166     21.7906     86.0915
   436.2500      0.0000    639.7686     22.2931     87.4511
   436.5000      0.0000    671.4672     22.4088     88.1614
   436.7500      0.0000    721.3728     22.3330     86.5166
   437.0000      0.0000    763.3846     22.2192     82.0914
   437.2500      0.0000    787.0889     22.1418     76.0072
   437.5000      0.0000    794.6515     22.1178     70.4400
   437.7500      0.0000    790.6880     22.1383     67.4357
   438.0000      0.0000    776.5468     22.1854     67.6221
   438.2500      0.0000    750.3842     22.2384     70.1455
   438.5000      0.0000    710.5589     22.2766     73.8200
   438.7500      0.0000    659.2296     22.2892     77.7884
   439.0000      0.0000    603.9462     22.2893     81.2269
   439.2500      0.0000    556.4973     22.3129     83.4064
   439.5000      0.0000    526.6559     22.3903     84.3103
   439.7500      0.0000    512.2283     22.5139     84.4890
   440.0000      0.0000    498.0432     22.6372     84.1372
   440.2500      0.0000    470.5192     22.7088     82.9225
   440.5000      0.0000    431.4717     22.7034     80.7522
   440.7500      0.0000    394.2546     22.6260     78.1181
   441.0000      0.0000    370.0629     22.4997     75.6681
   441.2500      0.0000    361.6305     22.3522     73.7767
   441.5000      0.0000    367.2451     22.2073     72.3953
   441.7500      0.0000    387.2971     22.0769     71.1191
   442.0000      0.0000    427.3506     21.9534     69.5970
   442.2500      0.0000    494.1163     21.8097     67.9792
   442.5000      0.0000    585.1866     21.6114     66.6783
   442.7500      0.0000    682.3406     21.3395     65.6287
   443.0000      0.0000    759.7473     21.0055     64.2523
   443.2500      0.0000    801.9600     20.6433     62.4370
   443.5000      0.0000    813.4810     20.2880     61.1653
   443.7500      0.0000    811.2634     19.9603     61.6603
   444.0000      0.0000    810.3190     19.6661     63.9385
   444.2500      0.0000    815.8311     19.4013     66.5860
   444.5000      0.0000    824.8995     19.1531     68.0645
   444.7500      0.0000    832.4270     18.9037     68.0494
   445.0000      0.0000    835.0703     18.6425     67.4528
   445.2500      0.0000    831.7098     18.3776     67.4513
   445.5000      0.0000    822.7663     18.1323     68.5589
   445.7500      0.0000    810.2886     17.9318     70.3166
   446.0000      0.0000    797.6882     17.7889     71.7682
   446.2500      0.0000    788.0350     17.6976     72.3924
   446.5000      0.0000    782.3645     17.6343     72.5034
   446.7500      0.0000    779.8049     17.5702     72.7974
   447.0000      0.0000    778.9460     17.4878     73.9442
   447.2500      0.0000    778.8064     17.3885     76.6744
   447.5000      0.0000    779.0556     17.2851     81.4990
   447.7500      0.0000    779.9506     17.1901     87.8441
   448.0000      0.0000    782.3314     17.1121     93.9264
   448.2500      0.0000    787.1841     17.0562     97.9804
   448.5000      0.0000    794.3660     17.0215     99.3821
   448.7500      0.0000    801.3743     17.0022     98.2998
   449.0000      0.0000    804.3375     16.9931     94.8134
   449.2500      0.0000    801.3057     16.9925     89.0977
   449.5000      0.0000    794.2020     17.0012     82.2239
   449.7500      0.0000    786.8829     17.0222     76.0663
   450.0000      0.0000    781.8569     17.0618     72.3542
   450.2500      0.0000    779.2942     17.1287     72.0400
   450.5000      0.0000    778.2366     17.2337     75.1998
   450.7500      0.0000    777.8233     17.3905     80.9515
   451.0000      0.0000    777.6151     17.6114     87.4888
   451.2500      0.0000    777.4482     17.8957     92.6327
   451.5000      0.0000    777.2861     18.2236     94.7875
   451.7500      0.0000    777.1376     18.5653     93.8438
   452.0000      0.0000    777.0278     18.8976     91.2955
   452.2500      0.0000    776.9709     19.2142     89.0800
   452.5000      0.0000    776.9634     19.5211     87.9791
   452.7500      0.0000    776.9999     19.8254     87.3546
   453.0000      0.0000    777.0941     20.1256     86.5015
   453.2500      0.0000    777.2659     20.4103     85.6954
   453.5000      0.0000    777.4983     20.6648     85.5781
   453.7500      0.0000    777.7237     20.8813     86.0212
   454.0000      0.0000    777.8692     21.0567     86.1751
   454.2500      0.0000    777.9029     21.1821     85.4273
   454.5000      0.0000    777.8247     21.2356     83.9953
   454.7500      0.0000    777.6439     21.1917     82.7160
   455.0000      0.0000    777.3941     21.0386     82.2957
   455.2500      0.0000    777.1498     20.7852     82.6107
   455.5000      0.0000    776.9935     20.4573     82.8179
   455.7500      0.0000    776.9670     20.0920     82.3860
   456.0000      0.0000    777.0532     19.7345     81.9216
   456.2500      0.0000    777.1880     19.4285     82.6846
   456.5000      0.0000    777.2877     19.2003     85.2118
   456.7500      0.0000    777.2925     19.0507     88.7565
   457.0000      0.0000    777.2107     18.9571     92.3382
   457.2500      0.0000    777.1212     18.8845     95.8457
   457.5000      0.0000    777.1329     18.8009     99.5565
   457.7500      0.0000    777.3511     18.6902    103.1746
   458.0000      0.0000    777.9576     18.5513    106.0698
   458.2500      0.0000    779.4811     18.3917    107.8240
   458.5000      0.0000    783.2629     18.2265    107.8646
   458.7500      0.0000    791.6363     18.0827    105.3911
   459.0000      0.0000    806.8900     17.9901    100.6675
   459.2500      0.0000    828.9043     17.9623     95.8479
   459.5000      0.0000    853.5375     17.9872     93.4222
   459.7500      0.0000    873.9281     18.0355     93.7635
   460.0000      0.0000    883.7236     18.0748     94.7357
   460.2500      0.0000    879.7108     18.0829     93.8461
   460.5000      0.0000    863.4406     18.0581     90.4870
   460.7500      0.0000    841.9550     18.0217     86.0047
   461.0000      0.0000    825.6351     18.0090     82.1363
   461.2500      0.0000    822.5620     18.0525     79.9070
   461.5000      0.0000    833.3073     18.1686     79.6035
   461.7500      0.0000    850.2476     18.3517     80.8359
   462.0000      0.0000    861.4523     18.5765     82.5357
   462.2500      0.0000    855.4388     18.8102     83.5659
   462.5000      0.0000    824.2328     19.0299     83.4207
