~Version Information
 VERS.                                  2.0 : CWLS LAS VERSION
 WRAP.                                   NO : WRAPING MODE
 SWARE .                 MController 2.5.0N : SOFTWARE VERSION
~Well Information
 WELL.                        Hamburg 43-35 : WELL
 COMP.    Pioneer Natural Resouces USA Inc. : COMPANY
 FLD.                      Purgatoire River : FIELD
 LOC.            NE/SE Sec 35 , T34S, R65W  : LOCATION
 DATE.                             12/02/05 : DATE(S) LOGGED
 SRVC.       BLANCO Geological Services LLC : SERVICE COMPANY
 STAT.                                   CO : STATE
 CNTY.                           Las Animas : COUNTY
 CTRY.                                  USA : COUNTRY
 API.                       05-071-08607-00 : API NUMBER
 STRT.FT                             188.00 : START DEPTH
 STOP.FT                            1330.00 : STOP DEPTH
 STEP.FT                               1.00 : DEPTH INCREMENT
 NULL.                                -9999 : NULL VALUE
~Curve information
 DEPTH.FT                                   :
 ROP.MIN/FT                                 :
 GAS.UNITS                                  :
~ASCII Log data
# ...
      1188.0         0.37         63.5 
      1189.0         0.40        114.1 
      1190.0         0.37        205.1 
      1191.0         6.27       1395.9 
      1192.0         0.50        452.0 
      1193.0         0.53        440.0 
      1194.0         0.47        142.9 
      1195.0         0.43        105.0 
      1196.0         0.45         90.3 
      1197.0         0.40         82.1 
      1198.0         0.47         82.6 
      1199.0         0.50         87.7 
      1200.0         0.47         88.7 
      1201.0         0.43         94.5 
      1202.0         0.43         99.2 
      1203.0         0.45        105.8 
      1204.0         0.37        107.6 
      1205.0         0.40        111.1 
      1206.0         0.40        115.4 
      1207.0         0.43        116.6 
      1208.0         0.40        117.1 
      1209.0         0.47        118.5 
      1210.0         0.43        118.5 
      1211.0         0.45        127.6 
      1212.0         0.43        135.5 
      1213.0         0.43        137.1 
      1214.0         0.47        137.4 
      1215.0         0.43        120.9 
      1216.0         0.40         32.0 
      1217.0         0.40         68.4 
      1218.0         0.43        202.4 
      1219.0         0.10        202.4 
      1220.0         0.22        208.3 
      1221.0         4.15       1747.2 
      1222.0         0.37        559.0 
      1223.0         0.50        569.9 
      1224.0         0.40        569.0 
      1225.0         0.40        556.4 
      1226.0         0.43        531.6 
      1227.0         0.52        523.2 
      1228.0         0.50        505.5 
      1229.0         0.47        486.8 
      1230.0         0.47        466.8 
      1231.0         0.43        458.4 
      1232.0         0.43        447.5 
      1233.0         0.40        441.3 
      1234.0         0.37        440.0 
      1235.0         0.38        196.4 
      1236.0         0.37        183.7 
      1237.0         0.47        176.0 
      1238.0         0.43        173.5 
      1239.0         0.40        162.7 
      1240.0         0.43        159.8 
      1241.0         0.43        188.2 
      1242.0         0.43        181.8 
      1243.0         0.35        162.4 
      1244.0         0.43        178.6 
      1245.0         0.43        177.0 
      1246.0         0.40        181.7 
      1247.0         0.43        163.4 
      1248.0         0.40         86.8 
      1249.0         0.37        101.2 
      1250.0         0.37        117.2 
      1251.0         8.35       2047.2 
      1252.0         0.37        455.8 
      1253.0         0.47        478.7 
      1254.0         0.40        479.7 
      1255.0         0.33        458.1 
      1256.0         0.37        440.0 
      1257.0         0.52        201.1 
      1258.0         0.40        206.4 
      1259.0         0.40        187.7 
      1260.0         0.40        183.9 
      1261.0         0.43        185.5 
      1262.0         0.43        177.9 
      1263.0         0.37        184.5 
      1264.0         0.43        185.5 
      1265.0         0.42        189.6 
      1266.0         0.40        171.0 
      1267.0         0.40        180.2 
      1268.0         0.40        182.5 
      1269.0         0.47        238.7 
      1270.0         0.40        367.4 
      1271.0         0.40        428.6 
      1272.0         0.47        332.9 
      1273.0         0.48        167.6 
      1274.0         0.60        115.8 
      1275.0         0.53         75.1 
      1276.0         0.50         29.6 
      1277.0         0.47         42.3 
      1278.0         0.37         90.4 
      1279.0         0.10         90.4 
      1280.0         0.23        159.3 
      1281.0         5.33       1690.4 
      1282.0         0.57        681.4 
      1283.0         0.43        536.1 
      1284.0         0.43        502.6 
      1285.0         0.42        469.1 
      1286.0         0.40        440.0 
      1287.0         0.43        190.9 
      1288.0         0.43        204.7 
      1289.0         0.43        198.2 
      1290.0         0.40        191.9 
      1291.0         0.43        188.3 
      1292.0         0.48        183.3 
      1293.0         0.50        175.8 
      1294.0         0.43        163.3 
      1295.0         0.47        164.8 
      1296.0         0.47        167.3 
      1297.0         0.43        163.8 
      1298.0         0.43        195.7 
      1299.0         0.47        192.8 
      1300.0         0.45        173.9 
      1301.0         0.60        183.4 
      1302.0         0.40        169.8 
      1303.0         0.47        177.6 
      1304.0         0.47        177.5 
      1305.0         0.47        172.1 
      1306.0         0.43        180.9 
      1307.0         0.48        165.6 
      1308.0         0.47        147.8 
      1309.0         0.47         64.8 
      1310.0         0.67        203.2 
      1311.0         7.30       1659.2 
      1312.0         0.40        465.2 
      1313.0         0.33        440.0 
      1314.0         0.35        188.2 
      1315.0         0.33        167.6 
      1316.0         0.53        184.6 
      1317.0         0.80        405.5 
      1318.0         0.57        724.3 
      1319.0         0.53        687.5 
      1320.0         0.72        440.0 
      1321.0         0.73        162.4 
      1322.0         0.50         48.4 
      1323.0         0.60         59.4 
      1324.0         0.57         96.7 
      1325.0         0.53        141.0 
      1326.0         0.52        184.0 
      1327.0         0.47        190.2 
      1328.0         0.43        124.5 
      1329.0         0.43        131.0 
      1330.0         0.43        165.0 
