~Version Information
VERS.                      2.0: CWLS Log ASCII Standard - VERSION 2.0
WRAP.                       NO: One line per depth step
~Well Information Block
STRT.FT               875.0000: 
STOP.FT              2053.0000: 
STEP.FT                 0.1000: 
NULL.                -999.2500: 
COMP.          Pioneer Natural Resources: COMPANY
WELL.          Woodstock 43-19: WELL
FLD.           Purgatoire River: FIELD
LOC.           2195' FSL & 250' FEL: LOCATION
CNTY.               Las Animas: COUNTY
SRVC.                Patterson: SERVICE COMPANY
DATE.          Thu Feb 02 12:45:04 2006: LOG DATE
UWI.           05 071 08677 00: UNIQUE WELL ID
STAT.                 Colorado: STATE
~Curve Information Block
DEPT.FT            0 000 00 00: Depth
DCAL.in                       : CDL Caliper
RHOB.g/cc                     : CDL Bulk Density
RHOC.g/cc                     : CDL Density Correction
DPOR.pu                       : CDL Density Porosity
GR.GAPI                       : Gamma Ray
NPOR.pu                       : Neutron Porosity
~Parameter Information Block
~A  Depth       DCAL        RHOB        RHOC        DPOR         GR         NPOR    
# ...
  1575.8000      7.9703      2.4414      0.0516     12.6449    124.3770     29.2967
  1575.9000      7.9703      2.4521      0.0053     11.9933    129.9603     30.7956
  1576.0000      8.0308      2.4904      0.0798      9.6741    128.7887     31.3707
  1576.1000      8.0308      2.5305      0.1383      7.2408    121.4684     31.4517
  1576.2000      8.0308      2.5468      0.0847      6.2566    113.2445     31.3958
  1576.3000      8.0617      2.5394      0.0893      6.7058    108.6055     30.7641
  1576.4000      8.0617      2.5221      0.0561      7.7497    107.9386     30.2476
  1576.5000      8.0373      2.5081      0.1008      8.6008    108.5953     30.7941
  1576.6000      8.0373      2.4968      0.0446      9.2861    108.9894     31.6392
  1576.7000      8.0373      2.4849      0.0459     10.0056    108.3735     32.1403
  1576.8000      8.0401      2.4727      0.0396     10.7434    107.7019     32.3034
  1576.9000      8.0401      2.4601      0.0605     11.5095    109.9155     31.8837
  1577.0000      8.0601      2.4495      0.0547     12.1542    115.4593     30.9377
  1577.1000      8.0601      2.4521      0.0055     11.9933    120.0215     29.5692
  1577.2000      8.0601      2.4763      0.0542     10.5253    119.6779     28.3803
  1577.3000      8.1032      2.5124      0.0821      8.3393    117.2204     28.3097
  1577.4000      8.1032      2.5443      0.1240      6.4031    116.4590     29.2289
  1577.5000      8.0802      2.5598      0.1396      5.4693    115.5437     30.1477
  1577.6000      8.0802      2.5492      0.1200      6.1074    113.6848     30.4195
  1577.7000      8.0802      2.5259      0.0706      7.5219    115.0122     29.9757
  1577.8000      8.0520      2.5252      0.0665      7.5613    119.3789     29.1887
  1577.9000      8.0520      2.5584      0.0737      5.5489    121.8949     28.4380
  1578.0000      8.0828      2.5921      0.1306      3.5092    121.8264     27.9375
  1578.1000      8.0828      2.5963      0.0857      3.2528    120.1728     28.0848
  1578.2000      8.0828      2.5828      0.0448      4.0757    115.5109     28.6412
  1578.3000      8.1488      2.5703      0.0770      4.8317    109.0017     28.7493
  1578.4000      8.1488      2.5575      0.0948      5.6066    103.4643     28.5127
  1578.5000      8.1724      2.5480      0.0537      6.1798    100.5849     28.6561
  1578.6000      8.1724      2.5412      0.0871      6.5943    103.6977     29.2167
  1578.7000      8.1724      2.5035      0.0913      8.8805    113.0069     29.7037
  1578.8000      8.1134      2.4109      0.0493     14.4882    120.4401     29.5205
  1578.9000      8.1134      2.2889      0.0052     21.8831    121.8688     28.7146
  1579.0000      8.0500      2.1888     -0.0459     27.9486    122.1879     28.3535
  1579.1000      8.0500      2.1365     -0.0333     31.1227    122.0996     29.2694
  1579.2000      8.0500      2.1126      0.0112     32.5717    119.6424     30.9819
  1579.3000      8.0514      2.0948      0.0161     33.6457    118.8840     32.0962
  1579.4000      8.0514      2.0866      0.0474     34.1452    120.0297     31.9452
  1579.5000      8.0595      2.0931      0.0659     33.7489    118.4563     31.7018
  1579.6000      8.0595      2.1138      0.0709     32.4979    114.9180     32.7347
  1579.7000      8.0595      2.1480      0.0955     30.4242    111.2949     34.5570
  1579.8000      8.0318      2.1816      0.1480     28.3875    106.7934     35.4403
  1579.9000      8.0318      2.1998      0.0672     27.2849    104.0078     34.4797
  1580.0000      8.0654      2.2185     -0.0072     26.1536    105.9615     32.8351
  1580.1000      8.0654      2.2625     -0.0050     23.4851    109.9867     31.8506
  1580.2000      8.0654      2.3313      0.0177     19.3144    111.8028     31.3181
  1580.3000      8.0223      2.4075      0.0614     14.6964    112.6324     30.9246
  1580.4000      8.0223      2.4737      0.1428     10.6828    116.9596     30.7398
  1580.5000      8.0224      2.5202      0.1329      7.8665    124.1996     30.4573
  1580.6000      8.0224      2.5421      0.1736      6.5412    129.1037     29.9137
  1580.7000      8.0224      2.5356      0.1276      6.9355    129.4479     29.2169
  1580.8000      8.0336      2.5135      0.1048      8.2752    128.2199     28.3681
  1580.9000      8.0336      2.4950      0.0853      9.3969    128.9767     27.9814
  1581.0000      8.0607      2.4809      0.0882     10.2467    129.5202     28.8136
  1581.1000      8.0607      2.4689      0.0643     10.9773    126.1900     30.6628
  1581.2000      8.0607      2.4738      0.0227     10.6767    124.6048     32.4777
  1581.3000      8.1210      2.5058      0.1241      8.7397    128.2173     32.8208
  1581.4000      8.1210      2.5451      0.1480      6.3603    132.1704     31.6435
  1581.5000      8.1266      2.5637      0.1744      5.2288    133.9942     30.3066
  1581.6000      8.1266      2.5596      0.1533      5.4770    135.5702     29.8974
  1581.7000      8.1266      2.5526      0.1895      5.9029    137.8353     30.2799
  1581.8000      8.1535      2.5514      0.1939      5.9731    138.0286     30.5396
  1581.9000      8.1535      2.5499      0.1998      6.0673    135.6651     30.2506
  1582.0000      8.2161      2.5364      0.2283      6.8858    133.3135     29.9333
  1582.1000      8.2161      2.5042      0.0727      8.8356    132.1395     30.0013
  1582.2000      8.2161      2.4651      0.1058     11.2082    131.1727     30.2769
  1582.3000      8.1878      2.4381      0.0660     12.8402    130.8869     30.4113
  1582.4000      8.1878      2.4392      0.0436     12.7775    132.5275     30.3970
  1582.5000      8.1004      2.4615      0.1152     11.4268    135.0028     30.5233
  1582.6000      8.1004      2.4841      0.0704     10.0536    138.7949     30.5135
  1582.7000      8.1004      2.5070      0.1170      8.6648    143.7171     29.8299
  1582.8000      8.1669      2.5353      0.1473      6.9512    145.8507     28.7090
  1582.9000      8.1669      2.5613      0.1372      5.3753    145.6852     27.9259
  1583.0000      8.1274      2.5809      0.1791      4.1890    145.7146     27.8225
  1583.1000      8.1274      2.5907      0.1382      3.5917    143.5925     27.5955
  1583.2000      8.1274      2.5897      0.0913      3.6531    140.8860     26.7643
  1583.3000      8.1852      2.5877      0.1004      3.7747    143.7151     26.4980
  1583.4000      8.1852      2.5862      0.1342      3.8656    145.8062     27.4101
  1583.5000      8.1590      2.5721      0.0747      4.7223    140.1298     28.2951
  1583.6000      8.1590      2.5485      0.0504      6.1502    132.3986     28.5657
  1583.7000      8.1590      2.5324      0.0477      7.1279    128.9875     28.6437
  1583.8000      8.0536      2.5227      0.0451      7.7123    131.4930     28.5207
  1583.9000      8.0536      2.5064      0.0820      8.7023    134.3427     28.2247
  1584.0000      8.0210      2.4894      0.0059      9.7347    130.5259     27.8870
  1584.1000      8.0210      2.4896      0.0796      9.7191    121.5178     27.5455
  1584.2000      8.0210      2.5049      0.0560      8.7959    112.2523     27.5644
  1584.3000      8.0275      2.5142      0.1079      8.2315    104.0309     28.5425
  1584.4000      8.0275      2.5043      0.0779      8.8316     98.4203     30.2743
  1584.5000      8.0302      2.4889      0.0293      9.7632     97.7397     31.2938
  1584.6000      8.0302      2.4866      0.0396      9.9059    101.0876     30.7426
  1584.7000      8.0302      2.4913      0.0307      9.6206    104.0300     29.2468
  1584.8000      8.0230      2.4876      0.0548      9.8430    103.2120     27.8875
  1584.9000      8.0230      2.4782      0.0325     10.4105    100.0065     27.1679
  1585.0000      8.0745      2.4786      0.0785     10.3886     98.0874     26.6133
  1585.1000      8.0745      2.4957      0.0491      9.3543     98.3055     25.7415
  1585.2000      8.0745      2.5239      0.0930      7.6440     97.8749     25.1481
  1585.3000      8.0718      2.5446      0.1022      6.3863     92.4414     25.6198
