~Version Information
VERS.                      2.0: CWLS Log ASCII Standard - VERSION 2.0
WRAP.                       NO: One line per depth step
~Well Information Block
STRT.FT                 0.0000: 
STOP.FT               816.5000: 
STEP.FT                 0.1000: 
NULL.                -999.2500: 
COMP.          Pioneer Natural Resources: COMPANY
WELL.           Weissach 32-32: WELL
FLD.           Purgatorie River: FIELD
LOC.           2193' FNL & 2256' FEL: LOCATION
STAT.                 Colorado: State
CNTY.               Las Animas: COUNTY
CTRY. USA : Country
SECT. 32 : Section
TOWN. 33S : Township
RANG. 66W : Range
SRVC.                Patterson: SERVICE COMPANY
DATE.          Mon Sep 26 09:15:29 2005: LOG DATE
API. 05-071-08523                         : UNIQUE WELL ID
~Curve Information Block
DEPT.FT            0 000 00 00: Depth
DCAL.in                       : CDL Caliper
RHOB.g/cc                     : CDL Bulk Density
RHOC.g/cc                     : CDL Density Correction
DPOR.pu                       : CDL Density Porosity
GR.GAPI                       : Gamma Ray
NPOR.pu                       : Neutron Porosity
~Parameter Information Block
~A  Depth       DCAL        RHOB        RHOC        DPOR         GR         NPOR    
# ...
   739.2000      7.8203      2.4901      0.0786      9.6924     82.9935     20.9358
   739.3000      7.8276      2.4653      0.0865     11.1965     83.2771     20.7773
   739.4000      7.8276      2.4366      0.0436     12.9356     83.7354     20.7220
   739.5000      7.8294      2.4146      0.0209     14.2688     84.9153     20.9174
   739.6000      7.8294      2.4066      0.0343     14.7512     85.8552     21.1791
   739.7000      7.8294      2.4113      0.0341     14.4688     85.8434     21.4787
   739.8000      7.8272      2.4215      0.0754     13.8491     86.9649     21.9189
   739.9000      7.8272      2.4265      0.0699     13.5483     89.4148     22.4493
   740.0000      7.8319      2.4225      0.0716     13.7897     92.0080     22.8141
   740.1000      7.8319      2.4170      0.0093     14.1202     93.7291     22.7423
   740.2000      7.8319      2.4166      0.0423     14.1477     91.5536     22.2976
   740.3000      7.8318      2.4195      0.0252     13.9698     84.1759     21.8296
   740.4000      7.8318      2.4237      0.0532     13.7140     76.7994     21.5377
   740.5000      7.8243      2.4270      0.0581     13.5150     73.1847     21.1802
   740.6000      7.8243      2.4313      0.0345     13.2533     71.4730     20.4065
   740.7000      7.8243      2.4440      0.0717     12.4872     72.6624     19.6273
   740.8000      7.8135      2.4627      0.0607     11.3539     78.5749     19.4963
   740.9000      7.8135      2.4808      0.1055     10.2542     85.3894     19.8361
   741.0000      7.8055      2.4970      0.0853      9.2756     89.7022     19.9094
   741.1000      7.8055      2.5145      0.0672      8.2107     90.8319     19.4057
   741.2000      7.8055      2.5432      0.0513      6.4747     87.1832     18.7659
   741.3000      7.7927      2.5831      0.0693      4.0532     79.6924     18.4519
   741.4000      7.7927      2.6179      0.1184      1.9474     72.3960     18.2478
   741.5000      7.7861      2.6376      0.1299      0.7506     67.8214     17.7312
   741.6000      7.7861      2.6476      0.1034      0.1479     66.9031     16.8585
   741.7000      7.7861      2.6593      0.1016     -0.5615     69.3208     15.9444
   741.8000      7.7855      2.6841      0.0682     -2.0679     72.9738     15.3351
   741.9000      7.7855      2.7104      0.1371     -3.6614     76.7883     15.0900
   742.0000      7.7794      2.7111      0.0944     -3.7036     80.2337     14.8384
   742.1000      7.7794      2.6859      0.0809     -2.1774     81.6820     14.3127
   742.2000      7.7794      2.6555      0.0645     -0.3339     80.7897     13.7548
   742.3000      7.7860      2.6388      0.0043      0.6780     78.8239     13.1997
   742.4000      7.7860      2.6368      0.0604      0.7993     76.4289     12.4845
   742.5000      7.7901      2.6340      0.0444      0.9714     74.7189     12.0171
   742.6000      7.7901      2.6293      0.0189      1.2522     76.5800     12.0448
   742.7000      7.7901      2.6300      0.0495      1.2116     81.4458     12.1970
   742.8000      7.7905      2.6353      0.0501      0.8909     84.4888     12.3420
   742.9000      7.7905      2.6426      0.0765      0.4511     85.3165     12.6388
   743.0000      7.7911      2.6424      0.0837      0.4625     86.5844     13.0159
   743.1000      7.7911      2.6235      0.0798      1.6087     86.3365     13.4725
   743.2000      7.7911      2.5944     -0.0011      3.3692     83.1910     14.2211
   743.3000      7.7945      2.5779     -0.0014      4.3696     82.6273     15.1538
   743.4000      7.7945      2.5761      0.0432      4.4775     88.5559     15.8462
   743.5000      7.7896      2.5717      0.0826      4.7449     96.3214     16.0719
   743.6000      7.7896      2.5602      0.0581      5.4437    100.9812     16.1718
   743.7000      7.7896      2.5506      0.0390      6.0229    102.2340     16.7909
   743.8000      7.7904      2.5455      0.0275      6.3320    101.5709     17.9794
   743.9000      7.7904      2.5399      0.0414      6.6708    103.0094     19.1356
   744.0000      7.8165      2.5316      0.0533      7.1766    108.4551     19.9170
   744.1000      7.8165      2.5205      0.0377      7.8465    112.9022     20.5314
   744.2000      7.8165      2.5005      0.0535      9.0627    113.0420     20.9876
   744.3000      7.8239      2.4717      0.0059     10.8056    112.8858     21.3453
   744.4000      7.8239      2.4460     -0.0037     12.3656    115.5147     21.8893
   744.5000      7.8217      2.4307     -0.0041     13.2899    116.8272     22.3999
   744.6000      7.8217      2.4318     -0.0059     13.2231    113.4000     22.5939
   744.7000      7.8217      2.4479      0.0078     12.2460    108.8613     22.4549
   744.8000      7.8161      2.4678      0.0323     11.0450    106.4417     21.8843
   744.9000      7.8161      2.4840      0.0668     10.0581    104.9196     21.1367
   745.0000      7.8131      2.4912      0.0855      9.6224    102.7141     20.6261
   745.1000      7.8131      2.4858      0.0533      9.9522     99.4085     20.3255
   745.2000      7.8131      2.4764      0.0691     10.5189     95.0385     20.0470
   745.3000      7.8042      2.4732      0.0581     10.7169     91.5746     20.1026
   745.4000      7.8042      2.4795      0.0172     10.3313     91.2514     20.6099
   745.5000      7.8074      2.4908      0.1012      9.6486     93.7110     21.0645
   745.6000      7.8074      2.4973      0.0442      9.2559     95.0011     21.2200
   745.7000      7.8074      2.4985      0.0701      9.1843     93.1610     21.3247
   745.8000      7.8101      2.4991      0.0760      9.1478     92.0657     21.6227
   745.9000      7.8101      2.4955      0.0857      9.3643     93.0830     22.0298
   746.0000      7.8114      2.4777      0.0619     10.4428     93.9553     21.9456
   746.1000      7.8114      2.4525      0.0258     11.9671     95.5146     21.0477
   746.2000      7.8114      2.4441      0.0049     12.4814     96.6250     20.0192
   746.3000      7.8117      2.4543      0.0574     11.8581     93.5818     19.6232
   746.4000      7.8117      2.4648      0.0441     11.2218     88.6282     19.8969
   746.5000      7.8128      2.4681      0.0755     11.0239     86.8216     20.5637
   746.6000      7.8128      2.4643      0.0355     11.2575     87.0772     21.1918
   746.7000      7.8128      2.4548      0.0886     11.8291     85.4738     21.2046
   746.8000      7.8128      2.4430      0.0712     12.5472     82.3453     20.5058
   746.9000      7.8128      2.4344      0.0527     13.0678     80.4492     19.9590
   747.0000      7.8116      2.4340      0.0622     13.0924     80.3247     20.3052
   747.1000      7.8116      2.4399      0.0716     12.7333     79.7962     21.0951
   747.2000      7.8116      2.4473      0.0604     12.2832     78.5338     21.4777
   747.3000      7.8112      2.4517      0.0638     12.0210     79.2927     21.3432
   747.4000      7.8112      2.4500      0.0747     12.1191     81.6150     21.1307
   747.5000      7.8175      2.4452      0.0666     12.4140     82.8840     21.3043
   747.6000      7.8175      2.4391      0.0811     12.7808     83.1954     21.9047
   747.7000      7.8175      2.4293      0.0524     13.3786     83.2599     22.2750
   747.8000      7.8189      2.4169      0.0326     14.1287     83.0958     21.8904
   747.9000      7.8189      2.4054      0.0433     14.8244     83.6933     21.2702
   748.0000      7.8165      2.3989      0.0083     15.2184     84.4880     21.1431
   748.1000      7.8165      2.4012      0.0249     15.0787     84.9841     21.4624
   748.2000      7.8165      2.4091      0.0643     14.6010     85.7788     21.8666
   748.3000      7.8209      2.4195      0.0180     13.9695     84.9539     22.3221
   748.4000      7.8209      2.4291      0.1057     13.3872     82.8838     22.7379
   748.5000      7.8255      2.4282      0.0667     13.4417     83.4868     22.7934
   748.6000      7.8255      2.4188      0.0454     14.0099     84.9639     22.3094
   748.7000      7.8255      2.4142      0.0200     14.2905     84.3476     21.4749
