~Version Information
VERS.                      2.0: CWLS Log ASCII Standard - VERSION 2.0
WRAP.                       NO: One line per depth step
~Well Information Block
STRT.FT                -8.5000: 
STOP.FT              2823.2500: 
STEP.FT                 0.2500: 
NULL.                -999.2500: 
COMP.          Pioneer Natural Resources: COMPANY
WELL.                AMX 13-13: WELL
FLD.           Purgatorie River: FIELD
LOC.           2316' FSL & 865' FWL--: LOCATION
PROV.                       CO: PROVINCE
CNTY.               Las Animas: COUNTRY
SRVC.          Patterson Wireline: SERVICE COMPANY
DATE.          Tue Dec 27 10:40:58 2005: LOG DATE
UWI.           05 071 08630 00: UNIQUE WELL ID
~Curve Information Block
DEPT.FT            0 000 00 00: Depth
CCL.                          : Casing Collar Locator
TT3.usec                      : CBL 3' Travel Time
AMP3.mV                       : CBL 3' Amplitude
GR.GAPI                       : Gamma Ray
~Parameter Information Block
~A  Depth       CCL         TT3         AMP3         GR     
# ...
  1499.0000      0.0000    446.2279     11.1093    161.0500
  1499.2500      0.0000    485.9810     10.2670    161.5580
  1499.5000      0.0000    536.5948      9.5369    157.0345
  1499.7500      0.0000    586.5839      8.9409    148.9963
  1500.0000      0.0000    623.3441      8.4792    140.3077
  1500.2500      0.0000    639.1120      8.1450    133.2897
  1500.5000      0.0000    634.5703      7.9276    128.9702
  1500.7500      0.0000    618.4908      7.8120    127.2614
  1501.0000      0.0000    604.3972      7.7775    127.2337
  1501.2500      0.0000    604.7896      7.7961    127.6775
  1501.5000      0.0000    624.0759      7.8339    128.1423
  1501.7500      0.0000    655.9507      7.8594    129.1542
  1502.0000      0.0000    689.1852      7.8515    130.7183
  1502.2500      0.0000    715.9120      7.8034    131.1334
  1502.5000      0.0000    734.2058      7.7235    128.5684
  1502.7500      0.0000    745.2729      7.6297    123.8215
  1503.0000      0.0000    750.6187      7.5369    120.1921
  1503.2500      0.0000    751.2664      7.4480    119.9927
  1503.5000      0.0000    748.0302      7.3576    121.8622
  1503.7500      0.0000    741.8942      7.2639    122.2206
  1504.0000      0.0000    734.0171      7.1746    119.0523
  1504.2500      0.0000    725.2697      7.1026    113.5310
  1504.5000      0.0000    716.3740      7.0582    108.0862
  1504.7500      0.0000    709.1497      7.0443    103.8839
  1505.0000      0.0000    707.0845      7.0544    100.4058
  1505.2500      0.0000    713.3151      7.0757     96.6133
  1505.5000      0.0000    727.3553      7.0975     91.9715
  1505.7500      0.0000    744.3084      7.1202     86.6461
  1506.0000      0.0000    758.1030      7.1533     81.2305
  1506.2500      0.0000    765.5396      7.2041     76.5457
  1506.5000      0.0000    766.9068      7.2697     73.4584
  1506.7500      0.0000    763.6389      7.3366     72.3896
  1507.0000      0.0000    756.9607      7.3881     72.7869
  1507.2500      0.0000    748.6422      7.4136     73.2949
  1507.5000      0.0000    741.4078      7.4130     72.7271
  1507.7500      0.0000    737.6625      7.3949     71.0199
  1508.0000      0.0000    738.0706      7.3709     69.2758
  1508.2500      0.0000    741.4570      7.3536     68.7938
  1508.5000      0.0000    745.5389      7.3540     69.8686
  1508.7500      0.0000    747.7180      7.3754     71.4401
  1509.0000      0.0000    746.0854      7.4083     71.9729
  1509.2500      0.0000    740.5914      7.4351     70.7940
  1509.5000      0.0000    733.3525      7.4440     68.7011
  1509.7500      0.0000    727.5404      7.4381     67.3230
  1510.0000      0.0000    725.5300      7.4333     67.7729
  1510.2500      0.0000    727.4435      7.4450     69.7513
  1510.5000      0.0000    730.8866      7.4755     71.9083
  1510.7500      0.0000    732.4146      7.5135     73.1396
  1511.0000      0.0000    730.1323      7.5442     73.4865
  1511.2500      0.0000    725.0445      7.5600     73.7284
  1511.5000      0.0000    719.7011      7.5641     74.3105
  1511.7500      0.0000    715.8892      7.5662     74.9221
  1512.0000      0.0000    713.7891      7.5765     74.9797
  1512.2500      0.0000    712.6130      7.6018     74.1578
  1512.5000      0.0000    711.3364      7.6433     72.4038
  1512.7500      0.0000    708.9810      7.6973     69.8796
  1513.0000      0.0000    704.8553      7.7551     67.1175
  1513.2500      0.0000    699.0546      7.8082     64.7609
  1513.5000      0.0000    692.7872      7.8527     62.8055
  1513.7500      0.0000    687.9718      7.8907     60.6424
  1514.0000      0.0000    686.2621      7.9242     58.2131
  1514.2500      0.0000    688.2579      7.9519     56.4110
  1514.5000      0.0000    693.2640      7.9709     55.8935
  1514.7500      0.0000    699.5726      7.9804     56.1375
  1515.0000      0.0000    705.2715      7.9830     56.1882
  1515.2500      0.0000    709.2264      7.9841     55.9958
  1515.5000      0.0000    711.5295      7.9914     56.5776
  1515.7500      0.0000    713.2548      8.0114     58.7217
  1516.0000      0.0000    716.0988      8.0438     61.7635
  1516.2500      0.0000    722.1113      8.0791     64.0767
  1516.5000      0.0000    732.8520      8.1054     64.8179
  1516.7500      0.0000    747.7446      8.1189     64.7357
  1517.0000      0.0000    763.0013      8.1260     65.1779
  1517.2500      0.0000    772.9872      8.1370     66.6538
  1517.5000      0.0000    773.7147      8.1605     68.5087
  1517.7500      0.0000    765.8057      8.2026     69.7520
  1518.0000      0.0000    754.2475      8.2664     69.9901
  1518.2500      0.0000    744.6495      8.3470     69.5676
  1518.5000      0.0000    739.0079      8.4312     68.9749
  1518.7500      0.0000    735.1182      8.5035     68.2589
  1519.0000      0.0000    729.9975      8.5573     67.0866
  1519.2500      0.0000    722.9371      8.5984     65.4516
  1519.5000      0.0000    715.0192      8.6372     64.2919
  1519.7500      0.0000    707.1932      8.6678     65.0735
  1520.0000      0.0000    700.0193      8.6444     68.3689
  1520.2500      0.0000    694.4324      8.4881     72.8564
  1520.5000      0.0000    691.2145      8.1495     76.0821
  1520.7500      0.0000    689.3182      7.6821     76.3830
  1521.0000      0.0000    685.6078      7.2282     73.9917
  1521.2500      0.0000    677.4932      6.9102     70.3881
  1521.5000      0.0000    666.0520      6.7497     67.0108
  1521.7500      2.0000    655.6567      6.6974     64.6438
  1522.0000     -2.0000    650.1460      6.7139     63.5404
  1522.2500      0.0000    650.3948      6.8100     63.6819
  1522.5000      0.0000    655.0643      7.0327     64.8472
  1522.7500      0.0000    661.1820      7.4177     66.4962
  1523.0000      0.0000    664.0367      7.9241     67.9838
  1523.2500      0.0000    659.7296      8.4059     69.3648
  1523.5000      0.0000    649.4781      8.6888     71.8447
  1523.7500      0.0000    640.1627      8.7035     76.9098
  1524.0000      0.0000    639.2231      8.5317     84.9421
  1524.2500      0.0000    648.8739      8.3196     94.7654
  1524.5000      0.0000    665.0562      8.1697    104.4318
  1524.7500      0.0000    680.9332      8.1064    112.6513
  1525.0000      0.0000    690.8491      8.1042    119.7253
  1525.2500      0.0000    692.2203      8.1274    126.9943
  1525.5000      0.0000    685.9025      8.1547    135.2207
  1525.7500      0.0000    675.6564      8.1804    143.4881
  1526.0000      0.0000    666.0101      8.2013    149.5845
  1526.2500      0.0000    659.1388      8.2061    151.4643
  1526.5000      0.0000    653.5912      8.1807    148.7000
  1526.7500      0.0000    646.8521      8.1195    142.9192
  1527.0000      0.0000    639.3954      8.0319    136.7093
  1527.2500      0.0000    635.3621      7.9386    131.6282
  1527.5000      0.0000    638.5571      7.8619    127.1483
  1527.7500      0.0000    648.3711      7.8161    121.6827
  1528.0000      0.0000    660.3633      7.8046    114.4901
  1528.2500      0.0000    670.3654      7.8223    106.2766
  1528.5000      0.0000    677.1680      7.8622     98.3310
  1528.7500      0.0000    681.6696      7.9164     91.6589
  1529.0000      0.0000    684.6899      7.9724     86.6322
  1529.2500      0.0000    686.1933      8.0130     82.9917
  1529.5000      0.0000    686.1910      8.0270     80.4302
  1529.7500      0.0000    685.5252      8.0198     79.1737
  1530.0000      0.0000    685.2573      8.0105     79.3472
  1530.2500      0.0000    685.4800      8.0201     79.8217
  1530.5000      0.0000    685.1841      8.0619     78.7554
  1530.7500      0.0000    683.3252      8.1412     75.6366
  1531.0000      0.0000    679.7472      8.2519     72.0834
  1531.2500      0.0000    675.2208      8.3702     70.3032
  1531.5000      0.0000    671.0602      8.4599     71.1319
  1531.7500      0.0000    668.5276      8.4942     73.8516
  1532.0000      0.0000    667.8404      8.4721     77.6331
  1532.2500      0.0000    667.6398      8.4119     82.5830
