~Version Information
VERS.                      2.0: CWLS Log ASCII Standard - VERSION 2.0
WRAP.                       NO: One line per depth step
~Well Information Block
STRT.FT               875.0000: 
STOP.FT              2054.5000: 
STEP.FT                 0.2500: 
NULL.                -999.2500: 
COMP.          Pioneer Natural Resources: COMPANY
WELL.          Woodstock 43-19: WELL
FLD.           Purgatoire River: FIELD
LOC.           2195' FSL & 250' FEL: LOCATION
CNTY.               Las Animas: COUNTY
SRVC.                Patterson: SERVICE COMPANY
DATE.          Thu Feb 02 03:08:19 2006: LOG DATE
UWI.           05 071 08677 00: UNIQUE WELL ID
STAT.                 Colorado: STATE
~Curve Information Block
DEPT.FT            0 000 00 00: Depth
SN.Ohm-m                      : IEL Short Normal
SP.mV                         : IEL Spontaneous Potential
DIR.Ohm-m                     : IEL Induction Resistivity
GR.GAPI                       : Gamma Ray
~Parameter Information Block
~A  Depth        SN          SP         DIR          GR     
# ...
  2014.0000     18.3233     53.4077     15.2516    102.1233
  2014.2500     17.2620     53.4400     14.7409    104.0510
  2014.5000     16.6218     53.3903     14.2805    106.1348
  2014.7500     16.4174     53.2591     13.8575    106.0727
  2015.0000     16.4648     53.0717     13.4678    103.5917
  2015.2500     16.4355     52.8722     13.1220    101.2876
  2015.5000     16.1412     52.7090     12.8429     99.3147
  2015.7500     15.7154     52.6153     12.6552     99.9722
  2016.0000     15.4185     52.5970     12.5754    103.6707
  2016.2500     15.3484     52.6318     12.6039    106.8539
  2016.5000     15.4312     52.6808     12.7237    110.6902
  2016.7500     15.5655     52.7053     12.9034    111.9868
  2017.0000     15.6699     52.6782     13.1043    111.8584
  2017.2500     15.6554     52.5878     13.2921    110.5213
  2017.5000     15.4704     52.4375     13.4476    107.1899
  2017.7500     15.2067     52.2469     13.5721    104.7590
  2018.0000     15.0366     52.0503     13.6830    102.3505
  2018.2500     15.0535     51.8876     13.8021    102.1569
  2018.5000     15.2889     51.7881     13.9449    103.4180
  2018.7500     15.7713     51.7596     14.1157    104.2204
  2019.0000     16.4494     51.7880     14.3056    103.9917
  2019.2500     17.1271     51.8506     14.4933    103.0745
  2019.5000     17.5665     51.9307     14.6485    101.9259
  2019.7500     17.6965     52.0244     14.7393    101.8970
  2020.0000     17.6949     52.1376     14.7467    103.1552
  2020.2500     17.8073     52.2779     14.6770    104.7899
  2020.5000     18.0786     52.4474     14.5636    107.9746
  2020.7500     18.3237     52.6367     14.4523    109.9030
  2021.0000     18.3270     52.8233     14.3819    111.2526
  2021.2500     17.9806     52.9794     14.3732    111.1469
  2021.5000     17.3267     53.0858     14.4295    111.0534
  2021.7500     16.5848     53.1385     14.5444    111.9390
  2022.0000     16.0328     53.1439     14.7032    114.5006
  2022.2500     15.7667     53.1108     14.8778    115.9304
  2022.5000     15.6550     53.0490     15.0184    115.6220
  2022.7500     15.5454     52.9759     15.0606    113.3904
  2023.0000     15.4140     52.9183     14.9581    108.2801
  2023.2500     15.3173     52.9053     14.7205    105.0564
  2023.5000     15.2987     52.9599     14.4174    102.2227
  2023.7500     15.3398     53.0946     14.1372    101.8655
  2024.0000     15.3740     53.3106     13.9407    103.0470
  2024.2500     15.3836     53.5941     13.8423    104.5198
  2024.5000     15.4572     53.9129     13.8199    106.8014
  2024.7500     15.6823     54.2200     13.8364    107.5561
  2025.0000     15.9852     54.4689     13.8568    106.3483
  2025.2500     16.1629     54.6341     13.8554    104.1364
  2025.5000     16.1092     54.7186     13.8156    100.6634
  2025.7500     15.9516     54.7421     13.7301     99.5239
  2026.0000     15.8973     54.7243     13.6045    100.4138
  2026.2500     15.9589     54.6790     13.4596    102.4608
  2026.5000     15.9421     54.6156     13.3259    107.0910
  2026.7500     15.7131     54.5375     13.2312    111.1130
  2027.0000     15.3574     54.4397     13.1892    118.1695
  2027.2500     15.0630     54.3107     13.1953    122.6761
  2027.5000     14.8998     54.1420     13.2318    126.7970
  2027.7500     14.7817     53.9368     13.2773    126.8735
  2028.0000     14.6278     53.7136     13.3153    123.5733
  2028.2500     14.4725     53.5002     13.3386    120.3834
  2028.5000     14.4517     53.3212     13.3492    116.1945
  2028.7500     14.6612     53.1869     13.3563    114.3260
  2029.0000     14.9834     53.0905     13.3717    112.6857
  2029.2500     15.1868     53.0164     13.4051    112.0147
  2029.5000     15.2211     52.9519     13.4567    111.5548
  2029.7500     15.2299     52.8943     13.5141    111.9320
  2030.0000     15.3121     52.8463     13.5552    113.7423
  2030.2500     15.4593     52.8064     13.5594    115.2359
  2030.5000     15.6224     52.7654     13.5194    116.4453
  2030.7500     15.7381     52.7135     13.4450    116.2715
  2031.0000     15.7864     52.6518     13.3557    115.6277
  2031.2500     15.7992     52.5970     13.2705    115.8885
  2031.5000     15.7745     52.5750     13.2006    117.7689
  2031.7500     15.6764     52.6058     13.1473    119.2976
  2032.0000     15.5322     52.6904     13.1016    120.0440
  2032.2500     15.4183     52.8096     13.0446    118.8300
  2032.5000     15.3375     52.9368     12.9511    115.0387
  2032.7500     15.1980     53.0543     12.7999    112.3012
  2033.0000     14.9621     53.1603     12.5860    109.5487
  2033.2500     14.7444     53.2660     12.3260    108.9161
  2033.5000     14.6601     53.3881     12.0481    109.5111
  2033.7500     14.6324     53.5401     11.7759    110.7136
  2034.0000     14.5263     53.7247     11.5175    112.9006
  2034.2500     14.3953     53.9296     11.2673    113.3270
  2034.5000     14.3454     54.1322     11.0172    108.5786
  2034.7500     14.2938     54.3099     10.7659     99.5249
  2035.0000     14.1110     54.4499     10.5213     76.3238
  2035.2500     13.7892     54.5523     10.2954     57.0142
  2035.5000     13.3512     54.6241     10.0970     29.9394
  2035.7500     12.8299     54.6688      9.9294     16.7236
  2036.0000     12.3564     54.6836      9.7895      5.4462
  2036.2500     12.0700     54.6696      9.6709      2.1666
  2036.5000     11.9130     54.6396      9.5670      0.4136
  2036.7500     11.6735     54.6141      9.4751      0.1127
  2037.0000     11.2767     54.6099      9.3965      0.0099
  2037.2500     10.8906     54.6320      9.3352      0.0000
  2037.5000     10.7219     54.6738      9.2957   -999.2500
  2037.7500     10.8300     54.7211      9.2825   -999.2500
  2038.0000     11.1601     54.7548      9.3019   -999.2500
  2038.2500     11.6288     54.7551      9.3612   -999.2500
  2038.5000     12.1377     54.7068      9.4684   -999.2500
  2038.7500     12.5824     54.6059      9.6301   -999.2500
  2039.0000     12.8782     54.4613      9.8491   -999.2500
  2039.2500     13.0460     54.2920     10.1217   -999.2500
  2039.5000     13.2365     54.1206     10.4334   -999.2500
  2039.7500     13.5835     53.9667     10.7590   -999.2500
  2040.0000     14.1065     53.8441     11.0681   -999.2500
  2040.2500     14.6997     53.7608     11.3343   -999.2500
  2040.5000     15.2396     53.7184     11.5428   -999.2500
  2040.7500     15.7784     53.7092     11.6919   -999.2500
  2041.0000     16.4021     53.7138     11.7897   -999.2500
  2041.2500     16.9641     53.7091     11.8523   -999.2500
  2041.5000     17.2524     53.6837     11.8775   -999.2500
  2041.7500     17.2221     53.6467     11.9420   -999.2500
  2042.0000     16.9334     53.6182     12.0429   -999.2500
  2042.2500     16.4709     53.6137     12.1834   -999.2500
  2042.5000     15.9341     53.6370     12.3367   -999.2500
  2042.7500     15.3821     53.6850     12.4504   -999.2500
  2043.0000     14.8070     53.7505     12.4699   -999.2500
  2043.2500     14.2394     53.8206     12.3691   -999.2500
  2043.5000     13.7910     53.8764     12.1712   -999.2500
  2043.7500     13.5174     53.8965     11.9421   -999.2500
  2044.0000     13.3558     53.8661     11.7757   -999.2500
  2044.2500     13.2331     53.7846     11.7900   -999.2500
  2044.5000     13.1434     53.6680     12.1441   -999.2500
  2044.7500     13.0919     53.5399     13.0759   -999.2500
  2045.0000     13.0359     53.4189     15.0185   -999.2500
  2045.2500     12.8941     53.3101     18.5828   -999.2500
  2045.5000     12.5847     53.2062     25.0992   -999.2500
  2045.7500     12.1124     53.0954     37.0383   -999.2500
  2046.0000     11.6292     52.9700     58.7459   -999.2500
  2046.2500     11.3128     52.8323     95.5541   -999.2500
  2046.5000     11.2026     52.6926    146.2962   -999.2500
  2046.7500     11.2337     52.5610    193.5843   -999.2500
  2047.0000     11.3341     52.4367    220.4234   -999.2500
  2047.2500     11.4427     52.3035    231.9969   -999.2500
