~Version Information
VERS.                      2.0: CWLS Log ASCII Standard - VERSION 2.0
WRAP.                       NO: One line per depth step
~Well Information Block
STRT.FT               529.2000: 
STOP.FT              1325.2000: 
STEP.FT                 0.1000: 
NULL.                -999.2500: 
COMP.          Pioneer Natural Resources: COMPANY
WELL.            Erin 21-15 Tr: WELL
FLD.           Purgatoire River: FIELD
LOC.           1217' FNL & 2284' FWL--: LOCATION
CNTY.               Las Animas: COUNTY
SRVC.                Patterson: SERVICE COMPANY
DATE.          Mon Mar 06 14:26:48 2006: LOG DATE
UWI.           05 071 08712 00: UNIQUE WELL ID
STAT.                 Colorado: STATE
~Curve Information Block
DEPT.FT            0 000 00 00: Depth
DCAL.in                       : CDL Caliper
RHOB.g/cc                     : CDL Bulk Density
RHOC.g/cc                     : CDL Density Correction
DPOR.pu                       : CDL Density Porosity
GR.GAPI                       : Gamma Ray
~Parameter Information Block
~A  Depth       DCAL        RHOB        RHOC        DPOR         GR     
# ...
  1044.4000      7.9689      2.5473      0.0685      6.2241    117.0080
  1044.5000      7.9683      2.5407      0.0157      6.6247    115.0912
  1044.6000      7.9683      2.5364      0.0484      6.8851    112.1672
  1044.7000      7.9683      2.5390      0.0607      6.7271    107.7967
  1044.8000      7.9715      2.5421      0.0373      6.5401    103.8125
  1044.9000      7.9715      2.5437      0.0512      6.4426    103.6801
  1045.0000      7.9727      2.5442      0.0332      6.4098    108.5372
  1045.1000      7.9727      2.5445      0.0621      6.3931    115.9590
  1045.2000      7.9727      2.5475      0.0610      6.2121    123.8803
  1045.3000      7.9647      2.5490      0.0790      6.1183    128.2646
  1045.4000      7.9647      2.5405      0.0489      6.6390    124.0358
  1045.5000      7.9520      2.5341      0.0391      7.0233    114.3885
  1045.6000      7.9520      2.5489      0.0566      6.1277    110.0019
  1045.7000      7.9520      2.5767      0.0729      4.4422    113.7844
  1045.8000      7.9419      2.5985      0.0791      3.1239    118.4384
  1045.9000      7.9419      2.6059      0.0820      2.6700    120.2815
  1046.0000      7.9325      2.6010      0.0573      2.9725    120.8694
  1046.1000      7.9325      2.5948      0.0574      3.3449    118.3953
  1046.2000      7.9325      2.5981      0.0717      3.1481    112.3305
  1046.3000      7.9234      2.6047      0.1054      2.7473    107.0306
  1046.4000      7.9234      2.6034      0.0639      2.8249    105.4057
  1046.5000      7.9185      2.5983      0.0491      3.1333    108.3392
  1046.6000      7.9185      2.5975      0.0148      3.1822    114.5468
  1046.7000      7.9185      2.6001      0.0528      3.0219    121.2661
  1046.8000      7.9170      2.6040      0.0164      2.7872    126.3701
  1046.9000      7.9170      2.6130      0.0598      2.2394    128.2529
  1047.0000      7.9163      2.6279      0.0634      1.3379    127.7142
  1047.1000      7.9163      2.6351      0.1207      0.9033    126.6271
  1047.2000      7.9163      2.6224      0.0806      1.6735    127.4630
  1047.3000      7.9130      2.6040      0.0687      2.7877    131.3813
  1047.4000      7.9130      2.5958      0.0374      3.2873    132.3899
  1047.5000      7.9119      2.5863      0.0615      3.8585    126.6786
  1047.6000      7.9119      2.5638     -0.0199      5.2241    118.7088
  1047.7000      7.9119      2.5369     -0.0150      6.8545    113.6655
  1047.8000      7.9214      2.5135     -0.0454      8.2740    114.5425
  1047.9000      7.9214      2.4972     -0.0399      9.2620    119.7809
  1048.0000      7.9345      2.4933     -0.0169      9.4958    125.2072
  1048.1000      7.9345      2.4998      0.0094      9.1044    126.8096
  1048.2000      7.9345      2.5090      0.0097      8.5431    126.2264
  1048.3000      7.9416      2.5167      0.0229      8.0780    127.2990
  1048.4000      7.9416      2.5173      0.0361      8.0395    127.8816
  1048.5000      7.9444      2.5080      0.0505      8.6050    124.0634
  1048.6000      7.9444      2.4996     -0.0049      9.1130    115.8497
  1048.7000      7.9444      2.5059      0.0551      8.7359    107.8007
  1048.8000      7.9428      2.5220      0.0478      7.7549    105.7415
  1048.9000      7.9428      2.5343      0.0802      7.0111    109.2252
  1049.0000      7.9341      2.5318      0.0721      7.1652    110.2299
  1049.1000      7.9341      2.5109      0.0599      8.4312    106.2450
  1049.2000      7.9341      2.4852      0.0311      9.9903    104.0925
  1049.3000      7.9182      2.4740      0.0361     10.6656    108.0667
  1049.4000      7.9182      2.4809      0.0711     10.2469    112.7607
  1049.5000      7.9033      2.4981      0.0932      9.2036    113.0169
  1049.6000      7.9033      2.5215      0.0713      7.7875    111.1589
  1049.7000      7.9033      2.5438      0.1131      6.4363    110.5141
  1049.8000      7.8968      2.5540      0.1095      5.8160    109.9250
  1049.9000      7.8968      2.5551      0.0919      5.7516    107.0209
  1050.0000      7.9014      2.5555      0.0824      5.7245    105.0914
  1050.1000      7.9014      2.5536      0.0973      5.8422    110.8292
  1050.2000      7.9014      2.5491      0.0550      6.1142    121.2502
  1050.3000      7.9123      2.5469      0.0610      6.2465    124.1196
  1050.4000      7.9123      2.5470      0.0612      6.2429    117.0686
  1050.5000      7.9185      2.5477      0.0547      6.2007    109.3796
  1050.6000      7.9185      2.5448      0.0627      6.3756    104.8945
  1050.7000      7.9185      2.5375      0.0328      6.8207    101.3264
  1050.8000      7.9153      2.5407      0.0262      6.6269     98.9643
  1050.9000      7.9153      2.5604      0.0895      5.4332     97.5465
  1051.0000      7.8994      2.5764      0.0662      4.4589     97.6181
  1051.1000      7.8994      2.5753      0.0816      4.5247     98.3654
  1051.2000      7.8994      2.5639      0.1030      5.2175     96.7851
  1051.3000      7.8850      2.5523      0.0797      5.9193     96.3014
  1051.4000      7.8850      2.5459      0.0694      6.3090    100.3450
  1051.5000      7.9136      2.5446      0.0752      6.3866    108.3662
  1051.6000      7.9136      2.5467      0.0621      6.2614    120.4413
  1051.7000      7.9136      2.5526      0.0225      5.9059    131.4807
  1051.8000      7.9828      2.5563      0.0964      5.6770    134.3196
  1051.9000      7.9828      2.5515      0.0410      5.9684    132.2186
  1052.0000      8.0393      2.5441      0.0674      6.4198    130.6490
  1052.1000      8.0393      2.5385      0.0308      6.7584    127.3121
  1052.2000      8.0393      2.5391      0.0291      6.7229    121.1115
  1052.3000      8.0696      2.5495      0.0560      6.0886    117.1923
  1052.4000      8.0696      2.5641      0.0429      5.2082    120.0130
  1052.5000      8.0881      2.5668      0.0672      5.0431    126.6294
  1052.6000      8.0881      2.5494      0.0233      6.0973    128.8429
  1052.7000      8.0881      2.5366     -0.0348      6.8756    125.0148
  1052.8000      8.0999      2.5509      0.0263      6.0066    123.1598
  1052.9000      8.0999      2.5685      0.0615      4.9391    128.0694
  1053.0000      8.1036      2.5595      0.0141      5.4866    133.3635
  1053.1000      8.1036      2.5383      0.0031      6.7696    131.2780
  1053.2000      8.1036      2.5331      0.0124      7.0822    125.6859
  1053.3000      8.1034      2.5411      0.0657      6.5977    124.5245
  1053.4000      8.1034      2.5412      0.0650      6.5917    126.6407
  1053.5000      8.1027      2.5271      0.0400      7.4459    128.2914
  1053.6000      8.1027      2.5078      0.0387      8.6199    129.4736
  1053.7000      8.1027      2.4856      0.0288      9.9664    129.2911
  1053.8000      8.1018      2.4500      0.0533     12.1235    128.4869
  1053.9000      8.1018      2.4010     -0.0349     15.0937    130.2112
  1054.0000      8.1033      2.3482      0.0004     18.2882    133.8745
  1054.1000      8.1033      2.2797     -0.0052     22.4432    137.8669
  1054.2000      8.1033      2.1800     -0.0325     28.4873    142.5632
  1054.3000      8.1113      2.0537     -0.0749     36.1409    144.8129
  1054.4000      8.1113      1.9140     -0.1198     44.6041    139.9429
  1054.5000      8.1308      1.7805     -0.1491     52.6974    133.2555
  1054.6000      8.1308      1.6696     -0.1110     59.4182    127.9952
  1054.7000      8.1308      1.5862     -0.1504     64.4700    119.7807
  1054.8000      8.1732      1.5327     -0.0975     67.7149    109.5169
  1054.9000      8.1732      1.5079     -0.0794     69.2162    101.3477
  1055.0000      8.2766      1.5133     -0.0547     68.8879     95.2104
  1055.1000      8.2766      1.5479      0.0398     66.7920     85.7369
  1055.2000      8.2766      1.5943      0.1019     63.9836     72.8481
  1055.3000      8.5009      1.6287      0.1508     61.8942     65.3454
  1055.4000      8.5009      1.6392      0.1369     61.2615     66.7005
  1055.5000      8.7920      1.6305      0.1198     61.7849     70.5408
