~Version Information
VERS.                      2.0: CWLS Log ASCII Standard - VERSION 2.0
WRAP.                       NO: One line per depth step
~Well Information Block
STRT.FT                -8.5000: 
STOP.FT              2823.2500: 
STEP.FT                 0.2500: 
NULL.                -999.2500: 
COMP.          Pioneer Natural Resources: COMPANY
WELL.                AMX 13-13: WELL
FLD.           Purgatorie River: FIELD
LOC.           2316' FSL & 865' FWL--: LOCATION
PROV.                       CO: PROVINCE
CNTY.               Las Animas: COUNTRY
SRVC.          Patterson Wireline: SERVICE COMPANY
DATE.          Tue Dec 27 10:40:58 2005: LOG DATE
UWI.           05 071 08630 00: UNIQUE WELL ID
~Curve Information Block
DEPT.FT            0 000 00 00: Depth
CCL.                          : Casing Collar Locator
TT3.usec                      : CBL 3' Travel Time
AMP3.mV                       : CBL 3' Amplitude
GR.GAPI                       : Gamma Ray
~Parameter Information Block
~A  Depth       CCL         TT3         AMP3         GR     
# ...
   728.5000      0.0000    806.9534      7.5831    134.0962
   728.7500      0.0000    800.5187      7.5066    137.1870
   729.0000      0.0000    796.9385      7.3982    140.8274
   729.2500      0.0000    795.1823      7.2902    144.3901
   729.5000      0.0000    793.5391      7.2079    147.1016
   729.7500      0.0000    790.8502      7.1596    148.2124
   730.0000      0.0000    787.6216      7.1470    147.5249
   730.2500      0.0000    785.6733      7.1789    145.7460
   730.5000      0.0000    786.4391      7.2723    143.7906
   730.7500      0.0000    789.7955      7.4388    141.8166
   731.0000      0.0000    794.4057      7.6732    139.4714
   731.2500      0.0000    798.6895      7.9572    136.9545
   731.5000      0.0000    801.6617      8.2670    135.3250
   731.7500      0.0000    803.6440      8.5784    135.6353
   732.0000      0.0000    806.3325      8.8689    137.9152
   732.2500      0.0000    811.6597      9.1242    141.2535
   732.5000      0.0000    820.3284      9.3401    144.9557
   732.7500      0.0000    831.2341      9.5186    149.1843
   733.0000      0.0000    841.9084      9.6635    154.0765
   733.2500      0.0000    849.5032      9.7782    158.5986
   733.5000      0.0000    851.8372      9.8603    160.8917
   733.7500      0.0000    848.0406      9.8969    159.7110
   734.0000      0.0000    838.7499      9.8690    155.1938
   734.2500      0.0000    826.0128      9.7635    148.6012
   734.5000      0.0000    812.6069      9.5854    142.0439
   734.7500      0.0000    800.7488      9.3623    138.1605
   735.0000      0.0000    791.2175      9.1335    138.7596
   735.2500      0.0000    783.7740      8.9297    143.0728
   735.5000      0.0000    778.1461      8.7606    148.0677
   735.7500      0.0000    774.3207      8.6208    151.2746
   736.0000      0.0000    772.1879      8.5074    152.7307
   736.2500      0.0000    771.4419      8.4281    153.6021
   736.5000      0.0000    771.9929      8.3920    154.0345
   736.7500      0.0000    774.4023      8.3946    153.5552
   737.0000      0.0000    779.7555      8.4129    152.8282
   737.2500      0.0000    788.4896      8.4195    153.3264
   737.5000      0.0000    798.6694      8.4069    155.0563
   737.7500      0.0000    805.8395      8.3955    156.0854
   738.0000      0.0000    805.9866      8.4154    154.9262
   738.2500      0.0000    799.1340      8.4809    152.3274
   738.5000      0.0000    789.3392      8.5843    150.0416
   738.7500      0.0000    781.1245      8.7095    148.6610
   739.0000      0.0000    776.5974      8.8473    147.4474
   739.2500      0.0000    775.5413      9.0002    145.9176
   739.5000      0.0000    776.7707      9.1735    144.8481
   739.7500      0.0000    778.8844      9.3595    145.3546
   740.0000      0.0000    780.7490      9.5351    147.1181
   740.2500      0.0000    782.2691      9.6773    147.9927
   740.5000      0.0000    784.4539      9.7818    145.8016
   740.7500      0.0000    788.0104      9.8654    140.4826
   741.0000      0.0000    791.9322      9.9547    134.3038
   741.2500      0.0000    794.1008     10.0690    129.9286
   741.5000      0.0000    793.4043     10.2079    128.2991
   741.7500      0.0000    790.8033     10.3481    128.2845
   742.0000      0.0000    788.1666     10.4578    128.0436
   742.2500      0.0000    786.4800     10.5157    126.4842
   742.5000      0.0000    785.3171     10.5189    123.5517
   742.7500      0.0000    783.4061     10.4767    119.5151
   743.0000      0.0000    779.3965     10.4034    114.3652
   743.2500      0.0000    772.8300     10.3148    108.1716
   743.5000      0.0000    765.0189     10.2262    102.0828
   743.7500      0.0000    758.5187     10.1494     98.4258
   744.0000      0.0000    754.9055     10.0926     98.9403
   744.2500      0.0000    752.9993     10.0602    102.7257
   744.5000      0.0000    749.9171     10.0492    106.7050
   744.7500      0.0000    744.1454     10.0480    108.3852
   745.0000      0.0000    737.0577     10.0421    107.5108
   745.2500      0.0000    731.0952     10.0199    104.9608
   745.5000      0.0000    727.1774      9.9762    101.2457
   745.7500      0.0000    724.5831      9.9123     96.6843
   746.0000      0.0000    722.7712      9.8349     92.1737
   746.2500      0.0000    722.1708      9.7548     88.8485
   746.5000      0.0000    723.0442      9.6856     86.9837
   746.7500      0.0000    724.3267      9.6418     85.5664
   747.0000      0.0000    724.0699      9.6338     82.9823
   747.2500      0.0000    720.9534      9.6606     78.0869
   747.5000      0.0000    715.4669      9.7106     71.0235
   747.7500      0.0000    709.9135      9.7715     63.4566
   748.0000      0.0000    706.9612      9.8393     57.8421
   748.2500      0.0000    707.6471      9.9169     55.8378
   748.5000      0.0000    710.7751     10.0045     57.0254
   748.7500      0.0000    714.4390     10.0948     59.3758
   749.0000      0.0000    717.7780     10.1799     61.1198
   749.2500      0.0000    720.9317     10.2601     62.0061
   749.5000      0.0000    723.9182     10.3413     62.9110
   749.7500      0.0000    726.3119     10.4259     64.8801
   750.0000      0.0000    727.8179     10.5098     68.5954
   750.2500      0.0000    728.5729     10.5915     74.0242
   750.5000      0.0000    728.8789     10.6800     80.2123
   750.7500      0.0000    728.6636     10.7914     85.8673
   751.0000      0.0000    726.8947     10.9330     90.5323
   751.2500      0.0000    721.3743     11.0950     95.1170
   751.5000      0.0000    710.4572     11.2508    101.1527
   751.7500      0.0000    697.6678     11.3497    109.5088
   752.0000      0.0000    694.6146     11.3034    119.5430
   752.2500      0.0000    713.8282     11.0270    129.0471
   752.5000      0.0000    754.0822     10.5390    135.0774
   752.7500      0.0000    797.4128      9.9911    135.6216
   753.0000      0.0000    826.7450      9.5576    131.1269
   753.2500      0.0000    842.5763      9.3104    124.4328
   753.5000      2.0000    855.1749      9.2182    118.8125
   753.7500      0.0000    864.0128      9.2207    115.8927
   754.0000      0.0000    854.1871      9.2889    115.4423
   754.2500      0.0000    815.1594      9.4417    116.5470
   754.5000      0.0000    756.9368      9.7196    118.1553
   754.7500      0.0000    702.6912     10.1173    118.9274
   755.0000      0.0000    667.9247     10.5442    117.7967
   755.2500      0.0000    651.7258     10.8837    114.9532
   755.5000      0.0000    646.8499     11.0819    111.7386
   755.7500      0.0000    650.6375     11.1553    109.5030
   756.0000      0.0000    662.0548     11.1400    108.8097
   756.2500      0.0000    672.8981     11.0661    109.7736
   756.5000      0.0000    668.3422     10.9614    113.0214
   756.7500      0.0000    637.1764     10.8551    119.8376
   757.0000      0.0000    580.7633     10.7730    130.6502
   757.2500      0.0000    513.2095     10.7287    143.2863
   757.5000      0.0000    452.6847     10.7154    153.4619
   757.7500      0.0000    410.9583     10.7072    157.7270
   758.0000      0.0000    389.2339     10.6800    156.1454
   758.2500      0.0000    381.6172     10.6315    151.9643
   758.5000      0.0000    380.7635     10.5813    148.6615
   758.7500      0.0000    381.1527     10.5497    147.4030
   759.0000      0.0000    379.7074     10.5423    147.1310
   759.2500      0.0000    375.2843     10.5538    146.5352
   759.5000      0.0000    368.3706     10.5798    145.4744
   759.7500      0.0000    361.2611     10.6181    144.5530
   760.0000      0.0000    358.2838     10.6600    143.8190
   760.2500      0.0000    365.9523     10.6865    142.4113
   760.5000      0.0000    392.0731     10.6800    139.5486
   760.7500      0.0000    441.4724     10.6389    135.6095
   761.0000      0.0000    508.7331     10.5799    132.1341
   761.2500      0.0000    575.9775     10.5243    130.7637
   761.5000      0.0000    623.3373     10.4828    132.0683
   761.7500      0.0000    644.7258     10.4532    135.2535
