~Version Information
VERS.                      2.0: CWLS Log ASCII Standard - VERSION 2.0
WRAP.                       NO: One line per depth step
~Well Information Block
STRT.FT               830.0000: 
STOP.FT              1792.5000: 
STEP.FT                 0.1000: 
NULL.                -999.2500: 
COMP.          Pioneer Natural Resources: COMPANY
WELL.           Rolls 14-14 Tr: WELL
FLD.           Purgatoire River: FIELD
LOC.           473' FSL & 817' FWL: LOCATION
PROV.                 Colorado: PROVINCE
CNTY.               Las Animas: COUNTRY
SRVC.                Patterson: SERVICE COMPANY
DATE.          Wed Aug 03 07:11:37 2005: LOG DATE
UWI.           05 071 08454 00: UNIQUE WELL ID
~Curve Information Block
DEPT.FT            0 000 00 00: Depth
DCAL.in                       : CDL Caliper
RHOB.g/cc                     : CDL Bulk Density
RHOC.g/cc                     : CDL Density Correction
DPOR.pu                       : CDL Density Porosity
GR.GAPI                       : Gamma Ray
NPOR.pu                       : Neutron Porosity
~Parameter Information Block
~A  Depth       DCAL        RHOB        RHOC        DPOR         GR         NPOR    
# ...
  1396.4000      8.1055      2.5179      0.0795      8.0085    121.4255     30.0784
  1396.5000      8.0960      2.5723      0.1408      4.7114    130.8584     28.9969
  1396.6000      8.0960      2.5966      0.1343      3.2343    139.5087     28.6040
  1396.7000      8.0960      2.5994      0.0861      3.0648    142.5637     29.1077
  1396.8000      8.1100      2.6049      0.0831      2.7358    138.9284     28.9277
  1396.9000      8.1100      2.6102      0.1134      2.4117    131.3415     27.1280
  1397.0000      8.1271      2.5973      0.0870      3.1945    126.4935     24.9427
  1397.1000      8.1271      2.5702      0.0336      4.8345    129.7725     23.8814
  1397.2000      8.1271      2.5541      0.0286      5.8118    135.6033     24.3321
  1397.3000      8.0862      2.5584      0.0339      5.5520    135.5690     25.3323
  1397.4000      8.0862      2.5646      0.0554      5.1773    131.6311     25.5026
  1397.5000      8.0724      2.5537      0.0915      5.8373    128.7857     25.1569
  1397.6000      8.0724      2.5332      0.0454      7.0759    129.7505     25.5114
  1397.7000      8.0724      2.5252      0.0619      7.5618    135.1892     26.4268
  1397.8000      8.0714      2.5300      0.1258      7.2699    139.8800     27.2624
  1397.9000      8.0714      2.5336      0.0637      7.0546    139.5375     27.7539
  1398.0000      8.0759      2.5354      0.0784      6.9485    137.3093     27.9112
  1398.1000      8.0759      2.5352      0.0552      6.9575    136.2858     28.2286
  1398.2000      8.0759      2.5285      0.0758      7.3638    136.0536     28.8737
  1398.3000      8.0777      2.5174      0.0591      8.0349    133.5743     29.1267
  1398.4000      8.0777      2.5078      0.0556      8.6167    129.6336     28.4657
  1398.5000      8.0981      2.5009      0.0580      9.0368    129.8236     27.6988
  1398.6000      8.0981      2.4922      0.1080      9.5631    134.0607     27.8962
  1398.7000      8.0981      2.4825      0.0485     10.1509    136.3103     28.6802
  1398.8000      8.1101      2.4817      0.0544     10.1988    135.8782     28.4987
  1398.9000      8.1101      2.4951      0.0478      9.3859    135.7694     27.4676
  1399.0000      8.1090      2.5160      0.0820      8.1216    136.5036     27.4681
  1399.1000      8.1090      2.5296      0.0906      7.2959    137.3217     28.5190
  1399.2000      8.1090      2.5291      0.0921      7.3290    136.2539     28.7798
  1399.3000      8.1145      2.5254      0.0518      7.5518    132.9320     28.1534
  1399.4000      8.1145      2.5366      0.0471      6.8721    131.0243     27.8337
  1399.5000      8.1165      2.5682      0.0528      4.9557    135.2416     27.6716
  1399.6000      8.1165      2.6082      0.0852      2.5317    142.4434     27.2808
  1399.7000      8.1165      2.6414      0.0928      0.5219    145.3220     27.5456
  1399.8000      8.1348      2.6674      0.1307     -1.0537    144.8881     28.5716
  1399.9000      8.1348      2.6839      0.1634     -2.0554    146.9551     28.8483
  1400.0000      8.1419      2.6752      0.1496     -1.5289    147.7016     28.0189
  1400.1000      8.1419      2.6396      0.0779      0.6320    139.4508     27.4152
  1400.2000      8.1419      2.5985      0.0381      3.1215    127.6251     27.4404
  1400.3000      8.2011      2.5724     -0.0424      4.7059    121.8631     27.8805
  1400.4000      8.2011      2.5620     -0.0294      5.3335    121.3656     28.4440
  1400.5000      8.1217      2.5557     -0.0223      5.7142    121.3970     28.1610
  1400.6000      8.1217      2.5497     -0.0443      6.0782    121.9473     27.1242
  1400.7000      8.1217      2.5521     -0.0641      5.9310    124.7179     26.3921
  1400.8000      8.0785      2.5602      0.0423      5.4407    129.4083     26.2767
  1400.9000      8.0785      2.5621      0.0066      5.3286    131.0721     26.5317
  1401.0000      8.0923      2.5685      0.0225      4.9411    124.5618     27.1901
  1401.1000      8.0923      2.5934      0.0711      3.4293    113.0314     27.8732
  1401.2000      8.0923      2.6252      0.0652      1.5024    106.7460     27.6993
  1401.3000      8.1215      2.6523      0.0165     -0.1373    109.3318     27.0857
  1401.4000      8.1215      2.6793      0.0198     -1.7762    113.7621     26.8786
  1401.5000      8.1167      2.7034      0.0509     -3.2357    115.9515     26.4889
  1401.6000      8.1167      2.7155      0.0267     -3.9700    118.0937     25.3430
  1401.7000      8.1167      2.7148      0.0578     -3.9274    120.8125     24.1181
  1401.8000      8.0959      2.7013     -0.0053     -3.1070    124.4359     23.3192
  1401.9000      8.0959      2.6787      0.0576     -1.7421    129.1121     23.0896
  1402.0000      8.0883      2.6596     -0.0143     -0.5814    130.4706     23.5109
  1402.1000      8.0883      2.6623     -0.0607     -0.7439    125.5798     24.0570
  1402.2000      8.0883      2.6886     -0.0401     -2.3404    119.4048     24.2761
  1402.3000      8.0914      2.7192      0.0114     -4.1939    117.3002     24.2974
  1402.4000      8.0914      2.7472      0.0228     -5.8891    118.7737     23.9989
  1402.5000      8.1141      2.7818      0.1140     -7.9873    119.6308     23.3100
  1402.6000      8.1141      2.8196      0.1245    -10.2778    115.1372     22.4947
  1402.7000      8.1141      2.8527      0.1035    -12.2826    106.7884     21.5927
  1402.8000      8.1134      2.8703      0.1399    -13.3544    100.2702     20.8155
  1402.9000      8.1134      2.8540      0.0994    -12.3628     94.9863     20.2958
  1403.0000      8.0365      2.8103      0.0030     -9.7137     89.5117     20.0215
  1403.1000      8.0365      2.7701     -0.0044     -7.2797     86.8033     20.0197
  1403.2000      8.0365      2.7449      0.0877     -5.7538     85.3392     19.8571
  1403.3000      8.0330      2.7245      0.0029     -4.5153     81.0530     19.0770
  1403.4000      8.0330      2.7049      0.0433     -3.3267     76.6451     18.3112
  1403.5000      8.0312      2.6875     -0.0030     -2.2715     76.4978     18.1744
  1403.6000      8.0312      2.6722      0.0569     -1.3464     79.8729     18.1732
  1403.7000      8.0312      2.6526      0.0231     -0.1595     83.1780     17.7890
  1403.8000      8.0353      2.6320     -0.0120      1.0925     83.7682     17.1959
  1403.9000      8.0353      2.6220      0.0484      1.6990     82.7541     16.5976
  1404.0000      8.0654      2.6172      0.0402      1.9889     83.1060     16.4185
  1404.1000      8.0654      2.6088      0.0747      2.4981     83.5440     17.2101
  1404.2000      8.0654      2.6076      0.0167      2.5723     81.8071     18.6591
  1404.3000      8.0421      2.6198      0.0603      1.8304     81.8596     19.7955
  1404.4000      8.0421      2.6277      0.0440      1.3496     86.4330     20.1781
  1404.5000      8.0367      2.6295      0.0252      1.2447     89.8564     20.1625
  1404.6000      8.0367      2.6430      0.0569      0.4244     89.9670     20.6018
  1404.7000      8.0367      2.6631      0.0902     -0.7918     91.9473     21.5359
  1404.8000      8.0355      2.6664      0.1100     -0.9910     96.0822     22.0402
  1404.9000      8.0355      2.6461      0.0427      0.2369     99.0892     21.9339
  1405.0000      8.0410      2.6230      0.0123      1.6385    100.7489     21.5622
  1405.1000      8.0410      2.6171      0.0659      1.9914    102.9764     20.8822
  1405.2000      8.0410      2.6242      0.0845      1.5607    106.8410     20.2156
  1405.3000      8.0357      2.6266      0.0587      1.4165    109.7500     20.5463
  1405.4000      8.0357      2.6121      0.0729      2.2995    109.0313     22.3433
  1405.5000      8.0314      2.5908      0.0274      3.5853    107.6503     24.3617
  1405.6000      8.0314      2.5832      0.0662      4.0481    110.0092     24.6655
  1405.7000      8.0314      2.5899      0.0515      3.6408    114.1681     23.3003
  1405.8000      8.0396      2.5983      0.0606      3.1358    115.7064     21.9026
  1405.9000      8.0396      2.6039      0.0093      2.7928    114.7142     21.3972
