~Version Information
VERS.                      2.0: CWLS Log ASCII Standard - VERSION 2.0
WRAP.                       NO: One line per depth step
~Well Information Block
STRT.FT                -9.5000: 
STOP.FT              1401.5000: 
STEP.FT                 0.2500: 
NULL.                -999.2500: 
COMP.          Pioneer Natural Resources: COMPANY
WELL.             John K 12-28: WELL
FLD.           Purgatorie River: FIELD
LOC.           1476' FNL & 465' FWL--: LOCATION
CNTY.               Las Animas: COUNTY
SRVC.          Patterson Wireline: SERVICE COMPANY
DATE.          Fri Apr 28 08:36:46 2006: LOG DATE
UWI.           05 071 08723 00: UNIQUE WELL ID
STAT.                       CO: STATE
~Curve Information Block
DEPT.FT            0 000 00 00: Depth
CCL.                          : Casing Collar Locator
TT3.usec                      : CBL 3' Travel Time
AMP3.mV                       : CBL 3' Amplitude
GR.GAPI                       : Gamma Ray
~Parameter Information Block
~A  Depth       CCL         TT3         AMP3         GR     
# ...
   158.0000      0.0000    872.5537      9.1111     49.6763
   158.2500      0.0000    866.8996      9.3707     51.2230
   158.5000      0.0000    850.8399     10.0530     54.2125
   158.7500      0.0000    824.7434     11.0962     57.9605
   159.0000      0.0000    796.8702     12.1689     61.1646
   159.2500      0.0000    776.3051     12.9263     62.5781
   159.5000      0.0000    766.5861     13.2694     62.3548
   159.7500      0.0000    766.0941     13.3245     62.4389
   160.0000      0.0000    771.4095     13.2504     65.0910
   160.2500      0.0000    779.4425     13.1243     70.8064
   160.5000      0.0000    787.8525     12.9590     77.7903
   160.7500      0.0000    794.7317     12.7552     83.6845
   161.0000      0.0000    798.5269     12.5253     87.7197
   161.2500      0.0000    798.2804     12.2934     90.8729
   161.5000      0.0000    793.7515     12.0881     94.1705
   161.7500      0.0000    786.0760     11.9341     97.5317
   162.0000      0.0000    778.6453     11.8427    100.3045
   162.2500      0.0000    776.0829     11.8063    102.2899
   162.5000      0.0000    780.8417     11.8058    103.8967
   162.7500      0.0000    790.8525     11.8238    105.3258
   163.0000      0.0000    801.0524     11.8529    105.8198
   163.2500      0.0000    807.0978     11.8964    104.2038
   163.5000      0.0000    807.6865     11.9635    100.6210
   163.7500      0.0000    804.3231     12.0654     97.1913
   164.0000      0.0000    799.6407     12.2088     96.2052
   164.2500      0.0000    795.5512     12.3894     97.9632
   164.5000      0.0000    792.3805     12.5897    100.8925
   164.7500      0.0000    789.6206     12.7827    103.2624
   165.0000      0.0000    787.2365     12.9425    104.2185
   165.2500      0.0000    786.0300     13.0559    103.6190
   165.5000      0.0000    787.0523     13.1273    101.5987
   165.7500      0.0000    790.8412     13.1710     98.6614
   166.0000      0.0000    796.6819     13.1978     96.0433
   166.2500      0.0000    802.3067     13.2087     95.2638
   166.5000      0.0000    804.8882     13.1974     96.7396
   166.7500      0.0000    803.0064     13.1595     99.1635
   167.0000      0.0000    797.7286     13.1017    100.7330
   167.2500      0.0000    791.6336     13.0436    100.7241
   167.5000      0.0000    786.8712     13.0054     99.6292
   167.7500      0.0000    784.1296     12.9875     98.2756
   168.0000      0.0000    782.9973     12.9639     97.3001
   168.2500      0.0000    782.7817     12.9004     97.2220
   168.5000      0.0000    782.9445     12.7836     98.5520
   168.7500      0.0000    783.1391     12.6303    101.4961
   169.0000      0.0000    783.1739     12.4724    105.3401
   169.2500      0.0000    783.0332     12.3370    108.4479
   169.5000      0.0000    782.8475     12.2404    109.4731
   169.7500      0.0000    782.7266     12.1872    108.6220
   170.0000      0.0000    782.5545     12.1635    107.2269
   170.2500      0.0000    781.9224     12.1378    106.1276
   170.5000      0.0000    780.3593     12.0789    104.9638
   170.7500      0.0000    777.8627     11.9763    103.0618
   171.0000      0.0000    775.3144     11.8443    100.5108
   171.2500      0.0000    774.0545     11.7099     98.0758
   171.5000      0.0000    774.6715     11.5963     96.1890
   171.7500      0.0000    776.2430     11.5104     94.4634
   172.0000      0.0000    777.0386     11.4414     92.4611
   172.2500      0.0000    776.0602     11.3774     90.4866
   172.5000      0.0000    774.0889     11.3251     89.1261
   172.7500      0.0000    773.4521     11.3110     88.5353
   173.0000      0.0000    776.5354     11.3574     88.7727
   173.2500      0.0000    783.8711     11.4601     90.3066
   173.5000      0.0000    793.3800     11.5908     93.3083
   173.7500      0.0000    801.8547     11.7202     96.6107
   174.0000      0.0000    807.5684     11.8378     98.0678
   174.2500      0.0000    811.2422     11.9493     96.2251
   174.5000      0.0000    814.4420     12.0580     91.4443
   174.7500      0.0000    817.6799     12.1522     85.2878
   175.0000      0.0000    820.3923     12.2097     79.1276
   175.2500      0.0000    822.0834     12.2140     73.6044
   175.5000      0.0000    822.8803     12.1656     69.0006
   175.7500      0.0000    823.2023     12.0833     65.5244
   176.0000      0.0000    823.3516     11.9993     63.1980
   176.2500      0.0000    823.4277     11.9491     61.8932
   176.5000      0.0000    823.4436     11.9532     61.7201
   176.7500      0.0000    823.4317     11.9962     63.2414
   177.0000      0.0000    823.4746     12.0296     66.9937
   177.2500      0.0000    823.6232     12.0058     72.5836
   177.5000      0.0000    823.7576     11.9121     78.5229
   177.7500      0.0000    823.5040     11.7732     83.4808
   178.0000      0.0000    822.3682     11.6291     87.5152
   178.2500      0.0000    820.1559     11.5145     91.6332
   178.5000      0.0000    817.3461     11.4497     96.2606
   178.7500      0.0000    814.8747     11.4381    100.4561
   179.0000      0.0000    813.4533     11.4699    102.4804
   179.2500      0.0000    813.2963     11.5310    101.1642
   179.5000      0.0000    814.4039     11.6059     97.1334
   179.7500      0.0000    816.5915     11.6744     92.7314
   180.0000      0.0000    819.2339     11.7131     90.3296
   180.2500      0.0000    821.4972     11.7063     90.6708
   180.5000      0.0000    822.9628     11.6563     92.9458
   180.7500      0.0000    823.8652     11.5853     95.9874
   181.0000      0.0000    824.8256     11.5269     98.8307
   181.2500      0.0000    826.3709     11.5102    100.6318
   181.5000      0.0000    828.2851     11.5437    101.0548
   181.7500      0.0000    829.0606     11.6103    100.6951
   182.0000      0.0000    826.2587     11.6834    100.4696
   182.2500      0.0000    818.1280     11.7505    100.6851
   182.5000      0.0000    805.0591     11.8194    100.9855
   182.7500      0.0000    789.1000     11.9021    100.7936
   183.0000      0.0000    771.4130     11.9980     99.4503
   183.2500      0.0000    750.7466     12.0932     96.5355
   183.5000      0.0000    726.3553     12.1703     92.5368
   183.7500      0.0000    703.0501     12.2176     88.8819
   184.0000      0.0000    690.2767     12.2358     86.8508
   184.2500      0.0000    693.3712     12.2395     86.4732
   184.5000      0.0000    707.6053     12.2497     86.7044
   184.7500      0.0000    723.0684     12.2801     86.7118
   185.0000      0.0000    733.4078     12.3313     86.6522
   185.2500      0.0000    738.2789     12.3967     86.9144
   185.5000      0.0000    739.9861     12.4667     86.9930
   185.7500      0.0000    740.3571     12.5313     85.6667
   186.0000      0.0000    740.1600     12.5823     82.1922
   186.2500      0.0000    739.6662     12.6171     77.1168
   186.5000      0.0000    738.9728     12.6388     72.2245
   186.7500      0.0000    737.7827     12.6530     69.7425
   187.0000      0.0000    734.5829     12.6662     70.9777
   187.2500      0.0000    725.7162     12.6876     75.3662
   187.5000      0.0000    705.6472     12.7304     80.9517
   187.7500      0.0000    670.8491     12.8095     85.5787
   188.0000      0.0000    626.1329     12.9328     87.4864
   188.2500      0.0000    586.1776     13.0911     85.6759
   188.5000      0.0000    567.1681     13.2543     80.6884
   188.7500      0.0000    575.7769     13.3849     74.6230
   189.0000      0.0000    606.3590     13.4594     69.5319
   189.2500      0.0000    645.9834     13.4830     65.8069
   189.5000      0.0000    680.2038     13.4817     62.3988
   189.7500      0.0000    697.7510     13.4819     58.2835
   190.0000      0.0000    694.3681     13.4954     53.5906
   190.2500      0.0000    673.9569     13.5213     49.8183
   190.5000      0.0000    646.1444     13.5537     49.0849
   190.7500      0.0000    621.1206     13.5854     52.6090
   191.0000      0.0000    603.6799     13.6081     59.6223
   191.2500      0.0000    591.1521     13.6192     67.9272
