~Version Information
VERS.                      2.0: CWLS Log ASCII Standard - VERSION 2.0
WRAP.                       NO: One line per depth step
~Well Information Block
STRT.FT               860.0000: 
STOP.FT              2360.5000: 
STEP.FT                 0.1000: 
NULL.                -999.2500: 
COMP.          Pioneer Natural Resources: COMPANY
WELL.            Cayenne 23-23: WELL
FLD.           Purgatoire River: FIELD
LOC.           2555' FSL & 2386' FWL: LOCATION
PROV.                 Colorado: PROVINCE
CNTY.               Las Animas: COUNTRY
SRVC.                Patterson: SERVICE COMPANY
DATE.          Wed Aug 17 08:28:25 2005: LOG DATE
UWI.           05 071 08476 00: UNIQUE WELL ID
~Curve Information Block
DEPT.FT            0 000 00 00: Depth
DCAL.in                       : CDL Caliper
RHOB.g/cc                     : CDL Bulk Density
RHOC.g/cc                     : CDL Density Correction
DPOR.pu                       : CDL Density Porosity
GR.GAPI                       : Gamma Ray
NPOR.pu                       : Neutron Porosity
~Parameter Information Block
~A  Depth       DCAL        RHOB        RHOC        DPOR         GR         NPOR    
# ...
  1455.2000      8.6178      2.4027      0.3196     14.9866    118.6104     29.7032
  1455.3000      8.8538      2.3319      0.2198     19.2766    115.4787     30.2768
  1455.4000      8.8538      2.2809      0.2183     22.3685    110.8751     30.5365
  1455.5000      8.9049      2.2441      0.2208     24.5980    109.5118     30.5167
  1455.6000      8.9049      2.1868      0.1779     28.0707    115.6911     30.7333
  1455.7000      8.9049      2.1043      0.1316     33.0749    126.5153     31.0183
  1455.8000      8.7988      2.0422      0.0938     36.8376    136.4723     30.7348
  1455.9000      8.7988      2.0371      0.2191     37.1444    142.3786     30.2056
  1456.0000      8.5449      2.0804      0.2631     34.5198    140.4876     30.0178
  1456.1000      8.5449      2.1558      0.2958     29.9514    131.6016     30.2723
  1456.2000      8.5449      2.2465      0.3392     24.4515    122.9468     30.1421
  1456.3000      8.3036      2.3290      0.3638     19.4569    119.2034     28.9679
  1456.4000      8.3036      2.3965      0.3907     15.3632    119.5439     27.7250
  1456.5000      8.4489      2.4596      0.3962     11.5421    120.4496     27.4988
  1456.6000      8.4489      2.5157      0.4142      8.1407    123.0993     28.1336
  1456.7000      8.4489      2.5405      0.3953      6.6389    128.8085     29.1823
  1456.8000      8.4009      2.5296      0.2370      7.2993    133.0982     30.6288
  1456.9000      8.4009      2.5252      0.1924      7.5619    135.6599     31.9036
  1457.0000      8.2869      2.5512      0.2220      5.9896    134.1574     31.7929
  1457.1000      8.2869      2.5791      0.2046      4.2947    124.0562     30.3589
  1457.2000      8.2869      2.5910      0.1966      3.5729    115.6117     28.9094
  1457.3000      8.1716      2.6024      0.1760      2.8830    120.5420     28.0329
  1457.4000      8.1716      2.6251      0.2564      1.5116    133.1673     27.5718
  1457.5000      8.1385      2.6447      0.2676      0.3204    138.6943     27.3082
  1457.6000      8.1385      2.6473      0.1767      0.1626    130.9067     27.3156
  1457.7000      8.1385      2.6459      0.0925      0.2498    117.1855     27.3890
  1457.8000      8.1483      2.6608      0.0740     -0.6566    107.0798     27.2026
  1457.9000      8.1483      2.6864      0.1220     -2.2062    105.4821     26.9462
  1458.0000      8.1823      2.7048      0.1613     -3.3220    111.6537     26.5653
  1458.1000      8.1823      2.7216      0.1531     -4.3413    118.5648     26.1259
  1458.2000      8.1823      2.7423      0.1718     -5.5969    118.9297     25.6808
  1458.3000      8.1752      2.7432      0.2187     -5.6468    113.7789     25.3180
  1458.4000      8.1752      2.7084      0.0885     -3.5411    110.0851     25.5733
  1458.5000      8.1797      2.6569      0.0489     -0.4211    109.5974     26.3307
  1458.6000      8.1797      2.6150     -0.0274      2.1227    106.2816     26.6684
  1458.7000      8.1797      2.6012     -0.0098      2.9579    100.5058     26.2660
  1458.8000      8.1479      2.6148      0.0144      2.1336    101.7232     25.2215
  1458.9000      8.1479      2.6335      0.0602      1.0025    108.5897     23.7092
  1459.0000      8.0662      2.6414      0.0817      0.5216    110.1734     22.3922
  1459.1000      8.0662      2.6393      0.1268      0.6497    108.3935     22.1263
  1459.2000      8.0662      2.6216      0.1578      1.7240    108.3186     23.4302
  1459.3000      8.0535      2.5808      0.0976      4.1955    103.6160     25.3390
  1459.4000      8.0535      2.5357      0.0451      6.9294     91.0092     25.8511
  1459.5000      8.0518      2.5164      0.0566      8.0993     78.8624     25.0911
  1459.6000      8.0518      2.5248      0.0582      7.5909     73.1743     24.1857
  1459.7000      8.0518      2.5356      0.0344      6.9332     68.8629     23.0677
  1459.8000      8.0491      2.5323      0.0163      7.1318     63.8210     22.1803
  1459.9000      8.0491      2.5331     -0.0215      7.0820     64.4053     22.1708
  1460.0000      8.0334      2.5589      0.0760      5.5208     72.4997     22.7137
  1460.1000      8.0334      2.5877      0.1164      3.7734     84.6193     23.0475
  1460.2000      8.0334      2.5881      0.1411      3.7487     93.0354     22.6398
  1460.3000      8.0237      2.5599      0.1232      5.4622     90.8459     21.9089
  1460.4000      8.0237      2.5284      0.0358      7.3680     83.9810     21.9693
  1460.5000      8.0234      2.5177      0.0548      8.0161     77.9244     22.6101
  1460.6000      8.0234      2.5353      0.0271      6.9503     70.9440     22.4302
  1460.7000      8.0234      2.5769      0.0745      4.4301     65.0809     21.6912
  1460.8000      8.0179      2.6166      0.1043      2.0233     63.4224     21.9066
  1460.9000      8.0179      2.6216      0.1437      1.7213     65.7460     22.7789
  1461.0000      8.0078      2.5928      0.0588      3.4641     68.7426     23.0698
  1461.1000      8.0078      2.5627      0.0950      5.2904     67.3365     23.0993
  1461.2000      8.0078      2.5449      0.0675      6.3697     61.5084     23.3565
  1461.3000      8.0174      2.5318      0.0846      7.1627     56.1726     23.2008
  1461.4000      8.0174      2.5142      0.0732      8.2312     52.7196     22.0634
  1461.5000      8.0075      2.4919     -0.0101      9.5830     51.1068     20.4186
  1461.6000      8.0075      2.4771      0.0313     10.4774     51.4029     19.2058
  1461.7000      8.0075      2.4784      0.0062     10.3975     52.1333     19.0587
  1461.8000      8.0060      2.4918      0.0631      9.5900     52.7957     20.0782
  1461.9000      8.0060      2.5074      0.0512      8.6440     54.2730     21.0324
  1462.0000      8.0258      2.5252      0.0313      7.5644     55.7511     20.9856
  1462.1000      8.0258      2.5470      0.0360      6.2397     55.9913     20.7785
  1462.2000      8.0258      2.5660      0.0694      5.0895     55.9815     21.1908
  1462.3000      8.0160      2.5748      0.0965      4.5581     55.6819     21.7427
  1462.4000      8.0160      2.5745      0.0947      4.5734     55.9954     21.8002
  1462.5000      7.9916      2.5753      0.0649      4.5270     59.1793     21.6139
  1462.6000      7.9916      2.5833      0.0638      4.0437     62.7324     21.3952
  1462.7000      7.9916      2.5938      0.0456      3.4057     61.7761     20.9628
  1462.8000      7.9535      2.6007      0.0357      2.9854     56.1338     19.8976
  1462.9000      7.9535      2.6016      0.0558      2.9356     50.4141     18.4088
  1463.0000      7.9701      2.5961      0.0479      3.2682     47.8020     17.8208
  1463.1000      7.9701      2.5898      0.0548      3.6486     47.3950     18.5117
  1463.2000      7.9701      2.5867      0.0305      3.8354     48.4807     19.2470
  1463.3000      8.0059      2.5817      0.0283      4.1373     52.3610     19.0036
  1463.4000      8.0059      2.5726      0.0166      4.6901     55.0573     18.0893
  1463.5000      7.9927      2.5608      0.0403      5.4077     51.4027     17.2079
  1463.6000      7.9927      2.5428     -0.0007      6.4972     44.5936     16.6733
  1463.7000      7.9927      2.5187      0.0133      7.9602     41.9722     16.4450
  1463.8000      8.0087      2.4990     -0.0131      9.1498     45.7309     16.5477
  1463.9000      8.0087      2.4974     -0.0055      9.2475     51.6606     17.2693
  1464.0000      8.0622      2.5127      0.0288      8.3217     53.8728     18.5711
  1464.1000      8.0622      2.5301      0.0264      7.2669     50.2495     19.5316
  1464.2000      8.0622      2.5432      0.0242      6.4749     46.3270     19.8000
  1464.3000      8.1020      2.5487      0.0522      6.1387     46.8384     19.7799
  1464.4000      8.1020      2.5421      0.0029      6.5423     48.3657     19.2476
  1464.5000      8.1105      2.5344      0.0161      7.0063     48.2429     18.4069
  1464.6000      8.1105      2.5368     -0.0026      6.8622     46.4918     18.2218
  1464.7000      8.1105      2.5407      0.0269      6.6227     41.4060     18.9639
