~Version Information
VERS.                      2.0: CWLS Log ASCII Standard - VERSION 2.0
WRAP.                       NO: One line per depth step
~Well Information Block
STRT.FT               340.0000: 
STOP.FT              2342.7500: 
STEP.FT                 0.2500: 
NULL.                -999.2500: 
COMP.          Pioneer Natural Resources: COMPANY
WELL.          Pinkerton 41-12: WELL
FLD.           Purgatoire River: FIELD
LOC.           1222' FNL & 670' FEL--: LOCATION
CNTY.               Las Animas: COUNTY
SRVC.                Patterson: SERVICE COMPANY
DATE.          Wed Mar 15 10:37:39 2006: LOG DATE
UWI.           05 071 08500 00: UNIQUE WELL ID
STAT.                 Colorado: STATE
~Curve Information Block
DEPT.FT            0 000 00 00: Depth
SN.Ohm-m                      : IEL Short Normal
SP.mV                         : IEL Spontaneous Potential
DIR.Ohm-m                     : IEL Induction Resistivity
GR.GAPI                       : Gamma Ray
~Parameter Information Block
~A  Depth        SN          SP         DIR          GR     
# ...
  1278.0000   2000.0000   -999.2500     10.2098     59.6467
  1278.2500   2000.0000   -999.2500     10.5425     54.7957
  1278.5000   2000.0000   -999.2500     11.3447     48.2306
  1278.7500   2000.0000   -999.2500     12.5809     44.7514
  1279.0000   2000.0000   -999.2500     14.2462     41.6729
  1279.2500   2000.0000   -999.2500     16.2940     41.1565
  1279.5000   2000.0000   -999.2500     18.5771     42.0040
  1279.7500   2000.0000   -999.2500     20.8435     42.9315
  1280.0000   2000.0000   -999.2500     22.8163     43.7524
  1280.2500   2000.0000   -999.2500     24.3123     43.6405
  1280.5000   2000.0000   -999.2500     25.2957     42.7202
  1280.7500   2000.0000   -999.2500     25.8461     41.9701
  1281.0000   2000.0000   -999.2500     26.0875     41.2152
  1281.2500   2000.0000   -999.2500     26.1316     41.1293
  1281.5000   2000.0000   -999.2500     26.0507     41.6317
  1281.7500   2000.0000   -999.2500     25.8775     42.2689
  1282.0000   2000.0000   -999.2500     25.6186     43.4387
  1282.2500   2000.0000   -999.2500     25.2645     44.3797
  1282.5000   2000.0000   -999.2500     24.7901     46.5333
  1282.7500   2000.0000   -999.2500     24.1565     48.8021
  1283.0000   2000.0000   -999.2500     23.3241     53.4096
  1283.2500   2000.0000   -999.2500     22.2790     56.8702
  1283.5000   2000.0000   -999.2500     21.0539     62.1216
  1283.7500   2000.0000   -999.2500     19.7243     65.8733
  1284.0000   2000.0000   -999.2500     18.3828     72.8285
  1284.2500   2000.0000   -999.2500     17.1080     78.6744
  1284.5000   2000.0000   -999.2500     15.9481     88.7252
  1284.7500   2000.0000   -999.2500     14.9213     95.5164
  1285.0000   2000.0000   -999.2500     14.0256    104.5186
  1285.2500   2000.0000   -999.2500     13.2493    109.1211
  1285.5000   2000.0000   -999.2500     12.5796    113.0523
  1285.7500   2000.0000   -999.2500     12.0076    113.4134
  1286.0000   2000.0000   -999.2500     11.5293    111.0563
  1286.2500   2000.0000   -999.2500     11.1449    108.4802
  1286.5000   2000.0000   -999.2500     10.8553    105.1490
  1286.7500   2000.0000   -999.2500     10.6582    104.2338
  1287.0000   2000.0000   -999.2500     10.5453    105.3206
  1287.2500   2000.0000   -999.2500     10.5002    107.2105
  1287.5000   2000.0000   -999.2500     10.4998    110.1923
  1287.7500   2000.0000   -999.2500     10.5172    111.4870
  1288.0000   2000.0000   -999.2500     10.5285    112.1476
  1288.2500   2000.0000   -999.2500     10.5179    112.2144
  1288.5000   2000.0000   -999.2500     10.4795    112.9098
  1288.7500   2000.0000   -999.2500     10.4151    114.2689
  1289.0000   2000.0000   -999.2500     10.3300    117.8886
  1289.2500   2000.0000   -999.2500     10.2300    121.1099
  1289.5000   2000.0000   -999.2500     10.1204    126.2618
  1289.7500   2000.0000   -999.2500     10.0065    129.2878
  1290.0000   2000.0000   -999.2500      9.8943    132.3172
  1290.2500   2000.0000   -999.2500      9.7919    133.0814
  1290.5000   2000.0000   -999.2500      9.7116    132.6805
  1290.7500   2000.0000   -999.2500      9.6700    131.9537
  1291.0000   2000.0000   -999.2500      9.6851    131.0154
  1291.2500   2000.0000   -999.2500      9.7720    130.4464
  1291.5000   2000.0000   -999.2500      9.9379    128.8163
  1291.7500   2000.0000   -999.2500     10.1801    126.8074
  1292.0000   2000.0000   -999.2500     10.4880    122.5350
  1292.2500   2000.0000   -999.2500     10.8476    119.1184
  1292.5000   2000.0000   -999.2500     11.2459    113.1848
  1292.7500   2000.0000   -999.2500     11.6730    108.5540
  1293.0000   2000.0000   -999.2500     12.1211    100.9195
  1293.2500   2000.0000   -999.2500     12.5816     95.9960
  1293.5000   2000.0000   -999.2500     13.0436     89.8852
  1293.7500   2000.0000   -999.2500     13.4926     86.8121
  1294.0000   2000.0000   -999.2500     13.9119     83.2367
  1294.2500   2000.0000   -999.2500     14.2850     81.1106
  1294.5000   2000.0000   -999.2500     14.5994     77.7636
  1294.7500   2000.0000   -999.2500     14.8499     75.4235
  1295.0000   2000.0000   -999.2500     15.0411     72.2449
  1295.2500   2000.0000   -999.2500     15.1882     70.5901
  1295.5000   2000.0000   -999.2500     15.3160     68.6914
  1295.7500   2000.0000   -999.2500     15.4540     67.6602
  1296.0000   2000.0000   -999.2500     15.6290     66.6774
  1296.2500   2000.0000   -999.2500     15.8591     66.6961
  1296.5000   2000.0000   -999.2500     16.1500     67.7153
  1296.7500   2000.0000   -999.2500     16.4923     68.5698
  1297.0000   2000.0000   -999.2500     16.8627     69.1070
  1297.2500   2000.0000   -999.2500     17.2279     68.7003
  1297.5000   2000.0000   -999.2500     17.5549     67.1788
  1297.7500   2000.0000   -999.2500     17.8220     65.9234
  1298.0000   2000.0000   -999.2500     18.0248     64.4446
  1298.2500   2000.0000   -999.2500     18.1733     64.1741
  1298.5000   2000.0000   -999.2500     18.2804     65.2799
  1298.7500   2000.0000   -999.2500     18.3514     66.8934
  1299.0000   2000.0000   -999.2500     18.3817     69.7391
  1299.2500   2000.0000   -999.2500     18.3644     71.2747
  1299.5000   2000.0000   -999.2500     18.2995     72.3148
  1299.7500   2000.0000   -999.2500     18.1947     72.1329
  1300.0000   2000.0000   -999.2500     18.0578     71.0460
  1300.2500   2000.0000   -999.2500     17.8916     70.2460
  1300.5000   2000.0000   -999.2500     17.6973     69.8303
  1300.7500   2000.0000   -999.2500     17.4844     70.4952
  1301.0000   2000.0000   -999.2500     17.2758     73.0317
  1301.2500   2000.0000   -999.2500     17.1036     75.4231
  1301.5000   2000.0000   -999.2500     16.9957     79.2626
  1301.7500   2000.0000   -999.2500     16.9638     81.6278
  1302.0000   2000.0000   -999.2500     16.9988     84.4240
  1302.2500   2000.0000   -999.2500     17.0775     85.5257
  1302.5000   2000.0000   -999.2500     17.1747     85.7794
  1302.7500   2000.0000   -999.2500     17.2731     85.1362
  1303.0000   2000.0000   -999.2500     17.3654     83.5802
  1303.2500   2000.0000   -999.2500     17.4506     82.5451
  1303.5000   2000.0000   -999.2500     17.5306     81.3646
  1303.7500   2000.0000   -999.2500     17.6097     80.8421
  1304.0000   2000.0000   -999.2500     17.6940     80.4181
  1304.2500   2000.0000   -999.2500     17.7888     80.4711
  1304.5000   2000.0000   -999.2500     17.8949     81.2659
  1304.7500   2000.0000   -999.2500     18.0085     82.1514
  1305.0000   2000.0000   -999.2500     18.1224     83.2303
  1305.2500   2000.0000   1968.0000     18.2231     83.2992
  1305.5000   2000.0000   1968.0000     18.2868     82.0837
  1305.7500   2000.0000   1968.0000     18.2792     80.3895
  1306.0000   2000.0000   1968.0000     18.1683     76.5550
  1306.2500   2000.0000   1968.0000     17.9397     73.3760
  1306.5000   2000.0000   1968.0000     17.6049     69.0502
  1306.7500   2000.0000   1968.0000     17.1949     67.7253
  1307.0000   2000.0000   1968.0000     16.7463     69.7717
  1307.2500   2000.0000   1968.0000     16.2861     73.7675
  1307.5000   2000.0000   1968.0000     15.8236     81.6501
  1307.7500   2000.0000   1968.0000     15.3504     86.6384
  1308.0000   2000.0000   1968.0000     14.8490     92.1939
  1308.2500   2000.0000   1968.0000     14.3075     94.4281
  1308.5000   2000.0000   1968.0000     13.7324     95.6461
  1308.7500   2000.0000   1968.0000     13.1493     95.2488
  1309.0000   2000.0000   1968.0000     12.5945     94.0920
  1309.2500   2000.0000   1968.0000     12.1019     94.0939
  1309.5000   2000.0000   1968.0000     11.6937     96.6982
  1309.7500   2000.0000   1968.0000     11.3767    100.2018
  1310.0000   2000.0000   1968.0000     11.1438    106.8250
  1310.2500   2000.0000   1968.0000     10.9782    110.9235
  1310.5000   2000.0000   1968.0000     10.8600    114.4840
  1310.7500   2000.0000   1968.0000     10.7724    114.4474
  1311.0000   2000.0000   1968.0000     10.7057    110.9920
  1311.2500   2000.0000   1968.0000     10.6583    107.0871
