~Version Information
VERS.                      2.0: CWLS Log ASCII Standard - VERSION 2.0
WRAP.                       NO: One line per depth step
~Well Information Block
STRT.FT                10.0000: 
STOP.FT              1187.0000: 
STEP.FT                 0.1000: 
NULL.                -999.2500: 
COMP.          Pioneer Natural Resources: COMPANY
WELL.          Whitecoat 14-36: WELL
FLD.           Purgatorie River: FIELD
LOC.           606' FSL & 260' FWL: LOCATION
PROV.                 Colorado: PROVINCE
CNTY.               Las Animas: COUNTRY
SRVC.                Patterson: SERVICE COMPANY
DATE.          Tue Dec 06 07:14:37 2005: LOG DATE
UWI.                          : UNIQUE WELL ID
~Curve Information Block
DEPT.FT            0 000 00 00: Depth
DCAL.in                       : CDL Caliper
RHOB.g/cc                     : CDL Bulk Density
RHOC.g/cc                     : CDL Density Correction
DPOR.pu                       : CDL Density Porosity
GR.GAPI                       : Gamma Ray
NPOR.pu                       : Neutron Porosity
~Parameter Information Block
~A  Depth       DCAL        RHOB        RHOC        DPOR         GR         NPOR    
# ...
  1018.0000      7.9565      2.5068      0.0027      8.6817     79.6800     20.8944
  1018.1000      7.9565      2.5136      0.0349      8.2641     79.4998     21.2047
  1018.2000      7.9565      2.5130      0.0153      8.3055     80.0602     21.3918
  1018.3000      7.9574      2.5165      0.0218      8.0913     79.8825     21.4102
  1018.4000      7.9574      2.5360      0.0587      6.9110     78.2088     21.3941
  1018.5000      7.9675      2.5636      0.0780      5.2342     76.8667     21.4451
  1018.6000      7.9675      2.5839      0.1013      4.0070     77.0343     21.4848
  1018.7000      7.9675      2.5915      0.1167      3.5473     77.4700     21.6334
  1018.8000      7.9327      2.5852      0.0953      3.9257     77.2068     21.9391
  1018.9000      7.9327      2.5698      0.0422      4.8623     77.9326     22.0230
  1019.0000      7.8859      2.5559      0.0842      5.7006     79.6798     21.9055
  1019.1000      7.8859      2.5502      0.0343      6.0493     79.0716     21.8700
  1019.2000      7.8859      2.5523      0.0658      5.9193     75.9751     21.7044
  1019.3000      7.9084      2.5534      0.0685      5.8528     73.4616     21.3167
  1019.4000      7.9084      2.5497      0.0332      6.0779     72.2243     21.1299
  1019.5000      7.9213      2.5490      0.0371      6.1212     71.2686     21.4002
  1019.6000      7.9213      2.5514      0.0471      5.9757     70.4883     21.8679
  1019.7000      7.9213      2.5480      0.0559      6.1825     70.5539     22.2102
  1019.8000      7.9444      2.5393      0.0237      6.7063     71.2758     22.4139
  1019.9000      7.9444      2.5326      0.0481      7.1126     72.0203     22.6682
  1020.0000      7.9720      2.5256      0.0349      7.5400     72.6016     22.8361
  1020.1000      7.9720      2.5148     -0.0023      8.1960     73.1994     22.7254
  1020.2000      7.9720      2.5085      0.0266      8.5764     73.6744     22.5197
  1020.3000      7.9621      2.5143      0.0335      8.2264     73.7578     22.2742
  1020.4000      7.9621      2.5278      0.0624      7.4088     73.5697     21.8704
  1020.5000      7.9367      2.5462      0.0458      6.2899     72.9618     21.5003
  1020.6000      7.9367      2.5642      0.1409      5.2002     72.8761     21.3041
  1020.7000      7.9367      2.5660      0.1123      5.0923     74.0522     21.1942
  1020.8000      7.9148      2.5602      0.0491      5.4410     75.1109     21.1698
  1020.9000      7.9148      2.5711      0.0768      4.7807     73.9367     21.4284
  1021.0000      7.9206      2.5872      0.1620      3.8074     71.7431     21.9511
  1021.1000      7.9206      2.5803      0.1188      4.2251     72.0005     22.2268
  1021.2000      7.9206      2.5593      0.0805      5.4942     73.0909     22.0102
  1021.3000      7.9355      2.5529      0.0370      5.8858     71.4444     21.7792
  1021.4000      7.9355      2.5633      0.0813      5.2528     68.9989     21.8901
  1021.5000      7.9424      2.5700      0.0652      4.8473     69.4445     22.0500
  1021.6000      7.9424      2.5624      0.0534      5.3088     72.6339     21.9728
  1021.7000      7.9424      2.5488      0.0701      6.1318     75.2187     21.8984
  1021.8000      7.9438      2.5440      0.0354      6.4262     75.2562     21.9318
  1021.9000      7.9438      2.5540      0.0550      5.8174     74.0599     21.8449
  1022.0000      7.9562      2.5607      0.0778      5.4107     71.9156     21.5188
  1022.1000      7.9562      2.5441      0.0082      6.4205     68.6432     21.1163
  1022.2000      7.9562      2.5125      0.0375      8.3354     66.6646     20.9768
  1022.3000      7.9441      2.4858      0.0017      9.9501     67.1926     21.1358
  1022.4000      7.9441      2.4786      0.0095     10.3856     68.1073     21.2137
  1022.5000      7.9451      2.4959      0.0126      9.3393     68.8456     21.0693
  1022.6000      7.9451      2.5243      0.0775      7.6191     71.0149     20.9542
  1022.7000      7.9451      2.5404      0.0991      6.6400     74.3429     20.8908
  1022.8000      7.9401      2.5358      0.0818      6.9205     76.5241     20.7699
  1022.9000      7.9401      2.5219      0.0407      7.7638     76.0695     20.6690
  1023.0000      7.9566      2.5083      0.0435      8.5887     74.3247     20.7336
  1023.1000      7.9566      2.4917      0.0472      9.5937     72.6358     20.9058
  1023.2000      7.9566      2.4765     -0.0181     10.5155     69.9341     20.9597
  1023.3000      7.9540      2.4779      0.0101     10.4302     66.0030     20.8579
  1023.4000      7.9540      2.4951      0.0343      9.3905     63.3642     20.7003
  1023.5000      7.9713      2.5115      0.0530      8.3967     63.6400     20.5914
  1023.6000      7.9713      2.5182      0.0492      7.9855     65.4868     20.6106
  1023.7000      7.9713      2.5170      0.0667      8.0617     66.8566     20.7538
  1023.8000      7.9533      2.5106      0.0723      8.4498     67.8151     20.9368
  1023.9000      7.9533      2.5010      0.0535      9.0309     70.0194     20.9936
  1024.0000      7.9532      2.4924      0.0387      9.5507     73.1656     20.8574
  1024.1000      7.9532      2.4856      0.0842      9.9640     74.0281     20.7114
  1024.2000      7.9532      2.4769      0.0631     10.4930     71.8993     20.9409
  1024.3000      7.9531      2.4728      0.0094     10.7421     70.8286     21.4612
  1024.4000      7.9531      2.4834      0.0263     10.0989     72.7120     21.6373
  1024.5000      7.9431      2.5032      0.0158      8.8977     74.3421     21.3246
  1024.6000      7.9431      2.5190      0.0471      7.9407     73.1332     20.9740
  1024.7000      7.9431      2.5265      0.0428      7.4858     71.2789     20.8464
  1024.8000      7.9640      2.5276      0.0946      7.4169     71.4712     20.8802
  1024.9000      7.9640      2.5191      0.0342      7.9312     72.3873     21.0206
  1025.0000      7.9663      2.5014      0.0450      9.0056     71.4735     21.0195
  1025.1000      7.9663      2.4878      0.0007      9.8330     70.1322     20.7024
  1025.2000      7.9663      2.4891      0.0647      9.7534     71.9537     20.3664
  1025.3000      7.9505      2.4929      0.0453      9.5216     75.2383     20.2110
  1025.4000      7.9505      2.4852      0.0189      9.9890     76.1682     20.1689
  1025.5000      7.9460      2.4745      0.0242     10.6376     75.8904     20.3921
  1025.6000      7.9460      2.4768      0.0204     10.4991     75.7327     21.0482
  1025.7000      7.9460      2.4960      0.0641      9.3344     73.7369     21.6638
  1025.8000      7.9278      2.5241      0.0622      7.6304     71.0642     21.7228
  1025.9000      7.9278      2.5511      0.1176      5.9951     71.0797     21.6897
  1026.0000      7.9183      2.5758      0.0880      4.4997     73.7179     22.1399
  1026.1000      7.9183      2.6036      0.1427      2.8135     75.8091     22.7361
  1026.2000      7.9183      2.6267      0.1464      1.4134     74.4543     22.8792
  1026.3000      7.9118      2.6365      0.0991      0.8200     70.9974     22.6341
  1026.4000      7.9118      2.6392      0.1047      0.6544     69.3677     22.4619
  1026.5000      7.8977      2.6354      0.1143      0.8850     70.0314     22.6230
  1026.6000      7.8977      2.6157      0.0908      2.0793     70.5201     23.0438
  1026.7000      7.8977      2.5810      0.0695      4.1837     70.8413     23.2049
  1026.8000      7.8872      2.5480      0.0205      6.1824     71.4961     22.7498
  1026.9000      7.8872      2.5332     -0.0046      7.0767     72.1182     22.2102
  1027.0000      7.9073      2.5331      0.0069      7.0831     74.1355     22.1544
  1027.1000      7.9073      2.5331     -0.0064      7.0877     77.0074     22.3742
  1027.2000      7.9073      2.5352      0.0102      6.9572     78.0416     22.4067
  1027.3000      7.9051      2.5454      0.0717      6.3394     78.0310     22.1443
  1027.4000      7.9051      2.5518      0.0468      5.9541     80.1302     21.9681
  1027.5000      7.9161      2.5456      0.0359      6.3262     84.5893     22.1269
