~Version Information
VERS.                      2.0: CWLS Log ASCII Standard - VERSION 2.0
WRAP.                       NO: One line per depth step
~Well Information Block
STRT.FT               619.7000: 
STOP.FT               951.7000: 
STEP.FT                 0.1000: 
NULL.                -999.2500: 
COMP.          Pioneer Natural Resources: COMPANY
WELL.          Screamin 12-29 Tr: WELL
FLD.           Purgatoire River: FIELD
LOC.           1979' FNL & 532' FWL--: LOCATION
CNTY.               Las Animas: COUNTY
SRVC.                Patterson: SERVICE COMPANY
DATE.          Fri Mar 31 15:43:57 2006: LOG DATE
UWI.           05 071 08660 00: UNIQUE WELL ID
STAT.                 Colorado: STATE
~Curve Information Block
DEPT.FT            0 000 00 00: Depth
DCAL.in                       : CDL Caliper
RHOB.g/cc                     : CDL Bulk Density
RHOC.g/cc                     : CDL Density Correction
DPOR.pu                       : CDL Density Porosity
GR.GAPI                       : Gamma Ray
~Parameter Information Block
~A  Depth       DCAL        RHOB        RHOC        DPOR         GR     
# ...
   742.9000      7.8858      2.6081      0.1031      2.5395    123.8422
   743.0000      7.8936      2.6501      0.1659     -0.0062    125.6827
   743.1000      7.8936      2.6882      0.1924     -2.3140    127.8935
   743.2000      7.8936      2.7088      0.2229     -3.5624    130.0115
   743.3000      7.8940      2.7036      0.1755     -3.2502    131.0119
   743.4000      7.8940      2.6849      0.1234     -2.1141    132.2346
   743.5000      7.8924      2.6747      0.0740     -1.4951    136.3658
   743.6000      7.8924      2.6706      0.0919     -1.2461    140.9775
   743.7000      7.8924      2.6537      0.0490     -0.2249    142.6219
   743.8000      7.8964      2.6290      0.0396      1.2698    143.9908
   743.9000      7.8964      2.6145      0.0401      2.1532    145.2920
   744.0000      7.9111      2.6085      0.1008      2.5144    143.1880
   744.1000      7.9111      2.6020      0.0717      2.9066    139.7619
   744.2000      7.9111      2.6003      0.0656      3.0114    138.8298
   744.3000      7.9279      2.6068      0.0962      2.6159    140.0877
   744.4000      7.9279      2.6109      0.1070      2.3711    140.2503
   744.5000      7.9342      2.6081      0.0697      2.5376    137.8522
   744.6000      7.9342      2.6033      0.0802      2.8284    138.4436
   744.7000      7.9342      2.5926      0.0722      3.4776    144.3166
   744.8000      7.9343      2.5751      0.0523      4.5410    148.3058
   744.9000      7.9343      2.5606      0.0550      5.4204    148.2323
   745.0000      7.9379      2.5505      0.0579      6.0325    149.0978
   745.1000      7.9379      2.5345      0.0899      7.0023    151.6384
   745.2000      7.9379      2.5149     -0.0047      8.1864    150.9285
   745.3000      7.9463      2.5085      0.0529      8.5735    146.2350
   745.4000      7.9463      2.5140      0.0266      8.2443    143.4301
   745.5000      7.9527      2.5190      0.0439      7.9405    147.8170
   745.6000      7.9527      2.5185      0.0487      7.9720    157.5337
   745.7000      7.9527      2.5174      0.0113      8.0371    163.9352
   745.8000      7.9435      2.5246      0.0745      7.6013    163.4851
   745.9000      7.9435      2.5380      0.1017      6.7909    159.6970
   746.0000      7.9093      2.5504      0.0937      6.0338    156.3117
   746.1000      7.9093      2.5594      0.0953      5.4929    158.5117
   746.2000      7.9093      2.5662      0.0937      5.0771    167.0606
   746.3000      7.8703      2.5729      0.1219      4.6723    174.3823
   746.4000      7.8703      2.5780      0.1027      4.3653    171.9777
   746.5000      7.8563      2.5776      0.1050      4.3873    160.3450
   746.6000      7.8563      2.5688      0.0790      4.9187    150.3818
   746.7000      7.8563      2.5538      0.0675      5.8333    148.1674
   746.8000      7.8716      2.5346      0.0842      6.9955    148.5794
   746.9000      7.8716      2.5201     -0.0119      7.8704    148.6181
   747.0000      7.8958      2.5219      0.0440      7.7610    151.5046
   747.1000      7.8958      2.5297      0.0637      7.2885    156.2427
   747.2000      7.8958      2.5324      0.0265      7.1294    159.5443
   747.3000      7.9161      2.5291      0.0615      7.3250    158.4963
   747.4000      7.9161      2.5129      0.0608      8.3064    151.4263
   747.5000      7.9175      2.4854      0.0083      9.9765    145.1526
   747.6000      7.9175      2.4619      0.0323     11.3981    147.2224
   747.7000      7.9175      2.4472      0.0545     12.2897    152.9098
   747.8000      7.8983      2.4357      0.0276     12.9871    153.0800
   747.9000      7.8983      2.4236      0.0518     13.7183    146.6388
   748.0000      7.8858      2.4017      0.0477     15.0512    138.6089
   748.1000      7.8858      2.3663      0.0298     17.1938    132.7178
   748.2000      7.8858      2.3352     -0.0031     19.0766    131.4746
   748.3000      7.8832      2.3261      0.0268     19.6301    135.0362
   748.4000      7.8832      2.3435      0.0230     18.5734    137.1474
   748.5000      7.8777      2.3879      0.0811     15.8854    135.0956
   748.6000      7.8777      2.4391      0.1694     12.7829    134.0191
   748.7000      7.8777      2.4622      0.1945     11.3832    134.4662
   748.8000      7.8807      2.4503      0.1095     12.1054    131.3446
   748.9000      7.8807      2.4220      0.0982     13.8156    124.5441
   749.0000      7.8893      2.3908      0.0511     15.7063    118.7206
   749.1000      7.8893      2.3620      0.0480     17.4533    117.7521
   749.2000      7.8893      2.3392      0.0515     18.8388    123.3854
   749.3000      7.8946      2.3325      0.0422     19.2451    131.1423
   749.4000      7.8946      2.3454      0.0563     18.4615    132.7684
   749.5000      7.9091      2.3618      0.0723     17.4656    128.2942
   749.6000      7.9091      2.3768      0.0400     16.5555    123.1662
   749.7000      7.9091      2.4014      0.0680     15.0640    119.2279
   749.8000      7.9234      2.4305      0.1131     13.3050    117.9736
   749.9000      7.9234      2.4580      0.1082     11.6359    119.8218
   750.0000      7.9271      2.4967      0.0865      9.2912    120.8601
   750.1000      7.9271      2.5433      0.1624      6.4672    119.3421
   750.2000      7.9271      2.5704      0.1188      4.8270    117.3092
   750.3000      7.9344      2.5701      0.0691      4.8397    115.3580
   750.4000      7.9344      2.5603      0.0356      5.4334    114.6745
   750.5000      7.9412      2.5529      0.0163      5.8838    117.0885
   750.6000      7.9412      2.5443      0.0253      6.4065    119.9369
   750.7000      7.9412      2.5345     -0.0172      7.0029    121.2447
   750.8000      7.9339      2.5357     -0.0182      6.9248    122.4675
   750.9000      7.9339      2.5553      0.0005      5.7368    121.6801
   751.0000      7.9169      2.5912      0.0278      3.5659    118.8242
   751.1000      7.9169      2.6256      0.0532      1.4817    119.3017
   751.2000      7.9169      2.6321      0.0683      1.0847    124.0108
   751.3000      7.9023      2.6106      0.0765      2.3877    127.8449
   751.4000      7.9023      2.5839      0.0388      4.0090    126.7915
   751.5000      7.8963      2.5709      0.0286      4.7969    123.3143
   751.6000      7.8963      2.5732      0.0571      4.6566    123.0510
   751.7000      7.8963      2.5748      0.0585      4.5605    125.1556
   751.8000      7.8950      2.5639      0.0789      5.2183    125.6310
   751.9000      7.8950      2.5527      0.0140      5.8963    125.4139
   752.0000      7.8959      2.5602      0.0551      5.4415    126.1424
   752.1000      7.8959      2.5777      0.0731      4.3841    125.0999
   752.2000      7.8959      2.5801      0.0664      4.2392    121.9006
   752.3000      7.8994      2.5679      0.0091      4.9732    122.1617
   752.4000      7.8994      2.5628      0.0164      5.2824    128.5337
   752.5000      7.9021      2.5672      0.0595      5.0205    136.3581
   752.6000      7.9021      2.5707      0.0387      4.8054    140.6921
   752.7000      7.9021      2.5778     -0.0027      4.3770    137.3084
   752.8000      7.8995      2.5875      0.0831      3.7897    124.8332
   752.9000      7.8995      2.5911      0.0185      3.5705    112.3105
   753.0000      7.8981      2.5928      0.0575      3.4642    107.8688
   753.1000      7.8981      2.5898      0.0551      3.6503    111.0543
   753.2000      7.8981      2.5756     -0.0071      4.5094    117.1466
   753.3000      7.8991      2.5581      0.0378      5.5690    121.1367
   753.4000      7.8991      2.5514      0.0020      5.9774    120.9546
   753.5000      7.8953      2.5671      0.0109      5.0263    117.5810
   753.6000      7.8953      2.5926      0.0627      3.4761    115.1152
   753.7000      7.8953      2.6044      0.0715      2.7663    115.9372
   753.8000      7.8902      2.6059      0.0262      2.6734    115.3993
   753.9000      7.8902      2.6115      0.0261      2.3346    108.9731
   754.0000      7.8915      2.6138      0.0453      2.1948     99.7080
