~Version Information
VERS.                      2.0: CWLS Log ASCII Standard - VERSION 2.0
WRAP.                       NO: One line per depth step
~Well Information Block
STRT.FT               550.0000: 
STOP.FT              1979.0000: 
STEP.FT                 0.1000: 
NULL.                -999.2500: 
COMP.          Pioneer Natural Resources: COMPANY
WELL.          Flying Horse 12-11 Tr: WELL
FLD.           Purgatoire River: FIELD
LOC.           2459' FNL & 410' FWL: LOCATION
STAT.                 Colorado: PROVINCE
CNTY.               Las Animas: COUNTY
CTRY. USA : Country
SECT. 11 : Section
TOWN. 32S : Township
RANG. 66W : Range
SRVC.                Patterson: SERVICE COMPANY
DATE.          Tue Sep 06 07:09:24 2005: LOG DATE
API.           05 071 08485 00: UNIQUE WELL ID
~Curve Information Block
DEPT.FT            0 000 00 00: Depth
DCAL.in                       : CDL Caliper
RHOB.g/cc                     : CDL Bulk Density
RHOC.g/cc                     : CDL Density Correction
DPOR.pu                       : CDL Density Porosity
GR.GAPI                       : Gamma Ray
NPOR.pu                       : Neutron Porosity
~Parameter Information Block
~A  Depth       DCAL        RHOB        RHOC        DPOR         GR         NPOR    
# ...
   646.0000      8.3716      2.4316      0.0387     13.2337     66.6250     19.8051
   646.1000      8.3716      2.4299      0.0687     13.3364     62.9974     19.9729
   646.2000      8.3716      2.4266      0.0867     13.5364     61.5139     20.2482
   646.3000      8.3687      2.4199      0.0310     13.9441     61.9813     20.1047
   646.4000      8.3687      2.4267      0.0109     13.5334     63.1023     19.6468
   646.5000      8.3656      2.4533      0.0438     11.9201     63.4907     19.2926
   646.6000      8.3656      2.4746      0.0901     10.6313     61.3184     19.1190
   646.7000      8.3656      2.4676      0.0840     11.0524     59.3340     19.2228
   646.8000      8.3700      2.4430      0.0735     12.5438     61.4905     19.6783
   646.9000      8.3700      2.4293      0.0347     13.3745     65.2104     20.4016
   647.0000      8.3506      2.4458      0.0224     12.3731     67.9467     21.0698
   647.1000      8.3506      2.4897      0.0652      9.7175     71.0929     21.3633
   647.2000      8.3506      2.5397      0.0821      6.6846     73.3556     21.4781
   647.3000      8.2903      2.5757      0.1157      4.5015     70.9468     21.7975
   647.4000      8.2903      2.5855      0.1636      3.9076     65.3845     22.2284
   647.5000      8.2920      2.5670      0.0676      5.0317     62.3677     22.6214
   647.6000      8.2920      2.5381      0.0629      6.7793     63.3824     23.0301
   647.7000      8.2920      2.5210      0.0417      7.8164     66.2850     23.2764
   647.8000      8.2858      2.5158      0.0979      8.1337     71.2516     23.2899
   647.9000      8.2858      2.5099      0.0435      8.4909     76.4392     23.3691
   648.0000      8.2769      2.5082      0.0239      8.5938     76.7320     23.7577
   648.1000      8.2769      2.5188      0.0692      7.9508     73.2680     24.2610
   648.2000      8.2769      2.5330      0.0360      7.0887     73.5701     24.4849
   648.3000      8.2481      2.5455      0.0915      6.3341     81.6337     24.2928
   648.4000      8.2481      2.5637      0.1125      5.2304     91.4589     23.8806
   648.5000      8.2365      2.5875      0.1422      3.7907     96.6463     23.6041
   648.6000      8.2365      2.5911      0.1543      3.5721    100.0526     23.8754
   648.7000      8.2365      2.5575      0.1138      5.6044    106.6103     24.6842
   648.8000      8.2124      2.5099      0.0327      8.4891    113.9946     25.4762
   648.9000      8.2124      2.4795      0.0337     10.3309    116.8397     25.9907
   649.0000      8.2341      2.4764     -0.0060     10.5241    114.0567     26.2830
   649.1000      8.2341      2.4995      0.0055      9.1219    109.4639     26.3250
   649.2000      8.2341      2.5407      0.0894      6.6258    111.8653     26.1803
   649.3000      8.2481      2.5806      0.1572      4.2076    124.1278     26.0476
   649.4000      8.2481      2.6045      0.0986      2.7570    133.9389     26.2213
   649.5000      8.2512      2.6154      0.1492      2.0952    131.0239     26.5762
   649.6000      8.2512      2.6290      0.1362      1.2743    120.1611     26.8373
   649.7000      8.2512      2.6460      0.1835      0.2434    114.7331     27.0512
   649.8000      8.2374      2.6434      0.1306      0.4000    118.5054     26.8978
   649.9000      8.2374      2.6146      0.1408      2.1461    121.9107     26.1142
   650.0000      8.2149      2.5772      0.0905      4.4115    121.8601     25.4765
   650.1000      8.2149      2.5480      0.0585      6.1834    122.0667     25.7119
   650.2000      8.2149      2.5390      0.0077      6.7266    120.8424     26.3729
   650.3000      8.1973      2.5501      0.0830      6.0543    117.8247     26.5292
   650.4000      8.1973      2.5621      0.0712      5.3299    115.8713     25.9456
   650.5000      8.2031      2.5595      0.0749      5.4866    115.6948     25.3718
   650.6000      8.2031      2.5425      0.0621      6.5159    116.5554     25.4898
   650.7000      8.2031      2.5254      0.0030      7.5540    117.0961     26.0121
   650.8000      8.2133      2.5263      0.0282      7.4973    117.1661     26.2511
   650.9000      8.2133      2.5425      0.0566      6.5133    120.4352     25.7768
   651.0000      8.2052      2.5523      0.0749      5.9225    126.5814     24.7784
   651.1000      8.2052      2.5419      0.1188      6.5493    126.2578     23.9384
   651.2000      8.2052      2.5200      0.0341      7.8789    118.7460     23.6627
   651.3000      8.1901      2.5007      0.0782      9.0469    116.8108     23.3911
   651.4000      8.1901      2.4841      0.0322     10.0522    123.9378     22.7327
   651.5000      8.1920      2.4697      0.0016     10.9296    128.7416     22.3351
   651.6000      8.1920      2.4623      0.0440     11.3751    124.1895     22.5052
   651.7000      8.1920      2.4596      0.0499     11.5397    115.9582     22.7067
   651.8000      8.2001      2.4600      0.0295     11.5170    111.2663     22.5629
   651.9000      8.2001      2.4690      0.0766     10.9725    112.4194     22.2159
   652.0000      8.2260      2.4885      0.0792      9.7865    116.1376     21.7628
   652.1000      8.2260      2.5101      0.1598      8.4796    115.8964     21.2881
   652.2000      8.2260      2.5118      0.1977      8.3752    113.6302     21.1268
   652.3000      8.2543      2.4817      0.1171     10.1996    113.7050     21.4732
   652.4000      8.2543      2.4359      0.0939     12.9753    113.1870     22.0949
   652.5000      8.2766      2.3990      0.0791     15.2138    113.0937     22.5619
   652.6000      8.2766      2.3882      0.0586     15.8648    116.5763     22.6288
   652.7000      8.2766      2.4052      0.0925     14.8341    120.4321     22.3787
   652.8000      8.3023      2.4379      0.0928     12.8568    123.1619     22.1204
   652.9000      8.3023      2.4774      0.1211     10.4598    125.3216     22.1605
   653.0000      8.3999      2.5127      0.1965      8.3205    126.6649     22.3232
   653.1000      8.3999      2.5293      0.2323      7.3132    128.7448     22.5085
   653.2000      8.3999      2.5275      0.2241      7.4241    131.8628     22.8639
   653.3000      8.5862      2.5177      0.2619      8.0185    135.1864     23.3061
   653.4000      8.5862      2.5029      0.2588      8.9181    137.3553     23.8719
   653.5000      8.7773      2.4822      0.1717     10.1712    135.4801     24.5379
   653.6000      8.7773      2.4655      0.1279     11.1840    128.2094     25.0353
   653.7000      8.7773      2.4570      0.1149     11.6974    118.4871     25.3090
   653.8000      8.8024      2.4410      0.1086     12.6639    112.6251     25.2772
   653.9000      8.8024      2.4168      0.0248     14.1325    111.4681     24.9358
   654.0000      8.8262      2.4224     -0.0056     13.7929    108.9250     24.7275
   654.1000      8.8262      2.4798      0.1117     10.3142    104.7977     24.8418
   654.2000      8.8262      2.5553      0.2228      5.7395    103.8809     25.1250
   654.3000      8.3229      2.6024      0.2387      2.8833    105.1738     25.4874
   654.4000      8.3229      2.6047      0.2278      2.7425    102.9032     25.4726
   654.5000      8.2092      2.5824      0.1301      4.0948     97.8839     25.1170
   654.6000      8.2092      2.5606      0.1366      5.4162     95.1451     24.8534
   654.7000      8.2092      2.5409      0.1031      6.6141     95.4987     24.4580
   654.8000      8.2057      2.5239      0.0567      7.6451     95.7595     23.9550
   654.9000      8.2057      2.5163      0.0739      8.1003     92.8813     23.7595
   655.0000      8.2081      2.5175      0.0332      8.0333     90.1208     23.7668
   655.1000      8.2081      2.5188      0.0667      7.9500     92.1891     23.8354
   655.2000      8.2081      2.5144     -0.0047      8.2205     95.9311     24.0209
   655.3000      8.1942      2.5066      0.0583      8.6909     94.9337     23.9969
   655.4000      8.1942      2.4942      0.0272      9.4423     89.1653     23.4743
   655.5000      8.1789      2.4781      0.0236     10.4178     85.8747     22.7812
