~Version Information
VERS.                      2.0: CWLS Log ASCII Standard - VERSION 2.0
WRAP.                       NO: One line per depth step
~Well Information Block
STRT.FT               670.0000: 
STOP.FT              2108.5000: 
STEP.FT                 0.1000: 
NULL.                -999.2500: 
COMP.          Petrogulf Corporation: COMPANY
WELL.           Montoya 12-44R: WELL
FLD.           Purgatorie River: FIELD
LOC.           713' FSL & 798' FEL: LOCATION
PROV.                 Colorado: PROVINCE
CNTY.               Las Animas: COUNTRY
SRVC.                Patterson: SERVICE COMPANY
DATE.          Mon Oct 03 07:50:59 2005: LOG DATE
UWI.           05-071-08538               : UNIQUE WELL ID
~Curve Information Block
DEPT.FT            0 000 00 00: Depth
DCAL.in                       : CDL Caliper
RHOB.g/cc                     : CDL Bulk Density
RHOC.g/cc                     : CDL Density Correction
DPOR.pu                       : CDL Density Porosity
GR.GAPI                       : Gamma Ray
NPOR.pu                       : Neutron Porosity
~Parameter Information Block
~A  Depth       DCAL        RHOB        RHOC        DPOR         GR         NPOR    
# ...
   766.0000      8.1902      2.5933      0.0357      3.4352    131.3015     28.9000
   766.1000      8.1902      2.5839      0.0495      4.0056    130.7663     28.6388
   766.2000      8.1902      2.5770      0.0433      4.4244    130.4916     28.2221
   766.3000      8.1592      2.5716      0.0249      4.7519    129.3463     27.6811
   766.4000      8.1592      2.5743      0.0394      4.5877    126.6121     27.0577
   766.5000      8.0617      2.5781      0.0559      4.3583    123.3258     26.5288
   766.6000      8.0617      2.5744      0.0297      4.5817    121.3935     26.1392
   766.7000      8.0617      2.5693      0.0147      4.8912    122.1953     25.7092
   766.8000      8.0169      2.5681      0.0390      4.9623    126.8955     25.1657
   766.9000      8.0169      2.5689      0.0490      4.9181    134.3525     24.6918
   767.0000      8.0032      2.5740      0.0741      4.6039    138.8148     24.4193
   767.1000      8.0032      2.5851      0.0663      3.9309    136.4002     24.2699
   767.2000      8.0032      2.5948      0.1135      3.3433    131.0153     24.2988
   767.3000      8.0083      2.6001      0.0735      3.0235    128.8604     24.5182
   767.4000      8.0083      2.6068      0.0742      2.6166    131.7671     24.7715
   767.5000      8.0101      2.6116      0.1217      2.3289    135.3506     25.0497
   767.6000      8.0101      2.6034      0.1073      2.8231    134.1611     25.3792
   767.7000      8.0101      2.5832      0.0816      4.0478    130.0818     25.7505
   767.8000      8.0029      2.5629      0.0470      5.2763    127.9907     26.2364
   767.9000      8.0029      2.5507      0.0443      6.0207    128.7490     26.7224
   768.0000      8.0066      2.5432      0.0361      6.4751    130.9499     26.9474
   768.1000      8.0066      2.5350      0.0265      6.9711    132.2827     26.8925
   768.2000      8.0066      2.5277      0.0297      7.4126    130.9888     26.7371
   768.3000      7.9939      2.5277      0.0101      7.4109    129.0849     26.6713
   768.4000      7.9939      2.5331      0.0761      7.0860    128.7594     26.7217
   768.5000      7.9670      2.5356      0.0673      6.9339    127.6945     26.6234
   768.6000      7.9670      2.5416      0.0381      6.5691    124.3218     26.1418
   768.7000      7.9670      2.5546      0.1117      5.7818    121.9801     25.3996
   768.8000      7.9519      2.5605      0.0952      5.4229    120.9286     24.7637
   768.9000      7.9519      2.5577      0.0717      5.5932    119.0567     24.5042
   769.0000      7.9542      2.5580      0.1203      5.5749    118.8759     24.6553
   769.1000      7.9542      2.5623      0.0953      5.3167    120.2378     25.0180
   769.2000      7.9542      2.5652      0.0820      5.1367    118.7491     25.2511
   769.3000      7.9526      2.5610      0.0784      5.3937    114.1440     25.2781
   769.4000      7.9526      2.5471      0.0254      6.2363    110.8240     25.1959
   769.5000      7.9446      2.5367      0.0438      6.8652    111.6135     25.1850
   769.6000      7.9446      2.5422      0.0172      6.5347    113.9330     25.4521
   769.7000      7.9446      2.5574      0.0605      5.6138    113.9419     25.6989
   769.8000      7.9451      2.5708      0.0452      4.7997    110.9321     25.5894
   769.9000      7.9451      2.5838      0.0505      4.0117    105.6755     25.2935
   770.0000      7.9333      2.6073      0.0515      2.5904     98.5078     24.9779
   770.1000      7.9333      2.6421      0.0931      0.4786     92.7913     24.6294
   770.2000      7.9333      2.6740      0.1276     -1.4574     92.2885     24.3102
   770.3000      7.9254      2.6945      0.1412     -2.6960     93.1749     24.0771
   770.4000      7.9254      2.7059      0.1597     -3.3904     91.6728     23.9206
   770.5000      7.9227      2.7047      0.1766     -3.3148     90.5610     23.8950
   770.6000      7.9227      2.6826      0.1571     -1.9760     90.3546     24.0458
   770.7000      7.9227      2.6523      0.1103     -0.1419     88.1157     24.1615
   770.8000      7.9155      2.6358      0.1055      0.8594     85.9743     23.9772
   770.9000      7.9155      2.6287      0.0880      1.2930     87.3549     23.5829
   771.0000      7.9129      2.6128      0.0339      2.2532     91.3064     23.2524
   771.1000      7.9129      2.5904      0.0335      3.6123     96.0449     23.1774
   771.2000      7.9129      2.5813     -0.0103      4.1647    100.7170     23.2769
   771.3000      7.9474      2.5944      0.0263      3.3715    103.4918     23.2891
   771.4000      7.9474      2.6141      0.0430      2.1773    102.0100     23.3041
   771.5000      7.9662      2.6246      0.0065      1.5390     98.7228     23.5124
   771.6000      7.9662      2.6260      0.0321      1.4549     99.4350     23.8821
   771.7000      7.9662      2.6274      0.0115      1.3713    103.3620     24.4136
   771.8000      7.9523      2.6313      0.0662      1.1319    104.8943     25.0273
   771.9000      7.9523      2.6302      0.0266      1.2007    103.2844     25.3943
   772.0000      7.9524      2.6332     -0.0230      1.0211    101.6949     25.5286
   772.1000      7.9524      2.6526      0.0445     -0.1579    101.0029     25.7375
   772.2000      7.9524      2.6715      0.0655     -1.3044    100.5145     26.0349
   772.3000      7.9459      2.6743      0.0730     -1.4743    101.1432     26.2345
   772.4000      7.9459      2.6733      0.0826     -1.4117    102.6944     26.1632
   772.5000      7.9387      2.6832      0.0891     -2.0106    103.8612     25.7686
   772.6000      7.9387      2.7021      0.0922     -3.1601    105.5012     25.3236
   772.7000      7.9387      2.7228      0.1023     -4.4111    109.2876     25.0534
   772.8000      7.9299      2.7446      0.1312     -5.7360    113.2943     24.9512
   772.9000      7.9299      2.7591      0.1841     -6.6141    115.0603     24.9343
   773.0000      7.9308      2.7509      0.1308     -6.1139    114.7556     24.8020
   773.1000      7.9308      2.7294      0.0792     -4.8107    113.0114     24.5851
   773.2000      7.9308      2.7147      0.1023     -3.9193    110.9574     24.6337
   773.3000      7.9384      2.7081      0.1003     -3.5205    108.9216     25.0071
   773.4000      7.9384      2.7014      0.0570     -3.1172    106.8699     25.4567
   773.5000      7.9423      2.6877      0.0750     -2.2847    104.0416     25.8647
   773.6000      7.9423      2.6608      0.0669     -0.6556     99.8173     26.2043
   773.7000      7.9423      2.6300      0.0196      1.2125     96.4701     26.3379
   773.8000      7.9488      2.6199      0.0166      1.8217     96.0918     26.3198
   773.9000      7.9488      2.6411      0.0532      0.5407     97.4018     26.3157
   774.0000      7.9499      2.6740      0.0870     -1.4562     97.8125     26.1774
   774.1000      7.9499      2.6886      0.0944     -2.3386     97.0053     25.8822
   774.2000      7.9499      2.6766      0.0547     -1.6115     96.4537     25.6659
   774.3000      7.9531      2.6596      0.0752     -0.5788     96.4387     25.5445
   774.4000      7.9531      2.6609      0.1242     -0.6622     96.0298     25.4102
   774.5000      7.9620      2.6821      0.1288     -1.9463     95.3820     25.4358
   774.6000      7.9620      2.7075      0.1462     -3.4874     95.7095     25.6825
   774.7000      7.9620      2.7223      0.1581     -4.3830     97.3966     25.7793
   774.8000      7.9669      2.7296      0.1040     -4.8219     99.5070     25.6997
   774.9000      7.9669      2.7439      0.1396     -5.6896     99.6927     25.7567
   775.0000      7.9804      2.7619      0.1606     -6.7846     96.7851     25.9727
   775.1000      7.9804      2.7690      0.1477     -7.2150     94.5273     26.1145
   775.2000      7.9804      2.7622      0.1424     -6.8012     96.4125     26.1469
   775.3000      7.9891      2.7455      0.1382     -5.7871    100.6494     26.1917
   775.4000      7.9891      2.7214      0.1052     -4.3262    102.1122     26.1959
   775.5000      7.9964      2.6983      0.0706     -2.9292     99.1102     26.1288
