~Version Information
VERS.                      2.0: CWLS Log ASCII Standard - VERSION 2.0
WRAP.                       NO: One line per depth step
~Well Information Block
STRT.FT                10.0000: 
STOP.FT              1187.0000: 
STEP.FT                 0.1000: 
NULL.                -999.2500: 
COMP.          Pioneer Natural Resources: COMPANY
WELL.          Whitecoat 14-36: WELL
FLD.           Purgatorie River: FIELD
LOC.           606' FSL & 260' FWL: LOCATION
PROV.                 Colorado: PROVINCE
CNTY.               Las Animas: COUNTRY
SRVC.                Patterson: SERVICE COMPANY
DATE.          Tue Dec 06 07:14:37 2005: LOG DATE
UWI.                          : UNIQUE WELL ID
~Curve Information Block
DEPT.FT            0 000 00 00: Depth
DCAL.in                       : CDL Caliper
RHOB.g/cc                     : CDL Bulk Density
RHOC.g/cc                     : CDL Density Correction
DPOR.pu                       : CDL Density Porosity
GR.GAPI                       : Gamma Ray
NPOR.pu                       : Neutron Porosity
~Parameter Information Block
~A  Depth       DCAL        RHOB        RHOC        DPOR         GR         NPOR    
# ...
   163.6000     -3.1029      2.1423      2.2877     -0.0102    127.9870     25.0120
   163.7000     -3.1029      2.1458      2.2992     -0.0101    128.4601     25.4054
   163.8000     -3.1029      2.1540      2.3490     -0.0099    127.2177     26.3438
   163.9000     -3.1029      2.1524      2.3463     -0.0100    126.7473     27.0603
   164.0000     -3.1029      2.1402      2.3198     -0.0102    126.1663     27.0490
   164.1000     -3.1029      2.1349      2.2921     -0.0103    125.5117     26.8738
   164.2000     -3.1029      2.1438      2.3156     -0.0101    125.9415     27.0585
   164.3000     -3.1029      2.1566      2.3297     -0.0099    126.7538     27.5519
   164.4000     -3.1029      2.1633      2.3257     -0.0097    127.4544     28.0032
   164.5000     -3.1029      2.1615      2.3429     -0.0098    125.4003     28.1155
   164.6000     -3.1029      2.1524      2.3134     -0.0100    119.8666     28.0324
   164.7000     -3.1029      2.1434      2.3035     -0.0101    116.4599     27.8125
   164.8000     -3.1029      2.1444      2.3237     -0.0101    118.5192     27.5024
   164.9000     -3.1029      2.1529      2.3525     -0.0099    123.9784     27.4850
   165.0000     -3.1029      2.1633      2.3036     -0.0097    128.5357     27.6779
   165.1000     -3.1029      2.1739      2.3639     -0.0095    129.7681     27.6902
   165.2000     -3.1029      2.1766      2.3531     -0.0095    128.5380     27.3698
   165.3000     -3.1029      2.1720      2.3458     -0.0096    127.4874     27.0149
   165.4000     -3.1029      2.1695      2.3467     -0.0096    127.7310     27.0442
   165.5000     -3.1029      2.1699      2.3517     -0.0096    126.9152     27.3294
   165.6000     -3.1029      2.1674      2.3427     -0.0097    123.6774     27.5441
   165.7000     -3.1029      2.1581      2.3312     -0.0098    120.5861     27.6776
   165.8000     -3.1029      2.1454      2.2927     -0.0101    118.7331     27.9200
   165.9000     -3.1029      2.1377      2.3173     -0.0103    117.6215     28.2392
   166.0000     -3.1029      2.1364      2.2894     -0.0103    117.8707     28.2454
   166.1000     -3.1029      2.1392      2.3150     -0.0102    118.5659     27.8094
   166.2000     -3.1029      2.1469      2.3192     -0.0101    117.0071     27.2740
   166.3000     -3.1029      2.1603      2.3621     -0.0098    113.2487     27.0737
   166.4000     -3.1029      2.1767      2.3436     -0.0095    110.5645     27.3987
   166.5000     -3.1029      2.1900      2.3668     -0.0092    111.6445     27.8396
   166.6000     -3.1029      2.1914      2.3952     -0.0092    115.4482     27.9104
   166.7000     -3.1029      2.1825      2.3554     -0.0094    118.0307     27.7736
   166.8000     -3.1029      2.1796      2.3267     -0.0094    118.4893     27.8775
   166.9000     -3.1029      2.1897      2.3822     -0.0092    119.9743     28.0556
   167.0000     -3.1029      2.2028      2.3777     -0.0089    121.3926     27.6497
   167.1000     -3.1029      2.2086      2.3947     -0.0088    117.3281     26.7916
   167.2000     -3.1029      2.2028      2.3955     -0.0089    110.0452     26.1565
   167.3000     -3.1029      2.1924      2.3313     -0.0092    107.3517     26.0596
   167.4000     -3.1029      2.1885      2.3661     -0.0092    107.8992     26.1543
   167.5000     -3.1029      2.1913      2.3687     -0.0092    103.5788     25.7921
   167.6000     -3.1029      2.1987      2.3459     -0.0090     93.5006     25.0420
   167.7000     -3.1029      2.2116      2.3657     -0.0088     85.7263     24.4102
   167.8000     -3.1029      2.2236      2.4246     -0.0085     83.6328     24.1815
   167.9000     -3.1029      2.2256      2.4023     -0.0085     83.4227     24.1837
   168.0000     -3.1029      2.2223      2.3750     -0.0086     84.3602     23.8123
   168.1000     -3.1029      2.2230      2.3931     -0.0085     88.0009     23.0766
   168.2000     -3.1029      2.2261      2.3902     -0.0085     90.5778     22.3836
   168.3000     -3.1029      2.2237      2.4059     -0.0085     88.0383     21.9660
   168.4000     -3.1029      2.2127      2.3929     -0.0088     84.4121     22.1442
   168.5000     -3.1029      2.2051      2.3558     -0.0089     86.0873     22.6249
   168.6000     -3.1029      2.2141      2.4032     -0.0087     91.7592     22.8444
   168.7000     -3.1029      2.2292      2.4189     -0.0084     95.8430     22.9745
   168.8000     -3.1029      2.2303      2.4398     -0.0084     97.3972     23.1763
   168.9000     -3.1029      2.2187      2.4138     -0.0086    100.0782     23.2815
   169.0000     -3.1029      2.2143      2.3898     -0.0087    103.9932     23.4000
   169.1000     -3.1029      2.2247      2.3890     -0.0085    103.9098     23.5977
   169.2000     -3.1029      2.2347      2.4199     -0.0083    100.9708     23.5742
   169.3000     -3.1029      2.2312      2.4397     -0.0084    101.1517     23.2345
   169.4000     -3.1029      2.2201      2.4118     -0.0086    102.8882     22.9653
   169.5000     -3.1029      2.2156      2.3828     -0.0087    103.3391     23.1409
   169.6000     -3.1029      2.2212      2.4225     -0.0086    104.3404     23.8679
   169.7000     -3.1029      2.2286      2.4213     -0.0084    106.7859     24.9114
   169.8000     -3.1029      2.2306      2.4330     -0.0084    110.2259     25.7832
   169.9000     -3.1029      2.2236      2.4118     -0.0085    111.9846     26.1623
   170.0000     -3.1029      2.2070      2.3821     -0.0089    111.6494     26.0748
   170.1000     -3.1029      2.1868      2.3846     -0.0093    111.4650     25.7772
   170.2000     -3.1029      2.1729      2.3698     -0.0095    111.6588     25.5528
   170.3000     -3.1029      2.1730      2.3883     -0.0095    113.0834     25.4839
   170.4000     -3.1029      2.1850      2.3783     -0.0093    114.5606     25.1413
   170.5000     -3.1029      2.1974      2.4166     -0.0091    111.9846     24.3965
   170.6000     -3.1029      2.1984      2.4070     -0.0090    108.2345     24.0873
   170.7000     -3.1029      2.1890      2.3858     -0.0092    108.3692     24.8249
   170.8000     -3.1029      2.1810      2.3945     -0.0094    109.9655     26.1490
   170.9000     -3.1029      2.1835      2.4247     -0.0093    112.0915     27.0876
   171.0000     -3.1029      2.1953      2.4040     -0.0091    116.8700     27.3905
   171.1000     -3.1029      2.2054      2.4261     -0.0089    121.9771     27.3136
   171.2000     -3.1029      2.2048      2.4006     -0.0089    124.3775     26.7907
   171.3000     -3.1029      2.1999      2.3717     -0.0090    123.2158     26.0885
   171.4000     -3.1029      2.1974      2.4333     -0.0091    120.9748     25.8633
   171.5000     -3.1029      2.1985      2.3631     -0.0090    119.3106     26.3076
   171.6000     -3.1029      2.2069      2.4126     -0.0089    114.9912     27.0169
   171.7000     -3.1029      2.2159      2.4215     -0.0087    110.1243     27.5598
   171.8000     -3.1029      2.2196      2.4149     -0.0086    111.3643     27.9987
   171.9000     -3.1029      2.2198      2.4571     -0.0086    116.6452     28.5638
   172.0000     -3.1029      2.2168      2.4032     -0.0087    118.8956     28.9217
   172.1000     -3.1029      2.2127      2.4040     -0.0088    116.5805     28.6382
   172.2000     -3.1029      2.2083      2.4151     -0.0088    113.7780     28.0414
   172.3000     -3.1029      2.2042      2.3927     -0.0089    113.8192     27.6493
   172.4000     -3.1029      2.2039      2.3905     -0.0089    115.0169     27.3165
   172.5000     -3.1029      2.2058      2.4121     -0.0089    114.2902     27.0693
   172.6000     -3.1029      2.2051      2.4134     -0.0089    113.1604     27.1722
   172.7000     -3.1029      2.1984      2.4140     -0.0090    114.4408     27.2980
   172.8000     -3.1029      2.1871      2.3762     -0.0093    116.1219     27.1652
   172.9000     -3.1029      2.1788      2.3903     -0.0094    115.4522     26.9897
   173.0000     -3.1029      2.1757      2.4160     -0.0095    114.3375     26.8601
   173.1000     -3.1029      2.1733      2.3941     -0.0095    113.4312     26.6879
