~Version Information
VERS.                      2.0: CWLS Log ASCII Standard - VERSION 2.0
WRAP.                       NO: One line per depth step
~Well Information Block
STRT.FT                 0.0000: 
STOP.FT              1538.0000: 
STEP.FT                 0.2500: 
NULL.                -999.2500: 
COMP.          Pioneer Natural Resources: COMPANY
WELL.           Butch 33-10 TR: WELL
FLD.           Purgatorie River: FIELD
LOC.           2309' FSL & 1337' FEL: LOCATION
PROV.                 Colorado: PROVINCE
CNTY.               Las Animas: COUNTRY
SRVC.                Patterson: SERVICE COMPANY
DATE.          Thu Jan 19 12:40:27 2006: LOG DATE
UWI.                          : UNIQUE WELL ID
~Curve Information Block
DEPT.FT            0 000 00 00: Depth
CCL.                          : Casing Collar Locator
TT3.usec                      : CBL 3' Travel Time
AMP3.mV                       : CBL 3' Amplitude
GR.GAPI                       : Gamma Ray
~Parameter Information Block
~A  Depth       CCL         TT3         AMP3         GR     
# ...
   301.5000      0.0000    302.8814     24.5970     45.7017
   301.7500      0.0000    303.0200     24.3338     46.0398
   302.0000      0.0000    303.1386     24.1706     45.3110
   302.2500      0.0000    303.2118     24.0225     43.4941
   302.5000      0.0000    303.2688     23.7763     41.2853
   302.7500      0.0000    303.3542     23.4380     39.3876
   303.0000      0.0000    303.4958     23.0554     37.6704
   303.2500      0.0000    303.6747     22.6438     35.4677
   303.5000      0.0000    303.8440     22.2344     32.6692
   303.7500      0.0000    303.9930     21.8801     30.1481
   304.0000      0.0000    304.1463     21.6080     29.0378
   304.2500      0.0000    304.2643     21.4697     29.7898
   304.5000      0.0000    304.2365     21.5597     31.9576
   304.7500      0.0000    304.0552     21.8276     34.6994
   305.0000      0.0000    303.8622     22.0223     37.4392
   305.2500      0.0000    303.7666     21.9788     40.1749
   305.5000      0.0000    303.7412     21.7924     43.1986
   305.7500      0.0000    303.7113     21.6384     46.4691
   306.0000      0.0000    303.6678     21.5668     49.3590
   306.2500      0.0000    303.6729     21.4973     51.1487
   306.5000      0.0000    303.7940     21.3541     51.6940
   306.7500      0.0000    304.0554     21.1544     51.5822
   307.0000      0.0000    304.3864     20.9596     51.8203
   307.2500      0.0000    304.6101     20.8500     53.3851
   307.5000      0.0000    304.6094     20.8811     56.6850
   307.7500      0.0000    304.5099     20.9354     61.0960
   308.0000      0.0000    304.5992     20.8087     65.2010
   308.2500      0.0000    305.3060     20.5036     67.8760
   308.5000      0.0000    307.7283     20.1985     69.0588
   308.7500      0.0000    313.4684     19.9920     69.3905
   309.0000      0.0000    321.3896     19.8845     69.5511
   309.2500      0.0000    325.7058     19.8775     70.1271
   309.5000      0.0000    324.2667     19.9104     71.5055
   309.7500      0.0000    328.2755     19.7627     73.4350
   310.0000      0.0000    355.1686     19.1397     74.9984
   310.2500      0.0000    404.9578     17.9964     75.4354
   310.5000      0.0000    449.5799     16.8323     74.9916
   310.7500      0.0000    470.1589     16.1621     74.6977
   311.0000      0.0000    488.8634     15.6371     75.1053
   311.2500      0.0000    531.9563     14.7310     75.4536
   311.5000      0.0000    596.7593     13.7943     74.4953
   311.7500      0.0000    660.0915     13.3261     72.1126
   312.0000     -2.0000    693.0384     13.2651     69.7971
   312.2500      2.0000    693.8475     13.3495     69.4593
   312.5000      0.0000    696.7084     13.4039     71.7755
   312.7500      0.0000    718.0281     13.4318     75.5414
   313.0000      0.0000    719.7532     13.7423     78.5795
   313.2500      0.0000    655.1702     14.8871     79.5471
   313.5000      0.0000    536.9489     16.9474     79.0366
   313.7500      0.0000    427.1480     18.8262     78.8245
   314.0000      0.0000    366.4882     19.4199     80.1055
   314.2500      0.0000    356.3484     19.0968     82.6853
   314.5000      0.0000    395.6898     18.7065     85.5286
   314.7500      0.0000    483.0109     18.4073     87.4394
   315.0000      0.0000    588.9290     18.1120     87.4584
   315.2500      0.0000    667.7731     17.8966     85.4929
   315.5000      0.0000    693.6452     17.8235     82.6494
   315.7500      0.0000    661.6606     17.8844     80.3386
   316.0000      0.0000    579.6572     18.0877     78.9118
   316.2500      0.0000    487.5399     18.3975     77.5525
   316.5000      0.0000    448.5484     18.6795     75.4919
   316.7500      0.0000    488.8819     18.8513     72.9074
   317.0000      0.0000    571.3255     18.9798     70.5831
   317.2500      0.0000    641.8718     19.1668     69.0267
   317.5000      0.0000    672.2173     19.4166     68.0443
   317.7500      0.0000    649.3870     19.6631     67.0681
   318.0000      0.0000    569.7894     19.8742     65.8596
   318.2500      0.0000    462.5609     20.0475     64.8571
   318.5000      0.0000    378.5525     20.1271     64.7505
   318.7500      0.0000    340.0414     20.0396     65.7761
   319.0000      0.0000    328.8317     19.8229     67.6105
   319.2500      0.0000    322.2914     19.6109     69.8680
   319.5000      0.0000    316.9740     19.4791     72.4120
   319.7500      0.0000    320.0088     19.3900     75.1848
   320.0000      0.0000    334.6624     19.2863     77.8969
   320.2500      0.0000    356.9507     19.1725     79.8588
   320.5000      0.0000    383.5014     19.0779     80.2765
   320.7500      0.0000    418.0321     19.0200     79.1590
   321.0000      0.0000    455.0426     19.0333     77.8759
   321.2500      0.0000    465.7119     19.1457     78.2063
   321.5000      0.0000    432.6526     19.3390     80.5951
   321.7500      0.0000    379.8867     19.5852     83.6801
   322.0000      0.0000    338.8896     19.8474     85.8113
   322.2500      0.0000    317.3112     20.0443     86.7565
   322.5000      0.0000    308.7401     20.1204     87.5427
   322.7500      0.0000    306.2704     20.1218     88.8853
   323.0000      0.0000    306.1642     20.1399     90.3872
   323.2500      0.0000    308.8692     20.2046     91.2777
   323.5000      0.0000    320.8687     20.2554     91.4058
   323.7500      0.0000    351.9156     20.2480     91.2096
   324.0000      0.0000    395.7375     20.2736     90.9468
   324.2500      0.0000    417.9710     20.4768     90.3392
   324.5000      0.0000    395.1470     20.8544     89.0654
   324.7500      0.0000    350.8038     21.2339     87.3997
   325.0000      0.0000    319.3661     21.4199     86.1256
   325.2500      0.0000    307.2044     21.3096     85.8069
   325.5000      0.0000    304.5716     20.9446     86.2885
   325.7500      0.0000    304.5057     20.4831     86.9484
   326.0000      0.0000    304.8363     20.0998     87.2637
   326.2500      0.0000    305.1964     19.8870     86.9928
   326.5000      0.0000    305.8981     19.8193     86.0757
   326.7500      0.0000    308.2078     19.8291     84.7630
   327.0000      0.0000    313.9354     19.9031     83.7504
   327.2500      0.0000    322.3492     20.0455     83.5854
   327.5000      0.0000    328.8629     20.1981     83.7414
   327.7500      0.0000    332.2215     20.2686     82.8993
   328.0000      0.0000    337.6921     20.2136     80.6933
   328.2500      0.0000    346.4009     20.0732     78.6383
   328.5000      0.0000    354.8098     19.9161     78.5256
   328.7500      0.0000    370.6924     19.7506     80.1625
   329.0000      0.0000    412.8678     19.5468     81.4451
   329.2500      0.0000    483.7460     19.3269     80.6614
   329.5000      0.0000    547.3363     19.1575     78.2380
   329.7500      0.0000    557.7327     19.0803     76.1438
   330.0000      0.0000    514.9612     19.0852     75.7708
   330.2500      0.0000    459.1343     19.1269     76.4645
   330.5000      0.0000    418.1520     19.1510     76.2314
   330.7500      0.0000    395.3175     19.1223     73.8643
   331.0000      0.0000    387.5215     19.0418     70.1931
   331.2500      0.0000    396.6344     18.9279     67.3932
   331.5000      0.0000    432.7416     18.7747     67.3544
   331.7500      0.0000    497.7414     18.5649     70.3809
   332.0000      0.0000    556.9733     18.3799     74.9115
   332.2500      0.0000    558.8546     18.3977     78.4809
   332.5000      0.0000    499.6849     18.6901     79.3743
   332.7500      0.0000    427.2769     19.1177     77.6546
   333.0000      0.0000    377.9579     19.4674     74.7193
   333.2500      0.0000    352.1662     19.6434     72.0325
   333.5000      0.0000    337.1776     19.7065     70.2854
   333.7500      0.0000    324.6576     19.7630     69.4454
   334.0000      0.0000    314.2334     19.8864     69.2828
   334.2500      0.0000    308.1349     20.1286     69.7613
   334.5000      0.0000    305.7512     20.5195     71.1194
   334.7500      0.0000    304.9554     21.0460     73.8703
