~Version Information
VERS.                      2.0: CWLS Log ASCII Standard - VERSION 2.0
WRAP.                       NO: One line per depth step
~Well Information Block
STRT.FT               245.0000: 
STOP.FT              1006.0000: 
STEP.FT                 0.1000: 
NULL.                -999.2500: 
COMP.          Pioneer Natural Resources: COMPANY
WELL.              Atlas 32-18: WELL
FLD.           Purgatoire River: FIELD
LOC.           1892' FNL & 1456' FEL: LOCATION
PROV.                 Colorado: PROVINCE
CNTY.               Las Animas: COUNTRY
SRVC.                Patterson: SERVICE COMPANY
DATE.          Mon Nov 21 08:58:56 2005: LOG DATE
UWI.           05 071 08556 00: UNIQUE WELL ID
~Curve Information Block
DEPT.FT            0 000 00 00: Depth
DCAL.in                       : CDL Caliper
RHOB.g/cc                     : CDL Bulk Density
RHOC.g/cc                     : CDL Density Correction
DPOR.pu                       : CDL Density Porosity
GR.GAPI                       : Gamma Ray
NPOR.pu                       : Neutron Porosity
~Parameter Information Block
~A  Depth       DCAL        RHOB        RHOC        DPOR         GR         NPOR    
# ...
   446.6000      8.0545      2.5421      0.0188      6.5366    135.1375     26.7436
   446.7000      8.0545      2.5424      0.0565      6.5210    137.0911     26.5690
   446.8000      8.0424      2.5397      0.0417      6.6825    136.2571     26.3046
   446.9000      8.0424      2.5220      0.0056      7.7596    132.5186     25.9890
   447.0000      8.0153      2.4986     -0.0637      9.1780    132.5927     25.8675
   447.1000      8.0153      2.4887     -0.0010      9.7783    135.3509     25.9162
   447.2000      8.0153      2.4947     -0.0137      9.4128    133.4789     25.8822
   447.3000      8.0370      2.5081      0.0099      8.5999    124.6279     25.7473
   447.4000      8.0370      2.5182      0.0272      7.9858    113.8954     25.3410
   447.5000      8.0267      2.5157      0.0643      8.1424    107.8214     24.5138
   447.6000      8.0267      2.5074      0.0621      8.6449    110.4458     23.7859
   447.7000      8.0267      2.5107      0.0458      8.4441    119.7655     23.4851
   447.8000      7.9969      2.5294      0.0980      7.3107    126.4205     23.2302
   447.9000      7.9969      2.5543      0.1057      5.7992    126.9478     23.0009
   448.0000      7.9722      2.5753      0.1240      4.5268    126.2753     23.0634
   448.1000      7.9722      2.5851      0.1250      3.9331    124.8119     23.2204
   448.2000      7.9722      2.5871      0.1599      3.8109    122.9338     23.2543
   448.3000      7.9531      2.5898      0.1271      3.6505    124.6612     23.1732
   448.4000      7.9531      2.6004      0.1312      3.0045    126.8232     22.9926
   448.5000      7.9510      2.6225      0.1492      1.6697    125.8611     22.8224
   448.6000      7.9510      2.6433      0.1986      0.4043    121.8203     22.8540
   448.7000      7.9510      2.6430      0.1593      0.4247    114.5863     23.1778
   448.8000      7.9706      2.6238      0.0810      1.5863    107.0660     23.7428
   448.9000      7.9706      2.6014      0.0969      2.9472    104.2315     24.2029
   449.0000      7.9841      2.5800      0.0668      4.2447    106.5681     24.2201
   449.1000      7.9841      2.5656      0.0252      5.1149    106.4602     23.8816
   449.2000      7.9841      2.5646      0.0425      5.1769    100.7580     23.3111
   449.3000      7.9893      2.5656      0.0622      5.1128     96.5125     22.6679
   449.4000      7.9893      2.5528      0.0403      5.8931     95.4691     22.3635
   449.5000      7.9708      2.5338     -0.0546      7.0426     94.4594     22.5331
   449.6000      7.9708      2.5276      0.0336      7.4156     94.4638     22.8354
   449.7000      7.9708      2.5320      0.0278      7.1541     96.9127     23.2056
   449.8000      7.9781      2.5341      0.0314      7.0243    100.6673     23.6478
   449.9000      7.9781      2.5316      0.0114      7.1728    103.3893     23.8020
   450.0000      7.9948      2.5325      0.0108      7.1235    103.7368     23.5270
   450.1000      7.9948      2.5423      0.0517      6.5261    102.0796     23.2053
   450.2000      7.9948      2.5637      0.0392      5.2322     99.8809     23.2851
   450.3000      7.9760      2.5884      0.0945      3.7340     98.2064     23.6318
   450.4000      7.9760      2.5977      0.0655      3.1724     95.7616     23.8408
   450.5000      7.9777      2.5906      0.0844      3.6023     92.7604     23.9143
   450.6000      7.9777      2.5759      0.0793      4.4918     93.0563     23.9204
   450.7000      7.9777      2.5645      0.0345      5.1823     97.0149     23.8267
   450.8000      7.9824      2.5780     -0.0364      4.3613     99.4961     23.7383
   450.9000      7.9824      2.6108      0.0738      2.3743     99.0221     23.7351
   451.0000      7.9882      2.6226      0.0438      1.6586     97.9800     23.7594
   451.1000      7.9882      2.5985      0.0708      3.1192     98.5027     23.8100
   451.2000      7.9882      2.5625      0.0001      5.3019    103.9258     23.8798
   451.3000      7.9885      2.5325      0.0130      7.1230    116.0476     23.9170
   451.4000      7.9885      2.5042     -0.0500      8.8393    131.8531     24.0040
   451.5000      8.0063      2.4805     -0.0656     10.2711    143.3392     24.2408
   451.6000      8.0063      2.4717     -0.0589     10.8089    145.2862     24.4743
   451.7000      8.0063      2.4806     -0.0260     10.2662    143.2681     24.5025
   451.8000      8.0134      2.5056     -0.0229      8.7500    145.4651     24.4525
   451.9000      8.0134      2.5364      0.0158      6.8845    152.2036     24.3444
   452.0000      8.0230      2.5538      0.0550      5.8312    159.2429     23.8682
   452.1000      8.0230      2.5487      0.0778      6.1420    165.9431     23.2368
   452.2000      8.0230      2.5303      0.0664      7.2547    172.7259     23.0686
   452.3000      8.0789      2.5162      0.0234      8.1101    175.4625     23.5205
   452.4000      8.0789      2.5208     -0.0012      7.8292    170.8344     24.2677
   452.5000      8.1358      2.5479     -0.0069      6.1882    162.9285     24.8170
   452.6000      8.1358      2.5796      0.0744      4.2685    157.4378     24.9899
   452.7000      8.1358      2.5847      0.0753      3.9572    155.6948     25.2261
   452.8000      8.1504      2.5640      0.0406      5.2142    156.1379     25.6748
   452.9000      8.1504      2.5442      0.0595      6.4115    157.1986     25.9893
   453.0000      8.0946      2.5386      0.0111      6.7544    156.1451     26.0079
   453.1000      8.0946      2.5454      0.0035      6.3405    152.8505     25.6729
   453.2000      8.0946      2.5513      0.0276      5.9821    150.1142     25.1743
   453.3000      8.0758      2.5480     -0.0157      6.1837    148.3052     25.0554
   453.4000      8.0758      2.5422      0.0058      6.5347    145.5850     25.4071
   453.5000      8.0538      2.5379      0.0165      6.7967    141.6560     25.7901
   453.6000      8.0538      2.5418      0.0261      6.5568    136.7501     25.8532
   453.7000      8.0538      2.5605      0.0492      5.4259    129.4620     25.5340
   453.8000      8.0391      2.5805      0.0680      4.2118    120.8293     25.1370
   453.9000      8.0391      2.5822      0.0634      4.1078    114.5877     24.8422
   454.0000      8.0464      2.5665      0.0492      5.0594    113.0683     24.4408
   454.1000      8.0464      2.5544      0.0399      5.7960    118.5904     23.9797
   454.2000      8.0464      2.5615      0.0445      5.3614    130.4732     23.8163
   454.3000      8.0488      2.5865      0.0663      3.8484    139.1771     23.9221
   454.4000      8.0488      2.6171      0.1039      1.9945    137.4858     24.0029
   454.5000      8.0507      2.6389      0.1067      0.6700    130.4509     24.1337
   454.6000      8.0507      2.6460      0.1407      0.2432    124.1089     24.4824
   454.7000      8.0507      2.6429      0.1090      0.4278    120.5010     24.9893
   454.8000      8.0290      2.6391      0.1150      0.6585    122.2436     25.7414
   454.9000      8.0290      2.6419      0.0896      0.4882    127.8202     26.6619
   455.0000      8.0470      2.6545      0.1032     -0.2723    131.2635     27.3255
   455.1000      8.0470      2.6674      0.1412     -1.0546    130.1735     27.7689
   455.2000      8.0470      2.6694      0.1057     -1.1783    126.0870     28.1544
   455.3000      8.0473      2.6610      0.1522     -0.6696    120.4814     28.1894
   455.4000      8.0473      2.6441      0.1175      0.3602    117.4417     27.9124
   455.5000      8.0267      2.6229      0.0931      1.6436    118.9397     27.6576
   455.6000      8.0267      2.6062      0.1096      2.6545    119.4092     27.3311
   455.7000      8.0267      2.5938      0.0829      3.4070    113.7960     26.8185
   455.8000      8.0156      2.5797      0.0918      4.2606    106.1057     26.2694
   455.9000      8.0156      2.5636      0.0131      5.2337    102.1951     25.8396
   456.0000      8.0114      2.5495      0.0435      6.0904    100.1844     25.6435
   456.1000      8.0114      2.5355      0.0189      6.9382     97.9332     25.5520
