~Version Information
VERS.                      2.0: CWLS Log ASCII Standard - VERSION 2.0
WRAP.                       NO: One line per depth step
~Well Information Block
STRT.FT               -10.0000: 
STOP.FT              1703.5000: 
STEP.FT                 0.2500: 
NULL.                -999.2500: 
COMP.          Pioneer Natural Resources: COMPANY
WELL.          Parrothead 31-31 Tr: WELL
FLD.           Purgatoire River: FIELD
LOC.           496' FNL & 1546' FEL--: LOCATION
PROV.                       CO: PROVINCE
CNTY.               Las Animas: COUNTRY
SRVC.          Patterson Wireline: SERVICE COMPANY
DATE.          Mon Nov 14 09:44:02 2005: LOG DATE
UWI.           05 071 08610 00: UNIQUE WELL ID
~Curve Information Block
DEPT.FT            0 000 00 00: Depth
CCL.                          : Casing Collar Locator
TT3.usec                      : CBL 3' Travel Time
AMP3.mV                       : CBL 3' Amplitude
GR.GAPI                       : Gamma Ray
~Parameter Information Block
~A  Depth       CCL         TT3         AMP3         GR     
# ...
    90.5000      0.0000    795.9545      7.4555     76.5801
    90.7500      0.0000    795.7722      7.4305     79.3363
    91.0000      0.0000    795.6761      7.4303     82.6870
    91.2500      0.0000    795.6473      7.4675     86.6298
    91.5000      0.0000    795.6464      7.5498     90.3764
    91.7500      0.0000    795.6321      7.6676     92.9535
    92.0000      0.0000    795.5885      7.7941     93.5169
    92.2500      0.0000    795.5463      7.9035     91.8697
    92.5000      0.0000    795.5618      7.9877     89.0171
    92.7500      0.0000    795.6548      8.0529     86.5552
    93.0000      0.0000    795.7690      8.1077     85.3589
    93.2500      0.0000    795.8013      8.1558     85.3873
    93.5000      0.0000    795.6371      8.1982     86.4425
    93.7500      0.0000    795.1049      8.2387     88.3498
    94.0000      0.0000    793.8222      8.2875     90.6763
    94.2500      0.0000    791.1064      8.3574     92.9283
    94.5000      0.0000    786.2749      8.4527     94.6456
    94.7500      0.0000    779.3638      8.5603     95.0279
    95.0000      0.0000    771.5670      8.6563     93.1653
    95.2500      0.0000    764.6807      8.7231     89.0797
    95.5000      0.0000    759.9911      8.7579     84.0970
    95.7500      0.0000    757.7998      8.7699     79.8818
    96.0000      0.0000    757.7914      8.7787     77.3263
    96.2500      0.0000    759.3568      8.8154     76.3266
    96.5000      0.0000    761.5441      8.9071     76.2305
    96.7500      0.0000    763.3834      9.0510     76.2217
    97.0000      0.0000    764.7562      9.2123     75.5711
    97.2500      0.0000    766.4931      9.3548     74.0955
    97.5000      0.0000    768.9825      9.4680     72.5183
    97.7500      0.0000    771.0048      9.5641     72.0113
    98.0000      0.0000    770.6845      9.6538     73.2097
    98.2500      0.0000    767.5296      9.7276     75.8452
    98.5000      0.0000    762.9615      9.7584     79.1515
    98.7500      0.0000    758.8937      9.7278     82.2156
    99.0000      0.0000    756.2840      9.6556     84.0787
    99.2500      0.0000    754.9881      9.5967     84.0555
    99.5000      0.0000    754.4260      9.6011     82.0621
    99.7500      0.0000    754.1293      9.6705     78.4170
   100.0000      0.0000    753.8741      9.7557     73.4884
   100.2500      0.0000    753.6040      9.7987     67.7127
   100.5000      0.0000    753.3381      9.7785     61.7597
   100.7500      0.0000    753.1127      9.7182     56.5021
   101.0000      0.0000    752.9465      9.6554     52.8128
   101.2500      0.0000    752.8276      9.6112     51.0960
   101.5000      0.0000    752.7288      9.5826     50.8846
   101.7500      0.0000    752.6308      9.5552     51.1702
   102.0000      0.0000    752.5363      9.5216     51.2931
   102.2500      0.0000    752.4629      9.4887     51.5685
   102.5000      0.0000    752.4252      9.4706     53.1884
   102.7500      0.0000    752.4250      9.4763     57.3214
   103.0000      0.0000    752.4579      9.5057     63.8849
   103.2500      0.0000    752.5242      9.5521     71.2727
   103.5000      0.0000    752.6379      9.6073     77.5663
   103.7500      0.0000    752.8244      9.6627     81.9830
   104.0000      0.0000    753.1010      9.7120     85.0952
   104.2500      0.0000    753.4524      9.7526     87.5972
   104.5000      0.0000    753.8270      9.7846     88.8205
   104.7500      0.0000    754.1539      9.8062     86.8017
   105.0000      0.0000    754.3666      9.8091     80.2778
   105.2500      0.0000    754.4295      9.7825     70.4475
   105.5000      0.0000    754.3608      9.7241     60.4336
   105.7500      0.0000    754.2151      9.6463     53.1867
   106.0000      0.0000    754.0369      9.5695     50.0352
   106.2500      0.0000    753.8497      9.5096     50.6132
   106.5000      0.0000    753.6912      9.4719     53.4671
   106.7500      0.0000    753.6207      9.4555     56.7506
   107.0000      0.0000    753.6721      9.4622     58.9691
   107.2500      0.0000    753.8204      9.4974     59.7495
   107.5000      0.0000    754.0056      9.5593     59.9367
   107.7500      0.0000    754.1813      9.6295     60.4755
   108.0000      0.0000    754.3347      9.6817     61.2299
   108.2500      0.0000    754.4646      9.6996     61.4351
   108.5000      0.0000    754.5606      9.6842     61.1139
   108.7500      0.0000    754.6140      9.6476     61.0925
   109.0000      0.0000    754.6368      9.6048     61.5420
   109.2500      0.0000    754.6463      9.5683     61.6739
   109.5000      0.0000    754.6364      9.5447     61.3304
   109.7500      0.0000    754.5797      9.5366     61.8119
   110.0000      0.0000    754.4498      9.5485     64.2931
   110.2500      0.0000    754.2339      9.5867     67.9798
   110.5000      0.0000    753.9360      9.6509     70.4790
   110.7500      0.0000    753.5893      9.7300     69.7570
   111.0000      0.0000    753.2603      9.8060     65.5755
   111.2500      0.0000    753.0281      9.8644     59.4900
   111.5000      0.0000    752.9576      9.9026     53.8035
   111.7500      0.0000    753.0797      9.9317     50.2791
   112.0000      0.0000    753.3650      9.9646     49.2937
   112.2500      0.0000    753.6973      9.9998     49.9447
   112.5000      0.0000    753.9098     10.0184     51.1082
   112.7500      0.0000    753.8906     10.0021     52.4550
   113.0000      0.0000    753.6621      9.9526     54.2650
   113.2500      0.0000    753.3481      9.8934     56.4182
   113.5000      0.0000    753.0714      9.8530     58.0439
   113.7500      0.0000    752.8881      9.8455     58.3750
   114.0000      0.0000    752.7952      9.8644     57.6054
   114.2500      0.0000    752.7750      9.8914     56.5456
   114.5000      0.0000    752.8275      9.9110     55.6452
   114.7500      0.0000    752.9637      9.9165     54.8582
   115.0000      0.0000    753.1707      9.9024     54.2987
   115.2500      0.0000    753.3945      9.8574     54.3360
   115.5000      0.0000    753.5698      9.7719     54.8679
   115.7500      0.0000    753.6671      9.6553     55.0134
   116.0000      0.0000    753.7062      9.5406     53.9214
   116.2500      0.0000    753.7347      9.4648     51.9181
   116.5000      0.0000    753.8013      9.4413     50.7239
   116.7500      0.0000    753.9465      9.4530     52.3606
   117.0000      0.0000    754.2319      9.4709     57.6138
   117.2500      0.0000    754.8240      9.4755     65.2335
   117.5000      0.0000    756.1331      9.4629     72.3521
   117.7500      0.0000    758.8746      9.4339     75.9853
   118.0000      0.0000    763.7539      9.3840     74.9430
   118.2500      0.0000    770.7471      9.3032     70.7053
   118.5000      0.0000    778.5443      9.1789     66.1691
   118.7500      0.0000    784.8752      8.9895     63.2523
   119.0000      0.0000    787.4495      8.6884     61.6149
   119.2500      0.0000    784.9465      8.2193     59.5777
   119.5000      0.0000    778.2327      7.5866     56.1828
   119.7500      0.0000    771.4211      6.9218     52.2580
   120.0000      0.0000    770.6122      6.4294     49.4167
   120.2500      0.0000    779.7256      6.2399     48.2830
   120.5000      0.0000    797.4585      6.3258     48.1629
   120.7500      0.0000    818.8901      6.5531     48.2602
   121.0000      0.0000    839.3591      6.7803     48.4308
   121.2500     -2.0000    856.2289      6.9196     48.6714
   121.5000      2.0000    868.8621      6.9487     48.6901
   121.7500      0.0000    878.7103      6.8917     48.2256
   122.0000      0.0000    887.7432      6.8018     47.2469
   122.2500      0.0000    894.2186      6.7593     45.7426
   122.5000      0.0000    891.7424      6.8511     43.7919
   122.7500      0.0000    876.0085      7.1018     42.0377
   123.0000      0.0000    851.3125      7.4345     41.8081
   123.2500      0.0000    827.4401      7.7355     44.4240
   123.5000      0.0000    811.2061      7.9459     50.1997
   123.7500      0.0000    803.0157      8.0673     57.8891
