~Version Information
VERS.                      2.0: CWLS Log ASCII Standard - VERSION 2.0
WRAP.                       NO: One line per depth step
~Well Information Block
STRT.FT                -8.0000: 
STOP.FT              1323.7500: 
STEP.FT                 0.2500: 
NULL.                -999.2500: 
COMP.          Pioneer Natural Resources: COMPANY
WELL.              Geyser 41-2: WELL
FLD.           Purgatorie River: FIELD
LOC.           506' FNL & 1127' FEL--: LOCATION
PROV.                       CO: PROVINCE
CNTY.               Las Animas: COUNTRY
SRVC.          Patterson Wireline: SERVICE COMPANY
DATE.          Tue Dec 06 09:28:14 2005: LOG DATE
UWI.           08 071 08598 00: UNIQUE WELL ID
~Curve Information Block
DEPT.FT            0 000 00 00: Depth
CCL.                          : Casing Collar Locator
TT3.usec                      : CBL 3' Travel Time
AMP3.mV                       : CBL 3' Amplitude
GR.GAPI                       : Gamma Ray
~Parameter Information Block
~A  Depth       CCL         TT3         AMP3         GR     
# ...
   327.0000      0.0000    801.1346     10.7988    132.6064
   327.2500      0.0000    792.6391     10.7933    126.2862
   327.5000      0.0000    778.2966     10.8300    122.1802
   327.7500      0.0000    763.2813     10.9079    121.5125
   328.0000      0.0000    753.6763     11.0140    124.6618
   328.2500      0.0000    753.3282     11.1344    130.6988
   328.5000      0.0000    761.3456     11.2621    137.5532
   328.7500      0.0000    772.0022     11.3938    142.9664
   329.0000      0.0000    778.6818     11.5232    145.6946
   329.2500      0.0000    779.0057     11.6379    146.0090
   329.5000      0.0000    775.4927     11.7256    144.9287
   329.7500      0.0000    771.8273     11.7849    142.8786
   330.0000      0.0000    770.4029     11.8340    139.3367
   330.2500      0.0000    773.4799     11.9020    133.9727
   330.5000      0.0000    784.3192     12.0046    127.9922
   330.7500      0.0000    805.1999     12.1299    123.7829
   331.0000      0.0000    834.2760     12.2534    122.6414
   331.2500      0.0000    865.3894     12.3663    123.0064
   331.5000      0.0000    891.7368     12.4805    121.7593
   331.7500      0.0000    909.8505     12.6067    117.4247
   332.0000      0.0000    920.0248     12.7357    111.5342
   332.2500      0.0000    923.5662     12.8449    106.7986
   332.5000      0.0000    920.4843     12.9245    104.5109
   332.7500      0.0000    909.8152     12.9911    103.7561
   333.0000      0.0000    891.4194     13.0705    102.6574
   333.2500      0.0000    867.3442     13.1692    100.1261
   333.5000      0.0000    841.7808     13.2689     96.6579
   333.7500      0.0000    819.2983     13.3464     93.8837
   334.0000      0.0000    802.3069     13.3887     93.4611
   334.2500      0.0000    790.3507     13.3883     95.8751
   334.5000      0.0000    782.1124     13.3411     99.8258
   334.7500      0.0000    777.4897     13.2573    103.0288
   335.0000      0.0000    777.1221     13.1643    104.0804
   335.2500      0.0000    780.4571     13.0909    103.4254
   335.5000      0.0000    785.3076     13.0507    102.4351
   335.7500      0.0000    789.3590     13.0445    102.1028
   336.0000      0.0000    791.4548     13.0663    102.8645
   336.2500      0.0000    791.3603     13.1025    104.8416
   336.5000      0.0000    788.8312     13.1298    107.6106
   336.7500      0.0000    783.3920     13.1117    110.0981
   337.0000      0.0000    775.0623     12.9818    111.1498
   337.2500      0.0000    765.4635     12.6519    110.2602
   337.5000      0.0000    758.5048     12.0943    107.9262
   337.7500      0.0000    760.0239     11.4305    105.4011
   338.0000      0.0000    775.4446     10.8706    103.8569
   338.2500      0.0000    805.5187     10.5324    103.5831
   338.5000      0.0000    843.8748     10.3719    103.9401
   338.7500      0.0000    880.7662     10.2911    104.0063
   339.0000      0.0000    909.8479     10.2435    103.4541
   339.2500      2.0000    929.4767     10.2366    102.9655
   339.5000     -2.0000    937.6979     10.3090    103.5692
   339.7500      0.0000    928.6645     10.5313    105.5965
   340.0000      0.0000    893.9401     10.9945    108.6958
   340.2500      0.0000    827.4951     11.7428    112.5402
   340.5000      0.0000    734.9952     12.6726    116.6679
   340.7500      0.0000    640.8022     13.5154    119.8134
   341.0000      0.0000    578.8071     14.0005    120.5104
   341.2500      0.0000    569.1945     14.0750    118.7058
   341.5000      0.0000    603.9100     13.9185    116.0724
   341.7500      0.0000    655.8422     13.7511    114.3642
   342.0000      0.0000    700.2282     13.6820    113.9385
   342.2500      0.0000    727.2892     13.7192    113.9295
   342.5000      0.0000    739.7275     13.8333    113.1792
   342.7500      0.0000    744.0917     13.9857    110.8296
   343.0000      0.0000    745.2382     14.1354    106.7253
   343.2500      0.0000    745.4655     14.2521    101.7441
   343.5000      0.0000    745.5520     14.3304     97.5735
   343.7500      0.0000    745.6790     14.3884     95.8404
   344.0000      0.0000    745.8510     14.4488     97.3033
   344.2500      0.0000    746.0229     14.5168    101.6517
   344.5000      0.0000    746.1574     14.5749    107.7274
   344.7500      0.0000    746.2379     14.5982    113.8785
   345.0000      0.0000    746.2523     14.5745    118.4897
   345.2500      0.0000    746.1843     14.5093    120.7514
   345.5000      0.0000    746.0371     14.4177    121.1948
   345.7500      0.0000    745.8522     14.3123    121.2144
   346.0000      0.0000    745.6871     14.1992    121.7578
   346.2500      0.0000    745.5814     14.0822    122.4518
   346.5000      0.0000    745.5524     13.9717    122.0320
   346.7500      0.0000    745.6064     13.8836    119.5579
   347.0000      0.0000    745.7462     13.8274    115.2911
   347.2500      0.0000    745.9773     13.7995    110.4491
   347.5000      0.0000    746.4409     13.7920    106.2357
   347.7500      0.0000    747.6732     13.8055    103.1630
   348.0000      0.0000    750.8356     13.8479    101.1468
   348.2500      0.0000    757.2596     13.9232     99.9836
   348.5000      0.0000    766.7642     14.0221     99.6541
   348.7500      0.0000    775.9799     14.1211    100.3221
   349.0000      0.0000    779.6054     14.1912    102.1538
   349.2500      0.0000    774.7551     14.2156    105.0456
   349.5000      0.0000    763.6735     14.1983    108.4691
   349.7500      0.0000    751.5035     14.1533    111.6407
   350.0000      0.0000    742.2142     14.0899    113.8983
   350.2500      0.0000    736.8221     14.0153    114.9986
   350.5000      0.0000    733.8675     13.9383    115.2225
   350.7500      0.0000    730.7540     13.8600    115.3943
   351.0000      0.0000    725.6243     13.7660    116.6186
   351.2500      0.0000    718.7608     13.6380    119.2968
   351.5000      0.0000    712.0895     13.4699    122.0955
   351.7500      0.0000    707.3143     13.2693    122.4452
   352.0000      0.0000    704.7599     13.0518    118.7141
   352.2500      0.0000    703.7208     12.8374    111.7492
   352.5000      0.0000    703.4514     12.6471    103.9261
   352.7500      0.0000    703.7799     12.4969     97.0006
   353.0000      0.0000    705.2695     12.3963     91.1878
   353.2500      0.0000    709.2034     12.3481     85.7262
   353.5000      0.0000    717.3749     12.3377     79.6714
   353.7500      0.0000    731.3590     12.3220     72.5280
   354.0000      0.0000    751.3090     12.2414     64.8396
   354.2500      0.0000    775.0151     12.0539     58.0893
   354.5000      0.0000    798.2866     11.7696     53.5123
   354.7500      0.0000    816.9340     11.4641     51.0981
   355.0000      0.0000    828.9867     11.2515     50.1933
   355.2500      0.0000    835.2154     11.2190     50.8894
   355.5000      0.0000    837.7608     11.3708     54.0630
   355.7500      0.0000    838.5180     11.6290     59.8181
   356.0000      0.0000    838.5563     11.8887     66.4725
   356.2500      0.0000    838.3732     12.0763     71.5803
   356.5000      0.0000    838.2333     12.1727     73.9599
   356.7500      0.0000    838.2737     12.2037     74.7636
   357.0000      0.0000    838.5229     12.2107     76.8384
   357.2500      0.0000    838.9544     12.2237     82.9777
   357.5000      0.0000    839.5369     12.2601     93.9753
   357.7500      0.0000    840.1965     12.3456    107.5994
   358.0000      0.0000    840.7761     12.5158    119.6529
   358.2500      0.0000    841.0916     12.7769    126.7472
   358.5000      0.0000    841.0439     13.0750    128.3603
   358.7500      0.0000    840.6614     13.3252    126.4878
   359.0000      0.0000    840.0616     13.4710    123.9279
   359.2500      0.0000    839.3976     13.5100    122.8119
   359.5000      0.0000    838.8105     13.4722    123.6845
   359.7500      0.0000    838.3824     13.3900    125.4868
   360.0000      0.0000    838.1259     13.2860    126.8440
   360.2500      0.0000    838.0230     13.1733    127.4361
