~Version Information
VERS.                      2.0: CWLS Log ASCII Standard - VERSION 2.0
WRAP.                       NO: One line per depth step
~Well Information Block
STRT.FT               325.0000: 
STOP.FT              1014.5000: 
STEP.FT                 0.2500: 
NULL.                -999.2500: 
COMP.          Pioneer Natural Resources: COMPANY
WELL.                Doc 34-30: WELL
FLD.           Purgatoire River: FIELD
LOC.           454' FSL & 1386' FEL: LOCATION
CNTY.               Las Animas: COUNTY
SRVC.                Patterson: SERVICE COMPANY
DATE.          Wed Feb 15 20:26:19 2006: LOG DATE
UWI.           05 071 08694 00: UNIQUE WELL ID
STAT.                 Colorado: STATE
~Curve Information Block
DEPT.FT            0 000 00 00: Depth
SN.Ohm-m                      : IEL Short Normal
SP.mV                         : IEL Spontaneous Potential
DIR.Ohm-m                     : IEL Induction Resistivity
GR.GAPI                       : Gamma Ray
~Parameter Information Block
~A  Depth        SN          SP         DIR          GR     
# ...
   727.0000     19.4917    -22.2948     18.9826     96.4994
   727.2500     19.1097    -22.1291     18.5593     98.1668
   727.5000     18.7505    -21.9908     18.0763     99.7704
   727.7500     18.3791    -21.8721     17.5312    100.2790
   728.0000     18.0052    -21.7575     16.9370    100.2963
   728.2500     17.6041    -21.6305     16.3175    100.0761
   728.5000     17.1102    -21.4799     15.6978    100.1721
   728.7500     16.5374    -21.3002     15.0976    100.7624
   729.0000     15.9686    -21.0903     14.5302    102.1200
   729.2500     15.4163    -20.8537     14.0046    103.1272
   729.5000     14.8407    -20.6064     13.5287    105.2968
   729.7500     14.2873    -20.3813     13.1099    107.8602
   730.0000     13.8495    -20.2174     12.7543    113.8017
   730.2500     13.5365    -20.1402     12.4658    118.3999
   730.5000     13.2643    -20.1503     12.2444    123.8757
   730.7500     12.9357    -20.2258     12.0861    125.6178
   731.0000     12.5442    -20.3347     11.9829    125.6668
   731.2500     12.2122    -20.4483     11.9261    124.8411
   731.5000     12.0868    -20.5511     11.9100    123.2557
   731.7500     12.2031    -20.6410     11.9363    121.9621
   732.0000     12.4829    -20.7217     12.0138    119.4728
   732.2500     12.8504    -20.7950     12.1532    117.4421
   732.5000     13.2711    -20.8602     12.3603    113.6425
   732.7500     13.6891    -20.9184     12.6334    110.3248
   733.0000     14.0592    -20.9758     12.9676    104.0665
   733.2500     14.4187    -21.0420     13.3593     99.5420
   733.5000     14.8434    -21.1265     13.8086     93.6784
   733.7500     15.3395    -21.2333     14.3153     90.9008
   734.0000     15.8195    -21.3571     14.8749     88.0699
   734.2500     16.2050    -21.4825     15.4756     86.5484
   734.5000     16.5146    -21.5890     16.0979     84.4841
   734.7500     16.8418    -21.6563     16.7154     83.4409
   735.0000     17.2772    -21.6720     17.2981     82.7529
   735.2500     17.8353    -21.6392     17.8215     83.0021
   735.5000     18.4081    -21.5785     18.2758     84.4634
   735.7500     18.8127    -21.5225     18.6712     85.9566
   736.0000     18.9792    -21.5038     19.0332     88.2606
   736.2500     19.0376    -21.5425     19.3910     89.4637
   736.5000     19.1411    -21.6377     19.7664     90.5085
   736.7500     19.3513    -21.7685     20.1673     90.6987
   737.0000     19.6868    -21.9038     20.5889     90.3332
   737.2500     20.1381    -22.0167     21.0203     89.7851
   737.5000     20.6701    -22.0945     21.4505     88.7527
   737.7500     21.2283    -22.1444     21.8694     87.9750
   738.0000     21.7785    -22.1884     22.2667     86.5386
   738.2500     22.3857    -22.2471     22.6391     85.2618
   738.5000     23.0881    -22.3253     22.9999     82.6818
   738.7500     23.7434    -22.4104     23.3777     80.5299
   739.0000     24.2152    -22.4853     23.7961     76.9899
   739.2500     24.5702    -22.5430     24.2507     74.6831
   739.5000     24.9413    -22.5924     24.7061     71.4349
   739.7500     25.3411    -22.6530     25.1160     69.2444
   740.0000     25.7018    -22.7417     25.4496     65.6101
   740.2500     25.9880    -22.8626     25.6982     62.9887
   740.5000     26.1765    -23.0042     25.8618     59.1933
   740.7500     26.2359    -23.1444     25.9373     57.0631
   741.0000     26.2028    -23.2588     25.9204     54.7294
   741.2500     26.1651    -23.3289     25.8138     53.6673
   741.5000     26.1285    -23.3513     25.6246     52.5364
   741.7500     26.0209    -23.3411     25.3588     52.0870
   742.0000     25.8537    -23.3246     25.0243     52.1598
   742.2500     25.7381    -23.3264     24.6438     52.7611
   742.5000     25.6995    -23.3603     24.2620     54.0197
   742.7500     25.6091    -23.4274     23.9333     54.6887
   743.0000     25.3425    -23.5168     23.6969     55.2473
   743.2500     24.9005    -23.6072     23.5552     55.6484
   743.5000     24.3788    -23.6751     23.4683     57.1599
   743.7500     23.8854    -23.7103     23.3761     59.1020
   744.0000     23.4687    -23.7273     23.2367     63.2573
   744.2500     23.0925    -23.7559     23.0552     66.3422
   744.5000     22.7001    -23.8185     22.8754     70.2378
   744.7500     22.3102    -23.9162     22.7453     71.7796
   745.0000     22.0712    -24.0380     22.6870     72.2668
   745.2500     22.1659    -24.1707     22.6916     71.6783
   745.5000     22.5902    -24.2985     22.7339     70.1152
   745.7500     23.1433    -24.3989     22.7917     68.7718
   746.0000     23.6637    -24.4504     22.8592     66.2156
   746.2500     24.1371    -24.4427     22.9502     64.2102
   746.5000     24.5919    -24.3767     23.0913     61.3025
   746.7500     25.0103    -24.2560     23.3104     59.8420
   747.0000     25.4077    -24.0844     23.6245     58.6413
   747.2500     25.8548    -23.8705     24.0338     58.2144
   747.5000     26.3294    -23.6302     24.5195     57.1660
   747.7500     26.7610    -23.3831     25.0470     55.8228
   748.0000     27.1952    -23.1448     25.5713     53.1819
   748.2500     27.6560    -22.9201     26.0476     51.6320
   748.5000     27.9969    -22.7023     26.4423     50.4498
   748.7500     28.1072    -22.4817     26.7355     50.3250
   749.0000     28.0991    -22.2597     26.9123     50.0843
   749.2500     28.1793    -22.0511     26.9501     49.2041
   749.5000     28.4364    -21.8681     26.8153     46.3218
   749.7500     28.7716    -21.7037     26.4752     43.6616
   750.0000     28.9921    -21.5331     25.9163     39.8078
   750.2500     28.9625    -21.3300     25.1563     38.1192
   750.5000     28.6387    -21.0812     24.2394     37.9178
   750.7500     27.9728    -20.7876     23.2193     39.7343
   751.0000     26.9420    -20.4579     22.1416     45.6675
   751.2500     25.6669    -20.1041     21.0370     51.4647
   751.5000     24.3089    -19.7406     19.9257     61.4050
   751.7500     22.9080    -19.3805     18.8250     67.6575
   752.0000     21.4076    -19.0277     17.7522     74.8052
   752.2500     19.7799    -18.6740     16.7229     77.8136
   752.5000     18.0933    -18.3041     15.7480     80.7120
   752.7500     16.4766    -17.9077     14.8354     82.5510
   753.0000     15.0464    -17.4853     13.9923     86.0076
   753.2500     13.8827    -17.0482     13.2283     88.5144
   753.5000     13.0477    -16.6153     12.5549     91.8517
   753.7500     12.5680    -16.2110     11.9806     93.7160
   754.0000     12.3396    -15.8612     11.5069     96.1188
   754.2500     12.1508    -15.5847     11.1269     97.3641
   754.5000     11.9105    -15.3831     10.8295     98.4390
   754.7500     11.7187    -15.2391     10.6043     98.8408
   755.0000     11.6724    -15.1257     10.4455    100.0823
   755.2500     11.7609    -15.0221     10.3524    101.9442
   755.5000     11.9393    -14.9233     10.3247    106.2734
   755.7500     12.1667    -14.8380     10.3580    109.5048
   756.0000     12.3639    -14.7801     10.4397    113.4586
   756.2500     12.4455    -14.7589     10.5505    115.0926
   756.5000     12.4319    -14.7732     10.6711    116.2534
   756.7500     12.4258    -14.8097     10.7911    116.4510
   757.0000     12.4688    -14.8484     10.9127    116.1557
   757.2500     12.5529    -14.8729     11.0485    115.6984
   757.5000     12.7213    -14.8820     11.2139    114.9789
   757.7500     12.9919    -14.8926     11.4202    114.5807
   758.0000     13.2583    -14.9286     11.6674    113.8413
   758.2500     13.4071    -15.0052     11.9405    112.9892
   758.5000     13.4451    -15.1186     12.2106    110.9943
   758.7500     13.4325    -15.2476     12.4476    109.2996
   759.0000     13.4024    -15.3628     12.6366    106.5612
   759.2500     13.3928    -15.4383     12.7872    104.8440
   759.5000     13.4604    -15.4608     12.9242    102.8312
   759.7500     13.6428    -15.4319     13.0701    101.9582
   760.0000     13.9479    -15.3656     13.2356    101.0584
   760.2500     14.3626    -15.2813     13.4224    100.3951
