~Version Information
VERS.                      2.0: CWLS Log ASCII Standard - VERSION 2.0
WRAP.                       NO: One line per depth step
~Well Information Block
STRT.FT                -7.2500: 
STOP.FT              1221.7500: 
STEP.FT                 0.2500: 
NULL.                -999.2500: 
COMP.          Pioneer Natural Resources: COMPANY
WELL.           Tennis 7-12 Tr: WELL
FLD.           Purgatorie River: FIELD
LOC.           1794' FNL & 1563' FEL--: LOCATION
PROV.                       CO: PROVINCE
CNTY.               Las Animas: COUNTRY
SRVC.          Patterson Wireline: SERVICE COMPANY
DATE.          Tue Dec 27 14:16:59 2005: LOG DATE
UWI.           05 071 008635 00: UNIQUE WELL ID
~Curve Information Block
DEPT.FT            0 000 00 00: Depth
CCL.                          : Casing Collar Locator
TT3.usec                      : CBL 3' Travel Time
AMP3.mV                       : CBL 3' Amplitude
GR.GAPI                       : Gamma Ray
~Parameter Information Block
~A  Depth       CCL         TT3         AMP3         GR     
# ...
  1131.7500      0.0000    697.8881      4.7837    116.7640
  1132.0000      0.0000    692.6351      4.6249    118.8301
  1132.2500      0.0000    686.2521      4.3946    121.6510
  1132.5000      0.0000    682.3356      4.0749    125.3369
  1132.7500      0.0000    683.9802      3.6854    129.0664
  1133.0000      0.0000    692.3027      3.2823    131.0986
  1133.2500      0.0000    705.5200      2.9257    129.2564
  1133.5000      0.0000    719.5850      2.6434    122.0323
  1133.7500      0.0000    730.6171      2.4214    109.9257
  1134.0000      0.0000    737.0983      2.2246     95.6981
  1134.2500      0.0000    739.2487      2.0299     83.1390
  1134.5000      0.0000    736.8410      1.8433     75.2524
  1134.7500      0.0000    729.5172      1.6888     72.9426
  1135.0000      0.0000    719.5466      1.5857     74.8486
  1135.2500      0.0000    712.1877      1.5399     78.4269
  1135.5000      0.0000    711.7574      1.5524     81.3952
  1135.7500      0.0000    717.6733      1.6263     82.4145
  1136.0000      0.0000    724.7123      1.7600     80.9936
  1136.2500      0.0000    727.0341      1.9382     77.5035
  1136.5000      0.0000    722.4885      2.1344     73.3942
  1136.7500      0.0000    713.6903      2.3252     70.7039
  1137.0000      0.0000    705.3032      2.5084     70.8449
  1137.2500      0.0000    700.7512      2.7113     74.0351
  1137.5000      0.0000    701.1527      2.9763     79.9672
  1137.7500      0.0000    705.7559      3.3289     88.4374
  1138.0000      0.0000    712.1771      3.7523     98.8712
  1138.2500      0.0000    716.7908      4.1925    109.7068
  1138.5000      0.0000    716.1818      4.5871    118.8515
  1138.7500      0.0000    709.2130      4.8934    125.0776
  1139.0000      0.0000    698.0214      5.0966    129.0671
  1139.2500      0.0000    686.7720      5.2030    132.7504
  1139.5000      0.0000    678.9611      5.2321    137.2497
  1139.7500      0.0000    675.6066      5.2115    141.7698
  1140.0000      0.0000    675.2843      5.1716    144.6470
  1140.2500      0.0000    675.2354      5.1368    144.9374
  1140.5000      0.0000    673.1038      5.1200    142.9635
  1140.7500      0.0000    668.7083      5.1237    139.9960
  1141.0000      0.0000    664.1086      5.1454    137.4077
  1141.2500      0.0000    661.6398      5.1805    135.6429
  1141.5000      0.0000    662.6349      5.2190    134.0796
  1141.7500      0.0000    667.7966      5.2443    132.0226
  1142.0000      0.0000    676.8017      5.2384    129.3877
  1142.2500      0.0000    687.2086      5.1911    126.3637
  1142.5000      0.0000    695.3849      5.1074    123.0639
  1142.7500      0.0000    698.9224      5.0080    120.0064
  1143.0000      0.0000    697.6745      4.9208    118.6083
  1143.2500      0.0000    693.1497      4.8665    120.4319
  1143.5000      0.0000    687.5743      4.8490    125.4473
  1143.7500      0.0000    682.9662      4.8587    131.4157
  1144.0000      0.0000    680.5045      4.8822    135.5777
  1144.2500      0.0000    681.0054      4.9026    136.9002
  1144.5000      0.0000    685.5876      4.8950    136.3747
  1144.7500      0.0000    694.8591      4.8412    135.4194
  1145.0000      0.0000    707.6289      4.7585    134.5295
  1145.2500      0.0000    721.2762      4.6979    133.4254
  1145.5000      0.0000    732.5986      4.6998    131.8827
  1145.7500      0.0000    737.5041      4.7618    130.0062
  1146.0000      0.0000    732.1741      4.8569    127.9311
  1146.2500      2.0000    717.3724      4.9679    125.6679
  1146.5000      0.0000    700.5210      5.1019    123.1647
  1146.7500      0.0000    690.5860      5.2819    120.3262
  1147.0000      0.0000    690.7300      5.5204    117.1308
  1147.2500      0.0000    696.8388      5.7834    113.9321
  1147.5000      0.0000    702.0145      5.9879    111.5091
  1147.7500      0.0000    701.3472      6.0636    110.5828
  1148.0000      0.0000    693.9377      6.0151    111.2264
  1148.2500      0.0000    681.9913      5.9105    112.8303
  1148.5000      0.0000    667.6779      5.8159    114.7118
  1148.7500      0.0000    650.6528      5.7543    116.8059
  1149.0000      0.0000    629.1893      5.7144    119.5877
  1149.2500      0.0000    603.5381      5.6788    123.1846
  1149.5000      0.0000    577.0862      5.6406    126.8707
  1149.7500      0.0000    554.0886      5.6042    129.7117
  1150.0000      0.0000    537.0934      5.5772    131.3236
  1150.2500      0.0000    526.5677      5.5641    131.6848
  1150.5000      0.0000    522.0450      5.5616    130.5642
  1150.7500      0.0000    523.3509      5.5553    127.6916
  1151.0000      0.0000    531.4189      5.5205    123.7219
  1151.2500      0.0000    548.1613      5.4293    120.6715
  1151.5000      0.0000    574.9543      5.2638    120.6731
  1151.7500      0.0000    610.3565      5.0247    123.9958
  1152.0000      0.0000    649.3040      4.7298    128.6635
  1152.2500      0.0000    685.3432      4.4032    132.3059
  1152.5000      0.0000    714.3322      4.0706    134.2175
  1152.7500      0.0000    736.0397      3.7607    135.4938
  1153.0000      0.0000    752.3859      3.5011    137.3264
  1153.2500      0.0000    764.6425      3.3084    139.1032
  1153.5000      0.0000    772.3110      3.1854    138.1272
  1153.7500      0.0000    774.0716      3.1263    131.5912
  1154.0000      0.0000    769.6043      3.1203    119.2527
  1154.2500      0.0000    760.9656      3.1543    104.1901
  1154.5000      0.0000    752.3764      3.2239     90.7558
  1154.7500      0.0000    747.9818      3.3424     81.7002
  1155.0000      0.0000    749.2985      3.5368     77.0635
  1155.2500      0.0000    754.5764      3.8271     75.2719
  1155.5000      0.0000    760.2228      4.2030     74.8541
  1155.7500      0.0000    763.1621      4.6164     75.3321
  1156.0000      0.0000    763.1033      5.0000     77.1203
  1156.2500      0.0000    762.8366      5.2990     81.0630
  1156.5000      0.0000    765.3752      5.4892     88.0999
  1156.7500      0.0000    770.5892      5.5743     98.9757
  1157.0000      0.0000    775.1778      5.5745    113.7940
  1157.2500      0.0000    775.7805      5.5215    131.3403
  1157.5000      0.0000    771.5504      5.4535    148.5216
  1157.7500      0.0000    763.8379      5.4052    160.7943
  1158.0000      0.0000    754.0518      5.3958    164.3006
  1158.2500      0.0000    742.2263      5.4232    158.6012
  1158.5000      0.0000    727.4063      5.4679    147.2756
  1158.7500      0.0000    708.8422      5.5055    135.3905
  1159.0000      0.0000    687.4307      5.5195    126.3734
  1159.2500      0.0000    667.2354      5.5082    121.1102
  1159.5000      0.0000    654.7455      5.4819    119.1229
  1159.7500      0.0000    653.8544      5.4537    119.9097
  1160.0000      0.0000    660.5793      5.4285    123.2865
  1160.2500      0.0000    664.5655      5.4054    128.9322
  1160.5000      0.0000    657.6378      5.3858    135.8465
  1160.7500      0.0000    640.8373      5.3756    142.1894
  1161.0000      0.0000    622.6578      5.3764    145.7472
  1161.2500      0.0000    611.0839      5.3814    145.0557
  1161.5000      0.0000    607.9277      5.3814    140.5030
  1161.7500      0.0000    609.9626      5.3723    134.1207
  1162.0000      0.0000    614.0655      5.3555    128.1190
  1162.2500      0.0000    620.3963      5.3355    123.7864
  1162.5000      0.0000    630.5370      5.3196    121.4617
  1162.7500      0.0000    643.7417      5.3197    120.7907
  1163.0000      0.0000    656.2905      5.3465    120.8569
  1163.2500      0.0000    664.4246      5.4013    120.4423
  1163.5000      0.0000    667.9098      5.4728    118.4817
  1163.7500      0.0000    671.5880      5.5433    114.4672
  1164.0000      0.0000    682.6149      5.5992    108.7215
  1164.2500      0.0000    703.6898      5.6385    102.4692
  1164.5000      0.0000    728.5991      5.6736     97.3449
  1164.7500      0.0000    745.8646      5.7231     94.2824
  1165.0000      0.0000    747.4231      5.7941     92.7573
