~Version Information
VERS.                      2.0: CWLS Log ASCII Standard - VERSION 2.0
WRAP.                       NO: One line per depth step
~Well Information Block
STRT.FT                 7.7500: 
STOP.FT              2101.0000: 
STEP.FT                 0.2500: 
NULL.                -999.2500: 
COMP.          Pioneer Natural Resources: COMPANY
WELL.          Gunslinger 13-24: WELL
FLD.           Purgatoire River: FIELD
LOC.           1968' FSL & 633' FWL: LOCATION
PROV.                 Colorado: PROVINCE
CNTY.               Las Animas: COUNTRY
SRVC.                Patterson: SERVICE COMPANY
DATE.          Mon Aug 15 11:00:02 2005: LOG DATE
UWI.           05 071 08442 00: UNIQUE WELL ID
~Curve Information Block
DEPT.FT            0 000 00 00: Depth
GR.GAPI                       : Gamma Ray
CCL.                          : Casing Collar Locator
TT3.usec                      : CBL 3' Travel Time
AMP3.mV                       : CBL 3' Amplitude
~Parameter Information Block
~A  Depth        GR         CCL         TT3         AMP3    
# ...
  1917.2500     96.5043      0.0000    718.7654      9.0771
  1917.5000     96.6055      0.0000    724.2104      9.7164
  1917.7500     96.5523      0.0000    727.0813     10.1937
  1918.0000     96.3229      0.0000    725.7321     10.4648
  1918.2500     96.1849      0.0000    717.7794     10.5174
  1918.5000     96.6985      0.0000    703.5009     10.3771
  1918.7500     98.1934      0.0000    687.5408     10.1065
  1919.0000    100.3025      0.0000    677.0212      9.7932
  1919.2500    102.1415      0.0000    677.2794      9.5218
  1919.5000    102.9208      0.0000    688.4896      9.3431
  1919.7500    102.4058      0.0000    705.7493      9.2608
  1920.0000    100.8830      0.0000    722.4987      9.2497
  1920.2500     98.8330      0.0000    734.4598      9.2918
  1920.5000     96.7700      0.0000    741.0200      9.3994
  1920.7500     95.3217      0.0000    743.7825      9.6052
  1921.0000     95.0539      0.0000    744.4745      9.9310
  1921.2500     95.8863      0.0000    743.9107     10.3729
  1921.5000     96.8941      0.0000    741.9229     10.9170
  1921.7500     97.0633      0.0000    737.8148     11.5631
  1922.0000     96.2768      0.0000    731.3437     12.3205
  1922.2500     95.4730      0.0000    723.6854     13.1785
  1922.5000     95.9340      0.0000    717.0302     14.0820
  1922.7500     98.3594      0.0000    712.7940     14.9386
  1923.0000    102.2860      0.0000    710.5858     15.6571
  1923.2500    106.2609      0.0000    709.1749     16.1864
  1923.5000    108.8432      0.0000    707.8123     16.5199
  1923.7500    109.6115      0.0000    706.2369     16.6615
  1924.0000    109.0851      0.0000    703.9084     16.5967
  1924.2500    107.7484      0.0000    699.7313     16.3157
  1924.5000    105.4952      0.0000    692.6895     15.8715
  1924.7500    102.1748      0.0000    683.0126     15.4097
  1925.0000     98.3557      0.0000    672.8946     15.1315
  1925.2500     95.1436      0.0000    665.9642     15.2176
  1925.5000     93.2686      0.0000    665.7261     15.7626
  1925.7500     92.6179      0.0000    673.8682     16.7569
  1926.0000     92.6697      0.0000    688.8921     18.1163
  1926.2500     93.1774      0.0000    705.8948     19.7208
  1926.5000     94.3876      0.0000    718.5102     21.4213
  1926.7500     96.4784      0.0000    722.0947     23.0222
  1927.0000     98.6767      0.0000    715.6324     24.2909
  1927.2500     99.3183      0.0000    701.5079     25.0116
  1927.5000     97.3708      0.0000    684.2139     25.0417
  1927.7500     93.6295      0.0000    668.5441     24.3425
  1928.0000     89.7232      0.0000    657.5548     22.9941
  1928.2500     86.1314      0.0000    651.6475     21.1846
  1928.5000     81.8910      0.0000    649.5029     19.1525
  1928.7500     76.1762      0.0000    649.6960     17.1014
  1929.0000     69.5558      0.0000    651.4240     15.1430
  1929.2500     63.6655      0.0000    654.0581     13.3099
  1929.5000     60.0759      0.0000    656.4121     11.6186
  1929.7500     59.5241      0.0000    656.9532     10.1213
  1930.0000     61.8237      0.0000    655.0243      8.9014
  1930.2500     66.1754      0.0000    651.5635      8.0235
  1930.5000     71.5812      0.0000    648.2216      7.4869
  1930.7500     77.2621      0.0000    645.9833      7.2198
  1931.0000     82.9548      0.0000    644.8399      7.1124
  1931.2500     88.8117      0.0000    644.3869      7.0599
  1931.5000     94.9483      0.0000    644.3083      6.9898
  1931.7500    101.0894      0.0000    644.4055      6.8670
  1932.0000    106.4912      0.0000    644.5136      6.6863
  1932.2500    110.0678      0.0000    644.5291      6.4630
  1932.5000    110.9745      0.0000    644.4392      6.2253
  1932.7500    109.4087      0.0000    644.2843      6.0110
  1933.0000    106.5123      0.0000    644.1057      5.8619
  1933.2500    103.2322      0.0000    643.9401      5.8116
  1933.5000     99.7073      0.0000    643.8206      5.8733
  1933.7500     95.9680      0.0000    643.7621      6.0368
  1934.0000     92.6083      0.0000    643.7641      6.2738
  1934.2500     90.2604      0.0000    643.8392      6.5457
  1934.5000     88.7798      0.0000    644.0969      6.8115
  1934.7500     87.5155      0.0000    644.9525      7.0363
  1935.0000     86.3988      0.0000    647.4141      7.1996
  1935.2500     86.3136      0.0000    652.9726      7.3042
  1935.5000     88.0677      0.0000    662.4369      7.3795
  1935.7500     91.1307      0.0000    674.2310      7.4764
  1936.0000     93.6677      0.0000    684.5852      7.6535
  1936.2500     93.9237      0.0000    690.9426      7.9621
  1936.5000     91.6342      0.0000    695.0739      8.4349
  1936.7500     88.2546      0.0000    701.1512      9.0775
  1937.0000     85.8499      0.0000    710.4908      9.8629
  1937.2500     85.5688      0.0000    719.6422     10.7243
  1937.5000     86.9953      0.0000    723.8286     11.5497
  1937.7500     88.6937      0.0000    721.1515     12.1972
  1938.0000     89.2151      0.0000    713.5253     12.5383
  1938.2500     87.9884      0.0000    704.6473     12.5045
  1938.5000     85.7734      0.0000    697.1929     12.1030
  1938.7500     84.2530      0.0000    691.1470     11.3990
  1939.0000     84.9190      0.0000    684.4078     10.4931
  1939.2500     88.1247      0.0000    675.0741      9.5030
  1939.5000     92.9073      0.0000    663.0059      8.5399
  1939.7500     97.4720      0.0000    649.2116      7.6872
  1940.0000    100.1578      0.0000    634.7285      6.9912
  1940.2500    100.4789      0.0000    621.3530      6.4625
  1940.5000     99.4007      0.0000    613.0791      6.0764
  1940.7500     98.4788      0.0000    614.7515      5.7775
  1941.0000     98.5858      0.0000    627.7593      5.4971
  1941.2500     99.3674      0.0000    647.5928      5.1837
  1941.5000     99.8647      0.0000    666.9384      4.8315
  1941.7500     99.5926      0.0000    681.1586      4.4827
  1942.0000     98.8172      0.0000    690.0204      4.1923
  1942.2500     97.7332      0.0000    694.9780      3.9944
  1942.5000     95.8247      0.0000    696.6957      3.9176
  1942.7500     92.4615      0.0000    695.2261      4.0117
  1943.0000     87.9182      0.0000    690.6578      4.3329
  1943.2500     83.5073      0.0000    682.6948      4.9068
  1943.5000     80.7285     -2.5365    669.8167      5.7365
  1943.7500     80.2657     -2.3424    649.0162      6.8592
  1944.0000     81.6683      0.0000    617.4307      8.4120
  1944.2500     83.9529      0.0000    576.8727     10.6163
  1944.5000     86.4867      0.0000    537.4182     13.5992
  1944.7500     89.2428      0.0000    512.5510     17.1768
  1945.0000     92.3282      0.0000    506.3841     20.8939
  1945.2500     95.4388      0.0000    507.2134     24.3321
  1945.5000     97.7403      0.0000    498.9250     27.2602
  1945.7500     98.2158      0.0000    479.3162     29.4444
  1946.0000     96.3102      0.0000    462.7519     30.5216
  1946.2500     92.4798      0.0000    464.3825     30.2079
  1946.5000     88.1444      0.0000    486.1241     28.5517
  1946.7500     84.9777      0.0000    518.6870     25.9159
  1947.0000     84.0295      0.0000    552.3325     22.7710
  1947.2500     85.3314      0.0000    582.3966     19.5300
  1947.5000     88.2358      0.0000    607.2402     16.5031
  1947.7500     91.9845      0.0000    625.8894     13.9119
  1948.0000     95.7829      0.0000    638.8021     11.9107
  1948.2500     98.5835      0.0000    648.6052     10.5939
  1948.5000     99.4724      0.0000    658.4575      9.9975
  1948.7500     98.6000      0.0000    669.6121     10.0996
  1949.0000     97.2821      0.0000    680.6019     10.8177
  1949.2500     96.6905      0.0000    688.2042     12.0102
  1949.5000     96.5394      0.0000    688.8587     13.4873
  1949.7500     95.3788      0.0000    680.2664     15.0300
  1950.0000     92.2057      0.0000    663.4158     16.4055
  1950.2500     87.7020      0.0000    643.6134     17.3895
  1950.5000     83.8289      0.0000    628.4015     17.8172
