~Version Information
VERS.                      2.0: CWLS Log ASCII Standard - VERSION 2.0
WRAP.                       NO: One line per depth step
~Well Information Block
STRT.FT               235.0000: 
STOP.FT              1271.0000: 
STEP.FT                 0.1000: 
NULL.                -999.2500: 
COMP.          Pioneer Natural Resources: COMPANY
WELL.              Julie 11-30: WELL
FLD.           Purgatoire River: FIELD
LOC.           672' FNL & 1052' FWL: LOCATION
CNTY.               Las Animas: COUNTY
SRVC.                Patterson: SERVICE COMPANY
DATE.          Fri Apr 14 07:21:24 2006: LOG DATE
UWI.           05 071 08724 00: UNIQUE WELL ID
STAT.                 Colorado: STATE
~Curve Information Block
DEPT.FT            0 000 00 00: Depth
DCAL.in                       : CDL Caliper
RHOB.g/cc                     : CDL Bulk Density
RHOC.g/cc                     : CDL Density Correction
DPOR.pu                       : CDL Density Porosity
GR.GAPI                       : Gamma Ray
NPOR.pu                       : Neutron Porosity
~Parameter Information Block
~A  Depth       DCAL        RHOB        RHOC        DPOR         GR         NPOR    
# ...
  1051.0000      8.1232      2.4901      0.0409      9.6906     87.4141     23.6658
  1051.1000      8.1232      2.5207      0.0283      7.8369     77.3280     24.1595
  1051.2000      8.1232      2.5641      0.0588      5.2049     67.6859     24.6892
  1051.3000      8.1201      2.6187      0.0766      1.8953     62.2020     25.6507
  1051.4000      8.1201      2.6722      0.1643     -1.3482     62.3694     26.7327
  1051.5000      8.1155      2.7031      0.2062     -3.2191     66.3015     27.1080
  1051.6000      8.1155      2.7033      0.1754     -3.2321     68.1561     26.6580
  1051.7000      8.1155      2.6895      0.1314     -2.3941     67.5475     25.9007
  1051.8000      8.1010      2.6683      0.1247     -1.1101     66.4225     25.3486
  1051.9000      8.1010      2.6345      0.0407      0.9422     65.1689     25.2427
  1052.0000      8.1179      2.5951      0.0194      3.3259     66.7228     25.4095
  1052.1000      8.1179      2.5649      0.0076      5.1560     70.5523     25.5779
  1052.2000      8.1179      2.5571     -0.0238      5.6301     71.6641     25.5868
  1052.3000      8.1208      2.5723     -0.0649      4.7061     69.1598     25.1449
  1052.4000      8.1208      2.5932      0.0305      3.4450     67.5607     24.1811
  1052.5000      8.1208      2.5984      0.0295      3.1262     70.3333     23.2780
  1052.6000      8.1208      2.5907      0.0105      3.5916     76.0752     22.9250
  1052.7000      8.1208      2.5873      0.0716      3.7999     79.7635     23.0555
  1052.8000      8.1163      2.5837      0.0659      4.0201     78.5800     23.1591
  1052.9000      8.1163      2.5692     -0.0168      4.8940     75.5702     22.8339
  1053.0000      8.0989      2.5453      0.0390      6.3465     74.7691     22.3637
  1053.1000      8.0989      2.5169     -0.0023      8.0669     76.5204     22.1868
  1053.2000      8.0989      2.5027     -0.0335      8.9303     79.0615     22.3887
  1053.3000      8.0945      2.5156      0.0483      8.1426     81.9066     22.4984
  1053.4000      8.0945      2.5386      0.0521      6.7533     86.0333     22.2505
  1053.5000      8.0885      2.5476      0.0820      6.2088     89.1542     22.1486
  1053.6000      8.0885      2.5395      0.0471      6.6983     88.9521     22.3258
  1053.7000      8.0885      2.5256      0.0550      7.5389     88.4382     22.4307
  1053.8000      8.0862      2.5101      0.1031      8.4804     89.3256     22.6573
  1053.9000      8.0862      2.4962      0.0522      9.3208     88.0373     23.3446
  1054.0000      8.0886      2.4984      0.0523      9.1863     82.3881     24.2370
  1054.1000      8.0886      2.5197      0.0784      7.8948     75.0232     24.8647
  1054.2000      8.0886      2.5469      0.0947      6.2489     72.0002     24.9953
  1054.3000      8.0985      2.5709      0.0456      4.7966     76.0681     24.7687
  1054.4000      8.0985      2.5824      0.1085      4.0961     80.2606     24.2775
  1054.5000      8.1087      2.5654      0.0909      5.1284     79.2275     23.5763
  1054.6000      8.1087      2.5314      0.0892      7.1899     78.4753     22.9453
  1054.7000      8.1087      2.5190      0.0337      7.9407     81.9596     22.5796
  1054.8000      8.0902      2.5370      0.1023      6.8466     86.0457     22.5396
  1054.9000      8.0902      2.5461      0.1680      6.2965     88.1106     22.5941
  1055.0000      8.0897      2.5208      0.1219      7.8296     89.7642     22.2196
  1055.1000      8.0897      2.4901      0.1104      9.6935     94.8967     21.4379
  1055.2000      8.0897      2.4806      0.1143     10.2650    102.5420     20.7978
  1055.3000      8.0959      2.4806      0.1539     10.2640    106.2291     20.5569
  1055.4000      8.0959      2.4800      0.1019     10.3025    103.9148     20.4733
  1055.5000      8.1022      2.4915      0.1211      9.6062     99.4035     20.2789
  1055.6000      8.1022      2.5205      0.1616      7.8509     99.1421     20.2397
  1055.7000      8.1022      2.5519      0.1561      5.9450    105.9387     20.9130
  1055.8000      8.1179      2.5670      0.1696      5.0294    114.4327     22.1974
  1055.9000      8.1179      2.5683      0.0913      4.9519    118.1091     23.4541
  1056.0000      8.1163      2.5741      0.1104      4.6004    115.7543     24.3842
  1056.1000      8.1163      2.5801      0.1225      4.2368    111.0371     25.0781
  1056.2000      8.1163      2.5684      0.1067      4.9428    104.8783     25.5464
  1056.3000      8.1120      2.5385      0.0662      6.7599     96.3636     25.6274
  1056.4000      8.1120      2.5097      0.0162      8.5006     89.2562     25.3382
  1056.5000      8.1069      2.4986      0.0381      9.1780     86.6463     24.8011
  1056.6000      8.1069      2.4973      0.0499      9.2573     87.2825     24.1672
  1056.7000      8.1069      2.4983     -0.0003      9.1937     90.2254     23.6181
  1056.8000      8.0972      2.5049      0.0586      8.7932     93.7265     23.0196
  1056.9000      8.0972      2.5054      0.0434      8.7618     94.8959     22.1991
  1057.0000      8.1087      2.4809      0.0649     10.2512     93.9399     21.2652
  1057.1000      8.1087      2.4240      0.0509     13.6956     92.2935     20.2801
  1057.2000      8.1087      2.3311      0.0089     19.3300     88.9333     19.0416
  1057.3000      8.1105      2.1983     -0.0156     27.3758     81.6042     17.3929
  1057.4000      8.1105      2.0394     -0.0683     37.0081     70.2421     15.6638
  1057.5000      8.1090      1.8866     -0.1105     46.2658     59.6720     14.2472
  1057.6000      8.1090      1.7654     -0.1441     53.6135     54.0535     12.9594
  1057.7000      8.1090      1.6756     -0.1041     59.0535     51.1381     11.8533
  1057.8000      8.1005      1.6023     -0.0818     63.4972     46.8602     11.4644
  1057.9000      8.1005      1.5421     -0.0678     67.1475     41.8175     11.5676
  1058.0000      8.1162      1.4946      0.0945     70.0233     39.1274     11.2120
  1058.1000      8.1162      1.4509      0.1329     72.6736     39.0219     10.2970
  1058.2000      8.1162      1.4130      0.2116     74.9687     37.8010      9.5112
  1058.3000      8.1272      1.3788      0.2039     77.0451     33.1191      9.1522
  1058.4000      8.1272      1.3354      0.1535     79.6711     28.4167      9.2038
  1058.5000      8.1254      1.2888      0.0353     82.4994     27.7148      9.4787
  1058.6000      8.1254      1.2645     -0.0014     83.9684     29.5095      9.6701
  1058.7000      8.1254      1.2754      0.0406     83.3120     30.9469      9.8303
  1058.8000      8.1278      1.3144      0.0492     80.9466     32.3566     10.3010
  1058.9000      8.1278      1.3777      0.0578     77.1098     34.5140     11.1645
  1059.0000      8.1260      1.4630      0.1052     71.9385     38.0951     12.1316
  1059.1000      8.1260      1.5660      0.1108     65.6998     44.0333     12.9222
  1059.2000      8.1260      1.6819      0.1751     58.6724     51.7058     13.5703
  1059.3000      8.1264      1.8011      0.1811     51.4502     59.1578     14.3254
  1059.4000      8.1264      1.9183      0.2090     44.3470     64.9423     15.4059
  1059.5000      8.1272      2.0379      0.1465     37.0949     69.7762     16.7628
  1059.6000      8.1272      2.1648      0.1785     29.4033     73.6333     18.1271
  1059.7000      8.1272      2.2828      0.2332     22.2553     76.1440     19.4752
  1059.8000      8.1261      2.3588      0.1876     17.6480     79.6032     20.9786
  1059.9000      8.1261      2.3852      0.1186     16.0459     83.6596     22.4410
  1060.0000      8.1205      2.3894      0.0857     15.7954     87.0755     23.1264
  1060.1000      8.1205      2.3978      0.0635     15.2847     89.7108     22.9223
  1060.2000      8.1205      2.4158      0.0773     14.1967     89.9972     22.5737
  1060.3000      8.1151      2.4390      0.0380     12.7855     85.6085     22.4862
  1060.4000      8.1151      2.4659      0.0116     11.1598     78.1605     22.5957
  1060.5000      8.1141      2.4854      0.0627      9.9758     74.7481     22.9529
