~Version Information
VERS.                      2.0: CWLS Log ASCII Standard - VERSION 2.0
WRAP.                       NO: One line per depth step
~Well Information Block
STRT.FT               410.0000: 
STOP.FT              1530.5000: 
STEP.FT                 0.1000: 
NULL.                -999.2500: 
COMP.          Pioneer Natural Resources: COMPANY
WELL.          Pioneer 34-27 Tr: WELL
FLD.           Purgatoire River: FIELD
LOC.           243' FSL & 1593' FEL: LOCATION
STAT.                 Colorado: State
CNTY.               Las Animas: COUNTY
CTRY. USA : Country
SECT. 27 : Section
TOWN. 32S : Township
RANG. 67W : Range 
SRVC.                Patterson: SERVICE COMPANY
DATE.          Fri Oct 07 07:11:38 2005: LOG DATE
API.           05 071 08548 00: UNIQUE WELL ID
~Curve Information Block
DEPT.FT            0 000 00 00: Depth
DCAL.in                       : CDL Caliper
RHOB.g/cc                     : CDL Bulk Density
RHOC.g/cc                     : CDL Density Correction
DPOR.pu                       : CDL Density Porosity
GR.GAPI                       : Gamma Ray
NPOR.pu                       : Neutron Porosity
~Parameter Information Block
~A  Depth       DCAL        RHOB        RHOC        DPOR         GR         NPOR    
# ...
   486.8000      8.2005      2.4960      0.0070      9.3349     50.7895     18.7688
   486.9000      8.2005      2.4676     -0.0134     11.0550     51.4505     18.6420
   487.0000      8.1995      2.4484      0.0153     12.2173     54.6185     18.5554
   487.1000      8.1995      2.4424     -0.0210     12.5804     56.5362     18.8950
   487.2000      8.1995      2.4546      0.0157     11.8398     54.9100     19.3895
   487.3000      8.2005      2.4748      0.0651     10.6195     49.7555     19.5161
   487.4000      8.2005      2.4790      0.0070     10.3622     42.3143     19.1833
   487.5000      8.1892      2.4620      0.0457     11.3918     36.8453     18.5950
   487.6000      8.1892      2.4373     -0.0081     12.8899     37.6659     18.1512
   487.7000      8.1892      2.4230     -0.0104     13.7565     43.6597     18.1351
   487.8000      8.1922      2.4308     -0.0168     13.2861     49.5118     18.2949
   487.9000      8.1922      2.4625      0.0039     11.3637     50.6861     18.3513
   488.0000      8.2023      2.5064      0.0529      8.7047     47.1338     18.5252
   488.1000      8.2023      2.5391      0.1025      6.7218     43.2015     19.0968
   488.2000      8.2023      2.5409      0.1037      6.6120     44.3690     19.5730
   488.3000      8.1944      2.5190      0.0304      7.9411     50.1283     19.5846
   488.4000      8.1944      2.4993      0.0619      9.1345     54.0055     19.6990
   488.5000      8.1855      2.4886      0.0392      9.7841     52.9875     20.2282
   488.6000      8.1855      2.4774      0.0834     10.4584     49.2588     20.5786
   488.7000      8.1855      2.4719     -0.0184     10.7926     44.8769     20.3998
   488.8000      8.1770      2.4861      0.0452      9.9351     40.2025     20.1670
   488.9000      8.1770      2.5005      0.0948      9.0625     36.6616     20.2178
   489.0000      8.1603      2.4910      0.0186      9.6354     36.0337     20.2463
   489.1000      8.1603      2.4777     -0.0086     10.4434     37.1850     19.8379
   489.2000      8.1603      2.4885      0.0094      9.7894     38.1824     19.2541
   489.3000      8.1668      2.5099      0.0821      8.4907     38.6610     19.0317
   489.4000      8.1668      2.5079      0.0803      8.6099     38.2054     19.1895
   489.5000      8.1644      2.4739      0.0567     10.6705     38.1939     19.2854
   489.6000      8.1644      2.4334     -0.0137     13.1281     41.7107     18.9895
   489.7000      8.1644      2.4112      0.0490     14.4706     47.2972     18.5075
   489.8000      8.1608      2.4020      0.0284     15.0289     49.2273     18.0814
   489.9000      8.1608      2.3954      0.0615     15.4274     46.9781     17.7454
   490.0000      8.1610      2.3999      0.0469     15.1579     45.2273     17.4820
   490.1000      8.1610      2.4310      0.0921     13.2732     45.8756     17.2634
   490.2000      8.1610      2.4830      0.1883     10.1241     46.9755     17.2876
   490.3000      8.1556      2.5274      0.2054      7.4308     46.9776     17.7104
   490.4000      8.1556      2.5457      0.1704      6.3231     46.2230     18.1306
   490.5000      8.1588      2.5411      0.1567      6.6003     46.0203     17.9720
   490.6000      8.1588      2.5281      0.1057      7.3860     46.8544     17.4587
   490.7000      8.1588      2.5138      0.1235      8.2534     46.5206     17.3499
   490.8000      8.1580      2.4978      0.0859      9.2245     43.6119     17.7410
   490.9000      8.1580      2.4885      0.0382      9.7882     41.0641     18.2291
   491.0000      8.1609      2.4863      0.0946      9.9196     40.8276     18.4753
   491.1000      8.1609      2.4757      0.0713     10.5607     40.8895     18.4640
   491.2000      8.1609      2.4578      0.0002     11.6486     39.6776     18.3769
   491.3000      8.1579      2.4489      0.0141     12.1894     38.6388     18.0973
   491.4000      8.1579      2.4429      0.0623     12.5513     39.0553     17.5927
   491.5000      8.1627      2.4281      0.0153     13.4514     39.5782     17.1294
   491.6000      8.1627      2.4117      0.0275     14.4406     38.5170     16.8423
   491.7000      8.1627      2.3979      0.0262     15.2801     36.5234     16.8430
   491.8000      8.1633      2.3851     -0.0334     16.0533     36.1752     17.1540
   491.9000      8.1633      2.3812     -0.0039     16.2890     39.0959     17.5354
   492.0000      8.1511      2.3878      0.0256     15.8902     43.4932     17.7420
   492.1000      8.1511      2.3943      0.0265     15.4988     46.4203     17.5825
   492.2000      8.1511      2.3940      0.0320     15.5135     47.2024     17.2241
   492.3000      8.1706      2.3922      0.0303     15.6232     47.4354     17.0913
   492.4000      8.1706      2.3918      0.0288     15.6506     48.7741     17.2904
   492.5000      8.1914      2.3834      0.0336     16.1579     50.8550     17.5615
   492.6000      8.1914      2.3636      0.0164     17.3578     50.9892     17.5614
   492.7000      8.1914      2.3434      0.0032     18.5803     48.6942     17.2130
   492.8000      8.2077      2.3398     -0.0202     18.8008     46.2717     16.6236
   492.9000      8.2077      2.3653      0.0000     17.2569     43.0842     15.9771
   493.0000      8.2434      2.4047      0.0580     14.8678     37.6973     15.6450
   493.1000      8.2434      2.4220      0.0715     13.8195     34.2687     15.8846
   493.2000      8.2434      2.4047      0.0463     14.8641     36.3087     16.6408
   493.3000      8.2509      2.3791      0.0074     16.4204     40.6696     17.6184
   493.4000      8.2509      2.3741      0.0313     16.7209     44.4280     18.2247
   493.5000      8.2611      2.3886      0.1051     15.8419     48.5028     18.4191
   493.6000      8.2611      2.4045      0.0641     14.8764     52.0187     18.5518
   493.7000      8.2611      2.4099      0.0896     14.5542     51.6667     18.5033
   493.8000      8.2532      2.4044      0.0487     14.8866     49.0000     18.2853
   493.9000      8.2532      2.4007      0.0472     15.1077     47.3964     18.1460
   494.0000      8.2278      2.4112      0.0384     14.4741     46.4399     18.1711
   494.1000      8.2278      2.4340      0.0639     13.0885     47.6532     18.4633
   494.2000      8.2278      2.4585      0.0905     11.6080     54.4387     19.1799
   494.3000      8.2138      2.4783      0.1011     10.4067     64.2820     20.2454
   494.4000      8.2138      2.4997      0.0780      9.1073     72.1783     21.2216
   494.5000      8.1707      2.5225      0.1347      7.7283     78.8148     21.7702
   494.6000      8.1707      2.5329      0.0929      7.0950     86.0632     22.1428
   494.7000      8.1707      2.5307      0.0920      7.2286     92.2452     22.7140
   494.8000      8.1536      2.5249      0.0514      7.5830     96.1031     23.2956
   494.9000      8.1536      2.5201      0.0396      7.8733     99.3717     23.6776
   495.0000      8.1494      2.5189      0.0502      7.9445    102.6279     24.1105
   495.1000      8.1494      2.5187      0.0630      7.9584    104.0156     24.5842
   495.2000      8.1494      2.5183      0.0523      7.9821    103.1351     24.8258
   495.3000      8.1184      2.5301      0.0351      7.2680    103.1171     25.0213
   495.4000      8.1184      2.5577      0.0829      5.5962    105.3297     25.5261
   495.5000      8.1003      2.5807      0.0792      4.2023    106.5035     26.2400
   495.6000      8.1003      2.5900      0.0814      3.6347    101.0622     26.7008
   495.7000      8.1003      2.5938      0.1113      3.4082     89.5904     26.5023
   495.8000      8.0538      2.5879      0.1383      3.7657     82.1343     25.7229
   495.9000      8.0538      2.5651      0.1575      5.1462     81.9128     24.9272
   496.0000      8.0114      2.5331      0.1317      7.0871     82.5607     24.3147
   496.1000      8.0114      2.5049      0.0883      8.7966     82.2464     23.5975
   496.2000      8.0114      2.4809      0.0984     10.2503     82.5751     22.8049
   496.3000      7.9864      2.4545      0.0337     11.8498     81.9088     22.2243
