~Version Information
VERS.                      2.0: CWLS Log ASCII Standard - VERSION 2.0
WRAP.                       NO: One line per depth step
~Well Information Block
STRT.FT                 0.0000: 
STOP.FT              2072.7500: 
STEP.FT                 0.2500: 
NULL.                -999.2500: 
COMP.          Pioneer Natural Resources: COMPANY
WELL.          Greenwood 43-29 Tr: WELL
FLD.           Purgatorie River: FIELD
LOC.           1478' FSL & 744' FEL: LOCATION
STAT.                 Colorado: State
CNTY.               Las Animas: COUNTY
CTRY. USA : Country
SECT. 29 : Section
TOWN. 32S : Township
RANG. 67W : Range
SRVC.                Patterson: SERVICE COMPANY
DATE.          Tue Sep 06 12:54:40 2005: LOG DATE
API. 05-071-08478                          : UNIQUE WELL ID
~Curve Information Block
DEPT.FT            0 000 00 00: Depth
GR.GAPI                       : Gamma Ray
CCL.                          : Casing Collar Locator
TT3.usec                      : CBL 3' Travel Time
AMP3.mV                       : CBL 3' Amplitude
~Parameter Information Block
~A  Depth        GR         CCL         TT3         AMP3    
# ...
  1373.5000    104.1886      0.0000   1069.3738      5.3019
  1373.7500    103.6451     -1.0000   1035.9854      5.3170
  1374.0000    103.7286     -1.0000   1013.0186      5.2869
  1374.2500    105.4837      0.0000    993.5850      5.2450
  1374.5000    108.8247      0.0000    987.1761      5.3263
  1374.7500    112.7684      0.0000   1001.1450      5.7711
  1375.0000    116.0735      0.0000   1012.7538      6.5898
  1375.2500    117.9570      0.0000    989.3098      7.3084
  1375.5000    118.2741      0.0000    933.6667      7.5630
  1375.7500    117.1922      0.0000    882.1461      7.6250
  1376.0000    115.0396      0.0000    857.0506      7.8219
  1376.2500    112.3700      0.0000    851.0511      8.0695
  1376.5000    109.7143      0.0000    850.5287      8.1875
  1376.7500    107.2451      0.0000    851.4540      8.1686
  1377.0000    105.0478      0.0000    855.1058      8.1053
  1377.2500    103.6813      0.0000    860.0751      8.0639
  1377.5000    104.1088      0.0000    863.5522      8.0560
  1377.7500    106.9173      0.0000    865.0385      8.0660
  1378.0000    111.6114      0.0000    865.4741      8.0766
  1378.2500    116.7245      0.0000    865.5914      8.0776
  1378.5000    120.7670      0.0000    865.6738      8.0656
  1378.7500    123.1256      0.0000    865.3314      8.0466
  1379.0000    124.1178      0.0000    862.6384      8.0420
  1379.2500    124.3889      0.0000    853.7691      8.0683
  1379.5000    124.4517      0.0000    836.2143      8.1122
  1379.7500    124.7279      0.0000    814.2043      8.1462
  1380.0000    125.7540      0.0000    796.5665      8.1558
  1380.2500    127.8795      0.0000    787.4998      8.1383
  1380.5000    130.6037      0.0000    784.4383      8.1016
  1380.7500    132.6706      0.0000    783.6108      8.0644
  1381.0000    133.2311      0.0000    783.2383      8.0377
  1381.2500    132.6229      0.0000    783.0521      8.0202
  1381.5000    131.7907      0.0000    783.4412      8.0110
  1381.7500    131.2948      0.0000    785.3967      8.0068
  1382.0000    131.1327      0.0000    790.6896      7.9965
  1382.2500    131.2651      0.0000    800.4515      7.9727
  1382.5000    131.9364      0.0000    812.5012      7.9454
  1382.7500    133.3424      0.0000    822.2454      7.9312
  1383.0000    135.1010      0.0000    827.3352      7.9294
  1383.2500    136.3349      0.0000    829.0453      7.9207
  1383.5000    136.4428      0.0000    829.4887      7.8934
  1383.7500    135.6253      0.0000    829.7058      7.8674
  1384.0000    134.4949      0.0000    829.8467      7.8742
  1384.2500    133.2870      0.0000    829.6274      7.9162
  1384.5000    131.7150      0.0000    827.2720      7.9642
  1384.7500    129.6575      0.0000    816.4927      7.9980
  1385.0000    127.8020      0.0000    787.6386      8.0267
  1385.2500    127.2623      0.0000    743.3539      8.0603
  1385.5000    128.4800      0.0000    708.1976      8.0904
  1385.7500    130.6943      0.0000    696.7981      8.1106
  1386.0000    132.5903      0.0000    694.1267      8.1265
  1386.2500    133.2999      0.0000    694.3709      8.1365
  1386.5000    132.7661      0.0000    703.9108      8.1277
  1386.7500    131.5275      0.0000    699.2997      8.0958
  1387.0000    130.3985      0.0000    647.9211      8.0512
  1387.2500    130.1489      0.0000    560.4219      8.0008
  1387.5000    131.1582      0.0000    480.5111      7.9365
  1387.7500    133.1562      0.0000    434.4453      7.8458
  1388.0000    135.1020      0.0000    415.4631      7.7355
  1388.2500    135.3516      0.0000    406.5081      7.6378
  1388.5000    132.5473      0.0000    400.1140      7.5832
  1388.7500    126.8950      0.0000    403.9164      7.5749
  1389.0000    120.2928      0.0000    434.8972      7.5927
  1389.2500    114.8051      0.0000    501.4849      7.6099
  1389.5000    111.1895      0.0000    584.3940      7.6171
  1389.7500    108.9296      0.0000    638.2566      7.6276
  1390.0000    107.1287      0.0000    627.9087      7.6538
  1390.2500    105.0495      0.0000    567.9771      7.6945
  1390.5000    102.2738      0.0000    506.5294      7.7390
  1390.7500     98.8417      0.0000    472.1075      7.7699
  1391.0000     95.1983      0.0000    460.0969      7.7809
  1391.2500     92.0217      0.0000    457.2141      7.7909
  1391.5000     90.2673      0.0000    456.7894      7.8262
  1391.7500     90.8968      0.0000    457.7639      7.8932
  1392.0000     93.9017      0.0000    460.5011      7.9723
  1392.2500     97.9635      0.0000    463.1088      8.0347
  1392.5000    101.7582      0.0000    460.5923      8.0696
  1392.7500    105.3001      0.0000    452.4193      8.0901
  1393.0000    109.5461      0.0000    452.3521      8.1059
  1393.2500    115.0654      0.0000    482.5479      8.1128
  1393.5000    121.4162      0.0000    546.1269      8.1099
  1393.7500    127.5214      0.0000    604.8992      8.1061
  1394.0000    132.4904      0.0000    609.5317      8.1192
  1394.2500    136.1799      0.0000    560.0223      8.1560
  1394.5000    138.9278      0.0000    502.4679      8.1890
  1394.7500    140.8229      0.0000    469.1881      8.1878
  1395.0000    141.5421      0.0000    457.7653      8.1657
  1395.2500    140.9055      0.0000    455.2607      8.1580
  1395.5000    139.3127      0.0000    454.7608      8.1696
  1395.7500    137.5572      0.0000    454.5779      8.1773
  1396.0000    136.3885      0.0000    454.8529      8.1682
  1396.2500    136.2716      0.0000    457.7358      8.1462
  1396.5000    137.3644      0.0000    471.3619      8.1158
  1396.7500    139.4514      0.0000    512.2784      8.0795
  1397.0000    141.7360      0.0000    591.3177      8.0336
  1397.2500    142.8852      0.0000    688.0151      7.9740
  1397.5000    141.8049      0.0000    757.4484      7.9151
  1397.7500    138.5734      0.0000    771.2875      7.8797
  1398.0000    134.3184      0.0000    737.4066      7.8737
  1398.2500    130.3018      0.0000    681.5046      7.8841
  1398.5000    127.5142      0.0000    617.0709      7.8954
  1398.7500    126.6087      0.0000    546.3763      7.8993
  1399.0000    127.3229      0.0000    484.7121      7.8929
  1399.2500    128.0896      0.0000    450.2743      7.8746
  1399.5000    127.0012      0.0000    447.7505      7.8458
  1399.7500    123.4817      0.0000    478.5505      7.8105
  1400.0000    118.8107      0.0000    536.7513      7.7713
  1400.2500    114.9293      0.0000    598.8257      7.7338
  1400.5000    113.0029      0.0000    644.3332      7.7054
  1400.7500    113.1999      0.0000    662.9115      7.6830
  1401.0000    115.4053      0.0000    639.0794      7.6615
  1401.2500    119.6093      0.0000    577.8353      7.6511
  1401.5000    125.5625      0.0000    517.6261      7.6638
  1401.7500    132.4756      0.0000    486.3064      7.6983
  1402.0000    139.3433      0.0000    487.1502      7.7341
  1402.2500    145.3472      0.0000    529.0045      7.7197
  1402.5000    149.6837      0.0000    623.9797      7.5846
  1402.7500    151.3935      0.0000    748.8298      7.2857
  1403.0000    150.0244      0.0000    844.5193      6.8370
  1403.2500    146.3938      0.0000    873.8734      6.2936
  1403.5000    141.8766      0.0000    858.8513      5.7154
  1403.7500    136.6198      0.0000    850.1108      5.1413
  1404.0000    129.0482      0.0000    879.1407      4.5888
  1404.2500    117.5455      0.0000    947.5280      4.0743
  1404.5000    102.2379      0.0000   1037.0737      3.6197
  1404.7500     84.9964      0.0000   1118.4314      3.2374
  1405.0000     68.2944      0.0000   1169.8826      2.9296
  1405.2500     54.3091      0.0000   1192.1134      2.6978
  1405.5000     44.5045      0.0000   1198.5513      2.5486
  1405.7500     39.4246      0.0000   1199.4865      2.4836
  1406.0000     38.6596      0.0000   1197.2836      2.4849
  1406.2500     41.0496      0.0000   1185.8506      2.5224
  1406.5000     45.0597      0.0000   1149.8126      2.5856
  1406.7500     49.2429      0.0000   1075.4193      2.7056
