~Version Information
 VERS.                                  2.0 : CWLS LAS VERSION
 WRAP.                                   NO : WRAPING MODE
 SWARE .                 MController 2.5.0N : SOFTWARE VERSION
~Well Information
 WELL.                        Hamburg 43-35 : WELL
 COMP.    Pioneer Natural Resouces USA Inc. : COMPANY
 FLD.                      Purgatoire River : FIELD
 LOC.            NE/SE Sec 35 , T34S, R65W  : LOCATION
 DATE.                             12/02/05 : DATE(S) LOGGED
 SRVC.       BLANCO Geological Services LLC : SERVICE COMPANY
 STAT.                                   CO : STATE
 CNTY.                           Las Animas : COUNTY
 CTRY.                                  USA : COUNTRY
 API.                       05-071-08607-00 : API NUMBER
 STRT.FT                             188.00 : START DEPTH
 STOP.FT                            1330.00 : STOP DEPTH
 STEP.FT                               1.00 : DEPTH INCREMENT
 NULL.                                -9999 : NULL VALUE
~Curve information
 DEPTH.FT                                   :
 ROP.MIN/FT                                 :
 GAS.UNITS                                  :
~ASCII Log data
# ...
       588.0         0.27         59.0 
       589.0         0.27         43.4 
       590.0         0.27         41.8 
       591.0         4.27       1988.9 
       592.0         0.37        124.6 
       593.0         0.43        220.9 
       594.0         0.40        230.5 
       595.0         0.30        232.7 
       596.0         0.23        193.5 
       597.0         0.20        147.2 
       598.0         0.20        184.4 
       599.0         0.27        204.6 
       600.0         0.30        198.0 
       601.0         0.27        199.5 
       602.0         0.28        206.3 
       603.0         0.30        197.0 
       604.0         0.33        192.3 
       605.0         0.27        194.1 
       606.0         0.23        192.1 
       607.0         0.40        198.5 
       608.0         0.30        208.0 
       609.0         0.33        207.8 
       610.0         0.27        183.2 
       611.0         0.27        168.4 
       612.0         0.27        164.2 
       613.0         0.35        146.3 
       614.0         0.30        183.2 
       615.0         0.27        136.5 
       616.0         0.30        100.5 
       617.0         0.27        103.0 
       618.0         0.27         88.1 
       619.0         0.33         39.4 
       620.0         0.47         36.1 
       621.0         4.25       1836.4 
       622.0         0.68        142.1 
       623.0         0.47        173.5 
       624.0         0.37        201.0 
       625.0         0.30        198.8 
       626.0         0.27        201.6 
       627.0         0.27        177.4 
       628.0         0.27        183.7 
       629.0         0.33        187.5 
       630.0         0.33        196.5 
       631.0         0.48        206.9 
       632.0         0.23        192.6 
       633.0         0.23        221.9 
       634.0         0.20        223.7 
       635.0         0.30        199.3 
       636.0         0.23        196.5 
       637.0         0.20        175.6 
       638.0         0.17        171.3 
       639.0         0.20        165.6 
       640.0         0.33        180.9 
       641.0         0.27        198.8 
       642.0         0.23        223.2 
       643.0         0.23        246.3 
       644.0         0.42        232.1 
       645.0         0.30        135.3 
       646.0         0.23        149.8 
       647.0         0.37        100.5 
       648.0         0.37         38.6 
       649.0         0.37         37.5 
       650.0         0.63       1818.1 
       651.0         2.82       1213.2 
       652.0         0.53          5.1 
       653.0         0.60        200.6 
       654.0         0.42        201.4 
       655.0         0.27        188.8 
       656.0         0.27        187.8 
       657.0         0.37        184.5 
       658.0         0.37        177.0 
       659.0         0.33        172.6 
       660.0         0.30        156.2 
       661.0         0.30        187.6 
       662.0         0.30        223.7 
       663.0         0.33        225.2 
       664.0         0.27        199.9 
       665.0         0.28        200.9 
       666.0         0.23        177.5 
       667.0         0.23        175.0 
       668.0         0.33        180.1 
       669.0         0.37        190.3 
       670.0         0.30        189.3 
       671.0         0.30        178.6 
       672.0         0.23        188.0 
       673.0         0.20        188.0 
       674.0         0.30        173.2 
       675.0         0.23        152.1 
       676.0         0.20        107.1 
       677.0         0.28        111.9 
       678.0         0.27         99.8 
       679.0         0.27         59.9 
       680.0         0.43         39.9 
       681.0         3.48       2026.6 
       682.0         0.70        554.1 
       683.0         0.70        179.2 
       684.0         0.40        195.8 
       685.0         0.27        191.8 
       686.0         0.25        193.1 
       687.0         0.20        185.6 
       688.0         0.23        191.7 
       689.0         0.20        201.1 
       690.0         0.30        202.2 
       691.0         0.27        177.9 
       692.0         0.30        169.8 
       693.0         0.27        175.2 
       694.0         0.27        175.5 
       695.0         0.27        156.0 
       696.0         0.27        149.1 
       697.0         0.17        155.2 
       698.0         0.20        154.5 
       699.0         0.32        155.7 
       700.0         0.30        197.4 
       701.0         0.40        193.9 
       702.0         0.30        187.9 
       703.0         0.27        185.2 
       704.0         0.27        188.1 
       705.0         0.37        177.6 
       706.0         0.30        121.7 
       707.0         0.30        115.1 
       708.0         0.33        116.8 
       709.0         0.30        101.2 
       710.0         0.28         61.0 
       711.0         2.67       1414.3 
       712.0         0.92        580.9 
       713.0         0.63        440.0 
       714.0         0.43        181.7 
       715.0         0.33        167.6 
       716.0         0.30        153.8 
       717.0         0.30        210.3 
       718.0         0.27        216.8 
       719.0         0.20        215.6 
       720.0         0.23        204.3 
       721.0         0.23        202.2 
       722.0         0.18        202.2 
       723.0         0.20        229.9 
       724.0         0.33        230.9 
       725.0         0.30        208.4 
       726.0         0.23        204.8 
       727.0         0.30        170.0 
       728.0         0.37        170.6 
       729.0         0.27        172.1 
       730.0         0.27        155.7 
       731.0         0.27        178.8 
       732.0         0.23        163.7 
       733.0         0.27        153.6 
       734.0         0.32        163.7 
       735.0         0.20        135.7 
       736.0         0.27         98.9 
       737.0         0.30         95.4 
       738.0         0.23        111.5 
       739.0         0.23        115.4 
       740.0         0.23         98.0 
       741.0         4.22       1821.0 
       742.0         0.50        455.2 
       743.0         0.42        481.6 
       744.0         0.30        477.8 
       745.0         0.40        453.6 
       746.0         0.50        440.0 
       747.0         0.33        183.5 
       748.0         0.33        185.1 
       749.0         0.30        174.9 
       750.0         0.30        168.5 
       751.0         0.30        175.4 
       752.0         0.30        181.6 
       753.0         0.28        172.1 
       754.0         0.27        154.4 
       755.0         0.30        144.5 
       756.0         0.30        147.4 
       757.0         0.23        146.8 
       758.0         0.30        141.8 
       759.0         0.33        148.8 
       760.0         0.40        157.5 
       761.0         0.23        150.2 
       762.0         0.23        146.7 
       763.0         0.30        140.5 
       764.0         0.30        122.4 
       765.0         0.32         72.3 
       766.0         0.27         82.3 
       767.0         0.27        120.3 
       768.0         0.23        101.6 
       769.0         0.23         62.8 
       770.0         0.37         56.6 
       771.0         3.88       1670.8 
       772.0         0.53        493.2 
       773.0         0.78        465.2 
       774.0         0.47        166.8 
       775.0         0.37        203.2 
       776.0         0.27        208.8 
       777.0         0.23        188.4 
       778.0         0.23        185.7 
       779.0         0.20        174.4 
       780.0         0.20        174.4 
       781.0         0.33        175.4 
       782.0         0.30        171.8 
       783.0         0.27        176.8 
       784.0         0.23        177.1 
       785.0         0.32        177.5 
       786.0         0.27        175.0 
       787.0         0.23        164.7 
