~Version Information
VERS.                      2.0: CWLS Log ASCII Standard - VERSION 2.0
WRAP.                       NO: One line per depth step
~Well Information Block
STRT.FT                10.0000: 
STOP.FT              1458.0000: 
STEP.FT                 0.1000: 
NULL.                -999.2500: 
COMP.          Pioneer Natural Resources: COMPANY
WELL.            Bordeaux 42-2: WELL
FLD.           Purgatorie River: FIELD
LOC.           1963' FNL & 1148' FEL: LOCATION
PROV.                 Colorado: PROVINCE
CNTY.               Las Animas: COUNTRY
SRVC.                Patterson: SERVICE COMPANY
DATE.          Tue Nov 29 07:11:03 2005: LOG DATE
UWI.                          : UNIQUE WELL ID
~Curve Information Block
DEPT.FT            0 000 00 00: Depth
DCAL.in                       : CDL Caliper
RHOB.g/cc                     : CDL Bulk Density
RHOC.g/cc                     : CDL Density Correction
DPOR.pu                       : CDL Density Porosity
GR.GAPI                       : Gamma Ray
NPOR.pu                       : Neutron Porosity
~Parameter Information Block
~A  Depth       DCAL        RHOB        RHOC        DPOR         GR         NPOR    
# ...
   490.0000      7.9536      2.6410     -0.0205      0.5433     77.1639     20.4005
   490.1000      7.9536      2.6032     -0.0879      2.8384     77.6313     19.9880
   490.2000      7.9536      2.5790     -0.0265      4.3057     78.9587     19.5812
   490.3000      7.9529      2.5597      0.0195      5.4718     80.1600     19.3556
   490.4000      7.9529      2.5391     -0.0015      6.7201     79.3224     19.2626
   490.5000      7.9503      2.5293      0.0105      7.3163     78.3258     19.3136
   490.6000      7.9503      2.5407     -0.0081      6.6240     78.5712     19.4746
   490.7000      7.9503      2.5541      0.0615      5.8139     79.4927     19.5591
   490.8000      7.9665      2.5488     -0.0176      6.1310     80.0181     19.5873
   490.9000      7.9665      2.5411     -0.0131      6.6012     79.0773     19.5302
   491.0000      7.9573      2.5473      0.0102      6.2272     78.1059     19.2823
   491.1000      7.9573      2.5576      0.0142      5.6022     78.4961     18.9617
   491.2000      7.9573      2.5638      0.0059      5.2245     79.8535     18.7824
   491.3000      7.9587      2.5686      0.0478      4.9311     81.0236     18.8616
   491.4000      7.9587      2.5703      0.0227      4.8288     80.5109     19.0898
   491.5000      7.9450      2.5637      0.0524      5.2299     78.1463     19.2823
   491.6000      7.9450      2.5488      0.0434      6.1326     76.0613     19.3611
   491.7000      7.9450      2.5356      0.0432      6.9362     75.1632     19.3044
   491.8000      7.9516      2.5335      0.0324      7.0606     75.0966     19.1000
   491.9000      7.9516      2.5413      0.0246      6.5905     76.9429     19.0023
   492.0000      7.9554      2.5490      0.0676      6.1227     80.2883     19.2025
   492.1000      7.9554      2.5471      0.0610      6.2351     83.4623     19.4371
   492.2000      7.9554      2.5352      0.0569      6.9563     86.3229     19.4472
   492.3000      7.9533      2.5235      0.0026      7.6643     89.1515     19.3473
   492.4000      7.9533      2.5212      0.0156      7.8089     91.5871     19.4551
   492.5000      7.9576      2.5221      0.0156      7.7534     92.3451     19.9586
   492.6000      7.9576      2.5190      0.0200      7.9408     91.5233     20.5370
   492.7000      7.9576      2.5188     -0.0022      7.9491     90.7865     20.5702
   492.8000      7.9620      2.5335     -0.0291      7.0620     91.6433     20.1164
   492.9000      7.9620      2.5573      0.0432      5.6184     93.8624     19.8436
   493.0000      7.9607      2.5695      0.0756      4.8794     96.0130     19.9711
   493.1000      7.9607      2.5658      0.0380      5.1018     97.8441     20.0969
   493.2000      7.9607      2.5608      0.0173      5.4046     99.3765     20.1189
   493.3000      7.9627      2.5597      0.0285      5.4740     99.8017     20.3971
   493.4000      7.9627      2.5569      0.0110      5.6399     99.0213     20.8998
   493.5000      7.9632      2.5519      0.0270      5.9434     97.6859     21.1359
   493.6000      7.9632      2.5463      0.0277      6.2876     95.3403     20.8867
   493.7000      7.9632      2.5384      0.0229      6.7645     92.9934     20.4558
   493.8000      7.9574      2.5288     -0.0224      7.3429     92.7038     20.2467
   493.9000      7.9574      2.5191      0.0165      7.9352     93.4086     20.3010
   494.0000      7.9590      2.5107      0.0138      8.4451     92.6262     20.4120
   494.1000      7.9590      2.5149     -0.0039      8.1871     89.7792     20.5647
   494.2000      7.9590      2.5345      0.0314      7.0014     87.9899     20.7314
   494.3000      7.9617      2.5511      0.0462      5.9960     90.3394     20.6635
   494.4000      7.9617      2.5567      0.0096      5.6541     94.1040     20.3273
   494.5000      7.9567      2.5601      0.0355      5.4496     95.9118     20.0488
   494.6000      7.9567      2.5609      0.0371      5.3983     97.1233     20.0603
   494.7000      7.9567      2.5533      0.0490      5.8586     99.0697     20.3398
   494.8000      7.9540      2.5439      0.0015      6.4322    100.7558     20.7005
   494.9000      7.9540      2.5426      0.0117      6.5099    102.0018     21.0574
   495.0000      7.9546      2.5487      0.0009      6.1404    103.7752     21.5468
   495.1000      7.9546      2.5569      0.0123      5.6440    105.7845     22.0478
   495.2000      7.9546      2.5603      0.0475      5.4361    107.5150     22.2431
   495.3000      7.9547      2.5542      0.0304      5.8034    110.0154     22.2995
   495.4000      7.9547      2.5427      0.0278      6.5023    111.7326     22.4689
   495.5000      7.9620      2.5345      0.0170      6.9994    110.1167     22.6901
   495.6000      7.9620      2.5326      0.0301      7.1181    107.3465     22.8153
   495.7000      7.9620      2.5295      0.0294      7.3038    106.9913     22.8362
   495.8000      7.9629      2.5225      0.0379      7.7255    107.9638     22.9156
   495.9000      7.9629      2.5177      0.0462      8.0184    107.8045     23.0956
   496.0000      7.9559      2.5168      0.0401      8.0714    108.4877     23.1493
   496.1000      7.9559      2.5152      0.0489      8.1720    113.1430     22.9973
   496.2000      7.9559      2.5131      0.0386      8.2949    117.5199     22.9710
   496.3000      7.9634      2.5101      0.0652      8.4818    116.6725     23.0626
   496.4000      7.9634      2.4977      0.0247      9.2274    113.1540     23.1277
   496.5000      7.9670      2.4828     -0.0120     10.1330    111.6625     23.4851
   496.6000      7.9670      2.4786      0.0228     10.3850    111.3906     24.1049
   496.7000      7.9670      2.4822      0.0259     10.1710    108.4600     24.5748
   496.8000      7.9622      2.4838      0.0587     10.0717    103.9112     24.7441
   496.9000      7.9622      2.4852      0.0365      9.9872    102.2370     24.7827
   497.0000      7.9605      2.4925      0.0946      9.5476    104.2499     24.8570
   497.1000      7.9605      2.4980      0.1100      9.2106    105.4717     24.9223
   497.2000      7.9605      2.4947      0.1047      9.4093    102.6758     24.8987
   497.3000      7.9530      2.4948      0.0590      9.4071     98.6890     24.7396
   497.4000      7.9530      2.5137      0.1035      8.2635     95.2783     24.6141
   497.5000      7.9504      2.5545      0.1168      5.7883     92.3744     24.6288
   497.6000      7.9504      2.6087      0.1797      2.5034     92.6050     24.5486
   497.7000      7.9504      2.6528      0.2141     -0.1708     96.5945     24.3367
   497.8000      7.9533      2.6676      0.2086     -1.0676    101.0203     24.1227
   497.9000      7.9533      2.6584      0.1439     -0.5085    102.9818     23.8284
   498.0000      7.9546      2.6407      0.1712      0.5665    102.8760     23.4510
   498.1000      7.9546      2.6217      0.1710      1.7173    103.0217     23.0589
   498.2000      7.9546      2.6097      0.1240      2.4454    102.5262     22.5703
   498.3000      7.9538      2.6115      0.1053      2.3342    100.5813     21.9672
   498.4000      7.9538      2.6199      0.1068      1.8268     99.6958     21.5561
   498.5000      7.9535      2.6203      0.0718      1.8027     98.8205     21.5728
   498.6000      7.9535      2.6018      0.0666      2.9220     96.5563     21.7253
   498.7000      7.9535      2.5655      0.0404      5.1223     94.7717     21.7507
   498.8000      7.9547      2.5255     -0.0180      7.5453     94.3203     21.6823
   498.9000      7.9547      2.5016     -0.0309      8.9933     95.7166     21.5424
   499.0000      7.9738      2.5079     -0.0459      8.6094     98.4797     21.4576
   499.1000      7.9738      2.5394      0.0092      6.7046     99.8323     21.4815
   499.2000      7.9738      2.5740      0.0444      4.6072     98.4537     21.4417
   499.3000      7.9924      2.5968      0.0236      3.2266     96.3004     21.3063
   499.4000      7.9924      2.6017      0.0164      2.9268     95.5167     21.2528
   499.5000      7.9700      2.5821      0.0181      4.1157     97.0524     21.5323
