~Version Information
VERS.                      2.0: CWLS Log ASCII Standard - VERSION 2.0
WRAP.                       NO: One line per depth step
~Well Information Block
STRT.FT                 0.0000: 
STOP.FT               968.2500: 
STEP.FT                 0.2500: 
NULL.                -999.2500: 
COMP.          Pioneer Natural Resources: COMPANY
WELL.              Atlas 32-18: WELL
FLD.           Purgatorie River: FIELD
LOC.           1892' FNL & 1456' FEL: LOCATION
PROV.                 Colorado: PROVINCE
CNTY.               Las Animas: COUNTRY
SRVC.                Patterson: SERVICE COMPANY
DATE.          Fri Dec 02 11:37:22 2005: LOG DATE
UWI.                          : UNIQUE WELL ID
~Curve Information Block
DEPT.FT            0 000 00 00: Depth
CCL.                          : Casing Collar Locator
TT3.usec                      : CBL 3' Travel Time
AMP3.mV                       : CBL 3' Amplitude
GR.GAPI                       : Gamma Ray
~Parameter Information Block
~A  Depth       CCL         TT3         AMP3         GR     
# ...
   234.5000      0.0000    526.7588      4.7402     32.6865
   234.7500      0.0000    543.6598      4.9101     34.4083
   235.0000      0.0000    538.5372      4.9518     35.5780
   235.2500      0.0000    522.4667      4.8469     35.8556
   235.5000      0.0000    512.7858      4.6789     35.3153
   235.7500      0.0000    512.3007      4.5511     34.3155
   236.0000      0.0000    513.2338      4.5080     33.3188
   236.2500      0.0000    510.2087      4.5238     32.7331
   236.5000      0.0000    505.0698      4.5525     32.7749
   236.7500      0.0000    501.6049      4.5908     33.4541
   237.0000      0.0000    501.3079      4.6764     34.6030
   237.2500      0.0000    505.1075      4.8212     35.9722
   237.5000      0.0000    513.6868      4.9900     37.4807
   237.7500      0.0000    524.4479      5.1489     39.3754
   238.0000      0.0000    531.8538      5.2772     41.9753
   238.2500      0.0000    531.8465      5.3580     45.2046
   238.5000      0.0000    524.3771      5.3913     48.5740
   238.7500      0.0000    513.3219      5.3791     51.8836
   239.0000      0.0000    504.0713      5.3295     55.7499
   239.2500      0.0000    499.3138      5.3099     60.8755
   239.5000      0.0000    498.0836      5.4002     66.7608
   239.7500      0.0000    498.6225      5.5835     71.7385
   240.0000      0.0000    501.3435      5.7837     74.5420
   240.2500      0.0000    510.5089      5.9670     75.4079
   240.5000      0.0000    532.0692      6.1114     75.3582
   240.7500      0.0000    564.9795      6.1094     74.7392
   241.0000      0.0000    596.5100      5.8723     72.9389
   241.2500      0.0000    616.0373      5.6054     69.5059
   241.5000      0.0000    633.1349      5.6103     65.1644
   241.7500      0.0000    671.9808      5.6870     61.6254
   242.0000      0.0000    737.4849      5.4386     60.4237
   242.2500      0.0000    794.8347      5.0085     61.7618
   242.5000      0.0000    811.0153      4.7381     64.4669
   242.7500     -2.0000    796.6786      4.6403     67.2550
   243.0000      2.0000    777.7101      4.5695     69.9296
   243.2500      0.0000    762.1259      4.4583     73.2322
   243.5000      0.0000    744.8383      4.3398     77.7892
   243.7500      0.0000    714.3544      4.3666     83.2461
   244.0000      0.0000    661.6467      4.8015     88.1599
   244.2500      0.0000    595.2410      5.6917     90.9092
   244.5000      0.0000    536.5405      6.5743     91.1107
   244.7500      0.0000    498.4918      6.9510     89.9977
   245.0000      0.0000    478.1312      6.8799     89.2441
   245.2500      0.0000    467.8008      6.7004     89.6150
   245.5000      0.0000    463.0966      6.5842     90.7596
   245.7500      0.0000    461.6765      6.5376     91.9100
   246.0000      0.0000    462.3319      6.5235     92.5935
   246.2500      0.0000    466.2732      6.5311     92.8531
   246.5000      0.0000    478.2590      6.5792     92.8700
   246.7500      0.0000    503.7741      6.6500     92.3222
   247.0000      0.0000    539.7864      6.6770     90.3362
   247.2500      0.0000    570.9778      6.6279     86.3565
   247.5000      0.0000    585.8303      6.5517     81.0089
   247.7500      0.0000    595.2133      6.5161     75.9617
   248.0000      0.0000    620.0842      6.5380     72.8893
   248.2500      0.0000    660.6619      6.6024     72.3967
   248.5000      0.0000    695.9898      6.6953     73.7045
   248.7500      0.0000    711.9653      6.7813     75.2802
   249.0000      0.0000    712.1875      6.8023     75.8957
   249.2500      0.0000    706.4612      6.7337     75.3132
   249.5000      0.0000    700.9230      6.6122     74.1225
   249.7500      0.0000    698.4905      6.4993     72.8879
   250.0000      0.0000    701.8124      6.4278     71.5886
   250.2500      0.0000    709.9816      6.3891     70.1143
   250.5000      0.0000    717.1144      6.3719     69.0119
   250.7500      0.0000    718.5509      6.3882     69.1770
   251.0000      0.0000    715.5059      6.4376     70.8292
   251.2500      0.0000    713.4283      6.4726     73.1807
   251.5000      0.0000    715.8228      6.4482     75.1692
   251.7500      0.0000    720.4847      6.3771     76.3409
   252.0000      0.0000    723.7474      6.2996     76.9027
   252.2500      0.0000    724.6983      6.2332     76.9552
   252.5000      0.0000    723.6095      6.1993     75.9816
   252.7500      0.0000    720.0869      6.2834     73.4540
   253.0000      0.0000    714.8115      6.5811     69.9649
   253.2500      0.0000    710.7110      7.0512     67.4319
   253.5000      0.0000    708.6017      7.5049     67.7068
   253.7500      0.0000    705.4245      7.7950     70.8673
   254.0000      0.0000    701.6260      7.9205     75.2584
   254.2500      0.0000    702.5210      7.9570     79.2894
   254.5000      0.0000    708.3281      7.9885     82.7187
   254.7500      0.0000    711.8096      8.0597     85.9174
   255.0000      0.0000    708.4431      8.1571     88.4310
   255.2500      0.0000    702.9420      8.2577     89.1629
   255.5000      0.0000    702.9565      8.3671     88.0918
   255.7500      0.0000    708.6496      8.5119     87.0249
   256.0000      0.0000    713.1534      8.7052     88.0990
   256.2500      0.0000    712.9105      8.9120     91.7140
   256.5000      0.0000    711.7059      9.0591     96.2677
   256.7500      0.0000    712.8235      9.1042     99.7855
   257.0000      0.0000    712.9199      9.0816    101.4074
   257.2500      0.0000    708.0033      9.0678    101.3859
   257.5000      0.0000    700.7813      9.0993    100.3468
   257.7500      0.0000    696.6384      9.1425     98.9910
   258.0000      0.0000    695.9526      9.1469     98.0492
   258.2500      0.0000    697.0414      9.1045     97.9006
   258.5000      0.0000    701.5856      9.0608     98.3196
   258.7500      0.0000    709.7767      9.0620     98.9035
   259.0000      0.0000    716.7374      9.0909     99.5600
   259.2500      0.0000    718.1929      9.0905    100.3258
   259.5000      0.0000    715.3425      9.0485    100.8794
   259.7500      0.0000    713.4630      9.0036    100.5652
   260.0000      0.0000    715.8918      8.9824     99.0232
   260.2500      0.0000    720.4141      8.9780     96.7605
   260.5000      0.0000    723.5597      8.9755     94.9602
   260.7500      0.0000    724.7921      8.9790     94.5348
   261.0000      0.0000    725.1078      9.0071     95.2942
   261.2500      0.0000    725.0779      9.0636     95.9722
   261.5000      0.0000    724.8466      9.1350     95.0177
   261.7500      0.0000    724.3246      9.2052     91.6886
   262.0000      0.0000    722.6602      9.2586     86.7185
   262.2500      0.0000    717.8677      9.2947     81.8540
   262.5000      0.0000    708.6882      9.3366     78.6022
   262.7500      0.0000    698.2098      9.4066     77.4501
   263.0000      0.0000    693.2750      9.5007     78.0361
   263.2500      0.0000    697.7480      9.5884     79.5300
   263.5000      0.0000    708.1346      9.6462     80.7647
   263.7500      0.0000    717.6555      9.6808     80.5058
   264.0000      0.0000    722.9203      9.7096     77.9483
   264.2500      0.0000    724.8017      9.7348     73.0957
   264.5000      0.0000    725.1165      9.7589     66.8642
   264.7500      0.0000    724.6810      9.8172     60.9346
   265.0000      0.0000    722.9677      9.9425     57.2258
   265.2500      0.0000    718.1393     10.0908     57.0725
   265.5000      0.0000    709.0378     10.1639     60.6366
   265.7500      0.0000    698.7921     10.1258     67.0058
   266.0000      0.0000    694.1008     10.0297     74.7685
   266.2500      0.0000    698.6320      9.9243     82.5673
   266.5000      0.0000    708.8881      9.8134     89.4749
   266.7500      0.0000    718.1730      9.6989     95.2910
   267.0000      0.0000    723.1547      9.5979    100.4053
   267.2500      0.0000    724.8279      9.5335    105.0520
   267.5000      0.0000    725.1777      9.5296    108.8572
   267.7500      0.0000    725.2527      9.5795    111.4073
