~Version Information
 VERS.                                  2.0 : CWLS LAS VERSION
 WRAP.                                   NO : WRAPING MODE
 SWARE .                 MController 2.5.0J : SOFTWARE VERSION
~Well Information
 WELL.                     Galloway 32-13Tr : WELL
 COMP.    Pioneer Natural Resources USA Inc : COMPANY
 FLD.                      Purgatoire River : FIELD
 LOC.                  SW/NE SEC13 32S R66W : LOCATION
 DATE.                             11/12/05 : DATE(S) LOGGED
 SRVC.       Blanco Geological Services LLC : SERVICE COMPANY
 STAT.                             Colorado : STATE
 CNTY.                           Las Animas : COUNTY
 CTRY.                                  USA : COUNTRY
 API.                       05-071-08608-00 : API NUMBER
 STRT.FT                             530.00 : START DEPTH
 STOP.FT                            1619.00 : STOP DEPTH
 STEP.FT                               1.00 : DEPTH INCREMENT
 NULL.                                -9999 : NULL VALUE
~Curve information
 DEPTH.FT                                   :
 ROP.MIN/FT                                 :
 GAS.UNITS                                  :
~ASCII Log data
# ...
      1330.0         0.37       1346.2 
      1331.0         0.30       1327.1 
      1332.0         0.23       1326.5 
      1333.0         0.23       1294.8 
      1334.0         0.17       1265.9 
      1335.0         0.13       1244.6 
      1336.0         0.10       1191.3 
      1337.0         0.23       1176.7 
      1338.0         0.32       1207.2 
      1339.0         0.23       1237.3 
      1340.0         0.23       1266.5 
      1341.0         0.20       1272.2 
      1342.0         0.20       1268.1 
      1343.0         0.23       1268.1 
      1344.0         0.17       1263.0 
      1345.0         0.13       1256.0 
      1346.0         2.35       2413.5 
      1347.0         1.17       3832.9 
      1348.0         0.57       2550.0 
      1349.0         0.57       2501.8 
      1350.0         0.42       2013.9 
      1351.0         0.33       1797.8 
      1352.0         0.23       1638.2 
      1353.0         0.23       1614.7 
      1354.0         0.37       1535.0 
      1355.0         0.37       1453.1 
      1356.0         0.33       1360.5 
      1357.0         0.27       1345.9 
      1358.0         0.30       1320.1 
      1359.0         0.23       1298.9 
      1360.0         0.23       1282.7 
      1361.0         0.37       1277.0 
      1362.0         0.35       1234.5 
      1363.0         0.40       1218.6 
      1364.0         0.33       1223.7 
      1365.0         0.27       1231.3 
      1366.0         0.23       1231.3 
      1367.0         0.27       1238.3 
      1368.0         0.27       1237.9 
      1369.0         0.23       1237.0 
      1370.0         0.27       1234.8 
      1371.0         0.37       1231.0 
      1372.0         0.33       1224.6 
      1373.0         0.32       1242.7 
      1374.0         0.30       1243.7 
      1375.0         0.20       1235.1 
      1376.0         2.23       2302.1 
      1377.0         0.30       2256.7 
      1378.0         0.42       2251.0 
      1379.0         0.23       2129.8 
      1380.0         0.30       2053.6 
      1381.0         0.33       1887.0 
      1382.0         0.33       1587.7 
      1383.0         0.23       1571.8 
      1384.0         0.23       1381.1 
      1385.0         0.13       1362.0 
      1386.0         0.27       1339.2 
      1387.0         0.27       1349.0 
      1388.0         0.30       1365.5 
      1389.0         0.23       1365.5 
      1390.0         0.28       1347.4 
      1391.0         0.27       1310.9 
      1392.0         0.23       1273.8 
      1393.0         0.27       1240.8 
      1394.0         0.27       1238.3 
      1395.0         0.27       1211.3 
      1396.0         0.27       1192.2 
      1397.0         0.27       1175.7 
      1398.0         0.30       1174.2 
      1399.0         0.33       1174.5 
      1400.0         0.33       1174.2 
      1401.0         0.27       1170.7 
      1402.0         0.28       1170.3 
      1403.0         0.27       1178.3 
      1404.0         0.27       1177.3 
      1405.0         0.27       1116.1 
      1406.0         2.40       2401.5 
      1407.0         0.55       2400.5 
      1408.0         0.37       2332.9 
      1409.0         0.37       2104.7 
      1410.0         0.37       1774.3 
      1411.0         0.33       1586.4 
      1412.0         0.37       1466.5 
      1413.0         0.33       1460.4 
      1414.0         0.37       1349.0 
      1415.0         0.35       1296.0 
      1416.0         0.30       1245.9 
      1417.0         0.30       1202.1 
      1418.0         0.30       1146.2 
      1419.0         0.30       1137.7 
      1420.0         0.30       1101.5 
      1421.0         0.30       1098.3 
      1422.0         0.27       1078.9 
      1423.0         0.27       1065.9 
      1424.0         0.27       1057.0 
      1425.0         0.30       1039.9 
      1426.0         0.30       1037.7 
      1427.0         0.32       1027.8 
      1428.0         0.30       1021.2 
      1429.0         0.27       1009.1 
      1430.0         0.30       1010.4 
      1431.0         0.27       1007.8 
      1432.0         0.30       1008.2 
      1433.0         0.20       1008.2 
      1434.0         0.23       1007.2 
      1435.0         1.10        918.7 
      1436.0         1.95       2363.7 
      1437.0         0.43       2151.4 
      1438.0         0.47       2066.6 
      1439.0         0.37       1889.2 
      1440.0         0.45       1667.4 
      1441.0         0.40       1518.2 
      1442.0         0.37       1370.9 
      1443.0         0.37       1361.4 
      1444.0         0.37       1195.7 
      1445.0         0.37       1123.4 
      1446.0         0.30       1025.3 
      1447.0         0.33        970.7 
      1448.0         0.30        913.3 
      1449.0         0.33        873.9 
      1450.0         0.35        857.4 
      1451.0         0.30        848.5 
      1452.0         0.30        853.9 
      1453.0         0.30        861.8 
      1454.0         0.27        865.7 
      1455.0         0.30        875.2 
      1456.0         0.27        879.0 
      1457.0         0.33        877.7 
      1458.0         0.33        872.0 
      1459.0         0.27        858.7 
      1460.0         0.23        858.7 
      1461.0         0.25        859.9 
      1462.0         0.23        859.9 
      1463.0         0.27        866.3 
      1464.0         0.23        862.5 
      1465.0         0.30        818.7 
      1466.0         3.05       1891.4 
      1467.0         0.53       1711.5 
      1468.0         0.50       1689.3 
      1469.0         0.30       1576.3 
      1470.0         0.33       1496.0 
      1471.0         0.30       1488.4 
      1472.0         0.27       1343.3 
      1473.0         0.30       1223.3 
      1474.0         0.28       1204.9 
      1475.0         0.20        875.8 
      1476.0         0.23        550.2 
      1477.0         0.20        521.6 
      1478.0         0.27        647.3 
      1479.0         0.23        758.4 
      1480.0         0.23        790.1 
      1481.0         0.20        797.4 
      1482.0         0.20        797.4 
      1483.0         0.20        799.6 
      1484.0         0.17        804.7 
      1485.0         0.20        817.7 
      1486.0         0.20        834.6 
      1487.0         0.23        871.1 
      1488.0         0.23        871.1 
      1489.0         0.18        902.8 
      1490.0         0.20        920.2 
      1491.0         0.17        934.2 
      1492.0         0.17        940.2 
      1493.0         0.17        924.7 
      1494.0         0.17        924.7 
      1495.0         0.80       1050.7 
      1496.0         1.82       2455.1 
      1497.0         0.47       2143.1 
      1498.0         0.37       2058.7 
      1499.0         0.27       1847.0 
      1500.0         0.17       1805.1 
      1501.0         0.23       1495.3 
      1502.0         0.20       1495.3 
      1503.0         0.27       1468.0 
      1504.0         0.23       1313.2 
      1505.0         0.27       1215.7 
      1506.0         0.27       1161.1 
      1507.0         0.27       1105.0 
      1508.0         0.28       1065.3 
      1509.0         0.23       1031.0 
      1510.0         0.20       1000.9 
      1511.0         0.23       1000.9 
      1512.0         0.20        999.9 
      1513.0         0.17        980.9 
      1514.0         0.23        953.9 
      1515.0         0.23        953.9 
      1516.0         0.20        947.9 
      1517.0         0.30        940.6 
      1518.0         0.30        935.5 
      1519.0         0.23        935.5 
      1520.0         0.27        943.4 
      1521.0         0.23        963.7 
      1522.0         0.25        971.3 
      1523.0         0.20        971.3 
      1524.0         0.20        954.8 
      1525.0         0.27        932.9 
      1526.0         1.53       2071.1 
      1527.0         0.63       2185.7 
      1528.0         0.62       2157.4 
      1529.0         0.47       2064.4 
