~Version Information
VERS.                      2.0: CWLS Log ASCII Standard - VERSION 2.0
WRAP.                       NO: One line per depth step
~Well Information Block
STRT.FT                -6.5000: 
STOP.FT              1564.2500: 
STEP.FT                 0.2500: 
NULL.                -999.2500: 
COMP.          Pioneer Natural Resources: COMPANY
WELL.            Bluesky 44-17: WELL
FLD.           Purgatorie River: FIELD
LOC.           --39' FSL & 288' FEL------: LOCATION
STAT.                       CO: State
CNTY.               Las Animas: COUNTY
CTRY. USA : Country
SECT. 17 : Section
TOWN. 33S : Township
RANG. 66W : Range
SRVC.          Patterson Wireline: SERVICE COMPANY
DATE.          Tue Sep 13 13:24:14 2005: LOG DATE
API.           05 071 08511 00: UNIQUE WELL ID
~Curve Information Block
DEPT.FT            0 000 00 00: Depth
CCL.                          : Casing Collar Locator
TT3.usec                      : CBL 3' Travel Time
AMP3.mV                       : CBL 3' Amplitude
GR.GAPI                       : Gamma Ray
~Parameter Information Block
~A  Depth       CCL         TT3         AMP3         GR     
# ...
   697.0000      0.0000    783.9933      5.9064     26.4272
   697.2500      0.0000    785.4636      6.0508     26.7030
   697.5000      0.0000    788.4064      6.2893     29.2411
   697.7500      0.0000    791.4810      6.6184     33.4200
   698.0000      0.0000    793.7610      7.0333     37.8895
   698.2500      0.0000    795.1332      7.5285     41.4581
   698.5000      0.0000    795.8581      8.0829     44.1416
   698.7500      0.0000    796.0312      8.6454     47.3280
   699.0000      0.0000    795.2731      9.1479     52.7752
   699.2500      0.0000    792.7145      9.5390     61.3622
   699.5000      0.0000    787.4785      9.8106     72.8095
   699.7500      0.0000    779.6058      9.9944     86.3629
   700.0000      0.0000    770.5742     10.1354    101.1481
   700.2500      0.0000    762.5782     10.2640    115.6418
   700.5000      0.0000    757.0881     10.3867    127.6655
   700.7500      0.0000    754.1439     10.4989    135.8089
   701.0000      0.0000    752.8731     10.6023    140.3004
   701.2500      0.0000    752.3643     10.7058    141.7412
   701.5000      0.0000    752.0139     10.8098    139.9487
   701.7500      0.0000    751.3436     10.8836    135.2069
   702.0000      0.0000    749.8099     10.8516    129.8211
   702.2500      0.0000    747.2463     10.6021    126.9549
   702.5000      0.0000    745.1781     10.0479    127.8372
   702.7500      0.0000    747.6031      9.2263    130.8977
   703.0000      0.0000    758.7255      8.3446    133.8215
   703.2500      0.0000    778.1836      7.6828    135.6493
   703.5000      0.0000    799.4680      7.4157    136.3873
   703.7500      0.0000    814.9207      7.5248    135.4879
   704.0000      0.0000    821.9743      7.8538    131.8745
   704.2500      0.0000    823.7666      8.2190    125.0813
   704.5000     -2.0000    825.2798      8.4824    115.5004
   704.7500      0.0000    829.4396      8.5766    103.8871
   705.0000      0.0000    834.2859      8.5013     91.2988
   705.2500      0.0000    833.0353      8.3359     79.2102
   705.5000      0.0000    819.8943      8.2612     69.1619
   705.7500      0.0000    797.1678      8.4975     62.2981
   706.0000      0.0000    774.3270      9.1226     59.1453
   706.2500      0.0000    759.2836      9.9558     59.5189
   706.5000      0.0000    752.4188     10.7016     62.4248
   706.7500      0.0000    749.1671     11.2078     66.0718
   707.0000      0.0000    745.9564     11.5347     68.2249
   707.2500      0.0000    742.3680     11.8083     67.0654
   707.5000      0.0000    738.9863     12.0813     62.1630
   707.7500      0.0000    734.8087     12.3287     54.8434
   708.0000      0.0000    726.8755     12.5129     47.6326
   708.2500      0.0000    711.0952     12.6264     43.0324
   708.5000      0.0000    683.1290     12.6975     42.2426
   708.7500      0.0000    640.8876     12.7721     44.7997
   709.0000      0.0000    590.0477     12.8794     49.7135
   709.2500      0.0000    547.3109     13.0059     56.8707
   709.5000      0.0000    532.9937     13.1032     66.7506
   709.7500      0.0000    555.4154     13.1265     78.6344
   710.0000      0.0000    602.7980     13.0638     89.8795
   710.2500      0.0000    652.6449     12.9289     97.7035
   710.5000      0.0000    688.5556     12.7379    101.6575
   710.7500      0.0000    707.6970     12.5005    104.0784
   711.0000      0.0000    715.8682     12.2313    107.9980
   711.2500      0.0000    719.5672     11.9602    114.5980
   711.5000      0.0000    722.2197     11.7226    122.4265
   711.7500      0.0000    724.3266     11.5382    128.7856
   712.0000      0.0000    725.1165     11.4014    132.0254
   712.2500      0.0000    724.1826     11.2941    132.8954
   712.5000      0.0000    722.1866     11.2039    133.7738
   712.7500      0.0000    720.2509     11.1276    136.5199
   713.0000      0.0000    719.0309     11.0624    141.0805
   713.2500      0.0000    718.4644     10.9988    145.9678
   713.5000      0.0000    718.1772     10.9257    149.7175
   713.7500      0.0000    717.9051     10.8410    151.7940
   714.0000      0.0000    717.6082     10.7537    152.4775
   714.2500      0.0000    717.3621     10.6762    152.1671
   714.5000      0.0000    717.2278     10.6146    150.8676
   714.7500      0.0000    717.2112     10.5675    148.4881
   715.0000      0.0000    717.2967     10.5325    145.4473
   715.2500      0.0000    717.4590     10.5080    142.5483
   715.5000      0.0000    717.6487     10.4892    140.4189
   715.7500      0.0000    717.8219     10.4678    139.4855
   716.0000      0.0000    718.0046     10.4391    140.0345
   716.2500      0.0000    718.2761     10.4071    141.7588
   716.5000      0.0000    718.6497     10.3800    143.5978
   716.7500      0.0000    719.0011     10.3643    144.4325
   717.0000      0.0000    719.1279     10.3668    143.8541
   717.2500      0.0000    718.8071     10.3944    142.1754
   717.5000      0.0000    717.7326     10.4468    139.9346
   717.7500      0.0000    715.5139     10.5098    137.4836
   718.0000      0.0000    712.1424     10.5571    134.7970
   718.2500      0.0000    708.7161     10.5577    131.5940
   718.5000      0.0000    707.2468     10.4793    127.8775
   718.7500      0.0000    708.9618     10.2957    124.3605
   719.0000      0.0000    712.8267     10.0040    121.9530
   719.2500      0.0000    716.4064      9.6435    120.8181
   719.5000      0.0000    718.2015      9.2924    120.2806
   719.7500      0.0000    718.7619      9.0356    119.3915
   720.0000      0.0000    719.9711      8.9289    117.0327
   720.2500      0.0000    723.8515      8.9859    111.8916
   720.5000      0.0000    731.3876      9.1858    103.1654
   720.7500      0.0000    741.1982      9.4869     91.4703
   721.0000      0.0000    749.2864      9.8378     78.9948
   721.2500      0.0000    751.3929     10.1868     68.7876
   721.5000      0.0000    746.4591     10.4976     63.6386
   721.7500      0.0000    737.4987     10.7716     64.9905
   722.0000      0.0000    728.9330     11.0620     72.4941
   722.2500      0.0000    723.4478     11.4517     84.6130
   722.5000      0.0000    721.1946     11.9936     99.6093
   722.7500      0.0000    720.9624     12.6588    115.8362
   723.0000      0.0000    721.4866     13.3373    131.5557
   723.2500      0.0000    722.0006     13.8909    145.3482
   723.5000      0.0000    722.2192     14.2164    156.7516
   723.7500      0.0000    722.1258     14.2828    165.8296
   724.0000      0.0000    721.7879     14.1272    172.2761
   724.2500      0.0000    721.2719     13.8245    175.6489
   724.5000      0.0000    720.6412     13.4567    176.1433
   724.7500      0.0000    719.9393     13.0928    174.4919
   725.0000      0.0000    719.0826     12.7780    171.4133
   725.2500      0.0000    717.7094     12.5257    167.3906
   725.5000      0.0000    715.2141     12.3207    162.6243
   725.7500      0.0000    711.2771     12.1367    157.2463
   726.0000      0.0000    706.6671     11.9546    151.8036
   726.2500      0.0000    703.2686     11.7707    147.2167
   726.5000      0.0000    702.6251     11.5908    144.1059
   726.7500      0.0000    704.3388     11.4240    142.5567
   727.0000      0.0000    706.5099     11.2815    142.4815
   727.2500      0.0000    707.8853     11.1749    143.5934
   727.5000      0.0000    708.9409     11.1111    145.0758
   727.7500      0.0000    710.6918     11.0859    146.1658
   728.0000      0.0000    713.2542     11.0854    147.4296
   728.2500      0.0000    716.0314     11.0967    150.6369
   728.5000      0.0000    718.7425     11.1178    156.5359
   728.7500      0.0000    721.4808     11.1548    162.9267
   729.0000      0.0000    723.6212     11.2063    165.6777
   729.2500      0.0000    723.2374     11.2570    162.1143
   729.5000      0.0000    718.6411     11.2887    153.4870
   729.7500      0.0000    710.9612     11.3005    144.0075
   730.0000      0.0000    704.2559     11.3109    137.4249
   730.2500      0.0000    702.1367     11.3395    134.4509
