~Version Information
VERS.                      2.0: CWLS Log ASCII Standard - VERSION 2.0
WRAP.                       NO: One line per depth step
~Well Information Block
STRT.FT               555.0000: 
STOP.FT              2322.2500: 
STEP.FT                 0.2500: 
NULL.                -999.2500: 
COMP.          Pioneer Natural Resources: COMPANY
WELL.          Fittipaldi 21-12: WELL
FLD.           Purgatoire River: FIELD
LOC.           207' FNL & 2110' FWL--: LOCATION
CNTY.               Las Animas: COUNTY
SRVC.                Patterson: SERVICE COMPANY
DATE.          Tue Mar 21 10:27:48 2006: LOG DATE
UWI.           05 071 08492 00: UNIQUE WELL ID
STAT.                 Colorado: STATE
~Curve Information Block
DEPT.FT            0 000 00 00: Depth
SN.Ohm-m                      : IEL Short Normal
SP.mV                         : IEL Spontaneous Potential
DIR.Ohm-m                     : IEL Induction Resistivity
GR.GAPI                       : Gamma Ray
~Parameter Information Block
~A  Depth        SN          SP         DIR          GR     
# ...
  1493.0000     32.0389     21.1848     30.0903     78.6454
  1493.2500     30.9733     21.0628     29.4232     81.7935
  1493.5000     29.8888     20.9321     28.7829     86.0567
  1493.7500     28.7955     20.7968     28.1030     89.2252
  1494.0000     27.7245     20.6611     27.3384     95.3064
  1494.2500     26.7154     20.5298     26.4797    100.2684
  1494.5000     25.7995     20.4078     25.5534    108.0630
  1494.7500     24.9904     20.3006     24.6110    112.5579
  1495.0000     24.2823     20.2134     23.7116    117.1099
  1495.2500     23.6559     20.1511     22.9069    118.5919
  1495.5000     23.0856     20.1175     22.2334    118.8225
  1495.7500     22.5502     20.1142     21.7107    117.8388
  1496.0000     22.0432     20.1404     21.3405    115.2706
  1496.2500     21.5766     20.1924     21.1066    113.5854
  1496.5000     21.1748     20.2641     20.9765    112.6235
  1496.7500     20.8605     20.3480     20.9090    113.4751
  1497.0000     20.6428     20.4361     20.8664    116.4984
  1497.2500     20.5177     20.5212     20.8244    118.9308
  1497.5000     20.4866     20.5974     20.7715    122.1091
  1497.7500     20.5758     20.6609     20.7022    123.5831
  1498.0000     20.8240     20.7092     20.6119    124.5395
  1498.2500     21.2388     20.7416     20.5020    124.3315
  1498.5000     21.7624     20.7584     20.3896    123.4360
  1498.7500     22.2890     20.7616     20.3098    123.1635
  1499.0000     22.7222     20.7543     20.3053    123.8913
  1499.2500     23.0177     20.7405     20.4059    124.7141
  1499.5000     23.1804     20.7248     20.6111    124.8963
  1499.7500     23.2338     20.7115     20.8856    123.7378
  1500.0000     23.2054     20.7037     21.1752    120.6952
  1500.2500     23.1358     20.7031     21.4379    118.7947
  1500.5000     23.0869     20.7099     21.6671    117.2849
  1500.7500     23.1236     20.7233     21.8881    116.9859
  1501.0000     23.2742     20.7422     22.1331    116.5967
  1501.2500     23.5029     20.7658     22.4176    116.2052
  1501.5000     23.7169     20.7941     22.7344    116.0938
  1501.7500     23.8022     20.8275     23.0602    116.6539
  1502.0000     23.6742     20.8666     23.3603    117.7352
  1502.2500     23.3292     20.9121     23.5912    117.6164
  1502.5000     22.8736     20.9639     23.7109    115.0904
  1502.7500     22.5009     21.0215     23.7018    112.4314
  1503.0000     22.4095     21.0843     23.5892    109.7789
  1503.2500     22.6936     21.1520     23.4365    110.2417
  1503.5000     23.2816     21.2250     23.3168    113.7351
  1503.7500     23.9749     21.3046     23.2776    116.0707
  1504.0000     24.5722     21.3923     23.3180    116.2442
  1504.2500     24.9856     21.4897     23.3899    113.3558
  1504.5000     25.2650     21.5971     23.4223    105.4441
  1504.7500     25.5333     21.7133     23.3607     98.9655
  1505.0000     25.8964     21.8352     23.1955     89.3408
  1505.2500     26.3895     21.9574     22.9616     83.7773
  1505.5000     26.9754     22.0735     22.7131     77.4669
  1505.7500     27.5811     22.1758     22.4980     74.7060
  1506.0000     28.1398     22.2572     22.3477     72.5969
  1506.2500     28.6053     22.3110     22.2782     72.5032
  1506.5000     28.9340     22.3324     22.2886     74.0163
  1506.7500     29.0664     22.3186     22.3500     75.4584
  1507.0000     28.9277     22.2691     22.3921     76.5759
  1507.2500     28.4399     22.1858     22.3056     76.0668
  1507.5000     27.5351     22.0727     21.9704     74.2688
  1507.7500     26.1820     21.9355     21.3018     73.7030
  1508.0000     24.4253     21.7809     20.2903     75.9752
  1508.2500     22.4040     21.6162     19.0107     80.0597
  1508.5000     20.3147     21.4483     17.5972     89.3744
  1508.7500     18.3404     21.2843     16.1966     96.9555
  1509.0000     16.6042     21.1305     14.9251    109.5197
  1509.2500     15.1720     20.9932     13.8478    118.5041
  1509.5000     14.0767     20.8779     12.9833    132.3733
  1509.7500     13.3267     20.7887     12.3203    141.1872
  1510.0000     12.8982     20.7276     11.8344    152.1625
  1510.2500     12.7338     20.6932     11.5006    157.0560
  1510.5000     12.7624     20.6807     11.3002    159.4518
  1510.7500     12.9259     20.6828     11.2221    157.3839
  1511.0000     13.1942     20.6906     11.2598    149.3669
  1511.2500     13.5639     20.6967     11.4071    141.8415
  1511.5000     14.0494     20.6968     11.6544    129.8860
  1511.7500     14.6694     20.6909     11.9901    122.9869
  1512.0000     15.4293     20.6827     12.4035    116.2860
  1512.2500     16.3081     20.6785     12.8878    114.8886
  1512.5000     17.2573     20.6849     13.4394    117.1489
  1512.7500     18.2097     20.7063     14.0517    120.5283
  1513.0000     19.0896     20.7439     14.7080    125.3728
  1513.2500     19.8287     20.7950     15.3791    126.5448
  1513.5000     20.3907     20.8538     16.0295    123.5147
  1513.7500     20.7900     20.9129     16.6275    118.8410
  1514.0000     21.0792     20.9654     17.1538    110.4447
  1514.2500     21.2998     21.0065     17.5995    105.2662
  1514.5000     21.4297     21.0350     17.9565     98.9276
  1514.7500     21.3802     21.0530     18.2052     95.4155
  1515.0000     21.0575     21.0648     18.3076     90.7018
  1515.2500     20.4375     21.0755     18.2155     88.1194
  1515.5000     19.5860     21.0893     17.8961     86.4538
  1515.7500     18.6162     21.1090     17.3584     87.7698
  1516.0000     17.6328     21.1361     16.6570     93.8904
  1516.2500     16.7099     21.1717     15.8668     99.9211
  1516.5000     15.8991     21.2176     15.0568    109.2816
  1516.7500     15.2410     21.2772     14.2792    114.4742
  1517.0000     14.7624     21.3544     13.5725    120.0922
  1517.2500     14.4612     21.4530     12.9657    122.6773
  1517.5000     14.3005     21.5747     12.4789    125.4131
  1517.7500     14.2220     21.7180     12.1222    126.7211
  1518.0000     14.1710     21.8780     11.8956    128.3003
  1518.2500     14.1152     22.0474     11.7903    129.3136
  1518.5000     14.0481     22.2173     11.7906    131.1636
  1518.7500     13.9845     22.3792     11.8763    132.9589
  1519.0000     13.9496     22.5259     12.0272    137.0546
  1519.2500     13.9639     22.6519     12.2263    140.6402
  1519.5000     14.0301     22.7528     12.4610    146.1212
  1519.7500     14.1347     22.8259     12.7199    148.8967
  1520.0000     14.2610     22.8690     12.9897    150.8289
  1520.2500     14.3966     22.8814     13.2546    150.8377
  1520.5000     14.5302     22.8636     13.4992    150.1442
  1520.7500     14.6508     22.8186     13.7130    149.8932
  1521.0000     14.7553     22.7508     13.8932    150.2202
  1521.2500     14.8552     22.6660     14.0451    150.6537
  1521.5000     14.9691     22.5701     14.1797    150.8767
  1521.7500     15.1106     22.4681     14.3097    150.3921
  1522.0000     15.2815     22.3634     14.4481    148.5261
  1522.2500     15.4774     22.2583     14.6102    146.7027
  1522.5000     15.6962     22.1540     14.8161    143.8312
  1522.7500     15.9416     22.0523     15.0899    142.2065
  1523.0000     16.2194     21.9560     15.4514    140.3557
  1523.2500     16.5292     21.8691     15.9063    139.4817
  1523.5000     16.8586     21.7964     16.4398    138.8837
  1523.7500     17.1839     21.7427     17.0152    138.9485
  1524.0000     17.4750     21.7121     17.5793    138.9099
  1524.2500     17.7010     21.7073     18.0715    138.1029
  1524.5000     17.8396     21.7302     18.4377    135.4406
  1524.7500     17.8890     21.7816     18.6416    133.3533
  1525.0000     17.8708     21.8623     18.6739    131.4732
  1525.2500     17.8141     21.9730     18.5540    131.6958
  1525.5000     17.7396     22.1144     18.3252    134.0689
  1525.7500     17.6581     22.2861     18.0432    136.3129
  1526.0000     17.5785     22.4859     17.7574    139.2241
  1526.2500     17.5112     22.7084     17.4959    140.3060
