~Version Information
VERS.                      2.0: CWLS Log ASCII Standard - VERSION 2.0
WRAP.                       NO: One line per depth step
~Well Information Block
STRT.FT                -6.5000: 
STOP.FT              1467.0000: 
STEP.FT                 0.2500: 
NULL.                -999.2500: 
COMP.          Pioneer Natural Resources: COMPANY
WELL.          Surtees 23-34 Tr: WELL
FLD.           Purgatorie River: FIELD
LOC.           1559' FSL & 1997' FWL--: LOCATION
PROV.                       CO: PROVINCE
CNTY.               Las Animas: COUNTRY
SRVC.          Patterson Wireline: SERVICE COMPANY
DATE.          Tue Aug 02 13:04:45 2005: LOG DATE
UWI.           05 071 08449 00: UNIQUE WELL ID
~Curve Information Block
DEPT.FT            0 000 00 00: Depth
CCL.                          : Casing Collar Locator
TT3.usec                      : CBL 3' Travel Time
AMP3.mV                       : CBL 3' Amplitude
GR.GAPI                       : Gamma Ray
~Parameter Information Block
~A  Depth       CCL         TT3         AMP3         GR     
# ...
   563.0000      0.0000    781.6262      8.2067     91.1145
   563.2500      0.0000    779.9666      8.1798     90.3734
   563.5000      0.0000    776.5577      8.1104     90.4406
   563.7500      0.0000    770.9378      7.9902     92.8679
   564.0000      0.0000    765.9235      7.8170     98.1398
   564.2500      0.0000    769.6347      7.5846    105.0240
   564.5000      0.0000    792.2933      7.2868    110.7312
   564.7500      0.0000    837.2424      6.9512    112.3215
   565.0000      0.0000    895.1111      6.6544    108.5298
   565.2500      0.0000    949.0256      6.4698    100.3970
   565.5000      0.0000    984.9716      6.4073     90.4118
   565.7500      0.0000    996.6906      6.4241     81.2439
   566.0000     -2.0000    985.6488      6.4845     74.7825
   566.2500      0.0000    960.3179      6.5976     71.5050
   566.5000      0.0000    931.6825      6.8050     70.5138
   566.7500      0.0000    905.5389      7.1211     70.4707
   567.0000      0.0000    881.1245      7.4718     70.6710
   567.2500      0.0000    857.7266      7.7299     71.2356
   567.5000      0.0000    838.6302      7.8524     72.4114
   567.7500      0.0000    827.5129      7.9391     73.8339
   568.0000      0.0000    824.1823      8.1055     74.6052
   568.2500      0.0000    825.3870      8.3486     74.1803
   568.5000      0.0000    828.0430      8.5794     73.0671
   568.7500      0.0000    830.9717      8.7352     72.4697
   569.0000      0.0000    834.4617      8.8171     73.2380
   569.2500      0.0000    838.7315      8.8521     75.3604
   569.5000      0.0000    843.1165      8.8601     78.4930
   569.7500      0.0000    846.9344      8.8572     82.5988
   570.0000      0.0000    850.1989      8.8658     87.5843
   570.2500      0.0000    852.2017      8.9055     92.4562
   570.5000      0.0000    849.9502      8.9710     95.5961
   570.7500      0.0000    840.1682      9.0317     96.1896
   571.0000      0.0000    824.1503      9.0579     95.1100
   571.2500      0.0000    809.2585      9.0423     94.3803
   571.5000      0.0000    803.4526      8.9978     95.8345
   571.7500      0.0000    808.4839      8.9444     99.7749
   572.0000      0.0000    819.6638      8.8995    104.4487
   572.2500      0.0000    831.0084      8.8738    107.1676
   572.5000      0.0000    838.6369      8.8684    106.5262
   572.7500      0.0000    840.6693      8.8748    103.5759
   573.0000      0.0000    836.6863      8.8814    100.7517
   573.2500      0.0000    827.7985      8.8844     99.8540
   573.5000      0.0000    816.4103      8.8928    101.1747
   573.7500      0.0000    805.3873      8.9213    104.0994
   574.0000      0.0000    796.7816      8.9784    107.9031
   574.2500      0.0000    791.2678      9.0590    111.8151
   574.5000      0.0000    789.4201      9.1436    114.7133
   574.7500      0.0000    793.6102      9.2021    115.3226
   575.0000      0.0000    807.3151      9.2080    113.1065
   575.2500      0.0000    830.9654      9.1588    108.8447
   575.5000      0.0000    858.8556      9.0819    103.8945
   575.7500      0.0000    882.8728      9.0136     98.9926
   576.0000      0.0000    899.8228      8.9724     94.2444
   576.2500      0.0000    911.3723      8.9509     89.9441
   576.5000      0.0000    916.5244      8.9279     86.4328
   576.7500      0.0000    910.6144      8.8840     83.2708
   577.0000      0.0000    893.5964      8.8113     79.7451
   577.2500      0.0000    872.6313      8.7189     76.4260
   577.5000      0.0000    853.9382      8.6342     75.1095
   577.7500      0.0000    837.6053      8.5896     76.7593
   578.0000      0.0000    822.4709      8.5971     80.2350
   578.2500      0.0000    811.3836      8.6376     83.4849
   578.5000      0.0000    808.8754      8.6781     85.6289
   578.7500      0.0000    815.7568      8.6999     87.5497
   579.0000      0.0000    827.5501      8.7071     90.6035
   579.2500      0.0000    837.7308      8.7156     95.1315
   579.5000      0.0000    842.1545      8.7386    100.3353
   579.7500      0.0000    840.9404      8.7809    105.1897
   580.0000      0.0000    836.7796      8.8390    108.9511
   580.2500      0.0000    832.1518      8.9043    110.8347
   580.5000      0.0000    828.5839      8.9676    109.8333
   580.7500      0.0000    827.3786      9.0228    105.4947
   581.0000      0.0000    828.8491      9.0679     99.0088
   581.2500      0.0000    830.7488      9.1019     93.0430
   581.5000      0.0000    829.5201      9.1232     89.9637
   581.7500      0.0000    823.7288      9.1306     90.2517
   582.0000      0.0000    815.4682      9.1269     92.6543
   582.2500      0.0000    808.6903      9.1181     95.3956
   582.5000      0.0000    806.4454      9.1079     97.0687
   582.7500      0.0000    808.4867      9.0934     97.1589
   583.0000      0.0000    810.9058      9.0683     96.3649
   583.2500      0.0000    809.2095      9.0304     96.0858
   583.5000      0.0000    802.3503      8.9854     97.2063
   583.7500      0.0000    793.2524      8.9423     99.6198
   584.0000      0.0000    785.6256      8.9071    102.8279
   584.2500      0.0000    781.1883      8.8797    106.4035
   584.5000      0.0000    779.7431      8.8563    109.8170
   584.7500      0.0000    780.7316      8.8302    112.3177
   585.0000      0.0000    784.0682      8.7927    113.3278
   585.2500      0.0000    789.6138      8.7370    113.0186
   585.5000      0.0000    796.3879      8.6675    112.3190
   585.7500      0.0000    803.0506      8.6062    112.1154
   586.0000      0.0000    809.2345      8.5854    112.5612
   586.2500      0.0000    815.5139      8.6287    113.2049
   586.5000      0.0000    821.6882      8.7383    113.4637
   586.7500      0.0000    826.0889      8.8996    112.8464
   587.0000      0.0000    827.2074      9.0931    110.9844
   587.2500      0.0000    826.0838      9.2955    107.8318
   587.5000      0.0000    827.5292      9.4789    103.9912
   587.7500      0.0000    838.5699      9.6179    100.6746
   588.0000      0.0000    863.7055      9.6995     99.1579
   588.2500      0.0000    900.5073      9.7254    100.2645
   588.5000      0.0000    939.9854      9.7103    104.1176
   588.7500      0.0000    971.2095      9.6811    109.9893
   589.0000      0.0000    986.2496      9.6675    116.4651
   589.2500      0.0000    983.2856      9.6844    122.2536
   589.5000      0.0000    967.1450      9.7265    127.0196
   589.7500      0.0000    946.3333      9.7815    131.1359
   590.0000      0.0000    927.9819      9.8419    134.7525
   590.2500      0.0000    914.8599      9.9017    137.7029
   590.5000      0.0000    906.0880      9.9475    140.2314
   590.7500      0.0000    899.3069      9.9589    142.7599
   591.0000      0.0000    892.2654      9.9219    144.7363
   591.2500      0.0000    883.9170      9.8404    144.7284
   591.5000      0.0000    874.9522      9.7316    142.0490
   591.7500      0.0000    867.1214      9.6124    137.4363
   592.0000      0.0000    861.7504      9.4931    131.8455
   592.2500      0.0000    858.9233      9.3831    125.5008
   592.5000      0.0000    857.8687      9.2940    118.6509
   592.7500      0.0000    857.7391      9.2320    112.5814
   593.0000      0.0000    857.9799      9.1925    109.2659
   593.2500      0.0000    858.2773      9.1672    110.2564
   593.5000      0.0000    858.4447      9.1549    116.0225
   593.7500      0.0000    858.4038      9.1567    125.7036
   594.0000      0.0000    858.1831      9.1627    137.0029
   594.2500      0.0000    857.8733      9.1535    146.8897
   594.5000      0.0000    857.5663      9.1170    153.2999
   594.7500      0.0000    857.3275      9.0581    156.2954
   595.0000      0.0000    857.1867      8.9892    157.3277
   595.2500      0.0000    857.1343      8.9162    157.2734
   595.5000      0.0000    857.1326      8.8359    155.4490
   595.7500      0.0000    857.1425      8.7464    150.7615
   596.0000      0.0000    857.1400      8.6582    143.5389
   596.2500      0.0000    857.1077      8.5936    135.7308
