~Version Information
VERS.                      2.0: CWLS Log ASCII Standard - VERSION 2.0
WRAP.                       NO: One line per depth step
~Well Information Block
STRT.FT                -6.7500: 
STOP.FT              1466.2500: 
STEP.FT                 0.2500: 
NULL.                -999.2500: 
COMP.          Pioneer Natural Resources: COMPANY
WELL.          Pallet Ranch 34-15 Tr: WELL
FLD.           Purgatorie River: FIELD
LOC.           465' FSL & 2138' FEL--: LOCATION
PROV.                       CO: PROVINCE
CNTY.               Las Animas: COUNTRY
SRVC.          Patterson Wireline: SERVICE COMPANY
DATE.          Wed Jan 25 09:38:09 2006: LOG DATE
UWI.           05 071 08657 00: UNIQUE WELL ID
~Curve Information Block
DEPT.FT            0 000 00 00: Depth
CCL.                          : Casing Collar Locator
TT3.usec                      : CBL 3' Travel Time
AMP3.mV                       : CBL 3' Amplitude
GR.GAPI                       : Gamma Ray
~Parameter Information Block
~A  Depth       CCL         TT3         AMP3         GR     
    -6.7500   -999.2500   -999.2500   -999.2500     77.1929
    -6.5000   -999.2500   -999.2500   -999.2500     75.4946
    -6.2500   -999.2500   -999.2500   -999.2500     71.7036
    -6.0000   -999.2500   -999.2500   -999.2500     66.6984
    -5.7500   -999.2500   -999.2500   -999.2500     62.7589
    -5.5000   -999.2500   -999.2500   -999.2500     62.1784
    -5.2500   -999.2500   -999.2500   -999.2500     65.3418
    -5.0000   -999.2500   -999.2500   -999.2500     70.2420
    -4.7500   -999.2500   -999.2500   -999.2500     74.2842
    -4.5000   -999.2500   -999.2500   -999.2500     76.3716
    -4.2500   -999.2500   -999.2500   -999.2500     76.9134
    -4.0000   -999.2500   -999.2500   -999.2500     76.4080
    -3.7500   -999.2500   -999.2500   -999.2500     74.9022
    -3.5000   -999.2500   -999.2500   -999.2500     72.5561
    -3.2500   -999.2500   -999.2500   -999.2500     69.8531
    -3.0000   -999.2500   -999.2500   -999.2500     67.2735
    -2.7500   -999.2500   -999.2500   -999.2500     65.2100
    -2.5000   -999.2500   -999.2500   -999.2500     64.1620
    -2.2500   -999.2500   -999.2500   -999.2500     64.7336
    -2.0000   -999.2500   -999.2500   -999.2500     67.1235
    -1.7500   -999.2500   1161.0000      0.9952     70.3719
    -1.5000   -999.2500   1161.0000      1.0034     72.4681
    -1.2500   -999.2500   1161.0000      1.0074     71.9095
    -1.0000   -999.2500   1161.0000      1.0096     69.2455
    -0.7500   -999.2500   1161.0000      1.0109     66.6059
    -0.5000   -999.2500   1161.0000      1.0094     65.5878
    -0.2500   -999.2500   1161.0000      1.0037     65.8887
     0.0000   -999.2500   1161.0000      0.9951     65.9612
     0.2500   -999.2500   1161.0000      0.9856     64.4844
     0.5000   -999.2500   1161.0000      0.9623     55.7792
     0.7500   -999.2500   1161.0000      0.9476     49.3063
     1.0000   -999.2500   1161.0000      0.9359     42.2749
     1.2500   -999.2500   1161.0000      0.9327     35.4394
     1.5000   -999.2500   1161.0000      0.9386     29.6053
     1.7500   -999.2500   1161.0000      0.9485     25.6512
     2.0000   -999.2500   1161.0000      0.9568     24.4631
     2.2500   -999.2500   1161.0000      0.9621     26.5382
     2.5000   -999.2500   1161.0000      0.9674     31.3619
     2.7500   -999.2500   1161.0000      0.9752     37.1935
     3.0000   -999.2500   1161.0000      0.9851     41.9135
     3.2500   -999.2500   1161.0000      0.9935     44.5362
     3.5000      0.0000   1161.0000      0.9970     45.8671
     3.7500      0.0000   1161.0000      0.9946     47.4717
     4.0000      0.0000   1161.0000      0.9873     49.9831
     4.2500      0.0000   1161.0000      0.9770     52.4837
     4.5000      0.0000   1161.0000      0.9647     53.4770
     4.7500      0.0000   1161.0000      0.9501     52.2946
     5.0000      0.0000   1161.0000      0.9347     49.5544
     5.2500      0.0000   1160.9800      0.9236     46.5509
     5.5000      0.0000   1160.8444      0.9232     44.3997
     5.7500      0.0000   1160.1173      0.9365     43.5539
     6.0000      0.0000   1157.1204      0.9685     43.8385
     6.2500      0.0000   1147.3252      1.0533     44.8477
     6.5000      0.0000   1121.7186      1.3442     46.3453
     6.7500      0.0000   1067.6477      2.2973     48.2593
     7.0000      0.0000    974.4313      4.8913     50.2989
     7.2500      2.0000    842.0087     10.5564     51.8244
     7.5000      0.0000    686.1899     20.3861     52.3637
     7.7500      0.0000    534.4031     33.8751     52.1023
     8.0000      0.0000    412.6835     48.4711     51.6233
     8.2500      0.0000    332.9992     60.9009     51.2313
     8.5000      0.0000    290.7739     69.2251     50.6552
     8.7500      0.0000    272.7885     73.6181     49.3641
     9.0000      0.0000    266.6579     75.4708     47.1405
     9.2500      0.0000    264.9825     76.1422     44.3524
     9.5000      0.0000    264.6056     76.4193     41.6982
     9.7500      0.0000    264.5203     76.6096     39.7294
    10.0000      0.0000    264.4901     76.7873     38.5920
    10.2500      0.0000    264.4662     76.9519     38.0803
    10.5000      0.0000    264.4467     77.0915     37.8865
    10.7500      0.0000    264.4352     77.1957     37.8639
    11.0000      0.0000    264.4344     77.2631     38.0431
    11.2500      0.0000    264.4449     77.3022     38.4053
    11.5000      0.0000    264.4638     77.3275     38.8433
    11.7500      2.0000    264.4864     77.3505     39.4525
    12.0000      0.0000    264.5073     77.3713     40.6280
    12.2500      0.0000    264.5221     77.3773     42.5332
    12.5000      0.0000    264.5293     77.3495     44.5328
    12.7500      0.0000    264.5403     77.2736     45.4715
    13.0000      0.0000    264.5947     77.1418     44.6284
    13.2500      0.0000    264.8643     76.9059     42.3492
    13.5000      0.0000    265.8612     76.3622     39.8274
    13.7500      0.0000    268.6396     75.0259     38.3219
    14.0000      0.0000    274.4251     72.2156     38.4257
    14.2500      0.0000    283.1743     67.5578     39.7933
    14.5000      0.0000    292.1204     61.6439     41.4495
    14.7500      0.0000    296.8113     56.0464     42.4489
    15.0000      0.0000    294.8165     52.3571     42.3337
    15.2500      0.0000    288.0401     51.1005     41.1718
    15.5000      0.0000    280.6815     51.6051     39.4826
    15.7500      0.0000    275.5840     52.7773     38.0451
    16.0000      0.0000    273.0399     53.8693     37.3900
    16.2500     -2.0000    272.0479     54.6973     37.4579
    16.5000      0.0000    271.6617     55.4478     37.9343
    16.7500      0.0000    271.3730     56.4282     38.7226
    17.0000      0.0000    270.9583     57.8829     39.8168
    17.2500      0.0000    270.3216     59.7915     40.9037
    17.5000      0.0000    269.4419     61.6721     41.4633
    17.7500      0.0000    268.4074     62.6590     41.3221
    18.0000      0.0000    267.4493     61.9974     40.8919
    18.2500      0.0000    266.9709     59.5224     40.7026
    18.5000      0.0000    267.5717     55.6190     40.8382
    18.7500      0.0000    269.9955     50.8340     40.9788
    19.0000      0.0000    274.8742     45.6296     40.9026
    19.2500      0.0000    282.3110     40.3664     40.8482
    19.5000      0.0000    292.0367     35.3113     41.4305
    19.7500      0.0000    304.7727     30.6143     43.1490
    20.0000      0.0000    324.1335     26.3299     45.8341
    20.2500      0.0000    356.7243     22.4938     48.6865
    20.5000      0.0000    408.2778     19.1726     51.0071
    20.7500      0.0000    477.1841     16.4499     52.6985
    21.0000      0.0000    551.6110     14.3708     54.0196
    21.2500      0.0000    615.3683     12.9042     55.3221
    21.5000      0.0000    658.2396     11.9452     57.2170
    21.7500      0.0000    680.6427     11.3465     60.5311
    22.0000      0.0000    689.5538     10.9590     65.6699
    22.2500      0.0000    692.0439     10.6655     71.9860
    22.5000      0.0000    692.2879     10.3970     77.8243
    22.7500      0.0000    691.9924     10.1292     81.3046
    23.0000      0.0000    691.6866      9.8647     81.5874
    23.2500      0.0000    691.4947      9.6165     79.7842
    23.5000      0.0000    691.4084      9.3973     78.2994
    23.7500      0.0000    691.3542      9.2163     78.8272
    24.0000      0.0000    691.2670      9.0770     81.1002
    24.2500      0.0000    691.1270      8.9742     83.6314
    24.5000      0.0000    690.9530      8.8953     85.2085
    24.7500      0.0000    690.7751      8.8254     85.5337
    25.0000      0.0000    690.6152      8.7540     84.9674
    25.2500      0.0000    690.4801      8.6786     84.0370
    25.5000      0.0000    690.3664      8.6047     83.1330
    25.7500      0.0000    690.2675      8.5403     82.5555
    26.0000      0.0000    690.1782      8.4900     82.6778
    26.2500      0.0000    690.0959      8.4524     83.7402
    26.5000      0.0000    690.0182      8.4234     85.5018
