~Version Information
VERS.                      2.0: CWLS Log ASCII Standard - VERSION 2.0
WRAP.                       NO: One line per depth step
~Well Information Block
STRT.FT               322.3000: 
STOP.FT              1375.0000: 
STEP.FT                 0.1000: 
NULL.                -999.2500: 
COMP.          Pioneer Natural Resources: COMPANY
WELL.          Buffet 41-36 Tr: WELL
FLD.           Purgatoire River: FIELD
LOC.           119' FNL & 271' FEL: LOCATION
PROV.                 Colorado: PROVINCE
CNTY.               Las Animas: COUNTRY
SRVC.                Patterson: SERVICE COMPANY
DATE.          Thu Dec 29 07:13:13 2005: LOG DATE
UWI.           05 071 08627 00: UNIQUE WELL ID
~Curve Information Block
DEPT.FT            0 000 00 00: Depth
DCAL.in                       : CDL Caliper
RHOB.g/cc                     : CDL Bulk Density
RHOC.g/cc                     : CDL Density Correction
DPOR.pu                       : CDL Density Porosity
GR.GAPI                       : Gamma Ray
~Parameter Information Block
~A  Depth       DCAL        RHOB        RHOC        DPOR         GR     
# ...
   680.7000      8.0512      2.6641      0.1353     -0.8531    123.3495
   680.8000      8.0492      2.6661      0.1340     -0.9759    123.0629
   680.9000      8.0492      2.6570      0.0797     -0.4270    120.0423
   681.0000      8.0485      2.6410      0.0648      0.5457    116.3894
   681.1000      8.0485      2.6222      0.0494      1.6862    110.7259
   681.2000      8.0485      2.6082      0.0255      2.5343    103.6813
   681.3000      8.0491      2.6008      0.0120      2.9821    101.1449
   681.4000      8.0491      2.5906      0.0073      3.5986    103.0845
   681.5000      8.0500      2.5754      0.0061      4.5232    103.7510
   681.6000      8.0500      2.5706     -0.0151      4.8109    101.9891
   681.7000      8.0500      2.5829      0.0104      4.0644    101.3398
   681.8000      8.0503      2.5923      0.0067      3.4949    101.2820
   681.9000      8.0503      2.5851     -0.0264      3.9347     98.9142
   682.0000      8.0499      2.5761     -0.0222      4.4759     99.2932
   682.1000      8.0499      2.5788      0.0090      4.3127    109.3793
   682.2000      8.0499      2.5817     -0.0023      4.1367    124.3621
   682.3000      8.0499      2.5791     -0.0352      4.2980    134.9413
   682.4000      8.0499      2.5779     -0.0031      4.3696    135.9822
   682.5000      8.0500      2.5690      0.0352      4.9080    130.7134
   682.6000      8.0500      2.5424      0.0058      6.5197    125.0254
   682.7000      8.0500      2.5185     -0.0250      7.9717    119.0096
   682.8000      8.0499      2.5274     -0.0110      7.4300    115.1592
   682.9000      8.0499      2.5746      0.0257      4.5724    118.7618
   683.0000      8.0493      2.6295      0.1207      1.2454    126.8484
   683.1000      8.0493      2.6545      0.1082     -0.2735    130.1077
   683.2000      8.0493      2.6509      0.1091     -0.0570    124.7887
   683.3000      8.0486      2.6493      0.0478      0.0446    114.3148
   683.4000      8.0486      2.6640      0.0568     -0.8511    104.5067
   683.5000      8.0486      2.6769      0.1274     -1.6290     98.0183
   683.6000      8.0486      2.6674      0.1211     -1.0567     92.0617
   683.7000      8.0486      2.6443      0.0429      0.3437     87.0582
   683.8000      8.0493      2.6258      0.0462      1.4670     84.8200
   683.9000      8.0493      2.6180      0.0005      1.9405     84.3931
   684.0000      8.0499      2.6193      0.0481      1.8615     86.0042
   684.1000      8.0499      2.6234      0.0220      1.6117     89.8259
   684.2000      8.0499      2.6294      0.0385      1.2504     95.0873
   684.3000      8.0499      2.6344      0.0927      0.9472     99.6368
   684.4000      8.0499      2.6259      0.1043      1.4618     97.9949
   684.5000      8.0497      2.6028      0.0772      2.8613     90.2894
   684.6000      8.0497      2.5783      0.0536      4.3468     83.9449
   684.7000      8.0497      2.5633      0.0241      5.2563     81.5460
   684.8000      8.0502      2.5666      0.0205      5.0531     82.7236
   684.9000      8.0502      2.5924      0.0061      3.4907     87.0782
   685.0000      8.0506      2.6305      0.0578      1.1845     90.6835
   685.1000      8.0506      2.6550      0.0866     -0.3038     89.6590
   685.2000      8.0506      2.6528      0.0621     -0.1677     85.5865
   685.3000      8.0497      2.6395      0.0497      0.6334     83.4251
   685.4000      8.0497      2.6295      0.0563      1.2406     83.8658
   685.5000      8.0484      2.6170      0.0402      2.0025     84.5585
   685.6000      8.0484      2.6017      0.0098      2.9254     86.5075
   685.7000      8.0484      2.5977      0.0242      3.1675     89.3406
   685.8000      8.0479      2.6001      0.0426      3.0253     89.5183
   685.9000      8.0479      2.5914      0.0291      3.5534     86.5197
   686.0000      8.0474      2.5723      0.0138      4.7120     84.1806
   686.1000      8.0474      2.5519     -0.0034      5.9439     84.1064
   686.2000      8.0474      2.5330      0.0108      7.0911     83.6753
   686.3000      8.0466      2.5217     -0.0238      7.7760     81.3312
   686.4000      8.0466      2.5223      0.0120      7.7417     77.7920
   686.5000      8.0472      2.5222     -0.0055      7.7451     73.1668
   686.6000      8.0472      2.5046      0.0371      8.8094     70.0626
   686.7000      8.0472      2.4731     -0.0269     10.7191     71.1426
   686.8000      8.0499      2.4493     -0.0229     12.1616     74.8269
   686.9000      8.0499      2.4472     -0.0670     12.2893     77.5214
   687.0000      8.0520      2.4640      0.0074     11.2728     77.0481
   687.1000      8.0520      2.4767      0.0383     10.5056     75.2164
   687.2000      8.0520      2.4689     -0.0170     10.9783     74.0991
   687.3000      8.0513      2.4553      0.0009     11.7988     75.3622
   687.4000      8.0513      2.4543     -0.0019     11.8606     80.1957
   687.5000      8.0493      2.4652      0.0118     11.1998     84.7888
   687.6000      8.0493      2.4790      0.0313     10.3661     83.0723
   687.7000      8.0493      2.4962      0.0097      9.3202     77.6297
   687.8000      8.0476      2.5257      0.0555      7.5330     75.0614
   687.9000      8.0476      2.5607      0.1030      5.4142     74.6005
   688.0000      8.0464      2.5811      0.1275      4.1749     72.6233
   688.1000      8.0464      2.5824      0.1185      4.0975     67.8965
   688.2000      8.0464      2.5803      0.1168      4.2266     62.2795
   688.3000      8.0454      2.5865      0.1221      3.8499     60.2973
   688.4000      8.0454      2.5904      0.1360      3.6142     62.9729
   688.5000      8.0459      2.5792      0.0921      4.2932     68.3349
   688.6000      8.0459      2.5618      0.0570      5.3428     71.4672
   688.7000      8.0459      2.5480      0.0831      6.1821     68.0613
   688.8000      8.0493      2.5372      0.0316      6.8368     61.0358
   688.9000      8.0493      2.5314      0.0649      7.1851     58.2122
   689.0000      8.0516      2.5292      0.0634      7.3195     61.4232
   689.1000      8.0516      2.5322      0.0741      7.1383     65.9341
   689.2000      8.0516      2.5496      0.0519      6.0850     69.3743
   689.3000      8.0524      2.5733      0.1343      4.6492     72.8912
   689.4000      8.0524      2.5793      0.1015      4.2844     76.8294
   689.5000      8.0532      2.5709      0.0634      4.7928     81.5989
   689.6000      8.0532      2.5713      0.0831      4.7670     86.5755
   689.7000      8.0532      2.5820      0.1030      4.1206     88.3094
   689.8000      8.0553      2.5853      0.1254      3.9217     87.2905
   689.9000      8.0553      2.5748      0.0586      4.5572     88.7080
   690.0000      8.0579      2.5607      0.0864      5.4115     94.0401
   690.1000      8.0579      2.5530      0.0133      5.8772     99.6788
   690.2000      8.0579      2.5539      0.0724      5.8213    101.4003
   690.3000      8.0604      2.5576      0.0114      5.6024     97.9181
   690.4000      8.0604      2.5600      0.0296      5.4545     92.8574
   690.5000      8.0621      2.5553      0.0234      5.7393     87.4785
   690.6000      8.0621      2.5400      0.0086      6.6653     79.2350
   690.7000      8.0621      2.5198      0.0320      7.8916     72.2065
   690.8000      8.0617      2.5002     -0.0024      9.0763     73.5634
   690.9000      8.0617      2.4904      0.0180      9.6753     80.8047
   691.0000      8.0596      2.4977      0.0510      9.2312     85.3562
   691.1000      8.0596      2.5213      0.0747      7.8012     83.8259
   691.2000      8.0596      2.5517      0.1046      5.9604     79.0348
   691.3000      8.0595      2.5737      0.1040      4.6253     74.6954
   691.4000      8.0595      2.5828      0.0725      4.0726     72.4679
   691.5000      8.0620      2.5903      0.1004      3.6180     73.1529
   691.6000      8.0620      2.6027      0.1260      2.8658     74.2409
   691.7000      8.0620      2.6162      0.0865      2.0471     72.8283
   691.8000      8.0653      2.6294      0.0825      1.2500     72.7678
