~Version Information
VERS.                      2.0: CWLS Log ASCII Standard - VERSION 2.0
WRAP.                       NO: One line per depth step
~Well Information Block
STRT.FT               545.0000: 
STOP.FT              2200.7000: 
STEP.FT                 0.1000: 
NULL.                -999.2500: 
COMP.          Pioneer Natural Resources: COMPANY
WELL.               Erin 21-15: WELL
FLD.           Purgatoire River: FIELD
LOC.           1217' FNL & 2284' FWL--: LOCATION
CNTY.               Las Animas: COUNTY
SRVC.                Patterson: SERVICE COMPANY
DATE.          Thu Mar 02 09:55:43 2006: LOG DATE
UWI.           05 071 08713 00: UNIQUE WELL ID
STAT.                 Colorado: STATE
~Curve Information Block
DEPT.FT            0 000 00 00: Depth
DCAL.in                       : CDL Caliper
RHOB.g/cc                     : CDL Bulk Density
RHOC.g/cc                     : CDL Density Correction
DPOR.pu                       : CDL Density Porosity
NPOR.pu                       : Neutron Porosity
GR.GAPI                       : Gamma Ray
~Parameter Information Block
~A  Depth       DCAL        RHOB        RHOC        DPOR        NPOR         GR     
# ...
  1197.8000      8.0195      2.3521     -0.0100     18.0564     30.6800    137.8724
  1197.9000      8.0195      2.3005      0.0074     21.1791     31.5471    134.6816
  1198.0000      8.0161      2.2209      0.0035     26.0049     31.9321    130.9380
  1198.1000      8.0161      2.1240     -0.0654     31.8803     32.0174    130.4868
  1198.2000      8.0161      2.0254     -0.0183     37.8549     32.1991    134.6490
  1198.3000      8.0139      1.9187     -0.0633     44.3231     32.7062    139.5915
  1198.4000      8.0139      1.8128     -0.1143     50.7388     33.1883    137.5851
  1198.5000      8.0121      1.7432     -0.0911     54.9582     33.1603    130.2796
  1198.6000      8.0121      1.7260     -0.0432     55.9978     32.6015    125.0685
  1198.7000      8.0121      1.7479      0.0047     54.6718     31.7837    120.2297
  1198.8000      8.0091      1.8008     -0.0020     51.4677     31.0162    114.8679
  1198.9000      8.0091      1.8918      0.0889     45.9502     30.6136    114.9809
  1199.0000      8.0016      2.0134      0.1984     38.5844     30.6324    120.3368
  1199.1000      8.0016      2.1381      0.2502     31.0235     30.5489    126.8956
  1199.2000      8.0016      2.2456      0.2696     24.5104     29.9399    132.9176
  1199.3000      7.9886      2.3360      0.2580     19.0293     28.9603    135.4089
  1199.4000      7.9886      2.4174      0.2411     14.0943     28.1988    134.0305
  1199.5000      7.9803      2.4847      0.2597     10.0179     27.9040    133.5399
  1199.6000      7.9803      2.5277      0.1488      7.4124     27.5131    137.4998
  1199.7000      7.9803      2.5477      0.1293      6.2017     26.8548    141.8330
  1199.8000      7.9818      2.5483      0.1007      6.1638     26.4488    141.8569
  1199.9000      7.9818      2.5400      0.0501      6.6646     26.3358    138.5907
  1200.0000      7.9854      2.5440      0.0242      6.4242     25.8437    140.2764
  1200.1000      7.9854      2.5585      0.0875      5.5436     24.6056    151.4148
  1200.2000      7.9854      2.5582      0.0478      5.5620     23.3771    159.3697
  1200.3000      7.9848      2.5439      0.0331      6.4315     22.9507    152.8224
  1200.4000      7.9848      2.5360      0.0490      6.9063     23.1853    141.6993
  1200.5000      7.9830      2.5379      0.0373      6.7938     23.5707    139.8650
  1200.6000      7.9830      2.5388      0.0533      6.7399     23.6826    144.7052
  1200.7000      7.9830      2.5389      0.0290      6.7324     23.5307    151.1160
  1200.8000      7.9863      2.5449      0.0559      6.3710     23.6009    162.0457
  1200.9000      7.9863      2.5474      0.0645      6.2174     24.0759    169.3073
  1201.0000      7.9961      2.5347      0.0446      6.9878     24.4878    164.5511
  1201.1000      7.9961      2.5126     -0.0064      8.3268     24.4716    158.6747
  1201.2000      7.9961      2.5023     -0.0390      8.9542     24.4362    161.2401
  1201.3000      8.0081      2.5148      0.0093      8.1949     24.6659    167.7350
  1201.4000      8.0081      2.5318      0.0541      7.1664     24.6280    171.8112
  1201.5000      8.0137      2.5312      0.0243      7.2005     24.3181    171.4867
  1201.6000      8.0137      2.5201      0.0072      7.8711     24.2074    166.8931
  1201.7000      8.0137      2.5207      0.0044      7.8370     24.1536    162.1075
  1201.8000      8.0131      2.5334      0.0474      7.0689     24.0093    161.4927
  1201.9000      8.0131      2.5392      0.0742      6.7181     24.1010    163.0988
  1202.0000      8.0122      2.5329      0.0200      7.0967     24.5788    164.8961
  1202.1000      8.0122      2.5277      0.0261      7.4102     25.0484    167.1384
  1202.2000      8.0122      2.5336      0.0341      7.0526     25.0733    169.1364
  1202.3000      8.0110      2.5470      0.0529      6.2422     25.0156    168.7961
  1202.4000      8.0110      2.5601      0.0245      5.4513     25.3864    165.0573
  1202.5000      8.0099      2.5694      0.0502      4.8827     25.9531    162.4481
  1202.6000      8.0099      2.5663      0.0456      5.0739     26.3779    163.6699
  1202.7000      8.0099      2.5410      0.0392      6.6033     26.5248    165.3581
  1202.8000      8.0106      2.5041      0.0111      8.8417     26.4804    169.1856
  1202.9000      8.0106      2.4841     -0.0413     10.0536     26.5199    178.7069
  1203.0000      8.0116      2.4980     -0.0161      9.2143     26.6522    187.5342
  1203.1000      8.0116      2.5250      0.0329      7.5776     26.8449    186.3894
  1203.2000      8.0116      2.5312      0.0138      7.1972     27.1006    177.7070
  1203.3000      8.0117      2.5169      0.0123      8.0665     27.2523    175.3224
  1203.4000      8.0117      2.5063      0.0096      8.7072     27.1092    182.6150
  1203.5000      8.0101      2.5098      0.0424      8.4998     26.6321    188.6924
  1203.6000      8.0101      2.5195      0.0455      7.9102     26.0270    189.3854
  1203.7000      8.0101      2.5257      0.0603      7.5361     25.5572    187.3528
  1203.8000      8.0085      2.5301      0.0351      7.2690     25.1959    181.1923
  1203.9000      8.0085      2.5367      0.0648      6.8674     24.8299    170.2156
  1204.0000      8.0089      2.5355      0.0720      6.9420     24.4549    159.3588
  1204.1000      8.0089      2.5245     -0.0031      7.6046     24.3348    152.4459
  1204.2000      8.0089      2.5167      0.0325      8.0792     24.5346    150.4151
  1204.3000      8.0100      2.5165      0.0130      8.0894     24.6053    154.4462
  1204.4000      8.0100      2.5254      0.0114      7.5503     24.1400    161.8911
  1204.5000      8.0108      2.5443      0.0310      6.4082     23.2929    168.0161
  1204.6000      8.0108      2.5648      0.0641      5.1647     22.6879    169.7705
  1204.7000      8.0108      2.5812      0.0627      4.1689     22.4676    163.9366
  1204.8000      8.0126      2.6020      0.0255      2.9104     22.2347    155.7304
  1204.9000      8.0126      2.6297      0.0928      1.2304     22.1306    152.8646
  1205.0000      8.0150      2.6513      0.1189     -0.0762     22.3011    152.0812
  1205.1000      8.0150      2.6582      0.0881     -0.4990     22.4389    148.8525
  1205.2000      8.0150      2.6525      0.1027     -0.1526     22.3893    145.0396
  1205.3000      8.0153      2.6354      0.1054      0.8822     21.9922    141.6671
  1205.4000      8.0153      2.6124      0.0873      2.2792     21.4411    134.5523
  1205.5000      8.0137      2.6025      0.0386      2.8765     21.2547    124.6596
  1205.6000      8.0137      2.6156      0.0814      2.0833     21.3368    120.0975
  1205.7000      8.0137      2.6349      0.0990      0.9143     21.0797    122.2303
  1205.8000      8.0127      2.6430      0.0640      0.4215     20.5375    125.9032
  1205.9000      8.0127      2.6308      0.1022      1.1620     20.4451    127.4088
  1206.0000      8.0119      2.6070     -0.0066      2.6042     21.0504    124.8567
  1206.1000      8.0119      2.6027      0.0142      2.8640     21.7455    119.8155
  1206.2000      8.0119      2.6203      0.0881      1.7999     21.8590    118.0881
  1206.3000      8.0112      2.6334      0.0829      1.0075     21.6403    121.2739
  1206.4000      8.0112      2.6307      0.0587      1.1721     21.5989    125.7684
  1206.5000      8.0109      2.6171      0.0393      1.9957     21.6518    130.8245
  1206.6000      8.0109      2.5999      0.0330      3.0360     21.7439    135.7604
  1206.7000      8.0109      2.5869      0.0045      3.8234     21.8381    136.9384
  1206.8000      8.0110      2.5832      0.0206      4.0462     21.9536    135.3209
  1206.9000      8.0110      2.5838      0.0413      4.0096     22.4845    137.1566
  1207.0000      8.0107      2.5812      0.0416      4.1723     23.1497    144.0429
  1207.1000      8.0107      2.5769      0.0725      4.4324     23.1647    148.5553
  1207.2000      8.0107      2.5784      0.0454      4.3398     22.7005    149.0966
  1207.3000      8.0103      2.5876      0.0544      3.7811     22.3539    152.2569
