~Version Information
VERS.                      2.0: CWLS Log ASCII Standard - VERSION 2.0
WRAP.                       NO: One line per depth step
~Well Information Block
STRT.FT                10.0000: 
STOP.FT              1187.0000: 
STEP.FT                 0.1000: 
NULL.                -999.2500: 
COMP.          Pioneer Natural Resources: COMPANY
WELL.          Whitecoat 14-36: WELL
FLD.           Purgatorie River: FIELD
LOC.           606' FSL & 260' FWL: LOCATION
PROV.                 Colorado: PROVINCE
CNTY.               Las Animas: COUNTRY
SRVC.                Patterson: SERVICE COMPANY
DATE.          Tue Dec 06 07:14:37 2005: LOG DATE
UWI.                          : UNIQUE WELL ID
~Curve Information Block
DEPT.FT            0 000 00 00: Depth
DCAL.in                       : CDL Caliper
RHOB.g/cc                     : CDL Bulk Density
RHOC.g/cc                     : CDL Density Correction
DPOR.pu                       : CDL Density Porosity
GR.GAPI                       : Gamma Ray
NPOR.pu                       : Neutron Porosity
~Parameter Information Block
~A  Depth       DCAL        RHOB        RHOC        DPOR         GR         NPOR    
# ...
   941.2000      7.9295      2.4565      0.0671     11.7244    116.0809     25.1600
   941.3000      7.9334      2.4739      0.1069     10.6707    116.6884     24.8756
   941.4000      7.9334      2.4759      0.0752     10.5535    114.1875     24.5032
   941.5000      7.9324      2.4709      0.0566     10.8538    113.7896     24.2402
   941.6000      7.9324      2.4764      0.0126     10.5206    118.1632     24.3036
   941.7000      7.9324      2.4938      0.0647      9.4677    121.7944     24.6331
   941.8000      7.9541      2.5027      0.0967      8.9274    119.9990     24.9112
   941.9000      7.9541      2.4964      0.0190      9.3089    115.2464     24.9911
   942.0000      7.9252      2.4931      0.0547      9.5114    111.9054     24.9712
   942.1000      7.9252      2.5019      0.0773      8.9764    110.1355     24.9428
   942.2000      7.9252      2.5158      0.0547      8.1336    109.1967     24.8800
   942.3000      7.9068      2.5240      0.0667      7.6345    110.0376     24.8135
   942.4000      7.9068      2.5195      0.0370      7.9119    112.7495     24.8965
   942.5000      7.9084      2.5123      0.0277      8.3446    114.8780     25.0316
   942.6000      7.9084      2.5186      0.0676      7.9610    115.2108     25.0712
   942.7000      7.9084      2.5397      0.0622      6.6823    114.7607     25.1092
   942.8000      7.9145      2.5659      0.0930      5.0965    113.6735     25.2281
   942.9000      7.9145      2.5881      0.1122      3.7507    110.9485     25.4222
   943.0000      7.9064      2.6049      0.1272      2.7309    106.9431     25.5517
   943.1000      7.9064      2.6169      0.1288      2.0050    103.5295     25.5720
   943.2000      7.9064      2.6251      0.0879      1.5105    101.3090     25.7498
   943.3000      7.8875      2.6313      0.0968      1.1314     98.6292     26.0424
   943.4000      7.8875      2.6335      0.0995      0.9970     95.0762     26.3092
   943.5000      7.8786      2.6297      0.0721      1.2296     91.3629     26.6766
   943.6000      7.8786      2.6189      0.1025      1.8855     88.3300     27.1284
   943.7000      7.8786      2.5980      0.0900      3.1499     86.7207     27.5353
   943.8000      7.8688      2.5691      0.0542      4.9000     85.9764     27.6797
   943.9000      7.8688      2.5439      0.0509      6.4304     85.1719     27.2949
   944.0000      7.8730      2.5354      0.0139      6.9439     84.6804     26.4995
   944.1000      7.8730      2.5468      0.0188      6.2539     85.1864     25.7289
   944.2000      7.8730      2.5629      0.0739      5.2795     86.4981     25.3721
   944.3000      7.9040      2.5684      0.0792      4.9435     87.2909     25.2989
   944.4000      7.9040      2.5680      0.0980      4.9681     86.7076     24.9947
   944.5000      7.9067      2.5688      0.1268      4.9227     86.1433     24.3616
   944.6000      7.9067      2.5662      0.1326      5.0762     87.2171     23.7007
   944.7000      7.9067      2.5578      0.1210      5.5876     90.5245     23.0544
   944.8000      7.8713      2.5486      0.0996      6.1468     95.1713     22.5228
   944.9000      7.8713      2.5415      0.1177      6.5737     97.6702     22.4061
   945.0000      7.8290      2.5376      0.1191      6.8128     97.4012     22.6657
   945.1000      7.8290      2.5490      0.0509      6.1204     98.6074     23.1344
   945.2000      7.8290      2.5815      0.1583      4.1529    101.3924     23.7233
   945.3000      7.8263      2.6107      0.1557      2.3830    102.5297     24.2939
   945.4000      7.8263      2.6166      0.1292      2.0214    102.3935     24.5820
   945.5000      7.8307      2.6039      0.1245      2.7918    102.3083     24.4940
   945.6000      7.8307      2.5851      0.0865      3.9331    101.7349     24.3692
   945.7000      7.8307      2.5752      0.0639      4.5346    101.0714     24.3687
   945.8000      7.8749      2.5766      0.0870      4.4501    101.3420     24.2331
   945.9000      7.8749      2.5707      0.1487      4.8066    100.9273     23.8880
   946.0000      7.9111      2.5479      0.0674      6.1889     99.9227     23.5107
   946.1000      7.9111      2.5199      0.0855      7.8849    100.6192     23.2133
   946.2000      7.9111      2.4913      0.0344      9.6192    103.5345     22.9024
   946.3000      7.8928      2.4531      0.0753     11.9358    107.9515     22.4332
   946.4000      7.8928      2.4000      0.0510     15.1525    111.7720     21.8810
   946.5000      7.8497      2.3454      0.0077     18.4632    112.5046     21.4640
   946.6000      7.8497      2.3087      0.0095     20.6851    111.2285     21.2362
   946.7000      7.8497      2.2951      0.0121     21.5079    110.0629     21.0187
   946.8000      7.8473      2.2930      0.0543     21.6354    109.5172     20.6360
   946.9000      7.8473      2.2779      0.0944     22.5490    110.0545     19.9688
   947.0000      7.8628      2.2307      0.0927     25.4098    111.1489     18.8677
   947.1000      7.8628      2.1529      0.1288     30.1245    110.6243     17.5306
   947.2000      7.8628      2.0616      0.1160     35.6585    106.9492     16.5557
   947.3000      7.9445      1.9771      0.1418     40.7823    101.8110     16.2586
   947.4000      7.9445      1.9156      0.1133     44.5096     98.8084     16.4033
   947.5000      7.9429      1.8886      0.1118     46.1474     99.5142     16.5261
   947.6000      7.9429      1.8949      0.1261     45.7613    101.9957     16.4812
   947.7000      7.9429      1.9289      0.1523     43.7011    102.9743     16.5918
   947.8000      7.9052      1.9930      0.1293     39.8167    100.7427     17.1571
   947.9000      7.9052      2.0816      0.2220     34.4472     96.0142     17.9884
   948.0000      7.8962      2.1732      0.2661     28.8972     90.6281     18.6851
   948.1000      7.8962      2.2540      0.3008     24.0018     87.4345     19.3601
   948.2000      7.8962      2.3197      0.3052     20.0203     87.7635     20.4257
   948.3000      7.9050      2.3628      0.2590     17.4040     89.7793     21.7110
   948.4000      7.9050      2.3822      0.1575     16.2325     92.6881     22.6761
   948.5000      7.9186      2.3853      0.1068     16.0454     97.4746     23.3206
   948.6000      7.9186      2.3786      0.1028     16.4490    101.2501     24.0346
   948.7000      7.9186      2.3756      0.0261     16.6331     99.9950     24.9146
   948.8000      7.9206      2.4009      0.0273     15.0983     96.4402     25.6988
   948.9000      7.9206      2.4638      0.0874     11.2870     95.8695     26.1279
   949.0000      7.8874      2.5434      0.1438      6.4582     97.4444     26.2116
   949.1000      7.8874      2.6048      0.2079      2.7376     96.6315     26.0260
   949.2000      7.8874      2.6236      0.1988      1.6012     91.9285     25.6153
   949.3000      7.8278      2.6067      0.1851      2.6261     86.3910     25.2877
   949.4000      7.8278      2.5821      0.1366      4.1142     83.2366     25.3413
   949.5000      7.7951      2.5711      0.1192      4.7843     81.9975     25.5588
   949.6000      7.7951      2.5773      0.1197      4.4063     81.7058     25.6327
   949.7000      7.7951      2.5979      0.0705      3.1582     81.6070     25.3913
   949.8000      7.7754      2.6249      0.0927      1.5218     80.5472     24.7895
   949.9000      7.7754      2.6420      0.0957      0.4875     78.9940     24.1748
   950.0000      7.8846      2.6438      0.0883      0.3729     78.5169     23.8290
   950.1000      7.8846      2.6387      0.1011      0.6834     79.2392     23.7464
   950.2000      7.8846      2.6367      0.0938      0.8049     79.9309     23.9872
   950.3000      7.9168      2.6426      0.1019      0.4464     81.4178     24.2343
   950.4000      7.9168      2.6432      0.1271      0.4106     84.5880     24.0393
   950.5000      7.9275      2.6177      0.0724      1.9565     87.9956     23.6634
   950.6000      7.9275      2.5722      0.0322      4.7148     90.5712     23.4810
   950.7000      7.9275      2.5343      0.0190      7.0095     91.2209     23.3956
