~Version Information
VERS.                      2.0: CWLS Log ASCII Standard - VERSION 2.0
WRAP.                       NO: One line per depth step
~Well Information Block
STRT.FT               400.0000: 
STOP.FT              2232.0000: 
STEP.FT                 0.2500: 
NULL.                -999.2500: 
COMP.          Evergreen Operating Corporation: COMPANY
WELL.                Croc 42-9: WELL
FLD.           Purgatorie River: FIELD
LOC.           2262' FNL & 238' FEL: LOCATION
STAT.                 Colorado: State
CNTY.               Las Animas: COUNTY
CTRY. USA : Country
SECT. 9 : Section
TOWN. 32S : Township
RANG. 66W : Range
SRVC.                Patterson: SERVICE COMPANY
DATE.          Wed Jul 21 23:25:54 2004: LOG DATE
API.           05 071 08106 00: UNIQUE WELL ID
~Curve Information Block
DEPT.FT            0 000 00 00: Depth
SN.Ohm-m                      : IEL Short Normal
SP.mV                         : IEL Spontaneous Potential
DIR.Ohm-m                     : IEL Induction Resistivity
GR.GAPI                       : Gamma Ray
~Parameter Information Block
~A  Depth        SN          SP         DIR          GR     
# ...
  1472.0000     24.3798     97.9530     15.7455    112.2519
  1472.2500     23.8225     97.8917     15.6029    115.1118
  1472.5000     23.0773     97.8045     15.4689    120.0975
  1472.7500     22.2597     97.6928     15.3356    123.8064
  1473.0000     21.4103     97.5685     15.2042    130.4690
  1473.2500     20.5571     97.4529     15.0825    135.7776
  1473.5000     19.8153     97.3655     14.9805    144.4202
  1473.7500     19.3244     97.3140     14.9075    149.8022
  1474.0000     19.1377     97.2894     14.8709    155.5128
  1474.2500     19.2237     97.2703     14.8771    156.9431
  1474.5000     19.5179     97.2350     14.9334    155.2731
  1474.7500     19.9666     97.1714     15.0498    151.9971
  1475.0000     20.5628     97.0830     15.2416    144.7036
  1475.2500     21.3518     96.9858     15.5329    138.8814
  1475.5000     22.3868     96.9004     15.9575    130.3439
  1475.7500     23.6612     96.8426     16.5535    125.8888
  1476.0000     25.0895     96.8180     17.3492    122.2710
  1476.2500     26.5511     96.8215     18.3456    121.8149
  1476.5000     27.9439     96.8418     19.5044    122.6769
  1476.7500     29.2267     96.8657     20.7515    123.2569
  1477.0000     30.4178     96.8810     21.9964    122.8344
  1477.2500     31.5517     96.8792     23.1599    121.2110
  1477.5000     32.6405     96.8575     24.1910    116.1879
  1477.7500     33.6472     96.8237     25.0674    111.1155
  1478.0000     34.4800     96.7980     25.7908    102.0841
  1478.2500     35.0154     96.8102     26.3854     96.4448
  1478.5000     35.1271     96.8902     26.8928     91.0590
  1478.7500     34.7619     97.0561     27.3511     90.4217
  1479.0000     34.0510     97.3046     27.7667     93.6917
  1479.2500     33.2635     97.6096     28.0999     97.6913
  1479.5000     32.5972     97.9294     28.2846    104.2746
  1479.7500     32.0803     98.2206     28.2712    108.0383
  1480.0000     31.6781     98.4602     28.0628    111.7399
  1480.2500     31.4389     98.6639     27.7181    112.8444
  1480.5000     31.5152     98.8758     27.3202    113.2584
  1480.7500     32.0160     99.1251     26.9388    113.3736
  1481.0000     32.8445     99.3843     26.6118    113.9875
  1481.2500     33.7230     99.5782     26.3513    114.7714
  1481.5000     34.3714     99.6413     26.1604    116.4941
  1481.7500     34.6422     99.5692     26.0434    117.8140
  1482.0000     34.5645     99.4227     26.0021    119.1022
  1482.2500     34.3338     99.2832     26.0297    118.9480
  1482.5000     34.2098     99.1996     26.1131    117.3630
  1482.7500     34.3266     99.1645     26.2435    116.0855
  1483.0000     34.6040     99.1313     26.4284    114.8517
  1483.2500     34.8657     99.0541     26.6912    114.6331
  1483.5000     34.9989     98.9211     27.0529    115.0770
  1483.7500     35.0097     98.7650     27.5058    115.8260
  1484.0000     34.9854     98.6465     27.9988    117.4872
  1484.2500     35.0182     98.6217     28.4558    118.6959
  1484.5000     35.1608     98.7075     28.8166    119.9778
  1484.7500     35.4361     98.8712     29.0696    120.1313
  1485.0000     35.8580     99.0510     29.2463    118.9708
  1485.2500     36.4274     99.1912     29.3899    117.1272
  1485.5000     37.1046     99.2639     29.5323    112.5452
  1485.7500     37.7842     99.2709     29.6960    108.2889
  1486.0000     38.3125     99.2328     29.9067    100.4936
  1486.2500     38.5863     99.1722     30.2013     94.8897
  1486.5000     38.6427     99.0985     30.6186     87.4628
  1486.7500     38.5922     99.0058     31.1785     84.3046
  1487.0000     38.4897     98.8840     31.8571     83.6562
  1487.2500     38.3288     98.7313     32.5686     85.9862
  1487.5000     38.1010     98.5561     33.1779     92.1456
  1487.7500     37.8008     98.3703     33.5536     96.5027
  1488.0000     37.4268     98.1823     33.6397    100.6561
  1488.2500     37.0045     97.9942     33.4830    100.8402
  1488.5000     36.5857     97.8047     33.1857     97.4853
  1488.7500     36.2392     97.6141     32.8282     94.0275
  1489.0000     36.0380     97.4283     32.4334     89.6071
  1489.2500     36.0133     97.2582     31.9920     88.1664
  1489.5000     36.0981     97.1159     31.5158     88.3626
  1489.7500     36.1492     97.0108     31.0663     89.4661
  1490.0000     36.0572     96.9473     30.7338     91.5871
  1490.2500     35.8247     96.9200     30.5865     93.1227
  1490.5000     35.5253     96.9109     30.6277     95.6492
  1490.7500     35.2196     96.8935     30.7871     97.3558
  1491.0000     34.9416     96.8439     30.9556     99.4078
  1491.2500     34.7233     96.7509     31.0459    100.2451
  1491.5000     34.5876     96.6199     31.0345    100.9922
  1491.7500     34.5316     96.4667     30.9496    101.5688
  1492.0000     34.5261     96.3083     30.8263    103.0781
  1492.2500     34.5393     96.1541     30.6743    104.4908
  1492.5000     34.5746     96.0013     30.4832    106.7084
  1492.7500     34.6549     95.8369     30.2545    107.8738
  1493.0000     34.7599     95.6441     30.0310    108.6255
  1493.2500     34.8282     95.4072     29.8970    108.3848
  1493.5000     34.8365     95.1144     29.9440    107.4474
  1493.7500     34.8392     94.7638     30.2216    106.9948
  1494.0000     34.9192     94.3698     30.7074    107.1290
  1494.2500     35.1127     93.9604     31.3160    107.5923
  1494.5000     35.3997     93.5654     31.9480    107.9446
  1494.7500     35.7631     93.2122     32.5403    107.3434
  1495.0000     36.2164     92.9340     33.0792    104.4587
  1495.2500     36.7545     92.7736     33.5726    101.1367
  1495.5000     37.3567     92.7636     34.0188     94.5631
  1495.7500     38.0339     92.8962     34.4037     89.7088
  1496.0000     38.7733     93.1158     34.7213     82.9367
  1496.2500     39.4847     93.3438     34.9886     79.3142
  1496.5000     40.0619     93.5158     35.2359     75.5420
  1496.7500     40.4499     93.6023     35.4758     74.0791
  1497.0000     40.6433     93.6062     35.6830     73.2523
  1497.2500     40.6667     93.5445     35.8028     73.2902
  1497.5000     40.5727     93.4352     35.7902     73.1820
  1497.7500     40.4208     93.2950     35.6486     72.5169
  1498.0000     40.2329     93.1412     35.4372     70.9171
  1498.2500     39.9876     92.9882     35.2386     70.1011
  1498.5000     39.6717     92.8425     35.1155     70.0007
  1498.7500     39.3246     92.7054     35.0813     70.5866
  1499.0000     39.0220     92.5789     35.0989     71.8552
  1499.2500     38.8321     92.4647     35.1071     72.7144
  1499.5000     38.8061     92.3620     35.0594     73.9488
  1499.7500     38.9665     92.2683     34.9565     74.9260
  1500.0000     39.2466     92.1841     34.8407     77.3517
  1500.2500     39.4797     92.1130     34.7483     80.0473
  1500.5000     39.5477     92.0591     34.6688     85.8671
  1500.7500     39.5130     92.0242     34.5636     90.5420
  1501.0000     39.5266     92.0052     34.4460     97.4878
  1501.2500     39.6834     91.9905     34.4340    101.2772
  1501.5000     40.0007     91.9603     34.7021    104.8129
  1501.7500     40.4535     91.8962     35.3633    105.6224
  1502.0000     41.0023     91.7953     36.3756    104.6252
  1502.2500     41.6191     91.6737     37.5383    102.4929
  1502.5000     42.2978     91.5568     38.5925     97.2635
  1502.7500     43.0300     91.4631     39.3764     92.8838
  1503.0000     43.7770     91.3972     39.9106     86.0805
  1503.2500     44.4774     91.3526     40.3476     81.7736
  1503.5000     45.0772     91.3184     40.8494     75.8038
  1503.7500     45.5517     91.2861     41.5075     72.3477
  1504.0000     45.9056     91.2537     42.3392     68.7906
  1504.2500     46.1481     91.2274     43.3216     67.9553
  1504.5000     46.2751     91.2187     44.4067     69.0400
  1504.7500     46.2822     91.2367     45.5169     70.8961
  1505.0000     46.1764     91.2780     46.5408     74.3726
  1505.2500     45.9607     91.3230     47.3434     76.6744
