~Version Information
VERS.                      2.0: CWLS Log ASCII Standard - VERSION 2.0
WRAP.                       NO: One line per depth step
~Well Information Block
STRT.FT                -5.5000: 
STOP.FT               791.0000: 
STEP.FT                 0.2500: 
NULL.                -999.2500: 
COMP.          Pioneer Natural Resources: COMPANY
WELL.           Beringer 33-18: WELL
FLD.           Purgatoire River: FIELD
LOC.           2356' FSL & 2338' FEL--: LOCATION
CNTY.               Las Animas: COUNTY
SRVC.                Patterson: SERVICE COMPANY
DATE.          Mon Apr 03 11:39:01 2006: LOG DATE
UWI.           05 071 08725 00: UNIQUE WELL ID
STAT.                 Colorado: STATE
~Curve Information Block
DEPT.FT            0 000 00 00: Depth
CCL.                          : Casing Collar Locator
TT3.usec                      : CBL 3' Travel Time
AMP3.mV                       : CBL 3' Amplitude
GR.GAPI                       : Gamma Ray
~Parameter Information Block
~A  Depth       CCL         TT3         AMP3         GR     
# ...
   564.0000      0.0000    845.5667      2.3494     56.4805
   564.2500      0.0000    843.2686      2.3167     55.4924
   564.5000      0.0000    840.6326      2.3582     54.6664
   564.7500      0.0000    840.8309      2.4560     55.6970
   565.0000      0.0000    845.0564      2.7210     60.8113
   565.2500      0.0000    849.7017      2.9811     66.6986
   565.5000      0.0000    856.7125      3.5062     79.0009
   565.7500      0.0000    860.1458      3.9569     89.3412
   566.0000      0.0000    862.8385      4.8040    106.7827
   566.2500      0.0000    863.0903      5.4852    117.8514
   566.5000      0.0000    860.3550      6.6483    129.5985
   566.7500      0.0000    855.0690      7.4700    132.7267
   567.0000      0.0000    839.3109      8.6332    130.8066
   567.2500      0.0000    823.3356      9.2571    126.7533
   567.5000      0.0000    794.9910      9.8007    119.9028
   567.7500      0.0000    777.4805      9.8562    116.1907
   568.0000      0.0000    760.2559      9.5264    112.3296
   568.2500      0.0000    756.2751      9.1157    110.2694
   568.5000      0.0000    758.8400      8.3861    106.7230
   568.7500      0.0000    763.3449      7.9034    103.8448
   569.0000      0.0000    770.9015      7.2478     99.3031
   569.2500      0.0000    775.9472      6.8583     96.5396
   569.5000      0.0000    783.3693      6.3324     93.3787
   569.7500      0.0000    787.6640      6.0219     92.4244
   570.0000      0.0000    791.5624      5.6323     93.5570
   570.2500      0.0000    791.7902      5.4298     95.8108
   570.5000      0.0000    788.3940      5.2033     99.5231
   570.7500      0.0000    784.0339      5.0909    100.8790
   571.0000      0.0000    775.5145      4.9651    100.0223
   571.2500      0.0000    769.1359      4.9081     97.8195
   571.5000      0.0000    759.0977      4.8594     94.1525
   571.7500      0.0000    752.4216      4.8438     92.8994
   572.0000      0.0000    744.0541      4.8369     93.4709
   572.2500      0.0000    741.2631      4.8490     94.2874
   572.5000      0.0000    743.9592      4.9054     93.0648
   572.7500      0.0000    750.5303      4.9613     89.8145
   573.0000      0.0000    764.1620      5.0364     82.9113
   573.2500      0.0000    772.4595      5.0643     78.8186
   573.5000      0.0000    779.7861      5.0774     75.4963
   573.7500      0.0000    781.5752      5.0806     75.0052
   574.0000      0.0000    783.1600      5.0876     75.1674
   574.2500      0.0000    784.8987      5.0860     75.0037
   574.5000      0.0000    787.3904      5.0491     74.2673
   574.7500      0.0000    787.1832      4.9929     74.2397
   575.0000      0.0000    782.2767      4.8745     76.6064
   575.2500      0.0000    776.4432      4.7938     80.0881
   575.5000      0.0000    766.5061      4.6938     86.6790
   575.7500      0.0000    760.7328      4.6326     90.5505
   576.0000      0.0000    755.2664      4.5132     94.3220
   576.2500      0.0000    754.3580      4.4096     96.0079
   576.5000      0.0000    757.4191      4.2501     99.0470
   576.7500      0.0000    762.0390      4.1597    101.6861
   577.0000      0.0000    772.1094      4.0485    104.8121
   577.2500      0.0000    781.5456      3.9894    104.7018
   577.5000      0.0000    802.3518      3.9509     99.8045
   577.7500      0.0000    821.0903      3.9730     94.2182
   578.0000      0.0000    853.8445      4.0491     86.2009
   578.2500     -2.0000    876.6564      4.0904     83.5146
   578.5000      2.0000    909.2218      4.0957     85.2174
   578.7500      0.0000    926.7472      4.0644     89.1515
   579.0000      0.0000    937.5685      4.0069     95.4128
   579.2500      0.0000    929.6924      3.9978     97.9837
   579.5000      0.0000    896.1525      4.0753     98.8579
   579.7500      0.0000    865.3923      4.1843     98.3279
   580.0000      0.0000    817.8208      4.3798     97.5655
   580.2500      0.0000    788.5904      4.5016     97.5645
   580.5000      0.0000    751.6845      4.6559     98.2316
   580.7500      0.0000    734.0780      4.7403     98.6727
   581.0000      0.0000    720.8139      4.8323     98.5092
   581.2500      0.0000    719.4890      4.8667     97.9337
   581.5000      0.0000    723.0400      4.8852     97.6441
   581.7500      0.0000    725.9926      4.8832     98.4925
   582.0000      0.0000    728.9839      4.8563    101.3615
   582.2500      0.0000    730.2389      4.8134    104.0733
   582.5000      0.0000    732.4896      4.7086    109.0393
   582.7500      0.0000    735.0629      4.6276    112.6444
   583.0000      0.0000    741.1738      4.5277    117.2782
   583.2500      0.0000    746.6043      4.4890    118.9533
   583.5000      0.0000    756.4309      4.4755    118.4147
   583.7500      0.0000    764.5043      4.4970    116.3062
   584.0000      0.0000    780.5878      4.5807    112.3201
   584.2500      0.0000    794.3857      4.6666    110.1135
   584.5000      0.0000    817.0933      4.8056    107.8485
   584.7500      0.0000    830.3986      4.8769    106.7784
   585.0000      0.0000    842.8516      4.9249    105.9126
   585.2500      0.0000    845.1673      4.9231    106.1747
   585.5000      0.0000    839.8229      4.8970    107.7839
   585.7500      0.0000    830.3327      4.8760    109.1163
   586.0000      0.0000    807.7392      4.8470    110.7794
   586.2500      0.0000    789.2559      4.8352    111.9733
   586.5000      0.0000    762.8923      4.8515    115.3357
   586.7500      0.0000    749.3317      4.8983    119.1272
   587.0000      0.0000    735.6929      5.0186    126.0333
   587.2500      0.0000    729.2224      5.1116    129.7547
   587.5000      0.0000    720.1013      5.2255    131.2568
   587.7500      0.0000    713.7924      5.2670    129.1551
   588.0000      0.0000    705.0912      5.2780    123.0930
   588.2500      0.0000    700.6733      5.2698    118.6792
   588.5000      0.0000    696.5248      5.2745    113.3070
   588.7500      0.0000    694.9520      5.2972    110.8341
   589.0000      0.0000    692.9540      5.3391    108.5931
   589.2500      0.0000    690.8210      5.3567    107.7983
   589.5000      0.0000    684.7004      5.3653    106.3647
   589.7500      0.0000    678.5983      5.3688    103.9590
   590.0000      0.0000    670.1752      5.3865     96.8291
   590.2500      0.0000    669.1918      5.4144     90.5779
   590.5000      0.0000    679.4390      5.4886     82.7239
   590.7500      0.0000    692.3901      5.5515     80.4034
   591.0000      0.0000    712.2057      5.6225     81.7517
   591.2500      0.0000    721.3810      5.6264     84.8971
   591.5000      0.0000    727.8850      5.5501     91.6701
   591.7500      0.0000    729.1140      5.4577     97.5526
   592.0000      0.0000    729.2655      5.2995    108.2265
   592.2500      0.0000    729.0384      5.2050    115.5493
   592.5000      0.0000    728.4728      5.1105    124.6376
   592.7500      0.0000    727.9047      5.0910    128.9553
   593.0000      0.0000    726.8430      5.1350    133.0800
   593.2500      0.0000    726.2151      5.2046    134.1260
   593.5000      0.0000    725.9161      5.3252    132.1580
   593.7500      0.0000    726.2938      5.3822    128.1273
   594.0000      0.0000    727.4296      5.3929    118.5043
   594.2500      0.0000    728.2181      5.3491    110.5727
   594.5000      0.0000    729.0199      5.2350     98.5100
   594.7500      0.0000    729.2407      5.1494     91.7652
   595.0000      0.0000    729.2057      5.0452     85.7423
   595.2500      0.0000    729.0546      5.0089     85.0650
   595.5000      0.0000    728.8572      5.0136     87.9733
   595.7500      0.0000    728.8305      5.0483     90.6927
   596.0000      0.0000    728.9257      5.1182     92.6813
   596.2500      0.0000    728.9808      5.1604     91.9613
   596.5000      0.0000    728.8694      5.2072     89.5921
   596.7500      0.0000    728.6008      5.2315     88.9883
   597.0000      0.0000    727.7517      5.2635     91.6710
   597.2500      0.0000    726.6196      5.2769     95.8656
