~Version Information
VERS.                      2.0: CWLS Log ASCII Standard - VERSION 2.0
WRAP.                       NO: One line per depth step
~Well Information Block
STRT.FT                -2.7500: 
STOP.FT               973.2500: 
STEP.FT                 0.2500: 
NULL.                -999.2500: 
COMP.          Pioneer Natural Resources: COMPANY
WELL.          Red Raider 22-15: WELL
FLD.           Purgatoire River: FIELD
LOC.           1809' FNL & 2107' FWL: LOCATION
CNTY.               Las Animas: COUNTY
SRVC.                Patterson: SERVICE COMPANY
DATE.          Mon Apr 17 16:50:50 2006: LOG DATE
UWI.           05 071 08718 00: UNIQUE WELL ID
STAT.                 Colorado: STATE
~Curve Information Block
DEPT.FT            0 000 00 00: Depth
GR.GAPI                       : Gamma Ray
CCL.                          : Casing Collar Locator
TT3.usec                      : CBL 3' Travel Time
AMP3.mV                       : CBL 3' Amplitude
~Parameter Information Block
~A  Depth        GR         CCL         TT3         AMP3    
# ...
   868.2500     67.5317      0.0000    722.7354      8.5245
   868.5000     67.4062      0.0000    720.7042      8.4977
   868.7500     67.3264      0.0000    721.0048      8.5093
   869.0000     67.0600      0.0000    722.9131      8.5178
   869.2500     66.7209      0.0000    725.0769      8.5029
   869.5000     66.3670      0.0000    726.6356      8.4681
   869.7500     65.7702      0.0000    727.5969      8.4266
   870.0000     64.6727      0.0000    728.3461      8.3891
   870.2500     63.1881      0.0000    729.2748      8.3593
   870.5000     61.6589      0.0000    730.7056      8.3362
   870.7500     60.2140      0.0000    732.7419      8.3168
   871.0000     58.8595      0.0000    735.3073      8.2961
   871.2500     57.8871      0.0000    738.5018      8.2683
   871.5000     57.7613      0.0000    742.5765      8.2309
   871.7500     58.6455      0.0000    747.3515      8.1866
   872.0000     60.2451      0.0000    751.9643      8.1401
   872.2500     61.9626      0.0000    755.4570      8.0930
   872.5000     63.1458      0.0000    757.4724      8.0421
   872.7500     63.4853      0.0000    758.2205      7.9832
   873.0000     63.3281      0.0000    757.8603      7.9165
   873.2500     63.4750      0.0000    755.9247      7.8473
   873.5000     64.5782      0.0000    751.3143      7.7820
   873.7500     66.6433      0.0000    743.2814      7.7238
   874.0000     68.9602      0.0000    733.0925      7.6743
   874.2500     70.5191      0.0000    724.6197      7.6361
   874.5000     70.7098      0.0000    722.1135      7.6125
   874.7500     69.7844      0.0000    726.5577      7.6033
   875.0000     68.7477      0.0000    734.3607      7.5998
   875.2500     68.7731      0.0000    739.8831      7.5857
   875.5000     70.4899      0.0000    739.3263      7.5497
   875.7500     73.4729      0.0000    732.7772      7.5001
   876.0000     76.2229      0.0000    723.4276      7.4627
   876.2500     76.8318      0.0000    715.1912      7.4611
   876.5000     74.1778      0.0000    710.8071      7.4983
   876.7500     68.8563      0.0000    711.3716      7.5560
   877.0000     62.9101      0.0000    716.3431      7.6086
   877.2500     58.4481      0.0000    723.3375      7.6378
   877.5000     56.4355      0.0000    728.7576      7.6379
   877.7500     56.6845      0.0000    729.8677      7.6129
   878.0000     58.5758      0.0000    726.6493      7.5738
   878.2500     61.4167      0.0000    721.4279      7.5366
   878.5000     64.3604      0.0000    716.7887      7.5168
   878.7500     66.5137      0.0000    714.0833      7.5209
   879.0000     67.2397      0.0000    713.5393      7.5407
   879.2500     66.2115      0.0000    714.9210      7.5620
   879.5000     63.3797      0.0000    717.5807      7.5782
   879.7500     59.2311      0.0000    720.1630      7.5937
   880.0000     54.9699      0.0000    721.0370      7.6147
   880.2500     52.0699      0.0000    719.5058      7.6397
   880.5000     51.4720      0.0000    716.4182      7.6593
   880.7500     53.0887      0.0000    713.3448      7.6639
   881.0000     55.7982      0.0000    711.3216      7.6510
   881.2500     57.9035      0.0000    710.4543      7.6259
   881.5000     58.0987      0.0000    710.3278      7.5963
   881.7500     56.4645      0.0000    710.4811      7.5669
   882.0000     54.5804      0.0000    710.6127      7.5369
   882.2500     54.4983      0.0000    710.5919      7.5027
   882.5000     57.3821      0.0000    710.4029      7.4640
   882.7500     62.7417      0.0000    710.1072      7.4292
   883.0000     68.6261      0.0000    709.8759      7.4131
   883.2500     72.5851      0.0000    710.0640      7.4299
   883.5000     72.9584      0.0000    711.3541      7.4902
   883.7500     69.7814      0.0000    714.8461      7.6052
   884.0000     64.7098      0.0000    721.7359      7.7888
   884.2500     60.0991      0.0000    732.3907      8.0410
   884.5000     57.8746      0.0000    745.4454      8.3066
   884.7500     58.6613      0.0000    757.9580      8.4617
   885.0000     61.5338      0.0000    766.5573      8.3867
   885.2500     64.6390      0.0000    768.5543      8.0821
   885.5000     66.3428      0.0000    762.8599      7.6869
   885.7500     66.1392      0.0000    751.4719      7.3675
   886.0000     64.7841      0.0000    740.2222      7.1991
   886.2500     63.5658      0.0000    735.9152      7.1549
   886.5000     63.2244      0.0000    740.6596      7.1711
   886.7500     63.4581      0.0000    749.1947      7.2101
   887.0000     63.4549      0.0000    752.9674      7.2817
   887.2500     62.7862      0.0000    747.1973      7.4135
   887.5000     61.7616      0.0000    733.8998      7.5967
   887.7500     60.9882      0.0000    718.9195      7.7766
   888.0000     60.7421      0.0000    707.3832      7.9158
   888.2500     60.8285      0.0000    701.5862      8.0388
   888.5000     60.8837      0.0000    701.1709      8.1869
   888.7500     60.6440      0.0000    704.2714      8.3552
   889.0000     60.0077      0.0000    708.9392      8.5036
   889.2500     58.9668      0.0000    713.9645      8.6097
   889.5000     57.5356      0.0000    718.6746      8.6904
   889.7500     55.8813      0.0000    722.6887      8.7784
   890.0000     54.5233      0.0000    726.0906      8.8858
   890.2500     54.1448      0.0000    729.1745      8.9895
   890.5000     55.1590      0.0000    731.8440      9.0431
   890.7500     57.6910      0.0000    734.1552      9.0008
   891.0000     61.8465      0.0000    737.4399      8.8371
   891.2500     67.5196      0.0000    743.3098      8.5595
   891.5000     73.8004      0.0000    750.8612      8.2132
   891.7500     78.8980      0.0000    756.2642      7.8623
   892.0000     80.9302      0.0000    756.4184      7.5580
   892.2500     78.9402      0.0000    752.4921      7.3215
   892.5000     73.4654      0.0000    748.8144      7.1515
   892.7500     66.4327      0.0000    748.5852      7.0385
   893.0000     60.4522      0.0000    751.5362      6.9663
   893.2500     57.8657      0.0000    755.4906      6.9103
   893.5000     60.0158      0.0000    758.5615      6.8483
   893.7500     66.9007      0.0000    758.9101      6.7779
   894.0000     77.1426      0.0000    753.8738      6.7227
   894.2500     88.3595      0.0000    741.6124      6.7187
   894.5000     97.9809      0.0000    723.9460      6.7886
   894.7500    104.0479      0.0000    706.5508      6.9234
   895.0000    105.6791      0.0000    695.9924      7.0895
   895.2500    103.5111      0.0000    696.3094      7.2517
   895.5000     99.9392      0.0000    707.2341      7.3884
   895.7500     97.9837      0.0000    724.2473      7.4880
   896.0000     98.8205      0.0000    740.4333      7.5412
   896.2500    100.5159      0.0000    750.0359      7.5445
   896.5000     99.9039      0.0000    752.0341      7.5091
   896.7500     95.8262      0.0000    750.5983      7.4594
   897.0000     90.2055      0.0000    751.2375      7.4194
   897.2500     86.0835      0.0000    755.7102      7.4008
   897.5000     85.0304      0.0000    760.3243      7.4025
   897.7500     86.2916      0.0000    759.5319      7.4198
   898.0000     87.8712      0.0000    751.6144      7.4525
   898.2500     88.4091      0.0000    740.6367      7.5065
   898.5000     88.3302      0.0000    732.6103      7.5893
   898.7500     89.1812      0.0000    730.5620      7.7046
   899.0000     91.7962      0.0000    733.8099      7.8481
   899.2500     95.4228      0.0000    740.3887      8.0078
   899.5000     98.8187      0.0000    748.5754      8.1674
   899.7500    101.6839      0.0000    756.8766      8.3147
   900.0000    104.5320      0.0000    764.0590      8.4496
   900.2500    107.5185      0.0000    769.4611      8.5856
   900.5000    110.1571      0.0000    773.0698      8.7379
   900.7500    112.3982      0.0000    775.4501      8.9092
   901.0000    115.4227      0.0000    777.5472      9.0877
   901.2500    120.6554      0.0000    780.0317      9.2594
   901.5000    127.8157      0.0000    782.6729      9.4212
