~Version Information
VERS.                      2.0: CWLS Log ASCII Standard - VERSION 2.0
WRAP.                       NO: One line per depth step
~Well Information Block
STRT.FT                -5.7500: 
STOP.FT              2734.0000: 
STEP.FT                 0.2500: 
NULL.                -999.2500: 
COMP.          Pioneer Natural Resources: COMPANY
WELL.              Loews 41-32: WELL
FLD.           Purgatoire River: FIELD
LOC.           751' FNL & 128' FEL--: LOCATION
CNTY.               Las Animas: COUNTY
SRVC.                         : SERVICE COMPANY
DATE.          Sat Mar 04 08:20:59 2006: LOG DATE
UWI.           05 071 08693 00: UNIQUE WELL ID
STAT.                       CO: STATE
~Curve Information Block
DEPT.FT            0 000 00 00: Depth
GR.GAPI                       : Gamma Ray
CCL.                          : Casing Collar Locator
TT3.usec                      : CBL 3' Travel Time
AMP3.mV                       : CBL 3' Amplitude
~Parameter Information Block
~A  Depth        GR         CCL         TT3         AMP3    
# ...
   161.7500     83.0418      0.0000    755.9233      6.4606
   162.0000     88.0334      0.0000    757.1808      6.4929
   162.2500     94.4183      0.0000    760.2387      6.5352
   162.5000    100.4227      0.0000    764.7449      6.5819
   162.7500    104.2735      0.0000    769.5640      6.6194
   163.0000    105.6122      0.0000    773.4092      6.6372
   163.2500    105.6911      0.0000    775.7833      6.6373
   163.5000    106.1956      0.0000    776.9722      6.6336
   163.7500    108.0701      0.0000    777.4506      6.6443
   164.0000    111.2219      0.0000    777.5576      6.6805
   164.2500    114.6896      0.0000    777.4805      6.7385
   164.5000    117.0644      0.0000    777.3049      6.8028
   164.7500    117.4370      0.0000    777.0548      6.8570
   165.0000    116.2081      0.0000    776.7627      6.8898
   165.2500    114.7077      0.0000    776.4647      6.8910
   165.5000    113.9856      0.0000    776.0455      6.8520
   165.7500    113.9559      0.0000    775.0258      6.7765
   166.0000    113.5384      0.0000    772.5426      6.6848
   166.2500    111.7256      0.0000    767.7701      6.6017
   166.5000    108.7279      0.0000    760.6927      6.5412
   166.7500    105.9623      0.0000    752.5549      6.5043
   167.0000    104.5901      0.0000    745.3222      6.4868
   167.2500    104.0628      0.0000    740.5544      6.4859
   167.5000    102.4678      0.0000    738.7731      6.4981
   167.7500     98.5215      0.0000    739.6382      6.5155
   168.0000     92.9306      0.0000    742.1755      6.5304
   168.2500     87.5841      0.0000    744.8141      6.5414
   168.5000     83.7806      0.0000    746.0850      6.5540
   168.7500     81.5092      0.0000    746.0281      6.5739
   169.0000     80.1761      0.0000    746.4271      6.6001
   169.2500     79.6425      0.0000    748.8785      6.6208
   169.5000     80.3110      0.0000    752.9807      6.6161
   169.7500     82.1717      0.0000    756.7988      6.5647
   170.0000     84.2050      0.0000    758.2982      6.4509
   170.2500     85.1169      0.0000    756.0696      6.2676
   170.5000     84.3811      0.0000    749.7838      6.0282
   170.7500     82.2109      0.0000    740.4786      5.7795
   171.0000     78.8532      0.0000    729.8109      5.5887
   171.2500     74.3759      0.0000    719.1826      5.4995
   171.5000     69.0927      0.0000    710.3434      5.5011
   171.7500     63.9141      0.0000    705.9293      5.5424
   172.0000     60.0794      1.7465    707.5020      5.5676
   172.2500     58.4971      1.7963    713.1680      5.5424
   172.5000     59.2908      0.0000    718.8040      5.4663
   172.7500     61.7252      0.0000    721.9555      5.3757
   173.0000     64.5225      0.0000    723.6068      5.3253
   173.2500     66.6349      0.0000    726.0361      5.3470
   173.5000     67.9167      0.0000    729.9875      5.4236
   173.7500     68.9486      0.0000    734.3278      5.5084
   174.0000     70.3148      0.0000    737.5353      5.5655
   174.2500     72.1788      0.0000    738.9037      5.5871
   174.5000     74.1790      0.0000    738.7094      5.5820
   174.7500     75.3379      0.0000    737.6656      5.5594
   175.0000     74.4311      0.0000    736.2100      5.5226
   175.2500     71.0131      0.0000    734.3053      5.4719
   175.5000     66.0581      0.0000    731.9501      5.4103
   175.7500     61.3209      0.0000    729.7482      5.3448
   176.0000     58.1268      0.0000    728.6630      5.2806
   176.2500     56.8020      0.0000    728.9927      5.2173
   176.5000     56.9160      0.0000    729.7731      5.1497
   176.7500     57.7775      0.0000    729.4857      5.0723
   177.0000     58.9099      0.0000    727.4567      4.9825
   177.2500     60.3645      0.0000    724.5335      4.8818
   177.5000     62.4988      0.0000    722.3751      4.7783
   177.7500     65.3140      0.0000    721.9892      4.6858
   178.0000     68.1474      0.0000    722.9738      4.6147
   178.2500     70.0900      0.0000    724.1734      4.5645
   178.5000     70.5732      0.0000    724.8051      4.5279
   178.7500     69.6402      0.0000    724.8407      4.5047
   179.0000     67.9210      0.0000    724.6365      4.5072
   179.2500     66.3002      0.0000    724.5184      4.5478
   179.5000     65.3409      0.0000    724.6865      4.6235
   179.7500     64.9411      0.0000    725.3585      4.7155
   180.0000     64.5571      0.0000    726.9724      4.8004
   180.2500     63.7601      0.0000    730.1654      4.8605
   180.5000     62.5499      0.0000    735.2417      4.8877
   180.7500     61.1635      0.0000    741.2175      4.8834
   181.0000     59.8690      0.0000    745.4731      4.8596
   181.2500     59.1024      0.0000    745.0219      4.8363
   181.5000     59.2884      0.0000    738.5705      4.8343
   181.7500     60.1497      0.0000    727.1942      4.8673
   182.0000     60.7093      0.0000    713.2104      4.9375
   182.2500     60.2741      0.0000    699.0773      5.0345
   182.5000     58.9936      0.0000    687.1695      5.1395
   182.7500     57.4117      0.0000    679.5303      5.2343
   183.0000     55.9976      0.0000    677.5802      5.3108
   183.2500     55.0316      0.0000    682.3834      5.3732
   183.5000     54.3787      0.0000    694.5984      5.4320
   183.7500     53.3921      0.0000    713.1265      5.4959
   184.0000     51.4615      0.0000    733.9684      5.5700
   184.2500     48.8159      0.0000    751.5383      5.6550
   184.5000     46.7051      0.0000    761.7249      5.7467
   184.7500     46.6869      0.0000    763.7339      5.8383
   185.0000     49.5770      0.0000    759.6259      5.9278
   185.2500     54.8994      0.0000    752.7547      6.0211
   185.5000     61.1155      0.0000    746.2160      6.1259
   185.7500     66.2759      0.0000    741.7230      6.2453
   186.0000     68.8065      0.0000    739.3919      6.3779
   186.2500     68.3150      0.0000    738.4918      6.5215
   186.5000     65.8838      0.0000    738.4299      6.6711
   186.7500     63.3217      0.0000    739.2789      6.8127
   187.0000     61.9291      0.0000    741.7606      6.9217
   187.2500     61.9372      0.0000    746.7585      6.9707
   187.5000     62.8655      0.0000    754.5704      6.9461
   187.7500     64.0221      0.0000    764.4601      6.8592
   188.0000     64.6518      0.0000    775.0026      6.7404
   188.2500     64.0613      0.0000    784.8934      6.6208
   188.5000     62.0687      0.0000    793.4594      6.5193
   188.7500     59.4511      0.0000    800.5534      6.4424
   189.0000     57.7255      0.0000    806.0376      6.3885
   189.2500     58.1667      0.0000    809.3303      6.3491
   189.5000     60.7543      0.0000    809.5177      6.3116
   189.7500     63.9716      0.0000    806.0525      6.2669
   190.0000     65.8718      0.0000    799.4883      6.2137
   190.2500     65.6419      0.0000    791.5757      6.1578
   190.5000     64.1013      0.0000    784.4337      6.1094
   190.7500     62.6451      0.0000    779.4061      6.0804
   191.0000     61.9943      0.0000    776.6435      6.0765
   191.2500     62.1024      0.0000    775.5928      6.0902
   191.5000     62.7493      0.0000    775.6320      6.1047
   191.7500     63.7352      0.0000    776.2706      6.1072
   192.0000     64.6965      0.0000    777.0809      6.0976
   192.2500     65.0944      0.0000    777.6470      6.0868
   192.5000     64.5018      0.0000    777.5938      6.0897
   192.7500     62.9552      0.0000    776.5764      6.1154
   193.0000     60.9737      0.0000    774.2408      6.1605
   193.2500     59.1323      0.0000    770.3278      6.2090
   193.5000     57.7398      0.0000    764.9540      6.2394
   193.7500     56.9520      0.0000    758.6876      6.2349
   194.0000     56.8453      0.0000    752.2745      6.1908
   194.2500     57.1981      0.0000    746.5137      6.1175
   194.5000     57.5018      0.0000    742.4662      6.0381
   194.7500     57.3859      0.0000    741.3926      5.9780
   195.0000     56.8120      0.0000    744.0828      5.9523
