~Version Information
VERS.                      2.0: CWLS Log ASCII Standard - VERSION 2.0
WRAP.                       NO: One line per depth step
~Well Information Block
STRT.FT                 0.0000: 
STOP.FT              2062.2500: 
STEP.FT                 0.2500: 
NULL.                -999.2500: 
COMP.          Petrogulf Corporation: COMPANY
WELL.           Montoya 12-44R: WELL
FLD.           Purgatorie River: FIELD
LOC.           713' FSL & 798' FEL: LOCATION
PROV.                 Colorado: PROVINCE
CNTY.               Las Animas: COUNTRY
SRVC.                Patterson: SERVICE COMPANY
DATE.          Wed Nov 09 13:30:24 2005: LOG DATE
UWI.           05-071-08538               : UNIQUE WELL ID
~Curve Information Block
DEPT.FT            0 000 00 00: Depth
CCL.                          : Casing Collar Locator
TT3.usec                      : CBL 3' Travel Time
AMP3.mV                       : CBL 3' Amplitude
GR.GAPI                       : Gamma Ray
~Parameter Information Block
~A  Depth       CCL         TT3         AMP3         GR     
     0.0000   -999.2500   1197.0000      0.8749     23.0361
     0.2500   -999.2500   1197.0000      0.8529     27.8231
     0.5000   -999.2500   1197.0000      0.8643     31.2331
     0.7500   -999.2500   1197.0000      0.8961     34.8435
     1.0000      0.0000   1197.0000      0.9296     38.8505
     1.2500      0.0000   1197.0000      0.9598     43.3937
     1.5000      0.0000   1197.0000      0.9876     48.2296
     1.7500      0.0000   1197.0000      0.9941     52.7029
     2.0000      0.0000   1197.0000      0.9465     55.9997
     2.2500      0.0000   1197.0000      0.8489     57.6567
     2.5000      0.0000   1197.0000      0.7619     58.0896
     2.7500      0.0000   1197.0000      0.7344     58.6727
     3.0000      0.0000   1197.0000      0.7552     61.0082
     3.2500      0.0000   1197.0000      0.7962     65.8730
     3.5000      0.0000   1197.0000      0.8466     72.8603
     3.7500      0.0000   1197.0000      0.8896     80.8103
     4.0000      0.0000   1197.0000      0.8988     88.2474
     4.2500      0.0000   1197.0000      0.8777     93.6905
     4.5000      0.0000   1197.0000      0.8578     96.2392
     4.7500      0.0000   1197.0000      0.8555     96.2188
     5.0000      0.0000   1197.0000      0.8603     94.9897
     5.2500      0.0000   1197.0000      0.8547     93.7405
     5.5000      0.0000   1197.0000      0.8340     92.4680
     5.7500      0.0000   1197.0000      0.8123     90.3848
     6.0000      0.0000   1197.0000      0.8095     87.2427
     6.2500      0.0000   1197.0000      0.8238     83.8922
     6.5000     -2.0000   1197.0000      0.8381     81.4298
     6.7500      0.0000   1197.0000      0.8519     80.0717
     7.0000      0.0000   1197.0000      0.8792     79.0191
     7.2500      0.0000   1197.0000      0.9175     77.3647
     7.5000      0.0000   1197.0000      0.9419     75.1065
     7.7500      0.0000   1197.0000      0.9350     73.2386
     8.0000      0.0000   1197.0000      0.9135     72.7953
     8.2500      0.0000   1197.0000      0.9043     73.8871
     8.5000      0.0000   1197.0000      0.9092     75.7115
     8.7500      0.0000   1197.0000      0.9113     77.2947
     9.0000      0.0000   1197.0000      0.9010     78.0236
     9.2500      0.0000   1197.0000      0.8813     77.7134
     9.5000      0.0000   1197.0000      0.8656     76.5762
     9.7500      0.0000   1197.0000      0.8733     75.1411
    10.0000      0.0000   1197.0000      0.9033     73.9474
    10.2500      0.0000   1197.0000      0.9316     73.1521
    10.5000      0.0000   1196.9199      0.9453     72.3921
    10.7500      0.0000   1195.9930      0.9772     71.1084
    11.0000      0.0000   1189.1309      1.2514     69.2504
    11.2500      0.0000   1156.5160      2.6208     67.6130
    11.5000      0.0000   1056.9491      6.8486     67.0192
    11.7500      0.0000    861.5218     15.1960     67.1598
    12.0000      0.0000    614.5325     25.8558     66.9348
    12.2500      0.0000    413.0630     34.8126     66.1207
    12.5000      0.0000    306.5896     40.0500     65.9414
    12.7500      0.0000    269.8546     42.6509     67.5410
    13.0000      0.0000    261.3715     44.3164     70.4208
    13.2500      0.0000    259.8647     45.8158     72.9124
    13.5000      0.0000    259.4760     47.2264     73.9171
    13.7500      0.0000    259.2398     48.4915     73.7644
    14.0000      0.0000    259.0424     49.6303     73.5452
    14.2500      0.0000    258.8680     50.7464     74.0078
    14.5000      0.0000    258.6990     51.9592     75.1058
    14.7500      0.0000    258.5384     53.2453     76.2985
    15.0000      0.0000    258.4077     54.4472     77.0992
    15.2500      0.0000    258.3195     55.4439     77.3362
    15.5000      0.0000    258.2673     56.2358     77.0535
    15.7500      0.0000    258.2295     56.9529     76.4234
    16.0000      0.0000    258.1826     57.7541     75.8393
    16.2500      0.0000    258.1202     58.6729     75.7985
    16.5000      0.0000    258.0517     59.6051     76.5579
    16.7500      0.0000    257.9904     60.4024     78.1108
    17.0000      0.0000    257.9489     61.0082     80.4270
    17.2500      0.0000    257.9308     61.5088     83.2905
    17.5000      0.0000    257.9219     61.9909     85.9558
    17.7500      0.0000    257.9030     62.4196     87.4086
    18.0000      0.0000    257.8752     62.7502     86.9606
    18.2500      0.0000    257.8532     63.0321     84.3632
    18.5000      0.0000    257.8444     63.3224     79.6429
    18.7500      0.0000    257.8496     63.6368     73.2971
    19.0000      0.0000    257.8705     63.9807     66.5115
    19.2500      0.0000    257.9009     64.3377     60.8935
    19.5000      0.0000    257.9253     64.6747     57.9521
    19.7500      0.0000    257.9325     64.9709     58.6135
    20.0000      0.0000    257.9234     65.2312     62.7274
    20.2500      0.0000    257.9038     65.4965     68.9280
    20.5000      0.0000    257.8806     65.7840     75.3539
    20.7500      0.0000    257.8613     66.0462     80.6932
    21.0000      0.0000    257.8533     66.2490     84.4816
    21.2500      0.0000    257.8579     66.4282     86.6900
    21.5000      0.0000    257.8650     66.6439     87.5083
    21.7500      0.0000    257.8612     66.9017     87.4712
    22.0000      0.0000    257.8431     67.1437     87.2542
    22.2500      0.0000    257.8196     67.3275     87.2224
    22.5000      0.0000    257.8104     67.4715     87.4682
    22.7500      0.0000    257.8281     67.6082     88.2072
    23.0000      0.0000    257.8624     67.7560     89.7728
    23.2500      0.0000    257.8921     67.9295     92.1763
    23.5000      0.0000    257.9034     68.1233     94.8277
    23.7500      0.0000    257.8976     68.3081     96.8391
    24.0000      0.0000    257.8925     68.4504     97.7668
    24.2500      0.0000    257.9060     68.5397     98.1518
    24.5000      0.0000    257.9338     68.6294     99.1139
    24.7500      0.0000    257.9572     68.7971    101.2211
    25.0000      0.0000    257.9649     69.0219    103.8080
    25.2500      0.0000    257.9586     69.2077    105.4148
    25.5000      0.0000    257.9469     69.3300    104.7946
    25.7500      0.0000    257.9359     69.4262    101.6566
    26.0000      0.0000    257.9242     69.5084     96.7721
    26.2500      0.0000    257.9084     69.5848     91.5581
    26.5000      0.0000    257.8937     69.6782     87.3723
    26.7500      0.0000    257.8907     69.8025     84.7856
    27.0000      0.0000    257.9029     69.9761     83.3209
    27.2500      0.0000    257.9293     70.2103     82.0904
    27.5000      0.0000    257.9668     70.4726     80.8065
    27.7500      0.0000    258.0012     70.7048     79.9690
    28.0000      0.0000    258.0139     70.8494     80.0798
    28.2500      0.0000    257.9998     70.8832     81.0323
    28.5000      0.0000    257.9673     70.8632     82.2684
    28.7500      0.0000    257.9361     70.8872     83.1297
    29.0000      0.0000    257.9283     70.9939     82.9946
    29.2500      0.0000    257.9459     71.1345     81.6338
    29.5000      0.0000    257.9704     71.2291     79.6836
    29.7500      0.0000    257.9859     71.2446     78.2884
    30.0000      0.0000    257.9866     71.2180     77.8716
    30.2500      0.0000    257.9749     71.2064     77.5435
    30.5000      0.0000    257.9590     71.2408     75.9742
    30.7500      0.0000    257.9477     71.3290     72.7026
    31.0000      0.0000    257.9450     71.4726     68.5387
    31.2500      0.0000    257.9481     71.6462     64.8385
    31.5000      0.0000    257.9533     71.7881     62.4129
    31.7500      0.0000    257.9606     71.8668     61.1194
    32.0000      0.0000    257.9669     71.9159     60.5385
    32.2500      0.0000    257.9637     71.9842     60.9146
    32.5000      0.0000    257.9482     72.1127     63.0597
    32.7500      0.0000    257.9327     72.3081     67.2005
    33.0000      0.0000    257.9316     72.5138     72.0861
    33.2500      0.0000    257.9411     72.6766     75.4922
