~Version Information
VERS.                      2.0: CWLS Log ASCII Standard - VERSION 2.0
WRAP.                       NO: One line per depth step
~Well Information Block
STRT.FT               264.2500: 
STOP.FT              1134.7500: 
STEP.FT                 0.2500: 
NULL.                -999.2500: 
COMP.          Pioneer Natural Resources: COMPANY
WELL.          Black Cat 13-32 Tr: WELL
FLD.           Purgatoire River: FIELD
LOC.           1679' FSL & 1150' FWL--: LOCATION
CNTY.               Las Animas: COUNTY
SRVC.                Patterson: SERVICE COMPANY
DATE.          Tue Mar 07 10:58:06 2006: LOG DATE
UWI.           05 071 08721 00: UNIQUE WELL ID
STAT.                 Colorado: STATE
~Curve Information Block
DEPT.FT            0 000 00 00: Depth
SN.Ohm-m                      : IEL Short Normal
SP.mV                         : IEL Spontaneous Potential
DIR.Ohm-m                     : IEL Induction Resistivity
GR.GAPI                       : Gamma Ray
~Parameter Information Block
~A  Depth        SN          SP         DIR          GR     
# ...
   498.7500    556.2245   -430.7757     19.9473    124.2470
   499.0000    508.3430   -415.9307     19.8317    126.3772
   499.2500    438.7288   -401.8655     19.7477    128.0383
   499.5000    363.4037   -389.4049     19.7035    130.4741
   499.7500    310.0548   -379.3927     19.7283    132.2208
   500.0000    302.7794   -372.6899     19.8693    135.4626
   500.2500    345.5405   -370.1395     20.1792    137.7890
   500.5000    418.1595   -372.4676     20.7025    140.2018
   500.7500    489.2172   -380.1187     21.4644    140.4370
   501.0000    535.2446   -393.0679     22.4679    138.6099
   501.2500    550.4882   -410.6891     23.6974    136.2289
   501.5000    543.4393   -431.7514     25.1238    131.2045
   501.7500    528.3483   -454.5756     26.7040    126.8319
   502.0000    518.5150   -477.3193     28.3796    118.7579
   502.2500    521.7158   -498.3059     30.0808    112.7075
   502.5000    537.3063   -516.2980     31.7438    103.5549
   502.7500    557.3990   -530.6381     33.3305     97.7589
   503.0000    572.7476   -541.2415     34.8348     89.7161
   503.2500    578.7699   -548.4678     36.2727     85.0174
   503.5000    577.1533   -552.9365     37.6642     79.9022
   503.7500    573.1905   -555.3453     39.0099     78.3205
   504.0000    571.3284   -556.3287     40.2665     78.7786
   504.2500    571.3434   -556.3792     41.3372     80.4643
   504.5000    567.9444   -555.8132     42.1020     83.7723
   504.7500    555.2544   -554.7772     42.4796     85.8696
   505.0000    533.6630   -553.2729     42.4788     88.5021
   505.2500    512.7025   -551.2014     42.1980     90.1525
   505.5000    505.1814   -548.4088     41.7781     93.1045
   505.7500    516.4102   -544.7413     41.3479     95.5163
   506.0000    539.8331   -540.0938     40.9905     99.3846
   506.2500    563.7842   -534.4652     40.7363    101.6699
   506.5000    580.7827   -527.9918     40.5758    103.8137
   506.7500    590.0347   -520.9736     40.4869    103.9232
   507.0000    594.0582   -513.8669     40.4690    101.5617
   507.2500    595.1034   -507.2378     40.5661     98.4230
   507.5000    593.5901   -501.6786     40.8524     92.8198
   507.7500    587.5364   -497.6983     41.3827     89.7874
   508.0000    572.8052   -495.6142     42.1437     87.7096
   508.2500    545.6680   -495.4767     43.0505     87.6499
   508.5000    508.0886   -497.0537     43.9896     87.4714
   508.7500    471.5649   -499.8826     44.8704     86.1279
   509.0000    452.9778   -503.3788     45.6465     81.8675
   509.2500    462.6849   -506.9666     46.3097     78.2994
   509.5000    495.6043   -510.1929     46.8744     73.6653
   509.7500    535.2785   -512.7970     47.3572     71.5482
   510.0000    566.7592   -514.7217     47.7579     69.2687
   510.2500    584.9823   -516.0765     48.0633     67.7026
   510.5000    592.9460   -517.0713     48.2815     64.8161
   510.7500    595.6117   -517.9470     48.4697     62.7912
   511.0000    596.3015   -518.9221     48.7095     60.3203
   511.2500    596.4395   -520.1574     49.0422     59.1710
   511.5000    596.4615   -521.7433     49.4249     57.6598
   511.7500    596.4615   -523.6998     49.7561     56.4094
   512.0000    596.4615   -525.9854     49.9544     54.2140
   512.2500    596.4615   -528.5120     50.0235     52.9885
   512.5000    596.4615   -531.1595     50.0499     52.3311
   512.7500    596.4615   -533.7950     50.1369     52.9455
   513.0000    596.4615   -536.2897     50.3305     55.4549
   513.2500    596.4615   -538.5360     50.5846     57.8384
   513.5000    596.4615   -540.4541     50.7833     61.2357
   513.7500    596.4574   -541.9966     50.8064     62.6502
   514.0000    596.4189   -543.1459     50.5953     63.1363
   514.2500    596.1971   -543.9051     50.1756     62.7379
   514.5000    595.2104   -544.2874     49.6276     61.9506
   514.7500    591.7335   -544.3071     49.0365     61.6252
   515.0000    581.9648   -543.9742     48.4575     61.6069
   515.2500    560.2411   -543.2925     47.9080     61.9265
   515.5000    522.3898   -542.2643     47.3818     62.9224
   515.7500    472.0338   -540.8971     46.8738     63.9187
   516.0000    424.2390   -539.2118     46.3915     65.8725
   516.2500    399.3993   -537.2499     45.9468     67.4726
   516.5000    409.1908   -535.0784     45.5416     70.1208
   516.7500    447.6074   -532.7904     45.1680     71.6580
   517.0000    496.5558   -530.5005     44.8217     72.5898
   517.2500    539.3102   -528.3344     44.5119     71.7727
   517.5000    568.4737   -526.4138     44.2503     68.1034
   517.7500    584.7846   -524.8378     44.0404     64.3399
   518.0000    592.3682   -523.6672     43.8844     58.0500
   518.2500    595.2790   -522.9143     43.7943     54.3786
   518.5000    596.1867   -522.5433     43.7848     50.6691
   518.7500    596.4125   -522.4819     43.8446     49.3721
   519.0000    596.4542   -522.6382     43.9232     48.5020
   519.2500    596.4615   -522.9207     43.9603     48.2386
   519.5000    596.4615   -523.2538     43.9406     47.9600
   519.7500    596.4615   -523.5873     43.9169     47.7985
   520.0000    596.4615   -523.8956     43.9727     47.5792
   520.2500    596.4615   -524.1748     44.1556     47.3975
   520.5000    596.4615   -524.4367     44.4383     46.9621
   520.7500    596.4615   -524.7042     44.7305     46.6069
   521.0000    596.4615   -525.0081     44.9243     46.2296
   521.2500    596.4615   -525.3845     44.9347     46.1609
   521.5000    596.4615   -525.8716     44.7157     46.2795
   521.7500    596.4615   -526.5066     44.2602     46.6295
   522.0000    596.4615   -527.3195     43.6006     48.5029
   522.2500    596.4615   -528.3269     42.8044     51.4608
   522.5000    596.4615   -529.5298     41.9504     59.3193
   522.7500    596.4615   -530.9131     41.0921     66.5699
   523.0000    596.4615   -532.4501     40.2337     78.6824
   523.2500    596.4615   -534.1097     39.3436     86.2695
   523.5000    596.4615   -535.8641     38.3935     95.4861
   523.7500    596.4615   -537.6897     37.3865    100.2088
   524.0000    596.4615   -539.5607     36.3525    106.0472
   524.2500    596.4615   -541.4360     35.3219    109.4209
   524.5000    596.4615   -543.2408     34.3115    113.4024
   524.7500    596.4615   -544.8541     33.3306    115.0602
   525.0000    596.4615   -546.1069     32.3908    116.2249
   525.2500    596.4348   -546.7921     31.5021    116.6403
   525.5000    596.2572   -546.6840     30.6600    117.7456
   525.7500    595.3506   -545.5709     29.8421    119.0500
   526.0000    591.7416   -543.2827     29.0217    121.4086
   526.2500    580.5339   -539.7167     28.1892    122.8247
   526.5000    553.4214   -534.8639     27.3613    124.5354
   526.7500    502.3483   -528.8363     26.5725    125.6950
   527.0000    427.8507   -521.8976     25.8567    128.1035
   527.2500    344.9135   -514.4877     25.2355    130.2860
   527.5000    277.8255   -507.2224     24.7181    133.9740
   527.7500    246.2174   -500.8509     24.3073    136.2503
   528.0000    254.6085   -496.1620     24.0014    138.9398
   528.2500    293.0121   -493.8435     23.7935    140.3005
   528.5000    345.0460   -494.3329     23.6703    141.7913
   528.7500    395.4083   -497.7016     23.6157    142.1242
   529.0000    433.1723   -503.6158     23.6154    140.5885
   529.2500    454.5220   -511.3935     23.6597    137.7858
   529.5000    466.1194   -520.1450     23.7416    131.5590
   529.7500    481.3103   -528.9513     23.8555    127.2923
   530.0000    507.7172   -537.0293     23.9946    123.0344
   530.2500    540.1998   -543.8394     24.1484    122.2188
   530.5000    567.8915   -549.1168     24.3010    123.3332
   530.7500    584.7885   -552.8366     24.4337    124.7530
   531.0000    591.6253   -555.1407     24.5329    126.8701
   531.2500    590.3305   -556.2552     24.5949    128.2397
   531.5000    578.5630   -556.4201     24.6246    130.5782
   531.7500    548.3853   -555.8434     24.6279    132.2101
   532.0000    491.0852   -554.6805     24.6070    133.8014
