~Version Information
VERS.                      2.0: CWLS Log ASCII Standard - VERSION 2.0
WRAP.                       NO: One line per depth step
~Well Information Block
STRT.FT                10.0000: 
STOP.FT               715.0000: 
STEP.FT                 0.1000: 
NULL.                -999.2500: 
COMP.          Pioneer Natural Resources: COMPANY
WELL.           Belvedere 14-7: WELL
FLD.           Purgatorie River: FIELD
LOC.           786' FSL & 1283' FWL: LOCATION
PROV.                 Colorado: PROVINCE
CNTY.               Las Animas: COUNTRY
SRVC.                Patterson: SERVICE COMPANY
DATE.          Mon Nov 28 07:30:54 2005: LOG DATE
UWI.           05-071-08557               : UNIQUE WELL ID
~Curve Information Block
DEPT.FT            0 000 00 00: Depth
DCAL.in                       : CDL Caliper
RHOB.g/cc                     : CDL Bulk Density
RHOC.g/cc                     : CDL Density Correction
DPOR.pu                       : CDL Density Porosity
GR.GAPI                       : Gamma Ray
NPOR.pu                       : Neutron Porosity
~Parameter Information Block
~A  Depth       DCAL        RHOB        RHOC        DPOR         GR         NPOR    
    10.0000      2.7444      0.4480      1.6502     -0.0441    156.0719     24.3347
    10.1000      2.7444      0.4362      1.5948     -0.0443    160.3018     24.8437
    10.2000      2.7444      0.4357      1.6198     -0.0443    163.7990     25.0104
    10.3000      2.7444      0.4430      1.6259     -0.0442    160.9246     25.2321
    10.4000      2.7444      0.4488      1.6584     -0.0440    154.7735     25.8118
    10.5000      2.7444      0.4530      1.6161     -0.0440    153.1847     26.1860
    10.6000      2.7444      0.4592      1.6588     -0.0438    157.4732     25.9189
    10.7000      2.7444      0.4596      1.6808     -0.0438    161.8928     25.5601
    10.8000      2.7444      0.4486      1.6226     -0.0441    163.5934     25.8448
    10.9000      2.7444      0.4322      1.6466     -0.0444    166.2104     26.5554
    11.0000      2.7444      0.4180      1.5947     -0.0447    170.3199     26.8354
    11.1000      2.7444      0.4149      1.5843     -0.0447    168.6565     26.4697
    11.2000      2.7444      0.4230      1.6164     -0.0446    158.1008     26.1185
    11.3000      2.7444      0.4275      1.6491     -0.0445    148.3697     26.2624
    11.4000      2.7444      0.4182      1.6095     -0.0447    148.3809     26.5740
    11.5000      2.7444      0.4009      1.6115     -0.0450    154.0971     26.4205
    11.6000      2.7444      0.3906      1.5434     -0.0452    155.8332     25.8669
    11.7000      2.7444      0.3975      1.5864     -0.0451    152.3531     25.5052
    11.8000      2.7444      0.4136      1.5990     -0.0448    150.1300     25.6264
    11.9000      2.7444      0.4188      1.6552     -0.0446    150.0283     26.0142
    12.0000      2.7444      0.4051      1.5782     -0.0449    149.8594     26.2696
    12.1000      2.7444      0.3926      1.5531     -0.0452    151.9124     26.5549
    12.2000      2.7444      0.4064      1.5393     -0.0449    157.1918     27.2237
    12.3000      2.7444      0.4414      1.6667     -0.0442    161.3190     27.9719
    12.4000      2.7444      0.4667      1.6781     -0.0437    160.5167     28.4971
    12.5000      2.7444      0.4648      1.6614     -0.0437    157.8855     28.7949
    12.6000      2.7444      0.4459      1.6190     -0.0441    156.7167     28.9629
    12.7000      2.7444      0.4275      1.5840     -0.0445    157.1124     29.0658
    12.8000      2.7444      0.4145      1.6375     -0.0447    160.5626     29.1529
    12.9000      2.7444      0.4072      1.5437     -0.0449    166.8977     29.1926
    13.0000      2.7444      0.4150      1.5880     -0.0447    172.0803     28.9830
    13.1000      2.7444      0.4373      1.6189     -0.0443    174.5631     28.7508
    13.2000      2.7444      0.4547      1.6641     -0.0439    176.0736     28.6390
    13.3000      2.7444      0.4518      1.6752     -0.0440    178.6300     28.2788
    13.4000      2.7444      0.4381      1.5781     -0.0443    181.4417     27.7054
    13.5000      2.7444      0.4301      1.6322     -0.0444    182.2483     27.3518
    13.6000      2.7444      0.4255      1.6209     -0.0445    181.3648     27.3755
    13.7000      2.7444      0.4218      1.5840     -0.0446    181.2971     27.4279
    13.8000      2.7444      0.4201      1.6423     -0.0446    181.8036     27.0174
    13.9000      2.7444      0.4170      1.6040     -0.0447    180.4250     26.1438
    14.0000      2.7444      0.4184      1.5615     -0.0447    180.2548     25.3815
    14.1000      2.7444      0.4321      1.6199     -0.0444    184.4043     25.2154
    14.2000      2.7444      0.4499      1.6277     -0.0440    186.9797     25.4976
    14.3000      2.7444      0.4615      1.6603     -0.0438    185.9551     25.7910
    14.4000      2.7444      0.4706      1.5998     -0.0436    187.7026     25.7767
    14.5000      2.7444      0.4803      1.6922     -0.0434    192.5612     25.5826
    14.6000      2.7444      0.4803      1.6393     -0.0434    194.7507     25.7576
    14.7000      2.7444      0.4643      1.6499     -0.0437    194.2576     26.2240
    14.8000      2.7444      0.4372      1.6103     -0.0443    194.3310     26.4184
    14.9000      2.7444      0.4075      1.5997     -0.0449    190.1417     26.3278
    15.0000      2.7444      0.3827      1.5632     -0.0454    180.8289     26.2166
    15.1000      2.7444      0.3704      1.5200     -0.0456    175.5147     26.1488
    15.2000      2.7444      0.3741      1.5520     -0.0455    176.6634     26.0914
    15.3000      2.7444      0.3895      1.5605     -0.0452    177.4376     25.8750
    15.4000      2.7444      0.4098      1.5920     -0.0448    177.3324     25.5224
    15.5000      2.7444      0.4302      1.5929     -0.0444    181.3071     25.5179
    15.6000      2.7444      0.4469      1.6414     -0.0441    185.5724     25.7471
    15.7000      2.7444      0.4541      1.6493     -0.0439    184.6436     25.5213
    15.8000      2.7444      0.4527      1.6304     -0.0440    181.1256     24.8878
    15.9000      2.7444      0.4530      1.6204     -0.0440    178.4489     24.5249
    16.0000      2.7444      0.4580      1.6423     -0.0439    177.4720     24.6301
    16.1000      2.7444      0.4557      1.6675     -0.0439    178.2242     24.8224
    16.2000      2.7444      0.4375      1.6182     -0.0443    179.2977     25.0089
    16.3000      2.7444      0.4120      1.5854     -0.0448    180.6799     25.4672
    16.4000      2.7444      0.3915      1.5660     -0.0452    182.6976     25.8994
    16.5000      2.7444      0.3808      1.5334     -0.0454    183.7839     25.7919
    16.6000      2.7444      0.3728      1.5924     -0.0456    183.8760     25.4550
    16.7000      2.7444      0.3585      1.5409     -0.0459    184.4794     25.3520
    16.8000      2.7444      0.3463      1.5072     -0.0461    185.9821     25.4335
    16.9000      2.7444      0.3478      1.5346     -0.0461    185.9556     25.3595
    17.0000      2.7444      0.3618      1.5292     -0.0458    181.9214     24.9441
    17.1000      2.7444      0.3789      1.5993     -0.0454    176.2818     24.3810
    17.2000      2.7444      0.3908      1.5659     -0.0452    174.1558     24.0388
    17.3000      2.7444      0.3975      1.6036     -0.0451    176.7599     24.0930
    17.4000      2.7444      0.4023      1.5701     -0.0450    181.2737     24.3856
    17.5000      2.7444      0.4080      1.6145     -0.0449    183.7919     24.5139
    17.6000      2.7444      0.4130      1.6115     -0.0448    182.5213     24.4779
    17.7000      2.7444      0.4137      1.6351     -0.0448    180.0976     24.4238
    17.8000      2.7444      0.4105      1.6039     -0.0448    179.0193     24.0845
    17.9000      2.7444      0.4082      1.6087     -0.0449    178.2516     23.7936
    18.0000      2.7444      0.4061      1.6056     -0.0449    177.7850     24.0527
    18.1000      2.7444      0.3972      1.6236     -0.0451    177.8108     24.4943
    18.2000      2.7444      0.3834      1.5688     -0.0454    176.1703     24.6178
    18.3000      2.7444      0.3760      1.5730     -0.0455    173.4840     24.3749
    18.4000      2.7444      0.3736      1.5957     -0.0456    171.0876     23.9967
    18.5000      2.7444      0.3647      1.5832     -0.0457    166.3053     23.8339
    18.6000      2.7444      0.3483      1.5579     -0.0461    161.0565     24.2107
    18.7000      2.7444      0.3318      1.5544     -0.0464    160.5113     24.8677
    18.8000      2.7444      0.3223      1.5128     -0.0466    165.1574     25.0826
    18.9000      2.7444      0.3256      1.5331     -0.0465    171.1517     24.7529
    19.0000      2.7444      0.3373      1.5491     -0.0463    173.5023     24.3479
    19.1000      2.7444      0.3441      1.5829     -0.0461    170.9007     24.3213
    19.2000      2.7444      0.3382      1.5190     -0.0463    168.6556     24.6138
    19.3000      2.7444      0.3204      1.5644     -0.0466    169.7810     25.0089
    19.4000      2.7444      0.2985      1.4680     -0.0471    171.6292     25.4734
    19.5000      2.7444      0.2897      1.4868     -0.0472    173.9604     25.7222
