~Version Information
VERS.                      2.0: CWLS Log ASCII Standard - VERSION 2.0
WRAP.                       NO: One line per depth step
~Well Information Block
STRT.FT                -5.2500: 
STOP.FT              1184.2500: 
STEP.FT                 0.2500: 
NULL.                -999.2500: 
COMP.          Pioneer Natural Resources: COMPANY
WELL.          Lucky Lady 42-29: WELL
FLD.           Purgatoire River: FIELD
LOC.           2482' FNL & 662' FEL: LOCATION
CNTY.               Las Animas: COUNTY
SRVC.                         : SERVICE COMPANY
DATE.          Tue Mar 14 14:47:22 2006: LOG DATE
UWI.           05 071 08659 00: UNIQUE WELL ID
STAT.                       CO: STATE
~Curve Information Block
DEPT.FT            0 000 00 00: Depth
GR.GAPI                       : Gamma Ray
CCL.                          : Casing Collar Locator
TT3.usec                      : CBL 3' Travel Time
AMP3.mV                       : CBL 3' Amplitude
~Parameter Information Block
~A  Depth        GR         CCL         TT3         AMP3    
    -5.2500   -999.2500   -999.2500   -999.2500   -999.2500
    -5.0000   -999.2500   -999.2500   -999.2500   -999.2500
    -4.7500   -999.2500   -999.2500   -999.2500   -999.2500
    -4.5000   -999.2500   -999.2500   -999.2500   -999.2500
    -4.2500   -999.2500   -999.2500   -999.2500   -999.2500
    -4.0000   -999.2500   -999.2500   -999.2500   -999.2500
    -3.7500   -999.2500   -999.2500   -999.2500   -999.2500
    -3.5000   -999.2500   -999.2500   -999.2500   -999.2500
    -3.2500   -999.2500   -999.2500   -999.2500   -999.2500
    -3.0000   -999.2500   -999.2500   -999.2500   -999.2500
    -2.7500   -999.2500   -999.2500   -999.2500   -999.2500
    -2.5000   -999.2500   -999.2500   1230.0000      1.2852
    -2.2500   -999.2500   -999.2500   1230.0000      1.2845
    -2.0000   -999.2500   -999.2500   1230.0000      1.2836
    -1.7500   -999.2500   -999.2500   1230.0000      1.2820
    -1.5000   -999.2500   -999.2500   1230.0000      1.2801
    -1.2500   -999.2500   -999.2500   1230.0000      1.2784
    -1.0000   -999.2500   -999.2500   1230.0000      1.2773
    -0.7500   -999.2500   -999.2500   1230.0000      1.2775
    -0.5000   -999.2500   -999.2500   1230.0000      1.2797
    -0.2500   -999.2500   -999.2500   1230.0000      1.2841
     0.0000   -999.2500   -999.2500   1230.0000      1.2888
     0.2500   -999.2500   -999.2500   1230.0000      1.2916
     0.5000   -999.2500   -999.2500   1230.0000      1.2876
     0.7500   -999.2500   -999.2500   1230.0000      1.2805
     1.0000   -999.2500   -999.2500   1230.0000      1.2720
     1.2500   -999.2500   -999.2500   1230.0000      1.2647
     1.5000   -999.2500   -999.2500   1230.0000      1.2615
     1.7500   -999.2500   -999.2500   1229.9757      1.2637
     2.0000   -999.2500   -999.2500   1229.8108      1.2699
     2.2500   -999.2500   -999.2500   1228.9304      1.2814
     2.5000   -999.2500   -999.2500   1225.3145      1.3182
     2.7500   -999.2500   -999.2500   1213.5482      1.4769
     3.0000   -999.2500      0.0000   1182.9968      2.0610
     3.2500   -999.2500      0.0000   1119.1372      3.7684
     3.5000   -999.2500      0.0000   1010.6660      7.6981
     3.7500   -999.2500      0.0000    859.7265     14.8030
     4.0000   -999.2500      0.0000    686.9222     24.9227
     4.2500   -999.2500      0.0000    524.3259     36.4536
     4.5000   -999.2500      0.0000    399.3482     47.4057
     4.7500   -999.2500      0.0000    321.5965     56.7774
     5.0000   -999.2500      0.0000    282.8531     64.6278
     5.2500   -999.2500      0.0000    267.5663     71.1201
     5.5000   -999.2500      0.0000    262.8695     76.0592
     5.7500   -999.2500      0.0000    261.7930     79.2856
     6.0000   -999.2500      0.0000    261.6473     81.0505
     6.2500   -999.2500      0.0000    261.6667     81.8857
     6.5000   -999.2500      0.0000    261.7016     82.2810
     6.7500   -999.2500      0.0000    261.7245     82.5219
     7.0000   -999.2500      0.0000    261.7368     82.6903
     7.2500   -999.2500      0.0000    261.7381     82.7252
     7.5000   -999.2500      0.0000    261.7298     82.4702
     7.7500     59.8514      0.0000    261.7211     81.7038
     8.0000     59.6036      0.0000    261.7351     80.1763
     8.2500     60.2159      0.0000    261.8136     77.6831
     8.5000     62.5530      0.0000    262.0442     74.1674
     8.7500     66.3205      0.0000    262.6681     69.7733
     9.0000     70.0783      0.0000    264.2867     64.7825
     9.2500     72.1984      0.0000    268.3038     59.4704
     9.5000     72.0351      0.0000    277.6618     54.0110
     9.7500     70.4896      0.0000    297.8626     48.5055
    10.0000     69.3845      0.0000    337.0363     43.0741
    10.2500     70.0266      0.0000    402.2246     37.8914
    10.5000     72.2359      0.0000    491.5526     33.1279
    10.7500     74.7002      0.0000    589.4493     28.8845
    11.0000     76.3032      0.0000    673.0334     25.2065
    11.2500     77.1458      0.0000    725.3424     22.1480
    11.5000     78.2068      0.0000    742.0702     19.7845
    11.7500     80.0698      0.0000    728.5145     18.1425
    12.0000     82.3331      0.0000    694.9418     17.1273
    12.2500     84.3127      0.0000    654.1121     16.5446
    12.5000     85.7820      0.0000    617.4192     16.2035
    12.7500     86.7237      0.0000    591.4714     15.9942
    13.0000     86.7255      0.0000    580.5344     15.8823
    13.2500     85.0805      0.0000    590.0766     15.8529
    13.5000     81.6484      0.0000    622.4568     15.8760
    13.7500     77.5753      0.0000    669.8662     15.9184
    14.0000     74.8323      0.0000    716.8361     15.9698
    14.2500     74.5439      0.0000    751.0964     16.0436
    14.5000     75.7472      0.0000    770.1736     16.1532
    14.7500     76.2702      0.0000    778.5701     16.2938
    15.0000     75.0432      0.0000    781.7189     16.4472
    15.2500     73.1143      0.0000    782.9427     16.5928
    15.5000     72.1169      0.0000    783.6008     16.7119
    15.7500     72.1384      0.0000    784.1365     16.7836
    16.0000     71.5994      0.0000    784.6534     16.7871
    16.2500     69.0526      0.0000    785.1021     16.7140
    16.5000     64.5784      0.0000    785.3494     16.5757
    16.7500     59.4353      0.0000    785.2786     16.3954
    17.0000     54.8042      0.0000    784.8312     16.1957
    17.2500     51.0252      0.0000    783.9242     15.9920
    17.5000     47.7958      0.0000    782.3954     15.7951
    17.7500     44.9266      0.0000    780.2838     15.6142
    18.0000     42.8027      0.0000    778.2780     15.4574
    18.2500     42.0538      0.0000    777.5757     15.3286
    18.5000     42.8617      0.0000    778.9557     15.2184
    18.7500     44.7005      0.0000    782.1592     15.0926
    19.0000     46.6951      0.0000    786.3246     14.9002
    19.2500     48.1593      0.0000    790.5731     14.6123
    19.5000     48.8860      0.0000    793.9092     14.2560
    19.7500     49.0652      0.0000    795.2291     13.8990
    20.0000     48.9330      0.0000    794.1391     13.6006
    20.2500     48.4706      0.0000    791.4977     13.3869
    20.5000     47.4944      0.0000    788.6316     13.2581
    20.7500     46.0481      0.0000    786.1251     13.1945
    21.0000     44.5420      0.0000    783.6715     13.1554
    21.2500     43.4797      0.0000    780.9894     13.0947
    21.5000     43.2034      0.0000    778.6232     12.9884
    21.7500     43.8044      0.0000    777.6394     12.8464
    22.0000     44.9299      0.0000    778.5010     12.7037
    22.2500     45.7519      0.0000    780.4911     12.6018
    22.5000     45.5394      0.0000    782.3982     12.5678
    22.7500     44.4175      0.0000    783.5251     12.5954
    23.0000     43.3368      0.0000    783.8966     12.6432
    23.2500     43.1175      0.0000    783.8206     12.6624
    23.5000     43.5620      0.0000    783.5311     12.6346
    23.7500     43.6543      0.0000    783.1464     12.5825
    24.0000     42.6649      0.0000    782.7398     12.5440
    24.2500     40.8994      0.0000    782.3722     12.5353
    24.5000     39.3079      0.0000    782.0910     12.5419
    24.7500     38.6536      0.0000    781.9200     12.5397
    25.0000     39.2070      0.0000    781.8521     12.5191
    25.2500     40.8463      0.0000    781.8459     12.4886
    25.5000     43.0735      0.0000    781.8448     12.4605
    25.7500     45.1176      0.0000    781.8209     12.4409
    26.0000     46.4895      0.0000    781.8062     12.4326
    26.2500     47.5399      0.0000    781.8625     12.4471
    26.5000     49.1154      0.0000    782.0115     12.5055
    26.7500     51.4797      0.0000    782.1990     12.6250
    27.0000     53.8647      0.0000    782.3377     12.8036
    27.2500     55.3418      0.0000    782.3839     13.0203
    27.5000     55.8633      0.0000    782.3688     13.2476
    27.7500     56.1133      0.0000    782.3597     13.4605
    28.0000     56.5795      0.0000    782.3947     13.6403
