~Version Information
VERS.                      2.0: CWLS Log ASCII Standard - VERSION 2.0
WRAP.                       NO: One line per depth step
~Well Information Block
STRT.FT                -9.5000: 
STOP.FT              2305.7500: 
STEP.FT                 0.2500: 
NULL.                -999.2500: 
COMP.          Pioneer Natural Resources: COMPANY
WELL.          Fittipaldi 21-12: WELL
FLD.           Purgatorie River: FIELD
LOC.           207' FNL & 2110' FWL--: LOCATION
CNTY.               Las Animas: COUNTY
SRVC.          Patterson Wireline: SERVICE COMPANY
DATE.          Wed Apr 12 10:38:25 2006: LOG DATE
UWI.           05 071 08492 00: UNIQUE WELL ID
STAT.                       CO: STATE
~Curve Information Block
DEPT.FT            0 000 00 00: Depth
CCL.                          : Casing Collar Locator
TT3.usec                      : CBL 3' Travel Time
AMP3.mV                       : CBL 3' Amplitude
GR.GAPI                       : Gamma Ray
~Parameter Information Block
~A  Depth       CCL         TT3         AMP3         GR     
# ...
   761.0000      0.0000    625.5180      3.7200    115.7821
   761.2500      0.0000    603.8678      3.7196    125.0233
   761.5000      0.0000    581.4137      3.7404    131.2280
   761.7500      0.0000    563.4926      3.7818    135.0805
   762.0000      0.0000    552.0905      3.8288    138.4311
   762.2500      0.0000    545.8043      3.8603    142.2106
   762.5000      0.0000    541.7708      3.8612    145.6302
   762.7500      0.0000    537.8195      3.8313    147.1125
   763.0000      0.0000    533.4874      3.7854    145.6733
   763.2500      0.0000    529.7529      3.7461    141.6175
   763.5000      0.0000    527.8776      3.7302    136.2934
   763.7500      0.0000    528.0656      3.7402    131.3914
   764.0000      0.0000    528.6301      3.7675    128.5365
   764.2500      0.0000    526.3073      3.8035    129.2642
   764.5000      0.0000    518.0170      3.8444    134.5623
   764.7500      0.0000    503.2841      3.8846    143.7156
   765.0000      0.0000    485.2614      3.9107    153.4187
   765.2500      0.0000    469.0056      3.9081    158.6618
   765.5000      0.0000    458.3400      3.8729    155.7395
   765.7500      0.0000    453.9173      3.8167    145.3338
   766.0000      0.0000    453.4799      3.7597    132.5652
   766.2500      0.0000    453.6024      3.7193    123.2159
   766.5000      0.0000    452.0542      3.7036    119.4434
   766.7500      0.0000    449.4028      3.7127    119.2250
   767.0000      0.0000    448.2155      3.7438    119.7263
   767.2500      0.0000    450.2685      3.7929    120.3418
   767.5000      0.0000    454.5338      3.8523    122.1506
   767.7500      0.0000    457.8918      3.9097    125.4213
   768.0000      0.0000    457.5774      3.9505    128.7131
   768.2500      0.0000    453.0703      3.9637    130.2201
   768.5000      0.0000    446.1348      3.9468    129.2160
   768.7500      0.0000    439.3238      3.9090    126.0552
   769.0000      0.0000    434.2786      3.8675    121.2063
   769.2500      0.0000    431.1590      3.8401    114.7695
   769.5000      0.0000    429.3502      3.8383    107.0156
   769.7500      0.0000    428.5544      3.8620     99.1327
   770.0000      0.0000    429.5027      3.8979     93.0969
   770.2500      0.0000    434.2975      3.9208     90.7321
   770.5000      0.0000    446.3032      3.8978     92.9264
   770.7500      0.0000    468.5828      3.8018     99.3698
   771.0000      0.0000    500.5101      3.6354    108.3355
   771.2500      0.0000    534.8958      3.4443    116.6135
   771.5000      0.0000    559.3556      3.2959    120.6182
   771.7500      0.0000    562.6138      3.2363    118.5592
   772.0000      0.0000    541.8856      3.2656    111.7127
   772.2500      0.0000    505.6410      3.3503    103.3497
   772.5000      0.0000    468.8492      3.4500     96.4781
   772.7500      2.0000    444.4448      3.5321     92.5328
   773.0000      0.0000    438.7836      3.5785     91.4300
   773.2500      0.0000    453.4502      3.5846     91.9975
   773.5000      0.0000    487.7680      3.5562     92.5053
   773.7500      0.0000    537.4129      3.5085     91.8939
   774.0000      0.0000    592.6805      3.4601     91.0294
   774.2500      0.0000    641.8948      3.4196     92.3578
   774.5000      0.0000    677.6122      3.3815     97.8145
   774.7500      0.0000    698.8104      3.3441    106.9690
   775.0000      0.0000    708.1558      3.3194    117.3936
   775.2500      0.0000    709.1106      3.3160    126.8190
   775.5000      0.0000    705.2248      3.3255    134.5086
   775.7500      0.0000    700.0040      3.3340    140.6726
   776.0000      0.0000    696.4930      3.3355    145.5311
   776.2500      0.0000    696.9796      3.3341    149.2667
   776.5000      0.0000    702.2745      3.3414    151.9339
   776.7500      0.0000    710.1295      3.3693    153.0229
   777.0000      0.0000    714.3826      3.4205    151.8626
   777.2500      0.0000    706.9507      3.4824    148.7135
   777.5000      0.0000    682.3102      3.5337    144.8691
   777.7500      0.0000    641.1913      3.5567    141.5061
   778.0000      0.0000    590.5141      3.5481    138.6921
   778.2500      0.0000    539.7402      3.5203    135.6353
   778.5000      0.0000    496.5984      3.4924    131.8279
   778.7500      0.0000    464.8997      3.4801    127.9175
   779.0000      0.0000    444.8047      3.4901    125.4424
   779.2500      0.0000    434.2376      3.5207    125.7419
   779.5000      0.0000    430.1973      3.5640    129.1188
   779.7500      0.0000    429.6737      3.6072    134.4910
   780.0000      0.0000    430.3702      3.6370    139.4087
   780.2500      0.0000    431.0544      3.6474    141.2010
   780.5000      0.0000    431.3401      3.6447    138.9772
   780.7500      0.0000    431.2674      3.6399    134.3627
   781.0000      0.0000    431.0938      3.6386    130.0741
   781.2500      0.0000    431.2835      3.6376    128.0322
   781.5000      0.0000    432.4406      3.6329    128.5251
   781.7500      0.0000    435.2055      3.6261    130.4071
   782.0000      0.0000    440.1436      3.6228    132.0378
   782.2500      0.0000    447.7194      3.6220    132.6444
   782.5000      0.0000    458.2523      3.6146    133.0121
   782.7500      0.0000    471.3186      3.5958    134.6494
   783.0000      0.0000    485.0074      3.5789    138.2437
   783.2500      0.0000    497.1803      3.5890    143.0218
   783.5000      0.0000    508.9265      3.6408    147.4573
   783.7500      0.0000    525.4011      3.7216    150.3115
   784.0000      0.0000    550.8494      3.8003    151.0055
   784.2500      0.0000    582.7540      3.8518    149.4775
   784.5000      0.0000    612.1430      3.8737    146.1400
   784.7500      0.0000    630.4484      3.8814    141.8641
   785.0000      0.0000    636.4996      3.8879    137.6277
   785.2500      0.0000    636.3230      3.8910    134.0440
   785.5000      0.0000    635.2587      3.8794    131.2767
   785.7500      0.0000    631.5397      3.8480    129.3472
   786.0000      0.0000    619.6952      3.8034    128.3506
   786.2500      0.0000    598.9115      3.7553    128.3785
   786.5000      0.0000    574.7309      3.7080    129.2145
   786.7500      0.0000    552.9765      3.6620    130.0498
   787.0000      0.0000    535.1067      3.6210    129.7741
   787.2500      0.0000    519.8242      3.5921    127.8698
   787.5000      0.0000    506.8532      3.5801    124.8214
   787.7500      0.0000    497.8954      3.5833    121.2860
   788.0000      0.0000    494.7124      3.5936    117.0579
   788.2500      0.0000    497.1352      3.6003    111.4560
   788.5000      0.0000    502.8763      3.5943    104.5036
   788.7500      0.0000    509.0306      3.5721     96.8860
   789.0000      0.0000    513.9191      3.5357     88.9590
   789.2500      0.0000    518.0097      3.4904     80.7032
   789.5000      0.0000    523.7014      3.4419     72.6173
   789.7500      0.0000    534.2772      3.3953     65.9650
   790.0000      0.0000    552.1177      3.3550     61.9749
   790.2500      0.0000    576.6187      3.3243     60.8530
   790.5000      0.0000    603.2492      3.3050     61.3986
   790.7500      0.0000    624.7403      3.2991     61.7034
   791.0000      0.0000    633.8884      3.3096     60.5834
   791.2500      0.0000    627.3170      3.3367     58.4024
   791.5000      0.0000    609.0205      3.3755     56.4874
   791.7500      0.0000    589.9583      3.4162     55.9911
   792.0000      0.0000    581.1112      3.4473     57.2251
   792.2500      0.0000    585.0779      3.4596     59.6829
   792.5000      0.0000    594.7452      3.4494     62.7027
   792.7500      0.0000    599.3938      3.4205     66.3039
   793.0000      0.0000    591.0621      3.3811     70.9842
   793.2500      0.0000    567.2142      3.3405     76.4246
   793.5000      0.0000    531.2037      3.3096     81.1509
   793.7500      0.0000    491.1243      3.3007     84.1420
   794.0000      0.0000    456.0198      3.3219     86.2250
   794.2500      0.0000    431.2998      3.3725     89.0793
