~Version Information
VERS.                      2.0: CWLS Log ASCII Standard - VERSION 2.0
WRAP.                       NO: One line per depth step
~Well Information Block
STRT.FT                 0.0000: 
STOP.FT              2473.5000: 
STEP.FT                 0.2500: 
NULL.                -999.2500: 
COMP.          Petrogulf Corporation: COMPANY
WELL.          Montoya 18-11V-B: WELL
FLD.           Purgatorie River: FIELD
LOC.           848' FNL & 619' FWL: LOCATION
PROV.                 Colorado: PROVINCE
CNTY.               Las Animas: COUNTRY
SRVC.                Patterson: SERVICE COMPANY
DATE.          Wed Nov 09 10:15:13 2005: LOG DATE
UWI.                          : UNIQUE WELL ID
~Curve Information Block
DEPT.FT            0 000 00 00: Depth
CCL.                          : Casing Collar Locator
TT3.usec                      : CBL 3' Travel Time
AMP3.mV                       : CBL 3' Amplitude
GR.GAPI                       : Gamma Ray
~Parameter Information Block
~A  Depth       CCL         TT3         AMP3         GR     
# ...
  2445.5000      0.0000    864.5784      2.4226     65.2328
  2445.7500      0.0000    844.8164      2.6254     62.5798
  2446.0000      0.0000    800.3261      2.8297     58.9838
  2446.2500      0.0000    766.2442      2.9958     56.0642
  2446.5000      0.0000    755.0575      3.0799     54.9887
  2446.7500      0.0000    755.9956      3.1289     55.8400
  2447.0000      0.0000    765.2186      3.2257     57.5973
  2447.2500      0.0000    788.5015      3.3787     58.6438
  2447.5000      0.0000    816.1627      3.5620     57.8293
  2447.7500      0.0000    824.5712      3.7858     55.4398
  2448.0000      0.0000    805.2026      4.0472     52.9689
  2448.2500      0.0000    772.0851      4.2947     51.8780
  2448.5000      0.0000    743.8488      4.4625     52.6859
  2448.7500      0.0000    730.5954      4.5072     54.9215
  2449.0000      0.0000    733.6154      4.4619     57.5108
  2449.2500      0.0000    747.4835      4.4358     59.3568
  2449.5000      0.0000    760.7202      4.5068     59.9689
  2449.7500      0.0000    764.0474      4.6624     59.7011
  2450.0000      0.0000    760.3576      4.8277     59.4897
  2450.2500      0.0000    758.8895      4.8955     60.4015
  2450.5000      0.0000    763.9651      4.7938     63.0296
  2450.7500      0.0000    772.2493      4.5404     66.9623
  2451.0000      0.0000    774.9901      4.1961     71.1075
  2451.2500      0.0000    767.3527      3.8206     74.7934
  2451.5000      0.0000    756.7355      3.4711     78.1405
  2451.7500      0.0000    754.2433      3.1933     81.2474
  2452.0000      0.0000    760.9001      3.0030     83.6911
  2452.2500      0.0000    769.1410      2.8642     85.1204
  2452.5000      0.0000    773.3803      2.7126     85.6966
  2452.7500      0.0000    773.2504      2.5128     85.6113
  2453.0000      0.0000    771.4338      2.2728     84.7629
  2453.2500      0.0000    773.8786      2.0353     83.1354
  2453.5000      0.0000    785.9075      1.8480     80.9687
  2453.7500      0.0000    801.0975      1.7206     78.5188
  2454.0000      0.0000    804.7528      1.6341     76.2450
  2454.2500      0.0000    792.7371      1.5729     75.1259
  2454.5000      0.0000    771.7683      1.5320     76.0758
  2454.7500      0.0000    750.2927      1.5204     79.0084
  2455.0000      0.0000    739.9648      1.5589     82.9237
  2455.2500      0.0000    748.5616      1.6686     86.7998
  2455.5000      0.0000    771.8374      1.8434     90.0747
  2455.7500      0.0000    798.8701      2.0618     92.4988
  2456.0000      0.0000    817.3774      2.3283     93.8581
  2456.2500      0.0000    818.5704      2.6620     93.8792
  2456.5000      0.0000    803.1301      3.0868     92.3199
  2456.7500      0.0000    779.8924      3.6688     89.0174
  2457.0000      0.0000    759.3336      4.5128     83.6068
  2457.2500      0.0000    745.0076      5.6638     75.1999
  2457.5000      0.0000    728.5946      7.0172     62.9080
  2457.7500      0.0000    697.0263      8.3684     47.2290
  2458.0000      0.0000    654.2684      9.5588     30.7529
  2458.2500      0.0000    632.1275     10.5220     16.8852
  2458.5000      0.0000    655.8474     11.2159      7.6521
  2458.7500      0.0000    711.1652     11.6683      2.8175
  2459.0000      0.0000    767.3784     12.0797      0.8331
  2459.2500      0.0000    806.1296     12.7040      0.1959
  2459.5000      0.0000    821.3065     13.6011      0.0359
  2459.7500      0.0000    817.3993     14.6017      0.0047
  2460.0000      0.0000    809.5519     15.4683      0.0000
  2460.2500      0.0000    810.8504     15.9893   -999.2500
  2460.5000      0.0000    818.1938     16.0151   -999.2500
  2460.7500      0.0000    817.9868     15.5523   -999.2500
  2461.0000      0.0000    803.7958     14.7661   -999.2500
  2461.2500      0.0000    782.4613     13.8112   -999.2500
  2461.5000      0.0000    762.5717     12.7196   -999.2500
  2461.7500      0.0000    744.4348     11.4777   -999.2500
  2462.0000      0.0000    726.0688     10.1590   -999.2500
  2462.2500      0.0000    707.5762      8.8973   -999.2500
  2462.5000      0.0000    678.1670      7.6702   -999.2500
  2462.7500      0.0000    603.6219      6.2134   -999.2500
  2463.0000      0.0000    455.2319      4.3625   -999.2500
  2463.2500      0.0000    265.5119      2.4572   -999.2500
  2463.5000      0.0000    111.8130      1.0789   -999.2500
  2463.7500      0.0000     32.5023      0.4126   -999.2500
  2464.0000      0.0000      6.3400      0.2013   -999.2500
  2464.2500      0.0000      0.8133      0.1578   -999.2500
  2464.5000      0.0000      0.0649      0.1520   -999.2500
  2464.7500      0.0000   -999.2500   -999.2500   -999.2500
  2465.0000      0.0000   -999.2500   -999.2500   -999.2500
  2465.2500      0.0000   -999.2500   -999.2500   -999.2500
  2465.5000      0.0000   -999.2500   -999.2500   -999.2500
  2465.7500      0.0000   -999.2500   -999.2500   -999.2500
  2466.0000      0.0000   -999.2500   -999.2500   -999.2500
  2466.2500      0.0000   -999.2500   -999.2500   -999.2500
  2466.5000      0.0000   -999.2500   -999.2500   -999.2500
  2466.7500      0.0000   -999.2500   -999.2500   -999.2500
  2467.0000      0.0000   -999.2500   -999.2500   -999.2500
  2467.2500      0.0000   -999.2500   -999.2500   -999.2500
  2467.5000      0.0000   -999.2500   -999.2500   -999.2500
  2467.7500      0.0000   -999.2500   -999.2500   -999.2500
  2468.0000      0.0000   -999.2500   -999.2500   -999.2500
  2468.2500      0.0000   -999.2500   -999.2500   -999.2500
  2468.5000      0.0000   -999.2500   -999.2500   -999.2500
  2468.7500      0.0000   -999.2500   -999.2500   -999.2500
  2469.0000      0.0000   -999.2500   -999.2500   -999.2500
  2469.2500      0.0000   -999.2500   -999.2500   -999.2500
  2469.5000      0.0000   -999.2500   -999.2500   -999.2500
  2469.7500      0.0000   -999.2500   -999.2500   -999.2500
  2470.0000      0.0000   -999.2500   -999.2500   -999.2500
  2470.2500      0.0000   -999.2500   -999.2500   -999.2500
  2470.5000      0.0000   -999.2500   -999.2500   -999.2500
  2470.7500      0.0000   -999.2500   -999.2500   -999.2500
  2471.0000      0.0000   -999.2500   -999.2500   -999.2500
  2471.2500   -999.2500   -999.2500   -999.2500   -999.2500
  2471.5000   -999.2500   -999.2500   -999.2500   -999.2500
  2471.7500   -999.2500   -999.2500   -999.2500   -999.2500
  2472.0000   -999.2500   -999.2500   -999.2500   -999.2500
  2472.2500   -999.2500   -999.2500   -999.2500   -999.2500
  2472.5000   -999.2500   -999.2500   -999.2500   -999.2500
  2472.7500   -999.2500   -999.2500   -999.2500   -999.2500
  2473.0000   -999.2500   -999.2500   -999.2500   -999.2500
  2473.2500   -999.2500   -999.2500   -999.2500   -999.2500
  2473.5000   -999.2500   -999.2500   -999.2500   -999.2500
