~Version Information
VERS.                      2.0: CWLS Log ASCII Standard - VERSION 2.0
WRAP.                       NO: One line per depth step
~Well Information Block
STRT.FT                -6.2500: 
STOP.FT              1327.5000: 
STEP.FT                 0.2500: 
NULL.                -999.2500: 
COMP.          Pioneer Natural Resources: COMPANY
WELL.            Avant 14-3 Tr: WELL
FLD.           Purgatorie River: FIELD
LOC.           170' FSL & 1174' FWL--: LOCATION
STAT.                       CO: State
CNTY.               Las Animas: COUNTY
CTRY. USA : Country
SECT. 3 : Section
TOWN. 33S : Township
RANG. 67W : Range
SRVC.          Patterson Wireline: SERVICE COMPANY
DATE.          Tue Aug 23 16:44:25 2005: LOG DATE
API.           05 071 08463 00: UNIQUE WELL ID
~Curve Information Block
DEPT.FT            0 000 00 00: Depth
CCL.                          : Casing Collar Locator
TT3.usec                      : CBL 3' Travel Time
AMP3.mV                       : CBL 3' Amplitude
GR.GAPI                       : Gamma Ray
~Parameter Information Block
~A  Depth       CCL         TT3         AMP3         GR     
# ...
   965.2500      0.0000    761.6633      9.9556    129.4094
   965.5000      0.0000    757.0130      9.9821    128.9536
   965.7500      0.0000    747.6456     10.0519    127.4885
   966.0000      0.0000    738.2737     10.1250    124.9639
   966.2500      0.0000    733.3608     10.1643    122.6400
   966.5000      0.0000    733.6390     10.1636    121.9716
   966.7500      0.0000    734.5922     10.1436    123.4093
   967.0000      0.0000    728.4436     10.1298    125.7264
   967.2500      0.0000    709.6779     10.1353    126.4490
   967.5000      0.0000    680.1988     10.1585    123.8490
   967.7500      0.0000    648.5367     10.1881    118.8391
   968.0000      0.0000    623.3270     10.2112    114.3291
   968.2500      0.0000    607.9117     10.2196    112.7647
   968.5000      0.0000    600.5068     10.2122    114.8131
   968.7500      0.0000    597.4494     10.1941    119.9798
   969.0000      0.0000    595.1412     10.1713    127.2285
   969.2500      0.0000    589.8915     10.1459    134.7759
   969.5000      0.0000    578.1876     10.1153    140.2540
   969.7500      0.0000    559.2378     10.0772    141.8530
   970.0000      0.0000    537.4795     10.0358    139.3933
   970.2500      0.0000    520.9314      9.9982    134.2985
   970.5000      0.0000    515.3432      9.9670    128.8199
   970.7500      0.0000    518.9125      9.9396    125.1848
   971.0000      0.0000    522.0958      9.9150    124.5729
   971.2500      0.0000    513.9954      9.8955    126.3329
   971.5000      0.0000    491.7799      9.8758    128.5952
   971.7500      0.0000    464.2833      9.8352    129.9361
   972.0000      0.0000    445.1693      9.7534    130.4919
   972.2500      0.0000    443.1526      9.6312    131.6936
   972.5000      0.0000    459.2289      9.4833    134.6461
   972.7500      0.0000    490.5913      9.3142    138.3535
   973.0000      0.0000    533.9545      9.1142    140.0338
   973.2500      0.0000    584.9404      8.8889    137.6830
   973.5000      0.0000    636.6192      8.6805    131.9907
   973.7500      0.0000    681.0943      8.5477    125.6237
   974.0000      0.0000    713.4885      8.5216    120.8792
   974.2500      0.0000    734.3472      8.5864    117.8896
   974.5000      0.0000    748.0406      8.6997    114.9707
   974.7500      0.0000    758.0341      8.8222    110.9491
   975.0000      0.0000    762.9880      8.9311    106.9941
   975.2500      0.0000    758.8976      9.0161    105.6409
   975.5000      0.0000    746.3604      9.0738    108.0314
   975.7500      0.0000    733.4319      9.1128    112.6190
   976.0000      0.0000    728.3803      9.1587    116.6018
   976.2500      0.0000    730.8924      9.2432    118.1333
   976.5000      0.0000    732.9885      9.3754    117.1801
   976.7500      0.0000    727.5604      9.5297    115.0106
   977.0000      0.0000    714.1033      9.6680    113.2997
   977.2500      0.0000    696.3218      9.7694    113.2151
   977.5000      0.0000    674.9917      9.8349    114.7138
   977.7500      0.0000    644.5668      9.8736    116.6050
   978.0000      0.0000    599.4611      9.8940    117.4635
   978.2500      0.0000    544.1666      9.9034    116.5593
   978.5000      0.0000    494.3645      9.9113    114.0270
   978.7500      0.0000    465.7512      9.9308    110.4681
   979.0000      0.0000    461.9070      9.9746    106.6159
   979.2500      0.0000    473.3279     10.0462    103.1702
   979.5000      0.0000    488.1425     10.1351    100.4526
   979.7500      0.0000    503.5670     10.2239     98.1132
   980.0000      0.0000    525.1675     10.2983     95.5603
   980.2500      0.0000    554.0336     10.3508     92.7579
   980.5000      0.0000    577.8363     10.3817     90.0131
   980.7500      0.0000    578.2728     10.4017     86.9317
   981.0000      0.0000    547.7080     10.4273     82.5086
   981.2500      0.0000    496.9027     10.4687     76.8475
   981.5000      0.0000    446.0781     10.5232     72.3169
   981.7500      0.0000    409.8115     10.5836     72.2423
   982.0000      0.0000    390.8264     10.6477     78.1204
   982.2500      0.0000    385.0352     10.7120     88.1158
   982.5000      0.0000    389.3168     10.7575     98.4545
   982.7500      0.0000    404.6173     10.7526    106.5049
   983.0000      0.0000    433.0305     10.6782    112.4504
   983.2500      0.0000    471.8053     10.5509    117.9933
   983.5000      0.0000    510.0421     10.4200    123.7882
   983.7500      0.0000    532.8004     10.3374    128.4423
   984.0000      0.0000    530.1790     10.3265    129.9212
   984.2500      0.0000    503.6745     10.3739    127.6581
   984.5000      0.0000    464.9212     10.4482    123.0983
   984.7500      0.0000    428.3786     10.5242    118.2269
   985.0000      0.0000    403.9488     10.5923    113.6563
   985.2500      0.0000    395.1589     10.6503    108.2047
   985.5000      0.0000    402.2676     10.6935    100.2640
   985.7500      0.0000    424.0791     10.7145     89.5062
   986.0000      0.0000    454.9907     10.7115     77.3872
   986.2500      0.0000    482.1769     10.6938     66.2072
   986.5000      0.0000    490.3969     10.6784     57.7196
   986.7500      0.0000    473.1455     10.6779     52.4096
   987.0000      0.0000    439.3436     10.6885     49.7798
   987.2500      0.0000    408.4471     10.6879     49.1860
   987.5000      0.0000    399.2933     10.6464     50.3686
   987.7500      0.0000    421.9684     10.5399     53.2407
   988.0000      0.0000    474.7886     10.3585     57.4622
   988.2500      0.0000    544.8163     10.1082     62.5466
   988.5000      0.0000    613.2646      9.8066     68.1837
   988.7500      0.0000    665.1314      9.4775     74.0472
   989.0000      0.0000    695.8320      9.1510     79.4845
   989.2500      0.0000    709.3572      8.8687     83.7974
   989.5000      0.0000    711.0290      8.6772     86.4623
   989.7500      0.0000    702.0549      8.6029     86.6952
   990.0000      0.0000    680.5706      8.6291     83.4136
   990.2500      0.0000    649.0632      8.7028     76.4504
   990.5000      0.0000    620.7707      8.7671     67.6532
   990.7500      0.0000    614.2507      8.7880     60.2379
   991.0000      0.0000    637.0694      8.7596     56.9983
   991.2500      0.0000    676.2625      8.6958     58.9814
   991.5000      0.0000    708.1382      8.6280     65.2264
   991.7500      0.0000    715.8256      8.6087     73.3485
   992.0000      0.0000    695.6652      8.7014     80.7551
   992.2500      0.0000    652.6364      8.9469     86.1004
   992.5000      0.0000    598.2028      9.3248     90.0655
   992.7500      0.0000    552.0903      9.7494     94.6694
   993.0000      0.0000    536.4744     10.1127    101.5206
   993.2500      0.0000    560.8954     10.3462    110.5177
   993.5000      0.0000    613.2422     10.4499    119.9612
   993.7500      0.0000    668.6169     10.4697    127.5599
   994.0000      0.0000    707.5051     10.4554    131.4191
   994.2500      0.0000    725.3929     10.4379    130.9164
   994.5000      0.0000    728.3426     10.4294    127.3095
   994.7500      0.0000    723.0394     10.4221    123.3104
   995.0000      0.0000    710.8710     10.3732    121.3259
   995.2500      0.0000    689.7244     10.1985    121.5849
   995.5000      0.0000    661.4263      9.8279    122.0970
   995.7500      0.0000    636.5677      9.3042    120.7897
   996.0000      0.0000    629.0703      8.8013    117.6634
   996.2500      0.0000    644.9821      8.4766    114.7981
   996.5000      0.0000    677.8418      8.3161    114.6409
   996.7500      0.0000    714.0927      8.1844    118.2727
   997.0000      0.0000    741.2131      8.0033    124.4360
   997.2500      0.0000    752.3523      7.8086    129.9170
   997.5000      0.0000    747.4622      7.6586    131.7960
   997.7500      2.0000    732.5619      7.5659    129.8823
   998.0000      0.0000    717.0373      7.5150    126.5742
   998.2500      0.0000    708.5348      7.5094    124.3536
   998.5000      0.0000    708.7330      7.5949    123.9497
