~Version Information
VERS.                      2.0: CWLS Log ASCII Standard - VERSION 2.0
WRAP.                       NO: One line per depth step
~Well Information Block
STRT.FT                 0.0000: 
STOP.FT               968.2500: 
STEP.FT                 0.2500: 
NULL.                -999.2500: 
COMP.          Pioneer Natural Resources: COMPANY
WELL.              Atlas 32-18: WELL
FLD.           Purgatorie River: FIELD
LOC.           1892' FNL & 1456' FEL: LOCATION
PROV.                 Colorado: PROVINCE
CNTY.               Las Animas: COUNTRY
SRVC.                Patterson: SERVICE COMPANY
DATE.          Fri Dec 02 11:37:22 2005: LOG DATE
UWI.                          : UNIQUE WELL ID
~Curve Information Block
DEPT.FT            0 000 00 00: Depth
CCL.                          : Casing Collar Locator
TT3.usec                      : CBL 3' Travel Time
AMP3.mV                       : CBL 3' Amplitude
GR.GAPI                       : Gamma Ray
~Parameter Information Block
~A  Depth       CCL         TT3         AMP3         GR     
# ...
   636.5000      0.0000    696.8432     10.1387    114.4906
   636.7500      0.0000    724.6006     10.1112    113.0378
   637.0000      0.0000    732.1815     10.0890    111.9890
   637.2500      0.0000    729.8062     10.0451    111.5093
   637.5000      0.0000    726.4749      9.9730    110.4690
   637.7500      0.0000    723.4228      9.9032    106.9609
   638.0000      0.0000    715.4532      9.8688     99.8171
   638.2500      0.0000    693.2186      9.8744     89.7408
   638.5000      0.0000    653.8885      9.8842     78.8641
   638.7500      0.0000    617.4687      9.8370     69.2161
   639.0000      0.0000    614.2818      9.7174     61.6617
   639.2500      0.0000    643.6979      9.5947     56.1106
   639.5000      0.0000    669.9229      9.5489     52.2299
   639.7500      0.0000    666.5611      9.5883     49.7572
   640.0000      0.0000    643.1234      9.6721     48.4790
   640.2500      0.0000    628.1212      9.7750     48.1268
   640.5000      0.0000    639.4954      9.8813     48.1986
   640.7500      0.0000    670.3125      9.9603     47.9992
   641.0000      0.0000    699.8409     10.0025     47.0757
   641.2500      0.0000    716.1964     10.0316     45.5353
   641.5000      0.0000    722.0161     10.0617     43.8463
   641.7500      0.0000    723.5815     10.0914     42.3631
   642.0000      0.0000    724.0441     10.1360     41.0634
   642.2500      0.0000    724.1603     10.2273     39.8064
   642.5000      0.0000    723.9473     10.3752     38.7440
   642.7500      0.0000    723.1808     10.5315     38.1513
   643.0000      0.0000    720.8859     10.6174     37.8886
   643.2500      0.0000    713.6975     10.6035     37.4761
   643.5000      0.0000    693.8546     10.5289     36.8349
   643.7500      0.0000    650.2061     10.4350     36.5987
   644.0000      0.0000    580.0165     10.3274     37.4455
   644.2500      0.0000    508.0674     10.1999     39.2751
   644.5000      0.0000    480.2578     10.0572     41.1810
   644.7500      0.0000    520.2487      9.9144     42.1628
   645.0000      0.0000    600.5990      9.7748     41.8336
   645.2500      0.0000    671.0562      9.5822     40.5247
   645.5000      0.0000    707.0878      9.1836     38.8412
   645.7500      0.0000    715.3918      8.4063     37.1984
   646.0000      0.0000    708.4292      7.3582     35.6945
   646.2500      0.0000    696.4716      6.5914     34.2217
   646.5000      0.0000    692.7882      6.4971     32.5620
   646.7500      0.0000    703.2664      6.6633     30.4724
   647.0000      0.0000    717.5259      6.5447     28.0094
   647.2500      0.0000    727.2488      6.3187     25.9789
   647.5000      0.0000    738.7575      6.3718     25.9020
   647.7500      0.0000    756.2498      6.6441     29.2984
   648.0000      2.0000    770.4945      6.8820     36.8058
   648.2500      0.0000    771.8054      6.9718     47.6701
   648.5000      0.0000    760.5828      6.9035     59.8563
   648.7500      0.0000    741.1897      6.7806     70.8578
   649.0000      0.0000    718.6516      7.0140     78.8105
   649.2500      0.0000    698.2674      8.0007     83.1647
   649.5000      0.0000    676.1040      9.2910     84.6415
   649.7500      0.0000    647.0364      9.9538     84.7229
   650.0000      0.0000    626.0779      9.8588     84.9050
   650.2500      0.0000    630.9280      9.6270     86.0010
   650.5000      0.0000    652.0220      9.6932     87.8762
   650.7500      0.0000    669.2188      9.9658     89.8531
   651.0000      0.0000    677.9113     10.1473     91.5903
   651.2500      0.0000    684.6003     10.1174     93.6143
   651.5000      0.0000    694.1741      9.9472     96.6988
   651.7500      0.0000    705.6136      9.7263    100.6133
   652.0000      0.0000    714.7219      9.5071    103.8497
   652.2500      0.0000    719.4141      9.3330    104.9102
   652.5000      0.0000    720.9251      9.2286    103.6539
   652.7500      0.0000    721.1959      9.1934    101.1998
   653.0000      0.0000    721.2383      9.2333     98.9365
   653.2500      0.0000    721.2776      9.3409     97.9978
   653.5000      0.0000    721.0925      9.4516     99.0354
   653.7500      0.0000    719.9133      9.5040    101.5376
   654.0000      0.0000    716.5693      9.5222    103.6056
   654.2500      0.0000    711.0297      9.5746    103.3543
   654.5000      0.0000    705.6766      9.6902    100.6866
   654.7500      0.0000    703.4324      9.8730     97.4437
   655.0000      0.0000    705.5012     10.1456     95.9707
   655.2500      0.0000    710.8818     10.5006     97.4577
   655.5000      0.0000    716.5065     10.8774    101.1640
   655.7500      0.0000    719.8287     11.2494    105.2081
   656.0000      0.0000    720.9548     11.6523    108.4914
   656.2500      0.0000    721.1818     12.1009    111.7046
   656.5000      0.0000    721.2681     12.5469    115.9443
   656.7500      0.0000    721.3441     12.9360    120.6444
   657.0000      0.0000    721.4091     13.2544    123.7575
   657.2500      0.0000    721.5579     13.4937    124.0324
   657.5000      0.0000    721.8243     13.6292    122.3624
   657.7500      0.0000    722.0809     13.6571    120.6318
   658.0000      0.0000    722.1771     13.5960    119.7044
   658.2500      0.0000    722.0901     13.4589    118.8374
   658.5000      0.0000    721.9337     13.2698    116.8013
   658.7500      0.0000    721.8350     13.0751    113.1608
   659.0000      0.0000    721.8062     12.8959    108.5027
   659.2500      0.0000    721.6660     12.6898    104.0344
   659.5000      0.0000    720.3052     12.3889    101.2681
   659.7500      0.0000    713.7703     11.9954    101.5043
   660.0000      0.0000    696.2109     11.6095    105.0096
   660.2500      0.0000    670.9113     11.3227    110.7900
   660.5000      0.0000    657.5501     11.1389    117.3014
   660.7500      0.0000    669.6359     11.0263    123.1407
   661.0000      0.0000    692.8163     10.9587    127.1895
   661.2500      0.0000    705.7245     10.8997    128.8306
   661.5000      0.0000    705.6030     10.8132    128.2032
   661.7500      0.0000    703.5563     10.6862    125.7961
   662.0000      0.0000    707.3525     10.5199    121.8577
   662.2500      0.0000    714.3583     10.3278    116.6251
   662.5000      0.0000    719.2271     10.1537    111.0276
   662.7500      0.0000    721.0617     10.0492    106.7740
   663.0000      0.0000    721.4780     10.0031    105.6557
   663.2500      0.0000    721.3250      9.9476    108.7262
   663.5000      0.0000    720.1109      9.8505    115.7815
   663.7500      0.0000    716.8143      9.7450    125.2143
   664.0000      0.0000    711.9295      9.6635    134.2411
   664.2500      0.0000    708.3521      9.5902    139.7297
   664.5000      0.0000    707.5602      9.5077    139.8595
   664.7500      0.0000    707.7593      9.4514    135.5961
   665.0000      0.0000    708.7766      9.4664    130.0756
   665.2500      0.0000    712.2842      9.5517    126.0645
   665.5000      0.0000    716.9814      9.6693    124.3084
   665.7500      0.0000    720.1638      9.7595    124.1511
   666.0000      0.0000    721.4213      9.7641    124.7293
   666.2500      0.0000    721.7792      9.6722    125.3093
   666.5000      0.0000    721.9024      9.5275    125.2602
   666.7500      0.0000    721.9347      9.3899    124.2667
   667.0000      0.0000    721.8765      9.2831    122.5971
   667.2500      0.0000    721.7518      9.1741    121.0636
   667.5000      0.0000    721.6119      9.0351    120.5545
   667.7500      0.0000    721.4927      8.9064    121.5240
   668.0000      0.0000    721.3792      8.8492    123.8626
   668.2500      0.0000    721.2321      8.8676    127.0291
   668.5000      0.0000    720.9040      8.9160    130.1213
   668.7500      0.0000    719.2556      8.9518    132.1083
   669.0000      0.0000    712.3185      8.9617    132.5485
   669.2500      0.0000    694.4799      8.9654    131.9772
   669.5000      0.0000    669.1675      8.9906    131.1804
   669.7500      0.0000    655.0416      9.0224    130.2646
