~Version Information
VERS.                      2.0: CWLS Log ASCII Standard - VERSION 2.0
WRAP.                       NO: One line per depth step
~Well Information Block
STRT.FT               460.0000: 
STOP.FT              1349.5000: 
STEP.FT                 0.2500: 
NULL.                -999.2500: 
COMP.          Pioneer Natural Resources: COMPANY
WELL.              Dicks 32-5R: WELL
FLD.           Purgatorie River: FIELD
LOC.           1485' FNL & 1684' FEL: LOCATION
PROV.                 Colorado: PROVINCE
CNTY.               Las Animas: COUNTRY
SRVC.                Patterson: SERVICE COMPANY
DATE.          Thu Dec 08 23:11:15 2005: LOG DATE
UWI.                          : UNIQUE WELL ID
~Curve Information Block
DEPT.FT            0 000 00 00: Depth
SN.Ohm-m                      : IEL Short Normal
SP.mV                         : IEL Spontaneous Potential
DIR.Ohm-m                     : IEL Induction Resistivity
GR.GAPI                       : Gamma Ray
~Parameter Information Block
~A  Depth        SN          SP         DIR          GR     
# ...
   560.5000   2000.0000   2000.0000     23.1256     96.2349
   560.7500   2000.0000   2000.0000     23.9796    102.2646
   561.0000   2000.0000   2000.0000     24.5533    111.6813
   561.2500   2000.0000   2000.0000     24.7379    116.8830
   561.5000   2000.0000   2000.0000     24.4799    122.1107
   561.7500   2000.0000   2000.0000     23.8338    124.1240
   562.0000   2000.0000   2000.0000     22.9665    125.9677
   562.2500   2000.0000   2000.0000     22.0951    126.8474
   562.5000   2000.0000   2000.0000     21.4044    127.5325
   562.7500   2000.0000   2000.0000     20.9971    127.0183
   563.0000   2000.0000   2000.0000     20.8910    123.7188
   563.2500   2000.0000   2000.0000     21.0400    119.7067
   563.5000   2000.0000   2000.0000     21.3593    112.2001
   563.7500   2000.0000   2000.0000     21.7423    107.5502
   564.0000   2000.0000   2000.0000     22.0766    103.5775
   564.2500   2000.0000   2000.0000     22.2662    104.0009
   564.5000   2000.0000   2000.0000     22.2615    109.8013
   564.7500   2000.0000   2000.0000     22.0813    116.5503
   565.0000   2000.0000   2000.0000     21.8026    128.8534
   565.2500   2000.0000   2000.0000     21.5249    136.8777
   565.5000   2000.0000   2000.0000     21.3360    145.6559
   565.7500   2000.0000   2000.0000     21.3033    147.8191
   566.0000   2000.0000   2000.0000     21.4820    144.3264
   566.2500   2000.0000   2000.0000     21.9165    138.0227
   566.5000   2000.0000   2000.0000     22.6199    125.3871
   566.7500   2000.0000   2000.0000     23.5483    116.9574
   567.0000   2000.0000   2000.0000     24.5985    107.2153
   567.2500   2000.0000   2000.0000     25.6462    103.3531
   567.5000   2000.0000   2000.0000     26.5913    101.1434
   567.7500   2000.0000   2000.0000     27.3647    101.5060
   568.0000   2000.0000   2000.0000     27.8973    103.8824
   568.2500   2000.0000   2000.0000     28.1053    105.9968
   568.5000   2000.0000   2000.0000     27.9274    108.4075
   568.7500   2000.0000   2000.0000     27.3793    108.9237
   569.0000   2000.0000   2000.0000     26.5663    108.6993
   569.2500   2000.0000   2000.0000     25.6339    109.0285
   569.5000   2000.0000   2000.0000     24.6968    112.0349
   569.7500   2000.0000   2000.0000     23.7970    116.0281
   570.0000   2000.0000   2000.0000     22.9165    124.1465
   570.2500   2000.0000   2000.0000     22.0251    129.9973
   570.5000   2000.0000   2000.0000     21.1224    137.7508
   570.7500   2000.0000   2000.0000     20.2435    141.6361
   571.0000   2000.0000   2000.0000     19.4325    145.4731
   571.2500   2000.0000   2000.0000     18.7147    147.1343
   571.5000   2000.0000   2000.0000     18.0892    149.2027
   571.7500   2000.0000   2000.0000     17.5356    150.5738
   572.0000   2000.0000   2000.0000     17.0280    152.3883
   572.2500   2000.0000   2000.0000     16.5420    153.0495
   572.5000   2000.0000   2000.0000     16.0570    152.6698
   572.7500   2000.0000   2000.0000     15.5573    151.5141
   573.0000   2000.0000   2000.0000     15.0374    149.1976
   573.2500   2000.0000   2000.0000     14.5080    147.9890
   573.5000   2000.0000   2000.0000     13.9954    147.7299
   573.7500   2000.0000   2000.0000     13.5328    148.7953
   574.0000   2000.0000   2000.0000     13.1476    151.9365
   574.2500   2000.0000   2000.0000     12.8540    154.7249
   574.5000   2000.0000   2000.0000     12.6507    159.2593
   574.7500   2000.0000   2000.0000     12.5256    161.9182
   575.0000   2000.0000   2000.0000     12.4631    164.1184
   575.2500   2000.0000   2000.0000     12.4537    163.9683
   575.5000   2000.0000   2000.0000     12.4974    161.7881
   575.7500   2000.0000   2000.0000     12.6012    159.9163
   576.0000   2000.0000   2000.0000     12.7728    158.1247
   576.2500   2000.0000   2000.0000     13.0161    158.1314
   576.5000   2000.0000   2000.0000     13.3293    159.8751
   576.7500   2000.0000   2000.0000     13.7041    161.8768
   577.0000   2000.0000   2000.0000     14.1268    165.6956
   577.2500   2000.0000   2000.0000     14.5831    168.5889
   577.5000   2000.0000   2000.0000     15.0693    172.7692
   577.7500   2000.0000   2000.0000     15.6012    174.6439
   578.0000   2000.0000   2000.0000     16.2139    174.2372
   578.2500   2000.0000   2000.0000     16.9534    170.9954
   578.5000   2000.0000   2000.0000     17.8637    161.7242
   578.7500   2000.0000   2000.0000     18.9782    153.5526
   579.0000   2000.0000   2000.0000     20.3163    140.5282
   579.2500   2000.0000   2000.0000     21.8826    132.3566
   579.5000   2000.0000   2000.0000     23.6585    121.8797
   579.7500   2000.0000   2000.0000     25.5762    116.4809
   580.0000   2000.0000   2000.0000     27.4737    111.2521
   580.2500   2000.0000   2000.0000     29.0697    109.5768
   580.5000   2000.0000   2000.0000     30.0227    108.6163
   580.7500   2000.0000   2000.0000     30.0997    108.0626
   581.0000   2000.0000   2000.0000     29.3348    106.2381
   581.2500   2000.0000   2000.0000     28.0032    104.2471
   581.5000   2000.0000   2000.0000     26.4295    100.4913
   581.7500   2000.0000   2000.0000     24.8295     97.7144
   582.0000   2000.0000   2000.0000     23.2969     93.4010
   582.2500   2000.0000   2000.0000     21.8755     90.5996
   582.5000   2000.0000   2000.0000     20.6193     86.9347
   582.7500   2000.0000   2000.0000     19.5921     85.1331
   583.0000   2000.0000   2000.0000     18.8353     83.9991
   583.2500   2000.0000   2000.0000     18.3433     84.7606
   583.5000   2000.0000   2000.0000     18.0626     88.9858
   583.7500   2000.0000   2000.0000     17.9107     94.1061
   584.0000   2000.0000   2000.0000     17.8003    105.1187
   584.2500   2000.0000   2000.0000     17.6612    114.3548
   584.5000   2000.0000   2000.0000     17.4511    130.0136
   584.7500   2000.0000   2000.0000     17.1602    140.5405
   585.0000   2000.0000   2000.0000     16.8148    153.5110
   585.2500   2000.0000   2000.0000     16.4731    158.4562
   585.5000   2000.0000   2000.0000     16.2094    158.6858
   585.7500   2000.0000   2000.0000     16.0924    154.4871
   586.0000   2000.0000   2000.0000     16.1694    144.2927
   586.2500   2000.0000   2000.0000     16.4611    136.8393
   586.5000   2000.0000   2000.0000     16.9615    127.6656
   586.7500   2000.0000   2000.0000     17.6382    124.0951
   587.0000   2000.0000   2000.0000     18.4311    123.2337
   587.2500   2000.0000   2000.0000     19.2506    125.1754
   587.5000   2000.0000   2000.0000     19.9848    130.0384
   587.7500   2000.0000   2000.0000     20.5261    133.4075
   588.0000   2000.0000   2000.0000     20.8156    137.2475
   588.2500   2000.0000   2000.0000     20.8777    138.7868
   588.5000   2000.0000   2000.0000     20.8055    140.1410
   588.7500   2000.0000   2000.0000     20.7039    140.8374
   589.0000   2000.0000   2000.0000     20.6359    141.5440
   589.2500   2000.0000   2000.0000     20.6105    141.3699
   589.5000   2000.0000   2000.0000     20.6060    139.7408
   589.7500   2000.0000   2000.0000     20.5952    138.0135
   590.0000   2000.0000   2000.0000     20.5501    135.3130
   590.2500   2000.0000   2000.0000     20.4388    133.7339
   590.5000   2000.0000   2000.0000     20.2400    131.6162
   590.7500   2000.0000   2000.0000     19.9693    130.1839
   591.0000   2000.0000   2000.0000     19.6850    127.9503
   591.2500   2000.0000   2000.0000     19.4540    126.6635
   591.5000   2000.0000   2000.0000     19.3066    125.8237
   591.7500   2000.0000   2000.0000     19.2185    126.4187
   592.0000   2000.0000   2000.0000     19.1328    129.2803
   592.2500   2000.0000   2000.0000     19.0012    132.2786
   592.5000   2000.0000   2000.0000     18.8099    137.6616
   592.7500   2000.0000   2000.0000     18.5749    141.3608
   593.0000   2000.0000   2000.0000     18.3224    146.3340
   593.2500   2000.0000   2000.0000     18.0783    148.9168
   593.5000   2000.0000   2000.0000     17.8694    151.2413
   593.7500   2000.0000   2000.0000     17.7222    151.6213
