~Version Information
VERS.                      2.0: CWLS Log ASCII Standard - VERSION 2.0
WRAP.                       NO: One line per depth step
~Well Information Block
STRT.FT                -5.5000: 
STOP.FT              2262.7500: 
STEP.FT                 0.2500: 
NULL.                -999.2500: 
COMP.          Pioneer Natural Resources: COMPANY
WELL.             Baa Baa 34-1: WELL
FLD.           Purgatorie River: FIELD
LOC.           617' FSL & 2289' FEL------: LOCATION
STAT.                       CO: State
CNTY.               Las Animas: COUNTY
CTRY. USA : Country
SECT. 1 : Section
TOWN. 33S : Township
RANG. 67W : Range
SRVC.          Patterson Wireline: SERVICE COMPANY
DATE.          Mon Sep 12 14:08:52 2005: LOG DATE
API.           05 071 08502 00: UNIQUE WELL ID
~Curve Information Block
DEPT.FT            0 000 00 00: Depth
LTEN.lb                       : Surface Line Tension
CCL.                          : Casing Collar Locator
TT3.usec                      : CBL 3' Travel Time
AMP3.mV                       : CBL 3' Amplitude
GR.GAPI                       : Gamma Ray
~Parameter Information Block
~A  Depth       LTEN        CCL         TT3         AMP3         GR     
# ...
  1786.5000  -4539.8569      0.0000    650.3685      2.7325     99.8898
  1786.7500  -4534.5283      0.0000    635.8552      2.8131    105.6125
  1787.0000  -4530.5317      0.0000    630.9327      2.8976    112.2738
  1787.2500  -4531.8638      0.0000    638.2811      2.9778    118.7275
  1787.5000  -4534.5283      0.0000    655.8307      3.0485    123.6609
  1787.7500  -4530.5317      0.0000    677.2784      3.1026    125.9636
  1788.0000  -4535.8604      0.0000    694.9412      3.1328    125.4077
  1788.2500  -4535.8604      0.0000    703.8071      3.1387    122.9748
  1788.5000  -4535.8604      0.0000    703.6462      3.1306    120.1018
  1788.7500  -4535.8604      0.0000    697.7269      3.1233    117.4995
  1789.0000  -4533.1958      0.0000    690.2178      3.1260    114.7226
  1789.2500  -4534.5283      0.0000    684.7806      3.1365    110.8621
  1789.5000  -4537.1924      0.0000    683.9480      3.1456    105.8697
  1789.7500  -4539.8569      0.0000    687.9375      3.1446    101.3545
  1790.0000  -4537.1924      0.0000    693.9860      3.1291     99.7838
  1790.2500  -4533.1958      0.0000    698.1357      3.0997    102.5332
  1790.5000  -4533.1958      0.0000    698.1631      3.0606    108.5801
  1790.7500  -4533.1958      0.0000    694.5029      3.0195    115.0008
  1791.0000  -4537.1924      0.0000    688.8819      2.9853    118.9000
  1791.2500  -4533.1958      0.0000    683.0515      2.9653    119.4029
  1791.5000  -4533.1958      0.0000    678.5994      2.9627    118.1075
  1791.7500  -4531.8638      0.0000    676.7628      2.9782    117.4093
  1792.0000  -4538.5244      0.0000    677.8689      3.0179    118.2407
  1792.2500  -4537.1924      0.0000    681.1046      3.0954    119.5860
  1792.5000  -4535.8604      0.0000    684.8020      3.2194    120.1431
  1792.7500  -4534.5283      0.0000    686.9598      3.3791    119.9771
  1793.0000  -4530.5317      0.0000    686.1073      3.5466    120.3206
  1793.2500  -4530.5317      0.0000    682.3159      3.6959    121.9746
  1793.5000  -4530.5317      0.0000    677.3419      3.8165    124.2014
  1793.7500  -4535.8604      0.0000    673.3076      3.9109    125.4802
  1794.0000  -4534.5283      0.0000    670.9948      3.9828    125.4712
  1794.2500  -4531.8638      0.0000    669.6011      4.0286    125.7043
  1794.5000  -4533.1958      0.0000    668.1974      4.0387    127.7434
  1794.7500  -4537.1924      0.0000    667.0808      4.0042    131.0176
  1795.0000  -4534.5283      0.0000    667.5712      3.9223    133.1443
  1795.2500  -4534.5283      0.0000    670.7517      3.7955    132.2954
  1795.5000  -4534.5283      0.0000    676.4753      3.6304    128.7275
  1795.7500  -4535.8604      0.0000    683.3207      3.4426    124.0971
  1796.0000  -4534.5283      0.0000    689.4397      3.2623    119.9720
  1796.2500  -4531.8638      0.0000    693.6237      3.1274    117.2929
  1796.5000  -4530.5317      0.0000    695.7234      3.0637    116.7274
  1796.7500  -4530.5317      0.0000    696.2947      3.0695    118.6970
  1797.0000  -4533.1958      0.0000    696.0499      3.1204    122.7639
  1797.2500  -4539.8569      0.0000    695.5570      3.1882    127.3691
  1797.5000  -4531.8638      0.0000    695.1648      3.2535    130.7289
  1797.7500  -4537.1924      0.0000    695.0356      3.3020    132.1033
  1798.0000  -4535.8604      0.0000    695.2039      3.3178    131.9978
  1798.2500  -4537.1924      0.0000    695.5646      3.2890    131.1248
  1798.5000  -4537.1924      0.0000    695.8030      3.2221    129.5388
  1798.7500  -4534.5283      0.0000    695.3881      3.1451    127.1344
  1799.0000  -4531.8638      0.0000    693.7833      3.0924    124.7983
  1799.2500  -4534.5283      0.0000    690.8575      3.0847    124.4236
  1799.5000  -4535.8604      0.0000    687.2062      3.1215    127.2507
  1799.7500  -4538.5244      0.0000    683.9757      3.1863    132.3101
  1800.0000  -4533.1958      0.0000    682.1166      3.2594    136.8827
  1800.2500  -4531.8638      0.0000    681.6696      3.3258    138.5622
  1800.5000  -4537.1924      0.0000    681.8060      3.3742    136.8073
  1800.7500  -4534.5283      0.0000    681.7003      3.3956    132.8914
  1801.0000  -4538.5244      0.0000    681.4291      3.3878    128.9274
  1801.2500  -4534.5283      0.0000    681.9255      3.3622    126.8891
  1801.5000  -4534.5283      0.0000    684.0042      3.3394    127.7410
  1801.7500  -4533.1958      0.0000    687.4880      3.3338    130.7174
  1802.0000  -4537.1924      0.0000    691.2810      3.3423    133.4656
  1802.2500  -4535.8604      0.0000    694.2100      3.3497    133.5034
  1802.5000  -4529.1997      0.0000    695.7627      3.3430    130.0789
  1802.7500  -4534.5283      0.0000    696.1158      3.3202    124.6588
  1803.0000  -4533.1958      0.0000    695.6513      3.2868    119.5238
  1803.2500  -4538.5244      0.0000    694.4645      3.2467    116.1563
  1803.5000  -4537.1924      0.0000    692.2440      3.1982    115.0845
  1803.7500  -4533.1958      0.0000    688.7615      3.1354    116.4502
  1804.0000  -4530.5317      0.0000    684.7589      3.0533    119.8205
  1804.2500  -4531.8638      0.0000    682.2411      2.9523    123.8757
  1804.5000  -4531.8638      0.0000    683.2951      2.8403    127.1428
  1804.7500  -4534.5283      0.0000    688.1520      2.7256    128.8357
  1805.0000  -4533.1958      0.0000    694.4131      2.6083    128.5270
  1805.2500  -4533.1958      0.0000    698.4144      2.4865    125.6074
  1805.5000  -4530.5317      0.0000    697.9229      2.3766    119.8064
  1805.7500  -4537.1924      0.0000    694.1859      2.3162    111.9053
  1806.0000  -4541.1890      0.0000    691.3734      2.3341    103.3564
  1806.2500  -4533.1958      0.0000    693.3229      2.4221     95.2804
  1806.5000  -4534.5283      0.0000    700.3274      2.5393     88.0333
  1806.7500  -4530.5317      0.0000    709.0938      2.6383     81.6598
  1807.0000  -4537.1924      0.0000    715.5422      2.6906     76.6209
  1807.2500  -4534.5283      0.0000    717.1766      2.7012     73.9433
  1807.5000  -4533.1958      0.0000    713.3178      2.6995     74.5379
  1807.7500  -4538.5244      0.0000    704.5894      2.7033     78.3137
  1808.0000  -4533.1958      0.0000    692.9917      2.6958     83.9449
  1808.2500  -4534.5283      0.0000    681.9146      2.6507     89.5636
  1808.5000  -4537.1924      0.0000    674.9753      2.5806     93.8730
  1808.7500  -4538.5244      0.0000    674.0865      2.5362     96.8109
  1809.0000  -4535.8604      0.0000    678.4614      2.5505     99.2686
  1809.2500  -4538.5244      0.0000    685.4843      2.6084    102.1272
  1809.5000  -4530.5317      0.0000    692.5277      2.6821    105.5021
  1809.7500  -4534.5283      0.0000    698.2191      2.7729    109.0161
  1810.0000  -4534.5283      0.0000    702.5406      2.8998    112.9672
  1810.2500  -4535.8604      0.0000    705.8663      3.0587    118.6242
  1810.5000  -4530.5317      0.0000    707.8591      3.2190    126.4970
  1810.7500  -4535.8604      0.0000    707.6462      3.3568    134.7012
  1811.0000  -4533.1958      0.0000    705.1198      3.4703    140.2009
  1811.2500  -4533.1958      0.0000    701.4835      3.5657    141.6583
  1811.5000  -4534.5283      0.0000    698.2839      3.6441    140.1940
  1811.7500  -4535.8604      0.0000    696.2769      3.7014    137.5844
  1812.0000  -4535.8604      0.0000    695.2856      3.7320    134.7681
  1812.2500  -4537.1924      0.0000    694.7583      3.7302    132.1092
  1812.5000  -4535.8604      0.0000    694.2608      3.6944    129.9682
  1812.7500  -4538.5244      0.0000    693.6138      3.6291    128.4364
  1813.0000  -4534.5283      0.0000    692.7455      3.5451    126.9656
  1813.2500  -4538.5244      0.0000    691.5026      3.4562    124.6329
  1813.5000  -4535.8604      0.0000    689.4984      3.3740    120.9330
  1813.7500  -4538.5244      0.0000    686.1965      3.3001    116.6501
  1814.0000  -4533.1958      0.0000    681.4066      3.2336    113.8193
  1814.2500  -4535.8604      0.0000    675.8704      3.1937    114.1737
