~Version Information
VERS.                      2.0: CWLS Log ASCII Standard - VERSION 2.0
WRAP.                       NO: One line per depth step
~Well Information Block
STRT.FT                 0.0000: 
STOP.FT              1923.5000: 
STEP.FT                 0.2500: 
NULL.                -999.2500: 
COMP.          Petrogulf Corporation: COMPANY
WELL.            Montoya 7-14R: WELL
FLD.           Purgatorie River: FIELD
LOC.           628' FSL & 454' FWL: LOCATION
STAT.                 Colorado: State
CNTY.               Las Animas: COUNTY
CTRY. USA : Country
SECT. 7 : Section
TOWN. 33S : Township
RANG. 67W : Range
SRVC.                Patterson: SERVICE COMPANY
DATE.          Wed Nov 09 12:02:27 2005: LOG DATE
API. 05-071-08554                         : UNIQUE WELL ID
~Curve Information Block
DEPT.FT            0 000 00 00: Depth
CCL.                          : Casing Collar Locator
TT3.usec                      : CBL 3' Travel Time
AMP3.mV                       : CBL 3' Amplitude
GR.GAPI                       : Gamma Ray
~Parameter Information Block
~A  Depth       CCL         TT3         AMP3         GR     
# ...
   737.0000      0.0000    593.8954     10.8219     97.1211
   737.2500      0.0000    565.1602     11.3009     91.2001
   737.5000      0.0000    541.9109     11.9454     86.1071
   737.7500      0.0000    524.2773     12.6235     82.5238
   738.0000      0.0000    492.3645     13.2819     80.1735
   738.2500      0.0000    447.8038     13.8234     78.4798
   738.5000      0.0000    428.1484     13.9979     77.0035
   738.7500      0.0000    456.4729     13.5812     75.3937
   739.0000      0.0000    507.0764     12.6472     73.4088
   739.2500      0.0000    532.4774     11.5705     71.0360
   739.5000      0.0000    510.1281     10.7256     68.4662
   739.7500      0.0000    459.5268     10.1887     65.9630
   740.0000      0.0000    420.6590      9.7612     63.6898
   740.2500      0.0000    421.5686      9.2302     61.6049
   740.5000      0.0000    464.2815      8.5419     59.7181
   740.7500      0.0000    526.7574      7.7629     58.3502
   741.0000      0.0000    579.9591      6.9863     57.7602
   741.2500      0.0000    613.4704      6.2854     57.6230
   741.5000      0.0000    635.1107      5.6877     57.3660
   741.7500      0.0000    648.3213      5.2098     56.9391
   742.0000      0.0000    647.8597      4.8970     56.7437
   742.2500      0.0000    635.2911      4.7820     56.7316
   742.5000      0.0000    621.9020      4.8412     56.0860
   742.7500      0.0000    616.1390      5.0120     54.1522
   743.0000      0.0000    618.6194      5.2352     51.5299
   743.2500      0.0000    626.2769      5.4838     49.9455
   743.5000      0.0000    635.5453      5.7708     51.0020
   743.7500      0.0000    645.1681      6.1141     55.1428
   744.0000      0.0000    656.1392      6.5154     61.6125
   744.2500      0.0000    666.7400      6.9867     69.0142
   744.5000      0.0000    671.5306      7.5256     75.8938
   744.7500      0.0000    667.6974      8.0878     81.1992
   745.0000      0.0000    659.9352      8.6581     84.5198
   745.2500      0.0000    654.4717      9.2550     86.0731
   745.5000      0.0000    651.1862      9.8545     86.4203
   745.7500      0.0000    645.9778     10.4199     85.9767
   746.0000      0.0000    635.0681     10.9614     84.7521
   746.2500      0.0000    618.5359     11.4772     82.7703
   746.5000      0.0000    602.7678     11.8993     80.5870
   746.7500      0.0000    593.7516     12.1668     79.0303
   747.0000      0.0000    591.5200     12.2922     78.5627
   747.2500      0.0000    593.9978     12.3221     79.2492
   747.5000      0.0000    600.1266     12.2795     81.1650
   747.7500      0.0000    607.6730     12.1672     84.4396
   748.0000      0.0000    610.8224     12.0040     89.0450
   748.2500      0.0000    601.5980     11.8425     94.7909
   748.5000      0.0000    580.1409     11.7292    101.2418
   748.7500      0.0000    564.5459     11.6502    107.3830
   749.0000      0.0000    571.7498     11.5598    111.7423
   749.2500      0.0000    592.7780     11.4659    113.2841
   749.5000      0.0000    608.9995     11.4054    112.2429
   749.7500      0.0000    615.6923     11.3473    110.0196
   750.0000      0.0000    617.4338     11.2278    108.3718
   750.2500      0.0000    617.6667     11.0549    108.7956
   750.5000      0.0000    617.3462     10.8886    112.1269
   750.7500      0.0000    617.1505     10.7437    117.9053
   751.0000      0.0000    619.7224     10.5584    124.1213
   751.2500      0.0000    628.8112     10.2469    128.2490
   751.5000      0.0000    643.7413      9.7881    128.7939
   751.7500      0.0000    658.6245      9.2852    125.8267
   752.0000      0.0000    669.9458      8.8882    120.4045
   752.2500      0.0000    678.4649      8.6372    113.9361
   752.5000      0.0000    684.5734      8.4832    108.0153
   752.7500      0.0000    690.1777      8.4049    104.1938
   753.0000      0.0000    700.1987      8.3937    103.2513
   753.2500      0.0000    713.5390      8.4258    104.5486
   753.5000      0.0000    719.9586      8.4780    106.4752
   753.7500      0.0000    712.3203      8.5122    107.8202
   754.0000      0.0000    696.1351      8.5051    108.5877
   754.2500      0.0000    683.9692      8.4941    109.3306
   754.5000      0.0000    684.1613      8.5403    110.1515
   754.7500      0.0000    696.2626      8.6689    110.9716
   755.0000      0.0000    712.3829      8.8733    112.3889
   755.2500      0.0000    722.7830      9.1745    115.3070
   755.5000      0.0000    723.6181      9.6227    119.4888
   755.7500      0.0000    717.8090     10.1798    123.0982
   756.0000      0.0000    709.8018     10.6587    124.0189
   756.2500      0.0000    701.8920     10.8802    121.5182
   756.5000      0.0000    695.4827     10.8322    116.8166
   756.7500      0.0000    691.9584     10.6274    112.3500
   757.0000      0.0000    688.9377     10.3946    110.1893
   757.2500      0.0000    685.5798     10.2022    110.7944
   757.5000      0.0000    689.2081     10.0174    113.2914
   757.7500      0.0000    702.3470      9.7861    116.7274
   758.0000      0.0000    715.4697      9.5233    120.5437
   758.2500      0.0000    722.2792      9.2899    123.9642
   758.5000      0.0000    728.1911      9.1555    125.7270
   758.7500      0.0000    748.9260      9.0613    124.7838
   759.0000      0.0000    805.7624      8.7114    121.0086
   759.2500      0.0000    893.7253      7.9626    115.2473
   759.5000      0.0000    957.8100      7.1277    108.9803
   759.7500      0.0000    946.2445      6.5427    103.8970
   760.0000     -2.0000    876.7678      6.2534    101.3090
   760.2500      0.0000    805.3040      6.2122    101.6143
   760.5000      2.0000    756.1743      6.4139    104.1379
   760.7500      0.0000    721.1302      6.8431    107.3080
   761.0000      0.0000    689.1647      7.4348    109.0176
   761.2500      0.0000    653.4039      8.1480    107.4174
   761.5000      0.0000    620.3404      8.8966    102.0646
   761.7500      0.0000    613.5087      9.3107     94.4994
   762.0000      0.0000    641.2134      9.1247     87.4772
   762.2500      0.0000    681.8046      8.7206     83.3753
   762.5000      0.0000    717.7409      8.6210     82.9356
   762.7500      0.0000    745.6383      8.9320     85.1249
   763.0000      0.0000    758.0408      9.5159     88.1287
   763.2500      0.0000    749.9926     10.1611     90.5697
   763.5000      0.0000    731.7926     10.6179     91.8499
   763.7500      0.0000    717.5872     10.7029     91.7352
   764.0000      0.0000    709.0818     10.3684     90.3185
   764.2500      0.0000    700.1423      9.7693     88.5931
   764.5000      0.0000    690.6069      9.2369     88.3860
   764.7500      0.0000    686.8578      9.0205     91.1608
   765.0000      0.0000    691.5491      9.1288     97.0697
   765.2500      0.0000    699.4775      9.4566    105.2480
   765.5000      0.0000    705.5712      9.8765    114.4364
   765.7500      0.0000    710.0684     10.2135    123.0600
   766.0000      0.0000    711.8077     10.3062    129.3864
   766.2500      0.0000    703.5459     10.1156    132.3736
   766.5000      0.0000    679.2375      9.7261    132.3912
   766.7500      0.0000    646.2149      9.2848    130.9061
   767.0000      0.0000    622.6871      8.9547    129.6683
   767.2500      0.0000    617.7799      8.8452    130.2834
   767.5000      0.0000    623.7020      8.9227    133.8231
   767.7500      0.0000    629.9583      9.0409    139.9751
   768.0000      0.0000    634.4068      9.0959    146.5889
   768.2500      0.0000    639.3369      9.0893    150.8347
   768.5000      0.0000    644.2101      9.0571    151.3978
   768.7500      0.0000    646.2810      9.0395    149.4994
   769.0000      0.0000    647.9948      9.1110    147.5079
   769.2500      0.0000    654.1372      9.3313    146.7965
   769.5000      0.0000    662.5488      9.6426    147.3867
   769.7500      0.0000    668.0277      9.9309    149.1816
   770.0000      0.0000    669.7611     10.1638    152.4551
   770.2500      0.0000    669.8248     10.3597    157.0399
