~Version Information
VERS.                      2.0: CWLS Log ASCII Standard - VERSION 2.0
WRAP.                       NO: One line per depth step
~Well Information Block
STRT.FT               260.0000: 
STOP.FT              1229.5000: 
STEP.FT                 0.1000: 
NULL.                -999.2500: 
COMP.          Pioneer Natural Resources: COMPANY
WELL.             Mahalo 12-20: WELL
FLD.           Purgatoire River: FIELD
LOC.           1689' FNL & 479' FWL: LOCATION
CNTY.               Las Animas: COUNTY
SRVC.                Patterson: SERVICE COMPANY
DATE.          Mon Feb 27 07:00:19 2006: LOG DATE
UWI.           05 071 08700 00: UNIQUE WELL ID
STAT.                 Colorado: STATE
~Curve Information Block
DEPT.FT            0 000 00 00: Depth
DCAL.in                       : CDL Caliper
RHOB.g/cc                     : CDL Bulk Density
RHOC.g/cc                     : CDL Density Correction
DPOR.pu                       : CDL Density Porosity
GR.GAPI                       : Gamma Ray
NPOR.pu                       : Neutron Porosity
~Parameter Information Block
~A  Depth       DCAL        RHOB        RHOC        DPOR         GR         NPOR    
   260.0000      2.6244      2.5614      0.3836      5.3713    110.5423     25.6695
   260.1000      2.6244      2.9131      0.5316    -15.9481    115.4008     24.6375
   260.2000      2.6244      3.1660      0.7343    -31.2710    120.3435     23.7787
   260.3000      2.5527      3.2683      0.9114    -37.4716    121.2188     23.7265
   260.4000      2.5527      3.1560      0.8575    -30.6673    118.6534     24.2227
   260.5000      2.5305      2.8539      0.4407    -12.3556    118.5217     24.8134
   260.6000      2.5305      2.4840      0.0227     10.0609    123.1220     25.2443
   260.7000      2.5305      2.1469     -0.1915     30.4885    125.1485     25.3917
   260.8000      2.5326      1.8719     -0.3644     47.1589    121.2292     25.4754
   260.9000      2.5326      1.6905     -0.6409     58.1525    120.5610     25.6188
   261.0000      2.5423      1.6379     -0.5022     61.3421    125.2064     25.8275
   261.1000      2.5423      1.6810     -0.3833     58.7283    128.1664     26.0091
   261.2000      2.5423      1.7686     -0.3409     53.4179    128.2336     25.9751
   261.3000      3.1340      1.9148     -0.1962     44.5593    127.2714     25.7765
   261.4000      3.1340      2.1694     -0.1384     29.1278    122.0096     25.4669
   261.5000      7.4408      2.4952      0.1582      9.3825    109.8532     25.3704
   261.6000      7.4408      2.7554      0.2418     -6.3868     99.7837     26.0073
   261.7000      7.4408      2.8814      0.2924    -14.0267    100.6552     26.8217
   261.8000      8.0201      2.9025      0.2898    -15.3038    108.6252     26.7439
   261.9000      8.0201      2.8329      0.3037    -11.0869    115.3583     25.9404
   262.0000      8.0201      2.6617      0.1737     -0.7096    120.1549     25.3476
   262.1000      8.0201      2.4400     -0.3393     12.7302    126.9725     25.3259
   262.2000      8.0201      2.2662     -0.3981     23.2587    134.2106     25.5350
   262.3000      8.0199      2.1832     -0.5318     28.2923    135.8472     25.6751
   262.4000      8.0199      2.1660     -0.4306     29.3341    128.0860     25.6064
   262.5000      8.0219      2.1684     -0.4076     29.1865    116.8656     25.0545
   262.6000      8.0219      2.1738     -0.4937     28.8613    113.5417     24.2785
   262.7000      8.0219      2.1836     -0.3876     28.2692    120.0524     23.9709
   262.8000      8.0229      2.1777     -0.3915     28.6266    128.6408     24.1241
   262.9000      8.0229      2.1505     -0.4450     30.2721    130.4581     24.2892
   263.0000      8.0226      2.1249     -0.4624     31.8256    126.2198     24.5652
   263.1000      8.0226      2.1164     -0.4988     32.3367    125.3640     25.3493
   263.2000      8.0226      2.1232     -0.4484     31.9257    126.4260     26.1184
   263.3000      8.0205      2.1311     -0.4229     31.4487    119.1782     26.1054
   263.4000      8.0205      2.1316     -0.4796     31.4189    108.3707     25.5356
   263.5000      8.0208      2.1271     -0.4396     31.6885    109.5994     25.0387
   263.6000      8.0208      2.1275     -0.4878     31.6668    120.0566     24.7855
   263.7000      8.0208      2.1417     -0.4451     30.8040    122.5955     25.0046
   263.8000      8.0164      2.1592     -0.4428     29.7464    116.3517     25.9773
   263.9000      8.0164      2.1633     -0.4334     29.4960    112.8133     27.1285
   264.0000      8.0217      2.1551     -0.4502     29.9945    114.3009     27.7472
   264.1000      8.0217      2.1502     -0.4832     30.2930    116.2892     27.8426
   264.2000      8.0217      2.1531     -0.4328     30.1127    118.0816     27.5733
   264.3000      8.0221      2.1583     -0.4675     29.8022    122.4953     27.0294
   264.4000      8.0221      2.1735     -0.4469     28.8770    127.2829     26.3596
   264.5000      8.0226      2.2024     -0.4553     27.1267    127.2192     25.8985
   264.6000      8.0226      2.2284     -0.4084     25.5517    121.9576     25.9480
   264.7000      8.0226      2.2451     -0.4288     24.5393    116.7254     26.2522
   264.8000      8.0281      2.2617     -0.3894     23.5339    117.3244     26.3817
   264.9000      8.0281      2.2850     -0.4375     22.1236    123.1933     26.2615
   265.0000      8.0229      2.3228     -0.4138     19.8302    129.0695     26.0748
   265.1000      8.0229      2.3711     -0.3919     16.9052    127.6646     26.0236
   265.2000      8.0229      2.4126     -0.3716     14.3849    114.7393     26.0844
   265.3000      8.0217      2.4426     -0.3949     12.5674    107.6977     25.8591
   265.4000      8.0217      2.4592     -0.3649     11.5657    107.6799     25.1992
   265.5000      8.0212      2.4451     -0.3519     12.4189    110.6039     24.5081
   265.6000      8.0212      2.4003     -0.4448     15.1322    110.5329     24.1782
   265.7000      8.0212      2.3492     -0.4179     18.2279    106.1236     23.9937
   265.8000      8.0210      2.3019     -0.4314     21.0988     98.6874     23.8005
   265.9000      8.0210      2.2616     -0.4572     23.5395     90.2972     23.9486
   266.0000      8.0217      2.2402     -0.4323     24.8379     86.2425     24.4130
   266.1000      8.0217      2.2388     -0.4542     24.9231     87.9768     24.6589
   266.2000      8.0217      2.2388     -0.4516     24.9202     80.8714     24.5151
   266.3000      8.0226      2.2272     -0.4683     25.6225     79.1410     23.9913
   266.4000      8.0226      2.2200     -0.4372     26.0630     77.0861     23.0221
   266.5000      8.0214      2.2333     -0.4609     25.2539     80.3051     22.0239
   266.6000      8.0214      2.2523     -0.3722     24.1054     87.7869     21.6889
   266.7000      8.0214      2.2529     -0.4062     24.0686     94.1558     21.7912
   266.8000      8.0214      2.2418     -0.4162     24.7383     94.9660     21.4797
   266.9000      8.0214      2.2418     -0.4717     24.7406     91.3199     21.0307
   267.0000      8.0245      2.2571     -0.4409     23.8115     86.3958     21.4453
   267.1000      8.0245      2.2701     -0.4314     23.0223     82.7130     22.6952
   267.2000      8.0245      2.2662     -0.4153     23.2613     72.3363     23.9435
   267.3000      8.0208      2.2499     -0.4253     24.2495     73.2882     24.7342
   267.4000      8.0208      2.2401     -0.5108     24.8425     74.0839     24.7997
   267.5000      8.0199      2.2498     -0.4449     24.2555     71.5526     24.0532
   267.6000      8.0199      2.2691     -0.3921     23.0839     63.7402     23.0955
   267.7000      8.0199      2.2832     -0.3913     22.2282     53.7158     22.4803
   267.8000      8.0217      2.2845     -0.3969     22.1499     49.7496     22.1418
   267.9000      8.0217      2.2704     -0.4183     23.0047     54.6202     22.2785
   268.0000      8.0203      2.2483     -0.4644     24.3461     60.3972     22.9319
   268.1000      8.0203      2.2204     -0.4118     26.0347     61.7488     23.4558
   268.2000      8.0203      2.1846     -0.4551     28.2040     54.7795     23.4641
   268.3000      8.0151      2.1595     -0.4840     29.7269     57.9091     23.1392
   268.4000      8.0151      2.1612     -0.4886     29.6261     61.0564     22.9173
   268.5000      8.0148      2.1682     -0.3992     29.1982     62.4551     23.0431
   268.6000      8.0148      2.1607     -0.4691     29.6529     61.4276     23.3843
   268.7000      8.0148      2.1630     -0.4851     29.5140     59.5665     23.7121
   268.8000      8.0200      2.1910     -0.4025     27.8158     61.0777     23.4319
   268.9000      8.0200      2.2173     -0.3883     26.2263     67.6960     22.1718
   269.0000      8.0201      2.2188     -0.3920     26.1350     76.2298     21.1661
   269.1000      8.0201      2.1997     -0.4393     27.2932     82.7910     21.7532
   269.2000      8.0201      2.1795     -0.4633     28.5142     85.0660     23.5454
   269.3000      8.0206      2.1727     -0.4481     28.9263     86.0953     24.9122
   269.4000      8.0206      2.1701     -0.4058     29.0820     87.9536     24.7040
   269.5000      8.0204      2.1669     -0.4900     29.2776     88.0343     23.8571
