~Version Information
VERS.                      2.0: CWLS Log ASCII Standard - VERSION 2.0
WRAP.                       NO: One line per depth step
~Well Information Block
STRT.FT                -7.5000: 
STOP.FT              2228.7500: 
STEP.FT                 0.2500: 
NULL.                -999.2500: 
COMP.          Pioneer Natural Resources: COMPANY
WELL.          McDonald 33-31 R: WELL
FLD.           Purgatorie River: FIELD
LOC.           1386' FSL & 1926' FEL: LOCATION
STAT.                       CO: State
CNTY.               Las Animas: COUNTY
CTRY.                      USA: Country
SECT.                       31: Section
TOWN.                      32S: Township
RANG.                      66W: Range
SRVC.          Patterson Wireline: SERVICE COMPANY
DATE.          Wed Sep 28 13:29:18 2005: LOG DATE
API.           05 071 08533 00: API#
~Curve Information Block
DEPT.FT            0 000 00 00: Depth
CCL.                          : Casing Collar Locator
TT3.usec                      : CBL 3' Travel Time
AMP3.mV                       : CBL 3' Amplitude
GR.GAPI                       : Gamma Ray
~Parameter Information Block
~A  Depth       CCL         TT3         AMP3         GR     
# ...
  2203.5000      0.0000    685.9893      3.0973     90.6651
  2203.7500      0.0000    687.1322      3.2238     89.2884
  2204.0000      0.0000    688.3058      3.3609     87.4673
  2204.2500      0.0000    690.3838      3.4927     86.4577
  2204.5000      0.0000    694.1813      3.6038     87.5495
  2204.7500      0.0000    699.2891      3.6838     91.0199
  2205.0000      0.0000    704.2908      3.7257     95.8476
  2205.2500      0.0000    707.9675      3.7216    100.5990
  2205.5000      0.0000    710.0282      3.6639    104.3863
  2205.7500      0.0000    710.8711      3.5519    106.9585
  2206.0000      0.0000    711.0369      3.3984    108.3121
  2206.2500      0.0000    710.9378      3.2292    108.5346
  2206.5000      0.0000    710.8393      3.0716    107.8641
  2206.7500      0.0000    710.8941      2.9421    106.6037
  2207.0000      0.0000    711.1490      2.8449    104.9006
  2207.2500      0.0000    711.5614      2.7786    102.7251
  2207.5000      0.0000    712.0418      2.7420    100.2974
  2207.7500      0.0000    712.4970      2.7336     98.4754
  2208.0000      0.0000    712.8449      2.7498     98.3219
  2208.2500      0.0000    713.0221      2.7846    100.2075
  2208.5000      0.0000    713.0305      2.8298    103.5188
  2208.7500      0.0000    713.0075      2.8759    107.0951
  2209.0000      0.0000    713.2595      2.9156    109.8755
  2209.2500      0.0000    714.1434      2.9479    111.3797
  2209.5000      0.0000    715.7266      2.9783    111.6550
  2209.7500      0.0000    717.4662      3.0124    110.7651
  2210.0000      0.0000    718.4184      3.0497    108.5896
  2210.2500      0.0000    718.0052      3.0844    105.2467
  2210.5000      0.0000    716.5103      3.1108    101.4831
  2210.7500      0.0000    714.6824      3.1274     98.4981
  2211.0000      0.0000    712.9425      3.1336     97.2327
  2211.2500      0.0000    710.9758      3.1280     97.4845
  2211.5000      0.0000    707.8974      3.1113     97.8016
  2211.7500      0.0000    702.9186      3.0891     96.7323
  2212.0000      0.0000    696.1458      3.0694     94.3308
  2212.2500      0.0000    688.6502      3.0561     92.1682
  2212.5000      0.0000    680.9346      3.0453     91.7327
  2212.7500      0.0000    671.0959      3.0298     92.8749
  2213.0000      0.0000    655.5264      3.0067     93.8547
  2213.2500      0.0000    632.4730      2.9844     93.0206
  2213.5000      0.0000    604.8874      2.9805     90.3573
  2213.7500      0.0000    579.9163      3.0086     87.0955
  2214.0000      0.0000    566.1671      3.0648     83.7283
  2214.2500      0.0000    569.6460      3.1267     78.6869
  2214.5000      0.0000    589.3000      3.1677     69.3456
  2214.7500      0.0000    616.7699      3.1729     54.7164
  2215.0000      0.0000    642.6422      3.1448     37.1755
  2215.2500      0.0000    662.6957      3.0984     21.1270
  2215.5000      0.0000    677.4777      3.0554      9.8392
  2215.7500      0.0000    688.0345      3.0379      3.7013
  2216.0000      0.0000    694.1270      3.0634      1.1129
  2216.2500      0.0000    695.4687      3.1395      0.2654
  2216.5000      0.0000    692.7338      3.2609      0.0493
  2216.7500      0.0000    687.4659      3.4096      0.0067
  2217.0000      0.0000    681.6450      3.5611      0.0000
  2217.2500      0.0000    677.0738      3.6956   -999.2500
  2217.5000      0.0000    674.5863      3.8062   -999.2500
  2217.7500      0.0000    673.7460      3.8960   -999.2500
  2218.0000      0.0000    673.4296      3.9662   -999.2500
  2218.2500      0.0000    672.6970      4.0075   -999.2500
  2218.5000      0.0000    671.0115      4.0017   -999.2500
  2218.7500      0.0000    667.4197      3.9332   -999.2500
  2219.0000      0.0000    658.8578      3.8014   -999.2500
  2219.2500      0.0000    638.7009      3.6223   -999.2500
  2219.5000      0.0000    597.4406      3.4109   -999.2500
  2219.7500      0.0000    526.9474      3.1590   -999.2500
  2220.0000      0.0000    426.9718      2.8402   -999.2500
  2220.2500      0.0000    309.3579      2.4489   -999.2500
  2220.5000      0.0000    195.1867      2.0334   -999.2500
  2220.7500      0.0000    104.6441      1.6752   -999.2500
  2221.0000      0.0000     46.6685      1.4309   -999.2500
  2221.2500      0.0000     17.0160      1.3004   -999.2500
  2221.5000      0.0000      5.0035      1.2461   -999.2500
  2221.7500      0.0000      1.1721      1.2284   -999.2500
  2222.0000      0.0000      0.2139      1.2240   -999.2500
  2222.2500      0.0000      0.0284      1.2231   -999.2500
  2222.5000      0.0000   -999.2500   -999.2500   -999.2500
  2222.7500      0.0000   -999.2500   -999.2500   -999.2500
  2223.0000      0.0000   -999.2500   -999.2500   -999.2500
  2223.2500      0.0000   -999.2500   -999.2500   -999.2500
  2223.5000      0.0000   -999.2500   -999.2500   -999.2500
  2223.7500      0.0000   -999.2500   -999.2500   -999.2500
  2224.0000      0.0000   -999.2500   -999.2500   -999.2500
  2224.2500      0.0000   -999.2500   -999.2500   -999.2500
  2224.5000      0.0000   -999.2500   -999.2500   -999.2500
  2224.7500      0.0000   -999.2500   -999.2500   -999.2500
  2225.0000      0.0000   -999.2500   -999.2500   -999.2500
  2225.2500      0.0000   -999.2500   -999.2500   -999.2500
  2225.5000      0.0000   -999.2500   -999.2500   -999.2500
  2225.7500      0.0000   -999.2500   -999.2500   -999.2500
  2226.0000      0.0000   -999.2500   -999.2500   -999.2500
  2226.2500      0.0000   -999.2500   -999.2500   -999.2500
  2226.5000      0.0000   -999.2500   -999.2500   -999.2500
  2226.7500      0.0000   -999.2500   -999.2500   -999.2500
  2227.0000      0.0000   -999.2500   -999.2500   -999.2500
  2227.2500      0.0000   -999.2500   -999.2500   -999.2500
  2227.5000      0.0000   -999.2500   -999.2500   -999.2500
  2227.7500      0.0000   -999.2500   -999.2500   -999.2500
  2228.0000   -999.2500   -999.2500   -999.2500   -999.2500
  2228.2500   -999.2500   -999.2500   -999.2500   -999.2500
  2228.5000   -999.2500   -999.2500   -999.2500   -999.2500
  2228.7500   -999.2500   -999.2500   -999.2500   -999.2500
