~Version Information
VERS.                      2.0: CWLS Log ASCII Standard - VERSION 2.0
WRAP.                       NO: One line per depth step
~Well Information Block
STRT.FT               800.0000: 
STOP.FT              3500.0000: 
STEP.FT                 0.1000: 
NULL.                -999.2500: 
COMP.          Pioneer Natural Resources: COMPANY
WELL.          Cordillera 34-7: WELL
FLD.           Purgatoire River: FIELD
LOC.           598' FSL & 1770' FEL--: LOCATION
PROV.                 Colorado: PROVINCE
CNTY.               Las Animas: COUNTRY
SRVC.                Patterson: SERVICE COMPANY
DATE.          Fri Oct 28 07:22:44 2005: LOG DATE
UWI.           05 071 08552 00: UNIQUE WELL ID
~Curve Information Block
DEPT.FT            0 000 00 00: Depth
DCAL.in                       : CDL Caliper
RHOB.g/cc                     : CDL Bulk Density
RHOC.g/cc                     : CDL Density Correction
DPOR.pu                       : CDL Density Porosity
NPOR.pu                       : Neutron Porosity
GR.GAPI                       : Gamma Ray
~Parameter Information Block
~A  Depth       DCAL        RHOB        RHOC        DPOR        NPOR         GR     
# ...
  2758.4000      7.9734      2.6320      0.1104      1.0899     25.2709    148.8347
  2758.5000      7.9737      2.6237      0.0456      1.5928     24.7165    147.9585
  2758.6000      7.9737      2.5980      0.0618      3.1528     24.6581    150.0979
  2758.7000      7.9737      2.5755      0.0017      4.5158     25.3263    157.9316
  2758.8000      7.9730      2.5719      0.0252      4.7333     26.1802    168.6116
  2758.9000      7.9730      2.5724      0.0620      4.7053     26.6990    172.5335
  2759.0000      7.9729      2.5583      0.0589      5.5548     26.5831    167.0790
  2759.1000      7.9729      2.5386      0.0238      6.7527     26.1212    156.0544
  2759.2000      7.9729      2.5264      0.0496      7.4933     25.9256    147.2905
  2759.3000      7.9730      2.5295     -0.0013      7.3040     25.8325    145.8279
  2759.4000      7.9730      2.5524      0.0368      5.9143     25.5708    147.4983
  2759.5000      7.9740      2.5728      0.0851      4.6817     25.2164    145.9246
  2759.6000      7.9740      2.5702      0.0311      4.8352     24.7189    139.9093
  2759.7000      7.9740      2.5719      0.0261      4.7362     24.0856    133.7141
  2759.8000      7.9789      2.6025      0.0666      2.8806     23.7292    128.8516
  2759.9000      7.9789      2.6364      0.1092      0.8265     24.1279    125.4767
  2760.0000      7.9835      2.6381      0.0677      0.7239     24.9238    129.3757
  2760.1000      7.9835      2.6082      0.0417      2.5329     25.2284    139.1151
  2760.2000      7.9835      2.5747      0.0174      4.5625     24.8021    144.6012
  2760.3000      7.9855      2.5588      0.0229      5.5300     24.2771    143.3880
  2760.4000      7.9855      2.5575      0.0558      5.6036     24.0945    138.9790
  2760.5000      7.9863      2.5634      0.0277      5.2494     24.0203    136.0726
  2760.6000      7.9863      2.5780      0.0565      4.3635     23.8631    135.4203
  2760.7000      7.9863      2.5977      0.0426      3.1707     23.8833    131.4411
  2760.8000      7.9861      2.6113      0.0682      2.3480     24.0725    124.7211
  2760.9000      7.9861      2.6111      0.0234      2.3605     24.1388    123.6659
  2761.0000      7.9861      2.6010      0.0431      2.9693     24.1313    126.5332
  2761.1000      7.9861      2.5914      0.0370      3.5518     23.9690    126.2245
  2761.2000      7.9861      2.5845      0.0521      3.9690     23.9034    123.8596
  2761.3000      7.9863      2.5804      0.0251      4.2173     24.4146    121.4684
  2761.4000      7.9863      2.5866      0.0534      3.8449     25.1255    120.4648
  2761.5000      7.9854      2.5994      0.0488      3.0690     25.4028    123.1041
  2761.6000      7.9854      2.6024      0.0623      2.8858     25.3112    128.9769
  2761.7000      7.9854      2.5921      0.0493      3.5120     25.2183    132.4814
  2761.8000      7.9833      2.5874      0.0059      3.7962     25.1820    129.0405
  2761.9000      7.9833      2.6004      0.0690      3.0066     24.9744    123.2037
  2762.0000      7.9826      2.6181      0.0924      1.9328     24.4624    121.1796
  2762.1000      7.9826      2.6330      0.0648      1.0322     23.8845    122.3281
  2762.2000      7.9826      2.6492      0.0591      0.0460     23.6725    126.9102
  2762.3000      7.9844      2.6573      0.0818     -0.4401     23.8521    136.3927
  2762.4000      7.9844      2.6385      0.0974      0.6965     24.3039    144.7258
  2762.5000      7.9843      2.5964      0.0204      3.2501     24.8127    144.5304
  2762.6000      7.9843      2.5581      0.0304      5.5724     24.5835    137.3475
  2762.7000      7.9843      2.5452      0.0105      6.3503     23.7827    132.8071
  2762.8000      7.9833      2.5615      0.0058      5.3657     23.5586    135.0969
  2762.9000      7.9833      2.5936      0.0439      3.4163     24.2324    137.7415
  2763.0000      7.9835      2.6215      0.0549      1.7254     25.1916    135.8459
  2763.1000      7.9835      2.6306      0.0601      1.1769     25.5675    131.7084
  2763.2000      7.9835      2.6199      0.0526      1.8265     25.0489    129.5225
  2763.3000      7.9860      2.6050      0.0573      2.7244     24.4958    131.5886
  2763.4000      7.9860      2.6005      0.0382      3.0030     24.7257    134.6992
  2763.5000      7.9886      2.6063      0.0453      2.6484     25.4909    135.7654
  2763.6000      7.9886      2.6107      0.0512      2.3843     26.0910    139.1336
  2763.7000      7.9886      2.6046      0.0479      2.7492     26.0462    145.8608
  2763.8000      7.9878      2.5966      0.0691      3.2340     25.4899    150.1424
  2763.9000      7.9878      2.6007      0.0439      2.9893     25.0124    150.5818
  2764.0000      7.9859      2.6183      0.0595      1.9192     25.0175    150.8894
  2764.1000      7.9859      2.6377      0.0349      0.7460     24.9956    154.0659
  2764.2000      7.9859      2.6409      0.0634      0.5485     24.6149    160.0953
  2764.3000      7.9847      2.6181      0.0447      1.9313     24.5966    166.0982
  2764.4000      7.9847      2.5915      0.0050      3.5437     25.1332    168.6648
  2764.5000      7.9847      2.5928      0.0355      3.4683     25.3999    165.8930
  2764.6000      7.9847      2.6184      0.0581      1.9151     24.8092    158.1142
  2764.7000      7.9847      2.6362      0.0788      0.8345     23.7549    150.0234
  2764.8000      7.9870      2.6255      0.0669      1.4853     23.1765    145.7594
  2764.9000      7.9870      2.6006      0.0206      2.9949     23.2339    139.8353
  2765.0000      7.9889      2.5845      0.0411      3.9676     23.4241    130.3009
  2765.1000      7.9889      2.5777      0.0575      4.3789     23.4076    124.1492
  2765.2000      7.9889      2.5801      0.0071      4.2369     23.2017    125.5692
  2765.3000      7.9869      2.6093     -0.0080      2.4651     22.7767    130.5869
  2765.4000      7.9869      2.6574      0.1150     -0.4507     22.1807    132.8326
  2765.5000      7.9827      2.6842      0.0927     -2.0705     22.0216    130.8521
  2765.6000      7.9827      2.6785      0.0997     -1.7249     22.5408    127.1655
  2765.7000      7.9827      2.6635      0.0705     -0.8203     23.1934    126.2097
  2765.8000      7.9822      2.6538      0.0394     -0.2313     23.7444    129.5580
  2765.9000      7.9822      2.6410      0.0956      0.5480     24.2505    131.5525
  2766.0000      7.9835      2.6160      0.0493      2.0629     24.5653    130.4662
  2766.1000      7.9835      2.5855      0.0295      3.9107     24.9081    130.8042
  2766.2000      7.9835      2.5538     -0.0023      5.8313     25.5590    133.3309
  2766.3000      7.9857      2.5223     -0.0361      7.7390     26.1237    138.4715
  2766.4000      7.9857      2.5031     -0.0083      8.9050     26.1767    147.8193
  2766.5000      7.9921      2.5079     -0.0417      8.6131     25.7605    157.1200
  2766.6000      7.9921      2.5312      0.0517      7.1996     25.1250    161.6216
  2766.7000      7.9921      2.5547      0.0116      5.7779     24.7152    161.2977
  2766.8000      8.0014      2.5702      0.0483      4.8364     24.6205    155.6096
  2766.9000      8.0014      2.5797      0.0646      4.2597     24.3652    148.5020
  2767.0000      7.9993      2.5903      0.0570      3.6200     24.0257    145.3766
  2767.1000      7.9993      2.6032      0.0871      2.8387     23.7164    144.7852
  2767.2000      7.9993      2.6053      0.0820      2.7088     22.9996    144.4842
  2767.3000      7.9829      2.5907      0.0644      3.5914     22.1827    141.3691
  2767.4000      7.9829      2.5724      0.0647      4.7031     21.8849    130.9184
  2767.5000      7.9687      2.5666      0.0490      5.0538     21.9139    117.7724
  2767.6000      7.9687      2.5721      0.0833      4.7197     21.7358    114.2851
  2767.7000      7.9687      2.5774      0.0255      4.3974     21.1836    120.2447
  2767.8000      7.9631      2.5815      0.0547      4.1519     20.6888    123.3101
  2767.9000      7.9631      2.5891      0.0217      3.6903     20.6557    118.4199
