~Version Information
VERS.                      2.0: CWLS Log ASCII Standard - VERSION 2.0
WRAP.                       NO: One line per depth step
~Well Information Block
STRT.FT               240.0000: 
STOP.FT              1043.5000: 
STEP.FT                 0.2500: 
NULL.                -999.2500: 
COMP.          Pioneer Natural Resources: COMPANY
WELL.          Stags Leap 13-30: WELL
FLD.           Purgatorie River: FIELD
LOC.           1813' FSL & 117' FWL: LOCATION
PROV.                 Colorado: PROVINCE
CNTY.               Las Animas: COUNTRY
SRVC.                Patterson: SERVICE COMPANY
DATE.          Thu Dec 08 19:20:57 2005: LOG DATE
UWI.                          : UNIQUE WELL ID
~Curve Information Block
DEPT.FT            0 000 00 00: Depth
DIR.Ohm-m                     : IEL Induction Resistivity
GR.GAPI                       : Gamma Ray
~Parameter Information Block
~A  Depth       DIR          GR     
# ...
   351.5000     20.9254    150.0068
   351.7500     22.2444    141.4004
   352.0000     23.7984    127.1034
   352.2500     25.5966    117.7172
   352.5000     27.6254    105.2708
   352.7500     29.8468     98.4804
   353.0000     32.2110     90.7544
   353.2500     34.6757     87.2436
   353.5000     37.2161     84.4181
   353.7500     39.8143     84.1023
   354.0000     42.4355     85.7183
   354.2500     45.0194     88.0296
   354.5000     47.4989     93.3711
   354.7500     49.8276     98.4102
   355.0000     51.9785    108.5116
   355.2500     53.9105    116.6521
   355.5000     55.5418    129.1813
   355.7500     56.7679    136.2613
   356.0000     57.5185    143.0219
   356.2500     57.8051    144.6503
   356.5000     57.7201    143.3853
   356.7500     57.3897    140.6098
   357.0000     56.9136    134.3625
   357.2500     56.3209    129.3862
   357.5000     55.5576    122.1235
   357.7500     54.5148    118.2725
   358.0000     53.0891    114.9358
   358.2500     51.2445    114.5557
   358.5000     49.0345    116.7762
   358.7500     46.5718    119.9481
   359.0000     43.9759    126.4574
   359.2500     41.3370    131.1427
   359.5000     38.7072    137.0453
   359.7500     36.1146    139.5918
   360.0000     33.5835    141.2404
   360.2500     31.1511    141.2030
   360.5000     28.8660    140.0569
   360.7500     26.7731    138.9880
   361.0000     24.8974    137.9196
   361.2500     23.2405    138.1287
   361.5000     21.7889    140.2501
   361.7500     20.5282    142.7513
   362.0000     19.4519    147.7143
   362.2500     18.5601    151.6121
   362.5000     17.8526    157.7471
   362.7500     17.3203    161.4274
   363.0000     16.9430    165.3803
   363.2500     16.6940    166.9324
   363.5000     16.5486    168.4699
   363.7500     16.4911    169.4194
   364.0000     16.5169    170.4564
   364.2500     16.6303    170.1806
   364.5000     16.8392    167.2659
   364.7500     17.1517    163.6989
   365.0000     17.5733    157.1472
   365.2500     18.1041    152.9008
   365.5000     18.7342    147.7013
   365.7500     19.4409    145.0160
   366.0000     20.1880    141.2838
   366.2500     20.9334    138.2904
   366.5000     21.6415    132.3050
   366.7500     22.2943    127.4126
   367.0000     22.8953    119.6567
   367.2500     23.4604    114.9682
   367.5000     24.0037    110.0058
   367.7500     24.5270    108.7804
   368.0000     25.0210    110.7641
   368.2500     25.4755    114.4685
   368.5000     25.8862    122.2812
   368.7500     26.2535    128.0503
   369.0000     26.5761    136.4080
   369.2500     26.8498    141.3076
   369.5000     27.0738    146.5113
   369.7500     27.2610    147.7683
   370.0000     27.4442    145.7601
   370.2500     27.6696    142.2927
   370.5000     27.9810    135.6997
   370.7500     28.4041    131.4557
   371.0000     28.9435    126.3416
   371.2500     29.5898    123.8440
   371.5000     30.3257    121.3864
   371.7500     31.1262    120.7311
   372.0000     31.9490    121.3664
   372.2500     32.7254    122.5124
   372.5000     33.3601    124.0632
   372.7500     33.7480    124.3863
   373.0000     33.8049    123.5165
   373.2500     33.4959    122.0549
   373.5000     32.8397    118.3627
   373.7500     31.8899    114.7638
   374.0000     30.7168    107.9984
   374.2500     29.4017    103.3533
   374.5000     28.0368     98.2624
   374.7500     26.7180     97.1734
   375.0000     25.5302     99.3371
   375.2500     24.5315    102.5888
   375.5000     23.7454    108.4685
   375.7500     23.1623    112.4536
   376.0000     22.7490    118.5705
   376.2500     22.4613    123.1648
   376.5000     22.2554    131.5769
   376.7500     22.0944    138.3941
   377.0000     21.9522    149.9973
   377.2500     21.8153    157.7032
   377.5000     21.6848    166.4545
   377.7500     21.5765    168.7905
   378.0000     21.5200    165.8691
   378.2500     21.5543    160.1796
   378.5000     21.7213    148.1330
   378.7500     22.0547    138.9989
   379.0000     22.5700    125.3059
   379.2500     23.2560    116.9525
   379.5000     24.0767    106.5889
   379.7500     24.9817    101.3775
   380.0000     25.9225     95.8591
   380.2500     26.8641     93.3857
   380.5000     27.7812     91.2637
   380.7500     28.6433     91.1037
   381.0000     29.3993     93.0586
   381.2500     29.9803     95.5443
   381.5000     30.3217     99.6582
   381.7500     30.3863    101.7939
   382.0000     30.1701    103.5778
   382.2500     29.6937    104.2940
   382.5000     28.9993    106.2090
   382.7500     28.1515    108.7230
   383.0000     27.2278    114.1251
   383.2500     26.2943    117.9231
   383.5000     25.3893    122.1120
   383.7500     24.5291    123.2048
   384.0000     23.7259    122.1028
   384.2500     22.9970    120.0992
   384.5000     22.3608    117.2173
   384.7500     21.8287    116.7907
   385.0000     21.4016    120.0025
   385.2500     21.0682    124.6668
   385.5000     20.8049    133.6817
   385.7500     20.5796    139.6044
   386.0000     20.3607    146.7424
   386.2500     20.1262    150.3069
   386.5000     19.8654    154.7308
   386.7500     19.5762    157.3599
   387.0000     19.2649    160.2128
   387.2500     18.9482    160.6142
   387.5000     18.6555    157.9422
   387.7500     18.4247    153.9427
   388.0000     18.2942    145.5726
   388.2500     18.2925    139.3940
   388.5000     18.4318    131.2879
   388.7500     18.7061    127.8275
   389.0000     19.0946    126.7789
   389.2500     19.5655    128.7994
   389.5000     20.0789    134.7011
   389.7500     20.5903    139.5911
   390.0000     21.0557    146.9221
   390.2500     21.4391    151.1402
   390.5000     21.7190    155.3419
   390.7500     21.8912    155.9991
   391.0000     21.9662    152.7312
   391.2500     21.9601    147.5991
   391.5000     21.8806    136.4781
   391.7500     21.7160    127.8991
   392.0000     21.4354    115.2828
   392.2500     21.0040    107.8843
   392.5000     20.4035     99.0760
   392.7500     19.6463     94.9851
   393.0000     18.7737     91.9683
   393.2500     17.8421     92.3058
   393.5000     16.9083     96.6557
   393.7500     16.0199    102.1291
   394.0000     15.2124    113.6170
   394.2500     14.5093    122.6250
   394.5000     13.9228    136.2101
   394.7500     13.4553    144.4069
   395.0000     13.1014    155.0682
   395.2500     12.8501    161.4839
   395.5000     12.6875    170.5863
   395.7500     12.6007    175.9501
   396.0000     12.5813    181.5072
   396.2500     12.6280    183.0030
   396.5000     12.7480    182.3898
   396.7500     12.9550    180.8213
   397.0000     13.2663    177.6497
   397.2500     13.6974    175.1285
   397.5000     14.2569    170.8740
   397.7500     14.9415    168.0306
   398.0000     15.7313    164.6202
   398.2500     16.5859    163.3614
   398.5000     17.4434    163.0363
   398.7500     18.2272    163.3424
   399.0000     18.8634    163.2838
   399.2500     19.3077    162.3119
   399.5000     19.5668    158.9165
   399.7500     19.6969    155.1556
   400.0000     19.7747    147.0706
   400.2500     19.8607    140.2867
   400.5000     19.9746    129.5615
   400.7500     20.0893    123.5799
   401.0000     20.1393    119.1729
   401.2500     20.0405    120.3243
   401.5000     19.7189    128.0681
   401.7500     19.1423    136.0838
   402.0000     18.3356    149.4540
   402.2500     17.3705    157.6735
   402.5000     16.3372    167.1014
   402.7500     15.3170    170.7535
   403.0000     14.3689    171.4595
   403.2500     13.5254    168.6709
   403.5000     12.7969    160.7683
   403.7500     12.1783    154.5315
   404.0000     11.6555    147.0472
   404.2500     11.2108    144.9663
   404.5000     10.8269    147.1897
   404.7500     10.4905    151.4158
   405.0000     10.1964    158.9725
   405.2500      9.9473    163.2019
   405.5000      9.7523    166.8621
   405.7500      9.6217    167.3590
   406.0000      9.5645    165.4473
   406.2500      9.5856    162.7279
   406.5000      9.6869    157.6215
   406.7500      9.8688    154.5226
   407.0000     10.1319    151.8009
