~Version Information
VERS.                      2.0: CWLS Log ASCII Standard - VERSION 2.0
WRAP.                       NO: One line per depth step
~Well Information Block
STRT.FT                 0.0000: 
STOP.FT              1538.0000: 
STEP.FT                 0.2500: 
NULL.                -999.2500: 
COMP.          Pioneer Natural Resources: COMPANY
WELL.           Butch 33-10 TR: WELL
FLD.           Purgatorie River: FIELD
LOC.           2309' FSL & 1337' FEL: LOCATION
PROV.                 Colorado: PROVINCE
CNTY.               Las Animas: COUNTRY
SRVC.                Patterson: SERVICE COMPANY
DATE.          Thu Jan 19 12:40:27 2006: LOG DATE
UWI.                          : UNIQUE WELL ID
~Curve Information Block
DEPT.FT            0 000 00 00: Depth
CCL.                          : Casing Collar Locator
TT3.usec                      : CBL 3' Travel Time
AMP3.mV                       : CBL 3' Amplitude
GR.GAPI                       : Gamma Ray
~Parameter Information Block
~A  Depth       CCL         TT3         AMP3         GR     
# ...
   201.0000      0.0000    365.5024     19.7725     64.5058
   201.2500      0.0000    368.3147     19.7553     64.6204
   201.5000      0.0000    418.5875     19.5853     66.7005
   201.7500      0.0000    484.3015     19.3649     70.0602
   202.0000      0.0000    523.2263     19.1671     74.0516
   202.2500      0.0000    521.1390     19.0006     78.0303
   202.5000      0.0000    484.4550     18.8610     81.1107
   202.7500      0.0000    426.7374     18.7501     82.1822
   203.0000      0.0000    374.1788     18.6602     80.6370
   203.2500      0.0000    345.3073     18.5998     77.3071
   203.5000      0.0000    340.3925     18.6170     74.2988
   203.7500      0.0000    360.6970     18.7222     73.4636
   204.0000      0.0000    399.3957     18.8424     75.1122
   204.2500      0.0000    424.6262     18.9149     78.3407
   204.5000      0.0000    420.1440     18.9424     82.0220
   204.7500      0.0000    420.0288     18.9326     84.9953
   205.0000      0.0000    454.4905     18.8812     85.8558
   205.2500      0.0000    499.9394     18.8097     83.5071
   205.5000      0.0000    514.8683     18.7700     78.1285
   205.7500      0.0000    483.4043     18.8399     71.3792
   206.0000      0.0000    419.6464     19.0960     65.6383
   206.2500      0.0000    357.3354     19.5369     62.8717
   206.5000      0.0000    320.8358     20.0617     63.7012
   206.7500      0.0000    307.5187     20.5260     67.2136
   207.0000      0.0000    304.4126     20.7956     71.6832
   207.2500      0.0000    304.0244     20.7861     75.5267
   207.5000      0.0000    304.2155     20.5196     77.7321
   207.7500      0.0000    304.5321     20.1435     77.8093
   208.0000      0.0000    304.7871     19.8163     75.7728
   208.2500      0.0000    304.9607     19.5925     72.3483
   208.5000      0.0000    305.1147     19.4655     68.9840
   208.7500      0.0000    305.2334     19.4213     67.1491
   209.0000      0.0000    305.2534     19.4088     67.3326
   209.2500      0.0000    305.2014     19.3527     68.9276
   209.5000      0.0000    305.1868     19.2076     71.1354
   209.7500      0.0000    305.2743     19.0057     73.6334
   210.0000      0.0000    305.4021     18.8845     76.2079
   210.2500      0.0000    305.4473     18.9974     78.1936
   210.5000      0.0000    305.3727     19.3747     78.7866
   210.7500      0.0000    305.5519     19.8821     77.8698
   211.0000      0.0000    307.3639     20.2735     76.1701
   211.2500      0.0000    312.6879     20.3648     74.5606
   211.5000      0.0000    320.3657     20.2252     73.4532
   211.7500      0.0000    324.2399     20.1118     72.7870
   212.0000      0.0000    320.1842     20.1858     72.2176
   212.2500      0.0000    312.3827     20.3666     71.3343
   212.5000      0.0000    307.0008     20.4879     70.2031
   212.7500      0.0000    305.7613     20.4914     69.7783
   213.0000      0.0000    309.7556     20.4015     71.3467
   213.2500      0.0000    325.3678     20.2224     75.3022
   213.5000      0.0000    361.6537     19.9401     80.5492
   213.7500      0.0000    416.6918     19.5653     85.2145
   214.0000      0.0000    473.7985     19.1501     88.0857
   214.2500      0.0000    519.9116     18.7871     89.5758
   214.5000      0.0000    546.6889     18.5992     91.1427
   214.7500      0.0000    541.4527     18.6600     93.5158
   215.0000      0.0000    520.0318     18.8599     95.6764
   215.2500      0.0000    530.8330     18.9620     95.8679
   215.5000      0.0000    584.2732     18.8640     93.3331
   215.7500      0.0000    636.9084     18.6809     88.7253
   216.0000      0.0000    663.2493     18.5525     83.2818
   216.2500      0.0000    680.7736     18.5184     78.2648
   216.5000      0.0000    704.3317     18.5363     75.0330
   216.7500      0.0000    724.8585     18.5341     74.8078
   217.0000      0.0000    731.9694     18.4816     77.7473
   217.2500      0.0000    727.7947     18.4241     82.3142
   217.5000      0.0000    717.6588     18.4228     86.1669
   217.7500      0.0000    705.5624     18.4846     88.0019
   218.0000      0.0000    697.5889     18.5823     88.1613
   218.2500      0.0000    693.0931     18.7000     87.3570
   218.5000      0.0000    678.2067     18.8284     85.5208
   218.7500      0.0000    649.7617     18.9399     82.3232
   219.0000      0.0000    634.3192     18.9744     78.2693
   219.2500      0.0000    653.4402     18.8645     74.7256
   219.5000      0.0000    689.5857     18.5946     72.7655
   219.7500      0.0000    715.1296     18.2282     72.0569
   220.0000      0.0000    724.7624     17.8610     71.2189
   220.2500      0.0000    724.6859     17.5625     69.4442
   220.5000      0.0000    714.2703     17.3479     67.3071
   220.7500      0.0000    686.2014     17.1818     65.7764
   221.0000      0.0000    646.0113     17.0141     64.9725
   221.2500      0.0000    624.2624     16.8048     64.1838
   221.5000      0.0000    643.1693     16.5657     62.7875
   221.7500      0.0000    684.7232     16.3638     60.8854
   222.0000      0.0000    718.6923     16.2188     58.9877
   222.2500      0.0000    733.1579     16.0937     57.1568
   222.5000      0.0000    726.0301     15.9909     54.8564
   222.7500      0.0000    690.1880     15.9529     51.9011
   223.0000      0.0000    620.8831     16.0101     49.1211
   223.2500      0.0000    542.4772     16.1484     47.6344
   223.5000      0.0000    499.9083     16.3242     47.7281
   223.7500      0.0000    501.9325     16.5369     48.7808
   224.0000      0.0000    510.8229     16.8011     50.0336
   224.2500      0.0000    506.3140     17.0271     51.0677
   224.5000      0.0000    508.6640     17.0645     51.6516
   224.7500      0.0000    527.1681     16.8810     51.5957
   225.0000      0.0000    546.7971     16.5842     51.0486
   225.2500      0.0000    563.7002     16.2998     50.8838
   225.5000      0.0000    592.0406     16.0839     52.4760
   225.7500      0.0000    640.1813     15.9251     56.7384
   226.0000      0.0000    692.5153     15.8300     63.2514
   226.2500      0.0000    727.0095     15.8294     70.5213
   226.5000      0.0000    741.4291     15.9082     77.0942
   226.7500      0.0000    746.3467     16.0491     82.1379
   227.0000      0.0000    740.6641     16.2850     85.1309
   227.2500      0.0000    703.8068     16.6390     85.7816
   227.5000      0.0000    619.3521     17.0792     84.5904
   227.7500      0.0000    509.0682     17.5212     82.9632
   228.0000      0.0000    423.9472     17.8568     82.2531
   228.2500      0.0000    394.2116     18.0344     82.8055
   228.5000      0.0000    410.5623     18.0929     84.1827
   228.7500      0.0000    441.1497     18.1232     86.1184
   229.0000      0.0000    447.6115     18.2083     88.7078
   229.2500      0.0000    420.3594     18.2699     91.4804
   229.5000      0.0000    399.1687     17.9634     92.9927
   229.7500      0.0000    419.4634     17.0730     92.0392
   230.0000      0.0000    462.7973     16.0681     88.9835
   230.2500      0.0000    496.8794     15.5453     85.4289
   230.5000      0.0000    530.3660     15.2181     82.8402
   230.7500      0.0000    583.6879     14.6219     81.6753
   231.0000      0.0000    642.2640     14.0917     81.4475
   231.2500      0.0000    675.3730     13.9972     81.3029
   231.5000     -2.0000    666.4277     14.1942     80.7572
   231.7500      2.0000    616.1823     14.4897     80.0860
   232.0000      0.0000    539.8055     14.7834     79.9203
   232.2500      0.0000    461.8563     14.9377     80.4804
   232.5000      0.0000    403.9117     14.9663     81.4097
   232.7500      0.0000    369.2414     15.3790     82.2361
   233.0000      0.0000    346.2646     16.7708     82.4669
   233.2500      0.0000    327.8934     18.7036     81.1745
   233.5000      0.0000    317.5129     20.0509     77.2922
   233.7500      0.0000    323.1379     20.4440     70.8940
   234.0000      0.0000    352.6500     20.2017     63.7729
   234.2500      0.0000    399.5497     19.6704     58.2109
