~Version Information
VERS.                      2.0: CWLS Log ASCII Standard - VERSION 2.0
WRAP.                       NO: One line per depth step
~Well Information Block
STRT.FT                 0.0000: 
STOP.FT              2086.0000: 
STEP.FT                 0.2500: 
NULL.                -999.2500: 
COMP.          Petrogulf Corporation: COMPANY
WELL.               YWAM 7-32R: WELL
FLD.           Purgatorie River: FIELD
LOC.           2355' FNL & 2376' FEL: LOCATION
STAT.                 Colorado: State
CNTY.               Las Animas: COUNTY
CTRY. USA : Country
SECT. 7 : Section
TOWN. 33S : Township
RANG. 67W : Range
SRVC.                Patterson: SERVICE COMPANY
DATE.          Wed Nov 09 16:33:59 2005: LOG DATE
API. 05-071-08518                         : UNIQUE WELL ID
~Curve Information Block
DEPT.FT            0 000 00 00: Depth
CCL.                          : Casing Collar Locator
TT3.usec                      : CBL 3' Travel Time
AMP3.mV                       : CBL 3' Amplitude
GR.GAPI                       : Gamma Ray
~Parameter Information Block
~A  Depth       CCL         TT3         AMP3         GR     
# ...
  1105.5000      0.0000    669.0550      6.4234    133.4137
  1105.7500      0.0000    668.3290      6.6996    130.3782
  1106.0000      0.0000    668.1988      7.0251    127.2075
  1106.2500      0.0000    668.2838      7.3555    124.7546
  1106.5000      0.0000    668.5330      7.7618    122.7476
  1106.7500      0.0000    669.1825      8.3687    120.5048
  1107.0000      0.0000    670.3855      9.1407    117.7768
  1107.2500      0.0000    671.6791      9.8526    114.8619
  1107.5000      0.0000    672.2628     10.3194    112.4227
  1107.7500      0.0000    671.7430     10.5592    111.5052
  1108.0000      0.0000    669.8261     10.7017    113.3048
  1108.2500      0.0000    665.7202     10.8184    118.2230
  1108.5000      0.0000    659.9552     10.8438    125.1062
  1108.7500      0.0000    655.9952     10.6445    131.7468
  1109.0000      0.0000    656.0669     10.2158    136.1084
  1109.2500      0.0000    657.7113      9.7107    137.0188
  1109.5000      0.0000    657.8759      9.1948    134.6218
  1109.7500      0.0000    654.9486      8.5454    130.9577
  1110.0000      0.0000    647.4825      7.6889    129.2353
  1110.2500      0.0000    637.2920      6.8080    131.0475
  1110.5000      0.0000    629.5751      6.1792    134.2682
  1110.7500      0.0000    627.6024      5.8714    134.6225
  1111.0000      0.0000    631.7711      5.7466    129.6514
  1111.2500      0.0000    640.2484      5.6837    120.7453
  1111.5000      0.0000    647.8601      5.6656    111.4488
  1111.7500      0.0000    647.9279      5.7111    104.6308
  1112.0000      0.0000    636.3633      5.8100    101.3625
  1112.2500      0.0000    618.4691      5.9136    101.3104
  1112.5000      0.0000    609.8538      5.9635    103.3172
  1112.7500      0.0000    620.2432      5.9443    106.0743
  1113.0000      0.0000    641.0552      5.9038    108.9449
  1113.2500      0.0000    657.7986      5.8880    112.1709
  1113.5000      0.0000    665.5856      5.8758    116.0177
  1113.7500      0.0000    667.5403      5.8284    119.7702
  1114.0000      0.0000    667.2752      5.7533    121.9814
  1114.2500      0.0000    666.3171      5.6719    121.9037
  1114.5000      0.0000    664.5748      5.5823    120.4065
  1114.7500      0.0000    661.0646      5.4880    119.1549
  1115.0000      0.0000    655.1923      5.4191    119.1152
  1115.2500      0.0000    648.0814      5.4097    120.3623
  1115.5000      0.0000    642.6468      5.4714    122.9512
  1115.7500      0.0000    642.8830      5.5819    127.0029
  1116.0000      0.0000    649.9992      5.6957    131.9070
  1116.2500      0.0000    659.2092      5.7741    136.2323
  1116.5000      0.0000    665.7922      5.8014    138.6110
  1116.7500      0.0000    671.1044      5.7818    138.4190
  1117.0000      0.0000    680.2039      5.7388    135.7822
  1117.2500      0.0000    696.5544      5.7113    131.2723
  1117.5000      0.0000    718.2354      5.7208    125.4212
  1117.7500      0.0000    739.9495      5.7464    118.3458
  1118.0000      0.0000    757.1331      5.7519    110.1228
  1118.2500      0.0000    765.3147      5.7300    101.6657
  1118.5000      0.0000    763.1701      5.6979     94.7421
  1118.7500      0.0000    755.8004      5.6606     90.6238
  1119.0000      0.0000    746.6829      5.5964     88.8597
  1119.2500      0.0000    734.0893      5.4740     87.5736
  1119.5000      0.0000    718.3347      5.2871     84.8639
  1119.7500      0.0000    702.1389      5.0613     79.9555
  1120.0000      0.0000    685.0095      4.8296     73.4675
  1120.2500      0.0000    665.2595      4.6228     67.0264
  1120.5000      0.0000    646.7115      4.4578     62.5337
  1120.7500      0.0000    638.3267      4.3234     61.2077
  1121.0000      0.0000    643.6423      4.2115     62.7779
  1121.2500      0.0000    655.4216      4.1675     65.5429
  1121.5000      0.0000    666.6559      4.2834     67.4791
  1121.7500      0.0000    677.2816      4.6365     67.5430
  1122.0000      0.0000    684.7039      5.2530     66.2238
  1122.2500      0.0000    679.8975      6.1092     65.1463
  1122.5000      0.0000    661.6263      7.1202     66.0756
  1122.7500      0.0000    643.4037      8.1245     69.8511
  1123.0000      0.0000    634.0269      8.9272     75.8399
  1123.2500      0.0000    624.5341      9.4164     82.1903
  1123.5000      0.0000    603.3802      9.6747     86.7323
  1123.7500      0.0000    566.2723      9.9720     88.0073
  1124.0000      0.0000    512.8197     10.5943     85.9511
  1124.2500      0.0000    453.2470     11.6080     81.7991
  1124.5000      0.0000    407.2616     12.7854     77.1971
  1124.7500      0.0000    384.0233     13.7713     73.2813
  1125.0000      0.0000    376.4860     14.3220     70.4446
  1125.2500      0.0000    374.6340     14.4603     68.6010
  1125.5000      0.0000    372.8181     14.4708     67.5793
  1125.7500      0.0000    367.7886     14.7456     67.5795
  1126.0000      0.0000    357.4073     15.6537     69.3052
  1126.2500      0.0000    342.3149     17.5181     73.2840
  1126.5000      0.0000    325.7797     20.5786     78.8544
  1126.7500      0.0000    310.6952     24.8479     84.1208
  1127.0000      0.0000    297.5663     29.9343     87.2493
  1127.2500      0.0000    285.2631     35.0256     87.6926
  1127.5000      0.0000    273.9825     39.1582     85.9486
  1127.7500      0.0000    266.0904     41.6481     82.4760
  1128.0000      0.0000    263.3911     42.3543     77.4097
  1128.2500      0.0000    266.2013     41.4961     71.1724
  1128.5000      0.0000    274.2401     39.2293     64.7816
  1128.7500      0.0000    286.2900     35.6508     59.4512
  1129.0000      0.0000    302.5151     31.2037     56.1233
  1129.2500      0.0000    330.0435     26.6576     55.2339
  1129.5000      0.0000    382.0745     22.5830     56.5433
  1129.7500      0.0000    463.0461     19.1301     59.1395
  1130.0000      0.0000    552.9562     16.2544     61.7324
  1130.2500      0.0000    620.0547     13.8675     62.9953
  1130.5000      0.0000    651.5179     11.8796     61.9706
  1130.7500      0.0000    657.0356     10.2632     58.6656
  1131.0000      0.0000    650.5938      9.0088     54.3557
  1131.2500      0.0000    642.9296      8.0072     51.0123
  1131.5000      0.0000    641.4507      7.0810     50.1026
  1131.7500      0.0000    648.2274      6.2455     51.7356
  1132.0000      0.0000    662.7419      5.7374     54.9403
  1132.2500      0.0000    687.8815      5.5851     58.6874
  1132.5000      0.0000    729.5918      5.6009     62.5178
  1132.7500      0.0000    780.9358      5.7746     66.4011
  1133.0000      0.0000    809.8366      6.1129     70.6062
  1133.2500      2.0000    793.7502      6.4756     75.8574
  1133.5000     -2.0000    752.9470      6.8427     82.9554
  1133.7500      0.0000    718.6859      7.3251     91.8974
  1134.0000      0.0000    703.0021      7.9451    101.7173
  1134.2500      0.0000    701.0258      8.6537    111.1287
  1134.5000      0.0000    691.9496      9.4878    118.7349
  1134.7500      0.0000    660.7577     10.4997    122.9451
  1135.0000      0.0000    623.4290     11.5039    122.7988
  1135.2500      0.0000    607.0209     12.2677    118.9968
  1135.5000      0.0000    612.1771     12.9045    113.4828
  1135.7500      0.0000    612.8947     13.6404    108.2516
  1136.0000      0.0000    585.3097     14.5858    104.9346
  1136.2500      0.0000    524.8320     15.8819    104.6197
  1136.5000      0.0000    449.2177     17.6063    107.0986
  1136.7500      0.0000    385.1722     19.6069    110.4613
  1137.0000      0.0000    344.0122     21.5808    112.1152
  1137.2500      0.0000    320.9513     23.1997    110.6047
  1137.5000      0.0000    310.0800     24.2594    106.6102
  1137.7500      0.0000    308.2956     24.8269    102.2189
  1138.0000      0.0000    312.7661     25.1580     99.0652
  1138.2500      0.0000    319.7502     25.4163     97.0358
  1138.5000      0.0000    325.4768     25.4982     94.7369
  1138.7500      0.0000    328.3887     25.1626     91.2153
