~Version Information
VERS.                      2.0: CWLS Log ASCII Standard - VERSION 2.0
WRAP.                       NO: One line per depth step
~Well Information Block
STRT.FT               310.0000: 
STOP.FT              2298.0000: 
STEP.FT                 0.2500: 
NULL.                -999.2500: 
COMP.          Pioneer Natural Resources: COMPANY
WELL.               Relay 12-7: WELL
FLD.           Purgatoire River: FIELD
LOC.           1999' FNL & 848' FWL: LOCATION
PROV.                 Colorado: PROVINCE
CNTY.               Las Animas: COUNTRY
SRVC.                Patterson: SERVICE COMPANY
DATE.          Fri Dec 16 17:39:57 2005: LOG DATE
UWI.           05 071 08453 00: UNIQUE WELL ID
~Curve Information Block
DEPT.FT            0 000 00 00: Depth
SN.Ohm-m                      : IEL Short Normal
SP.mV                         : IEL Spontaneous Potential
DIR.Ohm-m                     : IEL Induction Resistivity
GR.GAPI                       : Gamma Ray
~Parameter Information Block
~A  Depth        SN          SP         DIR          GR     
# ...
  1851.0000     21.7372     65.7132     21.3043     98.2063
  1851.2500     21.8159     65.6566     21.3607     97.2570
  1851.5000     21.6507     65.6108     21.3713     96.9461
  1851.7500     21.2686     65.5776     21.3634     96.6704
  1852.0000     20.8199     65.5526     21.3580     95.3604
  1852.2500     20.4732     65.5237     21.3604     93.9097
  1852.5000     20.2631     65.4724     21.3570     91.0695
  1852.7500     20.1112     65.3773     21.3251     88.6872
  1853.0000     20.0162     65.2206     21.2536     84.2657
  1853.2500     20.0570     64.9963     21.1583     80.9991
  1853.5000     20.2068     64.7132     21.0762     76.6635
  1853.7500     20.3084     64.3911     21.0447     74.6968
  1854.0000     20.2717     64.0522     21.0826     73.1141
  1854.2500     20.2222     63.7143     21.1868     72.4343
  1854.5000     20.3630     63.3888     21.3442     70.8094
  1854.7500     20.7169     63.0810     21.5496     68.7179
  1855.0000     21.1467     62.7905     21.8134     63.5589
  1855.2500     21.5680     62.5147     22.1533     59.1701
  1855.5000     21.9812     62.2567     22.5781     53.1939
  1855.7500     22.3619     62.0335     23.0748     50.9725
  1856.0000     22.6707     61.8772     23.6113     51.3320
  1856.2500     22.9648     61.8210     24.1487     53.5199
  1856.5000     23.3819     61.8772     24.6573     57.4901
  1856.7500     23.9578     62.0213     25.1254     59.2529
  1857.0000     24.5403     62.1958     25.5601     59.4407
  1857.2500     24.9713     62.3310     25.9804     58.1032
  1857.5000     25.3089     62.3709     26.4078     55.0893
  1857.7500     25.7847     62.2907     26.8589     53.2427
  1858.0000     26.5069     62.0961     27.3371     51.7680
  1858.2500     27.3038     61.8101     27.8275     51.7005
  1858.5000     27.9647     61.4562     28.3017     51.9417
  1858.7500     28.4379     61.0498     28.7357     51.4545
  1859.0000     28.7479     60.5999     29.1220     48.8510
  1859.2500     28.9499     60.1191     29.4636     45.9672
  1859.5000     29.1639     59.6324     29.7543     40.8627
  1859.7500     29.4840     59.1753     29.9728     37.6449
  1860.0000     29.8714     58.7795     30.0956     34.2746
  1860.2500     30.2443     58.4622     30.1159     33.5555
  1860.5000     30.5661     58.2268     30.0476     34.9587
  1860.7500     30.7828     58.0680     29.9152     36.9869
  1861.0000     30.8277     57.9719     29.7413     40.1279
  1861.2500     30.6988     57.9162     29.5397     41.7910
  1861.5000     30.4224     57.8805     29.3146     44.2180
  1861.7500     29.9762     57.8602     29.0637     46.5855
  1862.0000     29.3481     57.8684     28.7851     51.8987
  1862.2500     28.6475     57.9265     28.4831     56.0673
  1862.5000     28.0284     58.0553     28.1671     61.3686
  1862.7500     27.5186     58.2669     27.8408     63.4577
  1863.0000     27.0695     58.5549     27.4908     64.3119
  1863.2500     26.6918     58.8868     27.0882     63.6835
  1863.5000     26.4096     59.2128     26.6106     61.2827
  1863.7500     26.1789     59.4919     26.0660     58.7801
  1864.0000     25.9675     59.7134     25.4993     54.0738
  1864.2500     25.8671     59.8975     24.9760     50.7825
  1864.5000     26.0138     60.0764     24.5556     46.5501
  1864.7500     26.3425     60.2742     24.2737     44.6312
  1865.0000     26.5556     60.4998     24.1379     43.6033
  1865.2500     26.4141     60.7506     24.1310     44.2837
  1865.5000     25.9173     61.0128     24.2152     46.9336
  1865.7500     25.2634     61.2601     24.3407     48.9523
  1866.0000     24.7369     61.4580     24.4648     50.4030
  1866.2500     24.5686     61.5799     24.5728     49.6553
  1866.5000     24.8451     61.6263     24.6798     46.7566
  1866.7500     25.4794     61.6330     24.8095     45.0242
  1867.0000     26.2896     61.6603     24.9640     45.1062
  1867.2500     27.1278     61.7705     25.1110     47.5608
  1867.5000     27.8559     62.0060     25.1966     54.1229
  1867.7500     28.2664     62.3748     25.1723     59.2704
  1868.0000     28.1732     62.8450     25.0167     66.1914
  1868.2500     27.5855     63.3561     24.7422     69.7590
  1868.5000     26.6855     63.8439     24.3825     73.8435
  1868.7500     25.6660     64.2624     23.9736     76.0681
  1869.0000     24.6865     64.5882     23.5400     78.6494
  1869.2500     23.8748     64.8160     23.0911     79.4935
  1869.5000     23.2395     64.9521     22.6269     78.7890
  1869.7500     22.6522     65.0096     22.1506     76.9839
  1870.0000     22.0204     65.0028     21.6803     73.1198
  1870.2500     21.4247     64.9466     21.2491     70.5265
  1870.5000     20.9952     64.8601     20.8893     67.4788
  1870.7500     20.7318     64.7651     20.6099     66.0412
  1871.0000     20.5373     64.6813     20.3889     64.4301
  1871.2500     20.3449     64.6250     20.1906     63.6061
  1871.5000     20.1660     64.6105     19.9980     62.7891
  1871.7500     20.0775     64.6438     19.8333     62.5225
  1872.0000     20.1231     64.7121     19.7490     62.3792
  1872.2500     20.2429     64.7873     19.7969     62.5301
  1872.5000     20.3648     64.8480     19.9998     64.2287
  1872.7500     20.4672     64.8967     20.3472     67.4388
  1873.0000     20.5275     64.9554     20.8125     76.5650
  1873.2500     20.5359     65.0467     21.3755     85.0126
  1873.5000     20.5717     65.1782     22.0284     98.1052
  1873.7500     20.7388     65.3340     22.7661    104.6222
  1874.0000     21.0559     65.4769     23.5740    107.4810
  1874.2500     21.5088     65.5595     24.4263    104.0695
  1874.5000     22.1128     65.5465     25.2942     93.0325
  1874.7500     22.8527     65.4391     26.1503     84.3689
  1875.0000     23.6265     65.2892     26.9675     74.3868
  1875.2500     24.2954     65.1899     27.7149     71.9245
  1875.5000     24.8463     65.2375     28.3596     75.9459
  1875.7500     25.4327     65.4823     28.8718     82.9141
  1876.0000     26.1759     65.8981     29.2277     95.8668
  1876.2500     27.0438     66.3945     29.4062    103.5822
  1876.5000     27.9077     66.8640     29.3844    111.1413
  1876.7500     28.5533     67.2327     29.1364    113.3467
  1877.0000     28.7275     67.4865     28.6403    113.7615
  1877.2500     28.3645     67.6593     27.8915    113.4302
  1877.5000     27.6543     67.8001     26.9180    114.2614
  1877.7500     26.8257     67.9395     25.7864    116.2681
  1878.0000     26.0021     68.0759     24.5890    120.7190
  1878.2500     25.1941     68.1826     23.4174    123.8226
  1878.5000     24.3227     68.2291     22.3354    127.9631
  1878.7500     23.3100     68.2011     21.3690    130.4850
  1879.0000     22.1933     68.1107     20.5170    134.4328
  1879.2500     21.1162     67.9903     19.7702    137.4393
  1879.5000     20.1883     67.8749     19.1233    142.6287
  1879.7500     19.3968     67.7845     18.5741    146.2758
  1880.0000     18.6938     67.7169     18.1181    151.1301
  1880.2500     18.0918     67.6543     17.7495    153.5211
  1880.5000     17.6339     67.5760     17.4687    155.6641
  1880.7500     17.3350     67.4702     17.2851    156.2594
  1881.0000     17.1984     67.3363     17.2117    156.2783
  1881.2500     17.2447     67.1818     17.2522    155.9959
  1881.5000     17.4703     67.0169     17.3929    155.3569
  1881.7500     17.8313     66.8498     17.6053    154.4513
  1882.0000     18.2710     66.6841     17.8600    151.2394
  1882.2500     18.7333     66.5169     18.1422    147.5096
  1882.5000     19.1961     66.3386     18.4592    140.1795
  1882.7500     19.6951     66.1316     18.8376    134.8861
  1883.0000     20.2977     65.8731     19.3149    126.9155
  1883.2500     21.0308     65.5412     19.9296    121.2181
  1883.5000     21.8464     65.1225     20.7108    111.1346
  1883.7500     22.7144     64.6171     21.6673    103.2693
  1884.0000     23.6496     64.0379     22.7789     90.4321
  1884.2500     24.6304     63.4069     23.9966     81.6786
