~Version Information
VERS.                      2.0: CWLS Log ASCII Standard - VERSION 2.0
WRAP.                       NO: One line per depth step
~Well Information Block
STRT.FT               239.2000: 
STOP.FT              1618.0000: 
STEP.FT                 0.1000: 
NULL.                -999.2500: 
COMP.          Pioneer Natural Resources: COMPANY
WELL.          Daytona 31-14 Tr: WELL
FLD.           Purgatoire River: FIELD
LOC.           683' FNL & 1943' FEL: LOCATION
CNTY.               Las Animas: COUNTY
SRVC.                         : SERVICE COMPANY
DATE.          Fri Jan 27 14:32:28 2006: LOG DATE
UWI.           05 071 08681 00: UNIQUE WELL ID
STAT.                 Colorado: STATE
~Curve Information Block
DEPT.FT            0 000 00 00: Depth
DCAL.in                       : CDL Caliper
RHOB.g/cc                     : CDL Bulk Density
RHOC.g/cc                     : CDL Density Correction
DPOR.pu                       : CDL Density Porosity
GR.GAPI                       : Gamma Ray
~Parameter Information Block
~A  Depth       DCAL        RHOB        RHOC        DPOR         GR     
# ...
   788.0000      7.9959      2.6398      0.1720      0.6200     87.9350
   788.1000      7.9959      2.6646      0.1609     -0.8874     82.8144
   788.2000      7.9959      2.6772      0.1737     -1.6468     83.5164
   788.3000      7.9924      2.6768      0.1209     -1.6214     90.5910
   788.4000      7.9924      2.6717      0.1366     -1.3138     98.7831
   788.5000      8.0032      2.6709      0.1302     -1.2654    103.3945
   788.6000      8.0032      2.6744      0.1329     -1.4775    103.4808
   788.7000      8.0032      2.6699      0.1188     -1.2039    101.0059
   788.8000      8.0051      2.6490      0.1038      0.0629     98.0297
   788.9000      8.0051      2.6188      0.1235      1.8912     96.7538
   789.0000      8.0019      2.5928      0.0708      3.4693     98.4129
   789.1000      8.0019      2.5769      0.1118      4.4313    101.8086
   789.2000      8.0019      2.5716      0.0517      4.7494    103.9502
   789.3000      8.0061      2.5779      0.0482      4.3687    101.3438
   789.4000      8.0061      2.5840      0.0973      4.0017     96.5524
   789.5000      8.0052      2.5821      0.0525      4.1132     94.5596
   789.6000      8.0052      2.5882      0.0871      3.7457     94.2819
   789.7000      8.0052      2.6175      0.0718      1.9710     94.5528
   789.8000      8.0074      2.6698      0.1048     -1.2001     96.9605
   789.9000      8.0074      2.7303      0.1141     -4.8653     98.9166
   790.0000      8.0075      2.7847      0.1109     -8.1635     93.9176
   790.1000      8.0075      2.8271      0.1462    -10.7354     83.1730
   790.2000      8.0075      2.8443      0.1594    -11.7731     75.0584
   790.3000      8.0057      2.8179      0.1720    -10.1728     73.8889
   790.4000      8.0057      2.7592      0.0527     -6.6209     75.8421
   790.5000      8.0055      2.7074     -0.0302     -3.4794     78.4648
   790.6000      8.0055      2.6676     -0.0288     -1.0649     86.5344
   790.7000      8.0055      2.6179     -0.0988      1.9427    100.0862
   790.8000      8.0042      2.5732     -0.0967      4.6575    111.1633
   790.9000      8.0042      2.5636      0.0105      5.2345    116.7551
   791.0000      7.9899      2.5760      0.1906      4.4878    118.4021
   791.1000      7.9899      2.5742      0.1704      4.5955    118.4981
   791.2000      7.9899      2.5578      0.1627      5.5874    123.5835
   791.3000      8.0081      2.5482      0.1331      6.1701    130.3837
   791.4000      8.0081      2.5495      0.1781      6.0932    129.1518
   791.5000      8.0200      2.5528      0.1143      5.8899    124.4632
   791.6000      8.0200      2.5564      0.1454      5.6716    124.0241
   791.7000      8.0200      2.5593      0.1516      5.4940    125.4404
   791.8000      8.0173      2.5607      0.1135      5.4100    126.4794
   791.9000      8.0173      2.5604      0.1047      5.4332    129.9787
   792.0000      8.0160      2.5533      0.1024      5.8629    133.7654
   792.1000      8.0160      2.5417      0.0612      6.5623    136.1912
   792.2000      8.0160      2.5370      0.0583      6.8480    140.1898
   792.3000      8.0104      2.5437      0.1036      6.4409    143.7118
   792.4000      8.0104      2.5629      0.0965      5.2793    142.3700
   792.5000      8.0102      2.5895      0.1294      3.6669    138.0922
   792.6000      8.0102      2.6075      0.1377      2.5737    133.0699
   792.7000      8.0102      2.6152      0.1170      2.1097    126.8002
   792.8000      8.0161      2.6272      0.0971      1.3837    122.6703
   792.9000      8.0161      2.6499      0.0845      0.0043    124.8079
   793.0000      8.0162      2.6749      0.1085     -1.5072    132.7828
   793.1000      8.0162      2.6822      0.1200     -1.9518    144.7350
   793.2000      8.0162      2.6566      0.0853     -0.3995    155.7539
   793.3000      8.0081      2.6077      0.1231      2.5616    154.2745
   793.4000      8.0081      2.5528      0.1112      5.8881    141.6336
   793.5000      8.0172      2.4948      0.1077      9.4038    135.8947
   793.6000      8.0172      2.4379      0.0706     12.8555    139.9318
   793.7000      8.0172      2.4057     -0.0035     14.8049    140.9326
   793.8000      8.0182      2.4170      0.0288     14.1188    135.7044
   793.9000      8.0182      2.4491      0.1379     12.1758    130.4213
   794.0000      8.0190      2.4735      0.0816     10.6993    129.9228
   794.1000      8.0190      2.5019      0.0542      8.9760    132.1574
   794.2000      8.0190      2.5489      0.1303      6.1243    130.9927
   794.3000      8.0170      2.5980      0.1583      3.1545    125.8916
   794.4000      8.0170      2.6260      0.1778      1.4568    123.8150
   794.5000      8.0185      2.6257      0.1792      1.4712    127.3266
   794.6000      8.0185      2.6115      0.1613      2.3330    130.1862
   794.7000      8.0185      2.6151      0.0951      2.1169    128.3846
   794.8000      8.0190      2.6519      0.0796     -0.1160    125.7822
   794.9000      8.0190      2.6996      0.1179     -3.0068    124.8945
   795.0000      8.0183      2.7355      0.0644     -5.1824    125.7666
   795.1000      8.0183      2.7644      0.1063     -6.9333    128.9395
   795.2000      8.0183      2.7871      0.1669     -8.3081    129.1586
   795.3000      8.0139      2.7870      0.1901     -8.3001    123.1115
   795.4000      8.0139      2.7571      0.1045     -6.4905    117.6970
   795.5000      8.0087      2.7091      0.0745     -3.5822    117.4909
   795.6000      8.0087      2.6468      0.0454      0.1929    119.1739
   795.7000      8.0087      2.5752     -0.0473      4.5343    121.4360
   795.8000      8.0073      2.5280     -0.1086      7.3917    123.6035
   795.9000      8.0073      2.5289      0.0460      7.3375    124.5866
   796.0000      8.0102      2.5555      0.1066      5.7249    125.3457
   796.1000      8.0102      2.5711      0.1161      4.7816    125.1858
   796.2000      8.0102      2.5584      0.0850      5.5528    124.2253
   796.3000      8.0241      2.5290      0.0302      7.3339    122.9906
   796.4000      8.0241      2.5094      0.0353      8.5211    123.5969
   796.5000      8.0267      2.5102      0.0264      8.4724    129.5175
   796.6000      8.0267      2.5163      0.0504      8.1028    138.7167
   796.7000      8.0267      2.5111      0.0185      8.4209    141.8922
   796.8000      8.0258      2.5048      0.0094      8.7990    134.9662
   796.9000      8.0258      2.5148      0.0338      8.1929    128.9930
   797.0000      8.0250      2.5261      0.0583      7.5101    132.6266
   797.1000      8.0250      2.5119      0.0417      8.3705    139.5164
   797.2000      8.0250      2.4778      0.0030     10.4382    141.8012
   797.3000      8.0266      2.4499      0.0165     12.1266    139.7443
   797.4000      8.0266      2.4346      0.0417     13.0574    139.6730
   797.5000      8.0257      2.4212      0.0065     13.8637    145.7785
   797.6000      8.0257      2.4083      0.0076     14.6465    155.7290
   797.7000      8.0257      2.4015      0.0284     15.0583    162.7997
   797.8000      8.0268      2.3981      0.0292     15.2672    163.6479
   797.9000      8.0268      2.3940      0.0061     15.5154    162.1913
   798.0000      8.0293      2.3975      0.0112     15.3031    161.2856
   798.1000      8.0293      2.4159      0.0339     14.1863    159.4164
   798.2000      8.0293      2.4388      0.1093     12.8027    152.8861
   798.3000      8.0268      2.4457      0.1426     12.3801    143.0859
   798.4000      8.0268      2.4341      0.1544     13.0854    136.1146
   798.5000      8.0282      2.4167      0.1892     14.1373    130.9957
   798.6000      8.0282      2.3898      0.1695     15.7698    125.0445
   798.7000      8.0282      2.3370      0.1100     18.9695    123.2424
   798.8000      8.0294      2.2593      0.0769     23.6793    126.3592
   798.9000      8.0294      2.1802      0.0078     28.4721    128.3351
   799.0000      8.0243      2.1234      0.0648     31.9168    125.1924
   799.1000      8.0243      2.0874      0.0917     34.0973    117.2317
