~Version Information
VERS.                      2.0: CWLS Log ASCII Standard - VERSION 2.0
WRAP.                       NO: One line per depth step
~Well Information Block
STRT.FT               555.0000: 
STOP.FT              1159.0000: 
STEP.FT                 0.2500: 
NULL.                -999.2500: 
COMP.          Pioneer Natural Resources: COMPANY
WELL.              Draco 31-21: WELL
FLD.           Purgatoire River: FIELD
LOC.           491' FNL & 2446' FEL: LOCATION
CNTY.               Las Animas: COUNTY
SRVC.                Patterson: SERVICE COMPANY
DATE.          Tue Jan 31 17:48:38 2006: LOG DATE
UWI.           05 071 08672 00: UNIQUE WELL ID
STAT.                 Colorado: STATE
~Curve Information Block
DEPT.FT            0 000 00 00: Depth
SN.Ohm-m                      : IEL Short Normal
SP.mV                         : IEL Spontaneous Potential
DIR.Ohm-m                     : IEL Induction Resistivity
GR.GAPI                       : Gamma Ray
~Parameter Information Block
~A  Depth        SN          SP         DIR          GR     
   555.0000   2000.0000   2000.0000     83.4403    142.6350
   555.2500   2000.0000   2000.0000     83.0372    147.9692
   555.5000   2000.0000   2000.0000     82.2534    150.3379
   555.7500   2000.0000   2000.0000     81.3356    148.9840
   556.0000   2000.0000   2000.0000     80.4673    144.2209
   556.2500   2000.0000   2000.0000     79.6903    139.7732
   556.5000   2000.0000   2000.0000     78.9845    131.6788
   556.7500   2000.0000   2000.0000     78.3606    125.9628
   557.0000   2000.0000   2000.0000     77.8246    118.9093
   557.2500   2000.0000   2000.0000     77.2725    116.2998
   557.5000   2000.0000   2000.0000     76.4931    115.8400
   557.7500   2000.0000   2000.0000     75.3673    117.0874
   558.0000   2000.0000   2000.0000     74.1028    119.6621
   558.2500   2000.0000   2000.0000     73.2167    121.3821
   558.5000   2000.0000   2000.0000     73.2363    124.0124
   558.7500   2000.0000   2000.0000     74.3849    125.8152
   559.0000   2000.0000   2000.0000     76.4719    128.2468
   559.2500   2000.0000   2000.0000     79.0297    129.6252
   559.5000   2000.0000   2000.0000     81.5754    131.8341
   559.7500   2000.0000   2000.0000     83.7924    133.6649
   560.0000   2000.0000   2000.0000     85.5100    136.3457
   560.2500   2000.0000   2000.0000     86.6070    137.0626
   560.5000   2000.0000   2000.0000     86.9970    134.6711
   560.7500   2000.0000   2000.0000     86.7009    130.4480
   561.0000   2000.0000   2000.0000     85.8747    121.7203
   561.2500   2000.0000   2000.0000     84.7322    116.0694
   561.5000   2000.0000   2000.0000     83.3885    110.6006
   561.7500   2000.0000   2000.0000     81.7113    109.6133
   562.0000   2000.0000   2000.0000     79.3021    111.5216
   562.2500   2000.0000   2000.0000     75.7728    114.2539
   562.5000   2000.0000   2000.0000     71.1929    119.1448
   562.7500   2000.0000   2000.0000     66.2196    122.1723
   563.0000   2000.0000   2000.0000     61.6819    125.3271
   563.2500   2000.0000   2000.0000     58.0587    126.1946
   563.5000   2000.0000   2000.0000     55.3074    125.5393
   563.7500   2000.0000   2000.0000     53.0237    123.8927
   564.0000   2000.0000   2000.0000     50.7330    120.1756
   564.2500   2000.0000   2000.0000     48.1706    117.5125
   564.5000   2000.0000   2000.0000     45.4457    114.7282
   564.7500   2000.0000   2000.0000     43.0663    114.4530
   565.0000   2000.0000   2000.0000     41.8646    116.7492
   565.2500   2000.0000   2000.0000     43.0047    119.4654
   565.5000   2000.0000   2000.0000     48.4478    123.2365
   565.7500   2000.0000   2000.0000     62.9340    124.2118
   566.0000   2000.0000   2000.0000    103.6932    121.8249
   566.2500   2000.0000   2000.0000    314.9364    117.6232
   566.5000   2000.0000   2000.0000 100000.0000    108.8661
   566.7500   2000.0000   2000.0000 100000.0000    102.6505
   567.0000   2000.0000   2000.0000 100000.0000     94.3929
   567.2500   2000.0000   2000.0000 100000.0000     89.9026
   567.5000   2000.0000   2000.0000 100000.0000     84.4711
   567.7500   2000.0000   2000.0000 100000.0000     70.7756
   568.0000   2000.0000   2000.0000 100000.0000     68.4830
   568.2500   2000.0000   2000.0000 100000.0000     67.9634
   568.5000   2000.0000   2000.0000 100000.0000     68.4221
   568.7500   2000.0000   2000.0000 100000.0000     61.4299
   569.0000   2000.0000   2000.0000 100000.0000     64.0799
   569.2500   2000.0000   2000.0000 100000.0000     66.9584
   569.5000   2000.0000   2000.0000 100000.0000     72.8003
   569.7500   2000.0000   2000.0000 100000.0000     67.3575
   570.0000   2000.0000   2000.0000 100000.0000     74.6161
   570.2500   2000.0000   2000.0000 100000.0000     80.6639
   570.5000   2000.0000   2000.0000 100000.0000     91.6921
   570.7500   2000.0000   2000.0000 100000.0000     99.6793
   571.0000   2000.0000   2000.0000 100000.0000    110.8475
   571.2500   2000.0000   2000.0000 100000.0000    117.0242
   571.5000   2000.0000   2000.0000 100000.0000    124.1093
   571.7500   2000.0000   2000.0000 100000.0000    127.6691
   572.0000   2000.0000   2000.0000 100000.0000    132.1667
   572.2500   2000.0000   2000.0000 100000.0000    135.0269
   572.5000   2000.0000   2000.0000     16.1189    138.9732
   572.7500   2000.0000   2000.0000      5.0554    140.8161
   573.0000   2000.0000   2000.0000      3.2326    141.4011
   573.2500   2000.0000   2000.0000      2.7085    140.0808
   573.5000   2000.0000   2000.0000      2.6643    135.7550
   573.7500   2000.0000   2000.0000      2.9082    131.7113
   574.0000   2000.0000   2000.0000      3.4130    124.7857
   574.2500   2000.0000   2000.0000      4.2811    120.1746
   574.5000   2000.0000   2000.0000      5.8681    114.5674
   574.7500   2000.0000   2000.0000      9.2260    112.6585
   575.0000   2000.0000   2000.0000     18.0047    113.9144
   575.2500   2000.0000   2000.0000     49.5932    117.6323
   575.5000   2000.0000   2000.0000    171.7895    126.0748
   575.7500   2000.0000   2000.0000    104.2446    132.0121
   576.0000   2000.0000   2000.0000     40.9837    138.6552
   576.2500   2000.0000   2000.0000     23.7703    140.7478
   576.5000   2000.0000   2000.0000     17.6237    140.8464
   576.7500   2000.0000   2000.0000     15.0431    139.9006
   577.0000   2000.0000   2000.0000     13.8720    138.6260
   577.2500   2000.0000   2000.0000     13.3131    138.3039
   577.5000   2000.0000   2000.0000     13.0547    138.6576
   577.7500   2000.0000   2000.0000     12.9990    139.4820
   578.0000   2000.0000   2000.0000     13.1501    141.9134
   578.2500   2000.0000   2000.0000     13.5777    144.4522
   578.5000   2000.0000   2000.0000     14.4006    149.3023
   578.7500   2000.0000   2000.0000     15.7607    152.6795
   579.0000   2000.0000   2000.0000     17.7361    156.6536
   579.2500   2000.0000   2000.0000     20.1810    157.7545
   579.5000   2000.0000   2000.0000     22.5830    155.9431
   579.7500   2000.0000   2000.0000     24.2461    152.1759
   580.0000   2000.0000   2000.0000     24.8431    143.2126
   580.2500   2000.0000   2000.0000     24.6248    135.7233
   580.5000   2000.0000   2000.0000     24.0107    123.5610
   580.7500   2000.0000   2000.0000     23.2350    115.5692
   581.0000   2000.0000   2000.0000     22.3702    104.7839
   581.2500   2000.0000   2000.0000     21.4907     98.8082
   581.5000   2000.0000   2000.0000     20.7396     92.2595
   581.7500   2000.0000   2000.0000     20.2667     89.9129
   582.0000   2000.0000   2000.0000     20.1370     89.7941
   582.2500   2000.0000   2000.0000     20.2947     91.5797
   582.5000   2000.0000   2000.0000     20.5891     95.4560
   582.7500   2000.0000   2000.0000     20.8495     98.1102
   583.0000   2000.0000   2000.0000     20.9694    102.3419
   583.2500   2000.0000   2000.0000     20.9438    105.8966
   583.5000   2000.0000   2000.0000     20.8440    112.5956
   583.7500   2000.0000   2000.0000     20.7587    117.3418
   584.0000   2000.0000   2000.0000     20.7341    123.1163
   584.2500   2000.0000   2000.0000     20.7340    125.2504
   584.5000   2000.0000   2000.0000     20.6470    125.5548
   584.7500   2000.0000   2000.0000     20.3573    124.3444
   585.0000   2000.0000   2000.0000     19.8335    122.1716
   585.2500   2000.0000   2000.0000     19.1495    121.6770
   585.5000   2000.0000   2000.0000     18.4241    123.9027
   585.7500   2000.0000   2000.0000     17.7500    127.5894
   586.0000   2000.0000   2000.0000     17.1672    135.3527
   586.2500   2000.0000   2000.0000     16.6741    140.7480
   586.5000   2000.0000   2000.0000     16.2504    146.9334
   586.7500   2000.0000   2000.0000     15.8755    149.1111
   587.0000   2000.0000   2000.0000     15.5347    149.8803
   587.2500   2000.0000   2000.0000     15.2144    149.5519
   587.5000   2000.0000   2000.0000     14.8973    149.1172
   587.7500   2000.0000   2000.0000     14.5670    149.3031
   588.0000   2000.0000   2000.0000     14.2201    150.4370
   588.2500   2000.0000   2000.0000     13.8716    151.4803
