~Version Information
VERS.                      2.0: CWLS Log ASCII Standard - VERSION 2.0
WRAP.                       NO: One line per depth step
~Well Information Block
STRT.FT                -8.5000: 
STOP.FT              1263.2500: 
STEP.FT                 0.2500: 
NULL.                -999.2500: 
COMP.          Pioneer Natural Resources: COMPANY
WELL.          Rockfish 11-30 Tr: WELL
FLD.           Purgatoire River: FIELD
LOC.           1063' FNL & 1068' FWL--: LOCATION
STAT.                       CO: State
CNTY.               Las Animas: COUNTY
CTRY. USA : country
SECT. 30 : Section
TOWN. 32S : Township
RANG. 65W : Range
SRVC.          Patterson Wireline: SERVICE COMPANY
DATE.          Tue Nov 22 16:08:49 2005: LOG DATE
API.           05 071 08585 00: UNIQUE WELL ID
~Curve Information Block
DEPT.FT            0 000 00 00: Depth
HVOLTA.V                      : Head Voltage Apparent
CCL.                          : Casing Collar Locator
TT3.usec                      : CBL 3' Travel Time
AMP3.mV                       : CBL 3' Amplitude
GR.GAPI                       : Gamma Ray
~Parameter Information Block
PPT.usec                0.0000: Predicted Pipe Time
~A  Depth      HVOLTA       CCL         TT3         AMP3         GR     
# ...
   243.5000     96.2197      0.0000    872.2560     13.1006     61.6134
   243.7500     96.0808      0.0000    846.3469     13.2935     62.6399
   244.0000     96.1847      0.0000    823.7050     13.4190     66.0769
   244.2500     96.2506      0.0000    808.7673     13.5013     70.3877
   244.5000     96.2773      0.0000    802.5792     13.5716     74.2792
   244.7500     96.2156      0.0000    803.8375     13.6538     77.1094
   245.0000     96.1580      0.0000    809.9428     13.7599     78.7876
   245.2500     96.1903      0.0000    816.8396     13.8901     79.2170
   245.5000     96.1650      0.0000    819.9189     14.0286     78.0412
   245.7500     96.2183      0.0000    816.9931     14.1399     75.2486
   246.0000     96.0738      0.0000    810.1437     14.1774     71.8995
   246.2500     96.2422      0.0000    803.8052     14.1098     69.8382
   246.5000     96.1300      0.0000    801.6231     13.9450     70.3504
   246.7500     96.1622      0.0000    805.3730     13.7276     73.0711
   247.0000     96.1384      0.0000    815.4047     13.5104     76.4027
   247.2500     96.1342      0.0000    830.7960     13.3253     79.1108
   247.5000     96.2183      0.0000    849.4474     13.1771     81.4027
   247.7500     96.1566      0.0000    868.6411     13.0561     84.2955
   248.0000     96.1005      0.0000    885.2542     12.9500     87.9665
   248.2500     96.1608      0.0000    895.9459     12.8450     90.9325
   248.5000     96.2197      0.0000    899.0209     12.7252     91.1576
   248.7500     96.2197      0.0000    896.7921     12.5865     88.1875
   249.0000     96.1369      0.0000    895.0226     12.4491     83.9189
   249.2500     96.2225      0.0000    899.1379     12.3462     80.8224
   249.5000     96.1342      0.0000    910.2713     12.2958     79.5686
   249.7500     96.0963      0.0000    923.1658     12.2897     78.7542
   250.0000     96.2464      0.0000    927.4129     12.3093     76.5693
   250.2500     96.1875      0.0000    914.1967     12.3419     72.3679
   250.5000     96.0697      0.0000    884.7143     12.3781     67.1067
   250.7500     96.2520      0.0000    850.2813     12.4018     62.6901
   251.0000     96.2169      0.0000    822.8796     12.3960     60.5248
   251.2500     96.0738      0.0000    807.3636     12.3582     60.3800
   251.5000     96.2114      0.0000    802.6031     12.3033     60.9705
   251.7500     96.1314      0.0000    807.2062     12.2488     61.7409
   252.0000     96.2380      0.0000    822.0781     12.1988     63.3620
   252.2500     96.0416      0.0000    847.4339     12.1474     66.0601
   252.5000     96.2506      0.0000    877.8614     12.1024     68.3434
   252.7500     96.1889      0.0000    901.9178     12.0959     68.3897
   253.0000     96.1805      0.0000    908.6415     12.1541     66.3783
   253.2500     96.1889      0.0000    895.2761     12.2551     64.5306
   253.5000     96.2787      0.0000    869.1759     12.3305     64.8464
   253.7500     96.1875      0.0000    843.1121     12.3211     67.2952
   254.0000     96.0093      0.0000    828.0041     12.2251     70.0498
   254.2500     96.2253      0.0000    827.4534     12.0857     70.9735
   254.5000     96.1286      0.0000    836.5076     11.9436     69.1020
   254.7500     96.1300      0.0000    845.0909     11.8083     65.3752
   255.0000     96.1833      0.0000    844.8960     11.6672     62.1390
   255.2500     96.2142      0.0000    835.3047     11.5128     61.6573
   255.5000     96.2114      0.0000    822.9494     11.3615     64.7140
   255.7500     96.1594      0.0000    815.4586     11.2439     70.2373
   256.0000     96.2675      0.0000    815.4465     11.1714     76.1107
   256.2500     96.2394      0.0000    819.4431     11.1181     80.6306
   256.5000     96.2422      0.0000    821.4863     11.0474     83.4506
   256.7500     96.1300      0.0000    818.1928     10.9605     85.2124
   257.0000     96.2086      0.0000    810.9537     10.9053     86.3944
   257.2500     96.1805      0.0000    803.5658     10.9356     86.6471
   257.5000     96.1749      0.0000    798.5907     11.0670     85.1916
   257.7500     96.2183      0.0000    796.2829     11.2713     81.6966
   258.0000     96.1931      0.0000    796.0899     11.5022     76.7108
   258.2500     96.1552      0.0000    798.4993     11.7219     71.3219
   258.5000     96.1580      0.0000    806.0143     11.9149     66.4792
   258.7500     96.3853      0.0000    822.2121     12.0849     62.5902
   259.0000     96.0752      0.0000    847.6772     12.2380     59.6488
   259.2500     96.2928      0.0000    875.1172     12.3677     57.7809
   259.5000     96.0711      0.0000    890.8682     12.4575     57.6286
   259.7500     96.1286      0.0000    885.3224     12.4987     59.9321
   260.0000     96.1300      0.0000    861.9904     12.5099     64.4563
   260.2500     96.2928      0.0000    833.9875     12.5334     69.6384
   260.5000     96.1314      0.0000    812.5308     12.6037     73.8123
   260.7500     96.1258      0.0000    800.6166     12.7177     76.7315
   261.0000     96.1552      0.0000    795.5181     12.8376     79.4818
   261.2500     96.0794      0.0000    793.7012     12.9239     83.0501
   261.5000     96.2156      0.0000    793.0771     12.9627     87.3719
   261.7500     96.1314      0.0000    792.8154     12.9660     91.5581
   262.0000     96.2156      0.0000    792.6510     12.9564     94.5028
   262.2500     96.2169      0.0000    792.4922     12.9468     95.5233
   262.5000     96.1314      0.0000    792.3386     12.9321     95.2632
   262.7500     96.1300      0.0000    792.2415     12.9033     95.7297
   263.0000     96.1636      0.0000    792.2535     12.8676     98.3073
   263.2500     96.1875      0.0000    792.3931     12.8384    101.7198
   263.5000     96.0794      0.0000    792.6389     12.8056    102.9076
   263.7500     96.1314      0.0000    792.9442     12.7358     99.8803
   264.0000     96.1959      0.0000    793.2524     12.6136     93.0322
   264.2500     96.2169      0.0000    793.5173     12.4699     84.2057
   264.5000     96.0458      0.0000    793.7239     12.3573     75.5150
   264.7500     96.2436      0.0000    793.8892     12.3039     68.7999
   265.0000     96.2759      0.0000    794.0302     12.2984     65.1655
   265.2500     96.2506      0.0000    794.1396     12.3117     64.7590
   265.5000     96.1384      0.0000    794.1970     12.3209     67.2412
   265.7500     96.2267      0.0000    794.1964     12.3081     72.3707
   266.0000     96.2267      0.0000    794.1591     12.2490     79.8147
   266.2500     96.3109      0.0000    794.1245     12.1145     88.4007
   266.5000     96.2225      0.0000    794.1240     11.8935     96.0238
   266.7500     96.2787      0.0000    794.1531     11.6125    100.8740
   267.0000     96.2912      0.0000    794.1725     11.3293    102.7592
   267.2500     96.3712      0.0000    794.1463     11.0998    102.6863
   267.5000     96.2337      0.0000    794.0821     10.9481    101.3593
   267.7500     96.3362      0.0000    794.0276     10.8654     98.9201
   268.0000     96.1734      0.0000    794.0266     10.8331     96.0640
   268.2500     96.2253      0.0000    794.0817     10.8407     94.3317
   268.5000     96.1987      0.0000    794.1624     10.8805     94.7897
   268.7500     96.2015      0.0000    794.2394     10.9376     96.8531
   269.0000     96.3179      0.0000    794.2967     10.9984     98.7575
   269.2500     96.2281      0.0000    794.3216     11.0658     99.0745
   269.5000     96.3278      0.0000    794.3054     11.1560     97.6790
   269.7500     96.3137      0.0000    794.2551     11.2793     95.4761
   270.0000     96.3123      0.0000    794.2066     11.4272     93.5058
   270.2500     96.3123      0.0000    794.2370     11.5791     92.3618
   270.5000     96.2029      0.0000    794.6928     11.7228     92.2174
   270.7500     96.2267      0.0000    796.6339     11.8729     93.0034
   271.0000     96.3179      0.0000    802.4388     12.0666     94.2092
   271.2500     96.2365      0.0000    815.7352     12.3209     94.5893
