~Version Information
VERS.                      2.0: CWLS Log ASCII Standard - VERSION 2.0
WRAP.                       NO: One line per depth step
~Well Information Block
STRT.FT                 8.2500: 
STOP.FT              1156.2500: 
STEP.FT                 0.2500: 
NULL.                -999.2500: 
COMP.          Pioneer Natural Resources: COMPANY
WELL.              Davida 34-8: WELL
FLD.           Purgatoire River: FIELD
LOC.           418' FSL & 1923' FEL: LOCATION
CNTY.               Las Animas: COUNTY
SRVC.                Patterson: SERVICE COMPANY
DATE.          Thu Mar 30 09:09:42 2006: LOG DATE
UWI.           05 071 08722 00: UNIQUE WELL ID
STAT.                 Colorado: STATE
~Curve Information Block
DEPT.FT            0 000 00 00: Depth
GR.GAPI                       : Gamma Ray
CCL.                          : Casing Collar Locator
TT3.usec                      : CBL 3' Travel Time
AMP3.mV                       : CBL 3' Amplitude
~Parameter Information Block
~A  Depth        GR         CCL         TT3         AMP3    
# ...
  1113.7500     72.9284      0.0000    501.7647      7.0701
  1114.0000     72.7879      0.0000    552.5992      7.6990
  1114.2500     73.4164      0.0000    597.3234      8.4806
  1114.5000     75.4537      0.0000    628.0354      9.3619
  1114.7500     78.4837      0.0000    644.5776     10.2754
  1115.0000     81.2575      0.0000    651.8885     11.1629
  1115.2500     82.4892      0.0000    655.4648     11.9853
  1115.5000     81.7108      0.0000    659.1383     12.7125
  1115.7500     79.5437      0.0000    664.8956     13.3112
  1116.0000     77.2132      0.0000    672.9547     13.7428
  1116.2500     75.7372      0.0000    681.8614     13.9663
  1116.5000     75.3252      0.0000    689.3104     13.9355
  1116.7500     75.2134      0.0000    693.3649     13.6034
  1117.0000     74.0574      0.0000    693.0860     12.9496
  1117.2500     71.0085      0.0000    688.4786     12.0167
  1117.5000     66.7484      0.0000    680.5345     10.9157
  1117.7500     63.1392      0.0000    671.3037      9.7871
  1118.0000     61.5413      0.0000    663.1805      8.7489
  1118.2500     61.7208      0.0000    657.6306      7.8700
  1118.5000     62.5559      0.0000    654.6400      7.1744
  1118.7500     63.3949      0.0000    653.3213      6.6548
  1119.0000     64.3196      0.0000    652.7741      6.2823
  1119.2500     65.3587      0.0000    652.4178      6.0123
  1119.5000     66.0912      0.0000    651.7004      5.7968
  1119.7500     66.2020      0.0000    649.3798      5.5999
  1120.0000     66.0061      0.0000    642.5562      5.4086
  1120.2500     66.1419      0.0000    626.4044      5.2311
  1120.5000     66.9533      0.0000    596.3434      5.0829
  1120.7500     68.3990      0.0000    552.5912      4.9743
  1121.0000     70.3993      0.0000    502.8465      4.9080
  1121.2500     73.0317      0.0000    458.6321      4.8838
  1121.5000     76.3834      0.0000    427.8409      4.8996
  1121.7500     80.3175      0.0000    410.9867      4.9457
  1122.0000     84.4296      0.0000    403.7711      5.0028
  1122.2500     88.1801      0.0000    401.5583      5.0481
  1122.5000     91.0121      0.0000    401.5072      5.0672
  1122.7500     92.3562      0.0000    402.3262      5.0599
  1123.0000     91.7336      0.0000    403.4509      5.0377
  1123.2500     89.1573      0.0000    404.5946      5.0135
  1123.5000     85.4928      0.0000    405.6042      4.9904
  1123.7500     82.1352      0.0000    406.3938      4.9636
  1124.0000     80.0318      0.0000    406.8717      4.9303
  1124.2500     79.0745      0.0000    406.9568      4.8939
  1124.5000     78.5183      0.0000    406.6555      4.8563
  1124.7500     77.7346      0.0000    406.0905      4.8091
  1125.0000     76.4055      0.0000    405.4243      4.7398
  1125.2500     74.3163      0.0000    404.7435      4.6466
  1125.5000     71.3408      0.0000    404.0127      4.5460
  1125.7500     67.7019      0.0000    403.1268      4.4629
  1126.0000     64.1431      0.0000    401.9930      4.4130
  1126.2500     61.6588      0.0000    400.5730      4.3937
  1126.5000     60.9140      0.0000    398.8703      4.3893
  1126.7500     61.8813      0.0000    396.8988      4.3847
  1127.0000     64.0601      0.0000    394.6691      4.3723
  1127.2500     66.8951      0.0000    392.2134      4.3492
  1127.5000     69.7771      0.0000    389.6392      4.3122
  1127.7500     71.7869      0.0000    387.2053      4.2599
  1128.0000     72.0559      0.0000    385.5859      4.1979
  1128.2500     70.7602      0.0000    386.5154      4.1428
  1128.5000     69.3819      0.0000    393.6518      4.1162
  1128.7500     69.4675      0.0000    412.4079      4.1330
  1129.0000     71.1070      0.0000    447.0473      4.1927
  1129.2500     72.8776      0.0000    495.8722      4.2815
  1129.5000     73.3478      0.0000    549.3972      4.3826
  1129.7500     72.4792      0.0000    595.2953      4.4857
  1130.0000     71.5090      0.0000    626.2706      4.5883
  1130.2500     71.7428      0.0000    643.1723      4.6904
  1130.5000     73.7045      0.0000    651.5176      4.7896
  1130.7500     77.1694      0.0000    656.2936      4.8806
  1131.0000     81.5959      0.0000    659.4737      4.9574
  1131.2500     86.3689      0.0000    660.7585      5.0147
  1131.5000     90.6435      0.0000    659.6709      5.0472
  1131.7500     93.2446      0.0000    656.7608      5.0492
  1132.0000     93.2939      0.0000    653.0347      5.0173
  1132.2500     90.9808      0.0000    648.8134      4.9549
  1132.5000     87.2576      0.0000    643.6615      4.8739
  1132.7500     82.8615      0.0000    637.3705      4.7890
  1133.0000     78.1052      0.0000    630.7242      4.7098
  1133.2500     73.4733      0.0000    625.1692      4.6365
  1133.5000     69.8628      0.0000    621.8997      4.5667
  1133.7500     68.1779      0.0000    621.2309      4.5034
  1134.0000     68.9571      0.0000    622.3068      4.4568
  1134.2500     72.2105      0.0000    622.7131      4.4361
  1134.5000     77.1574      0.0000    618.9653      4.4410
  1134.7500     82.1655      0.0000    609.4261      4.4600
  1135.0000     85.5201      0.0000    597.8584      4.4779
  1135.2500     86.5264      0.0000    592.2843      4.4856
  1135.5000     85.6824      0.0000    598.0427      4.4839
  1135.7500     83.8297      0.0000    612.5682      4.4821
  1136.0000     81.5237      0.0000    628.3210      4.4912
  1136.2500     79.2410      0.0000    639.6479      4.5171
  1136.5000     77.6454      0.0000    645.6670      4.5571
  1136.7500     77.2178      0.0000    648.2565      4.6026
  1137.0000     77.7980      0.0000    649.3643      4.6452
  1137.2500     78.8195      0.0000    650.0316      4.6805
  1137.5000     79.9254      0.0000    650.6024      4.7062
  1137.7500     81.0552      0.0000    651.1014      4.7178
  1138.0000     81.9769      0.0000    651.4896      4.7065
  1138.2500     82.0785      0.0000    651.7609      4.6630
  1138.5000     80.8010      0.0000    651.9675      4.5858
  1138.7500     78.2828      0.0000    652.1729      4.4868
  1139.0000     75.5678      0.0000    652.4072      4.3883
  1139.2500     74.0250      0.0000    652.6907      4.3109
  1139.5000     74.3478      0.0000    653.1476      4.2598
  1139.7500     76.0333      0.0000    654.1663      4.2274
  1140.0000     77.7243      0.0000    656.4016      4.2109
  1140.2500     78.0070      0.0000    660.2756      4.2228
  1140.5000     76.1161      0.0000    665.0859      4.2734
  1140.7500     72.3040      0.0000    668.7326      4.3461
  1141.0000     67.7828      0.0000    668.9271      4.4004
  1141.2500     64.1539      0.0000    664.4526      4.3980
  1141.5000     62.5056      0.0000    653.9391      4.3184
  1141.7500     62.7652      0.0000    631.9579      4.1416
  1142.0000     63.8976      0.0000    586.8900      3.8239
  1142.2500     64.8486      0.0000    506.6017      3.3126
  1142.5000     65.3166      0.0000    391.2802      2.6129
  1142.7500     65.6703      0.0000    261.0489      1.8376
  1143.0000     66.4297      0.0000    146.2232      1.1582
  1143.2500     67.9623      0.0000     67.3230      0.6921
  1143.5000     70.3667      0.0000     25.0929      0.4426
  1143.7500     73.3897      0.0000      7.4887      0.3384
  1144.0000     76.4950      0.0000      1.7733      0.3046
  1144.2500     79.0587      0.0000      0.3282      0.2961
  1144.5000     80.5484      0.0000      0.0436      0.2944
  1144.7500     80.7155      0.0000   -999.2500   -999.2500
  1145.0000     79.8030      0.0000   -999.2500   -999.2500
  1145.2500     78.6081      0.0000   -999.2500   -999.2500
  1145.5000     78.3043      0.0000   -999.2500   -999.2500
  1145.7500     80.0080      3.0000   -999.2500   -999.2500
  1146.0000     84.0654      0.0000   -999.2500   -999.2500
  1146.2500     89.4729      0.0000   -999.2500   -999.2500
  1146.5000     94.2974      0.0000   -999.2500   -999.2500
  1146.7500     97.1233      0.0000   -999.2500   -999.2500
  1147.0000     98.0443      0.0000   -999.2500   -999.2500
