~Version Information
VERS.                      2.0: CWLS Log ASCII Standard - VERSION 2.0
WRAP.                       NO: One line per depth step
~Well Information Block
STRT.FT               400.0000: 
STOP.FT              2232.0000: 
STEP.FT                 0.2500: 
NULL.                -999.2500: 
COMP.          Evergreen Operating Corporation: COMPANY
WELL.                Croc 42-9: WELL
FLD.           Purgatorie River: FIELD
LOC.           2262' FNL & 238' FEL: LOCATION
STAT.                 Colorado: State
CNTY.               Las Animas: COUNTY
CTRY. USA : Country
SECT. 9 : Section
TOWN. 32S : Township
RANG. 66W : Range
SRVC.                Patterson: SERVICE COMPANY
DATE.          Wed Jul 21 23:25:54 2004: LOG DATE
API.           05 071 08106 00: UNIQUE WELL ID
~Curve Information Block
DEPT.FT            0 000 00 00: Depth
SN.Ohm-m                      : IEL Short Normal
SP.mV                         : IEL Spontaneous Potential
DIR.Ohm-m                     : IEL Induction Resistivity
GR.GAPI                       : Gamma Ray
~Parameter Information Block
~A  Depth        SN          SP         DIR          GR     
# ...
  1371.5000     30.7327     94.3163     26.6546     94.1094
  1371.7500     30.2305     94.0827     26.4608     93.7514
  1372.0000     29.7333     93.8226     26.2703     93.2510
  1372.2500     29.2317     93.5344     26.0828     93.3762
  1372.5000     28.6947     93.2118     25.8848     95.1201
  1372.7500     28.1425     92.8425     25.6511     97.5965
  1373.0000     27.6793     92.4149     25.3537    102.9266
  1373.2500     27.3933     91.9341     24.9845    106.8620
  1373.5000     27.2618     91.4392     24.5829    111.9054
  1373.7500     27.2022     91.0039     24.2373    114.2380
  1374.0000     27.1818     90.7055     24.0450    116.3703
  1374.2500     27.2369     90.5819     24.0571    117.1624
  1374.5000     27.3978     90.6069     24.2500    117.4394
  1374.7500     27.6451     90.6948     24.5468    116.8386
  1375.0000     27.9534     90.7284     24.8732    114.7837
  1375.2500     28.3086     90.6103     25.2057    112.9428
  1375.5000     28.6679     90.3123     25.5756    109.9104
  1375.7500     28.9657     89.8851     26.0296    107.6478
  1376.0000     29.1697     89.4190     26.5842    103.4089
  1376.2500     29.3106     88.9911     27.2013     99.8102
  1376.5000     29.4551     88.6349     27.8008     93.5612
  1376.7500     29.6501     88.3411     28.3032     89.5476
  1377.0000     29.8979     88.0797     28.6767     85.3304
  1377.2500     30.1898     87.8268     28.9535     84.1044
  1377.5000     30.5479     87.5776     29.2027     83.7588
  1377.7500     31.0243     87.3409     29.4875     83.5978
  1378.0000     31.6538     87.1259     29.8400     82.5256
  1378.2500     32.4180     86.9344     30.2626     81.3352
  1378.5000     33.2582     86.7613     30.7435     79.6380
  1378.7500     34.0773     86.5963     31.2693     79.0743
  1379.0000     34.7777     86.4253     31.8233     79.3619
  1379.2500     35.3362     86.2357     32.3757     79.9888
  1379.5000     35.7726     86.0239     32.8823     80.7427
  1379.7500     36.0844     85.7994     33.3003     80.9130
  1380.0000     36.2638     85.5809     33.6071     80.8408
  1380.2500     36.3240     85.3867     33.8040     80.5466
  1380.5000     36.2940     85.2236     33.9018     79.0995
  1380.7500     36.2046     85.0814     33.9173     77.1712
  1381.0000     36.0764     84.9392     33.8917     73.4227
  1381.2500     35.9196     84.7810     33.9088     71.2206
  1381.5000     35.7427     84.6081     34.0713     69.5788
  1381.7500     35.5582     84.4360     34.4293     69.6604
  1382.0000     35.3945     84.2759     34.9113     70.7250
  1382.2500     35.2991     84.1235     35.3277     71.5442
  1382.5000     35.2955     83.9626     35.4812     72.7628
  1382.7500     35.3431     83.7797     35.3042     73.7602
  1383.0000     35.3805     83.5763     34.8900     75.3633
  1383.2500     35.3703     83.3701     34.3965     75.8900
  1383.5000     35.2914     83.1864     33.9387     74.7924
  1383.7500     35.1353     83.0463     33.5537     72.7561
  1384.0000     34.9260     82.9585     33.2271     68.7641
  1384.2500     34.7129     82.9140     32.9314     66.2762
  1384.5000     34.5121     82.8871     32.6468     63.7154
  1384.7500     34.2722     82.8460     32.3596     62.9198
  1385.0000     33.9219     82.7698     32.0564     62.9137
  1385.2500     33.4544     82.6595     31.7222     63.5748
  1385.5000     32.9469     82.5334     31.3473     65.3505
  1385.7500     32.4886     82.4133     30.9318     66.8029
  1386.0000     32.1144     82.3152     30.4856     68.7299
  1386.2500     31.8065     82.2479     30.0292     69.5526
  1386.5000     31.5326     82.2136     29.5957     70.0812
  1386.7500     31.2787     82.2065     29.2217     70.2237
  1387.0000     31.0450     82.2107     28.9285     70.6973
  1387.2500     30.8315     82.2050     28.7067     71.4131
  1387.5000     30.6381     82.1754     28.5216     73.1627
  1387.7500     30.4653     82.1220     28.3335     74.6437
  1388.0000     30.3163     82.0553     28.1196     76.8418
  1388.2500     30.1973     81.9853     27.8814     77.9360
  1388.5000     30.0994     81.9167     27.6381     78.6461
  1388.7500     29.9921     81.8512     27.4174     78.5747
  1389.0000     29.8696     81.7921     27.2523     78.1828
  1389.2500     29.7824     81.7414     27.1778     78.0273
  1389.5000     29.7635     81.6957     27.2227     78.0917
  1389.7500     29.7725     81.6434     27.3956     78.2763
  1390.0000     29.7725     81.5707     27.6743     78.7871
  1390.2500     29.7724     81.4721     28.0050     79.3963
  1390.5000     29.7747     81.3563     28.3106     80.7895
  1390.7500     29.7683     81.2380     28.5078     81.8922
  1391.0000     29.7670     81.1234     28.5379     83.3785
  1391.2500     29.8080     81.0053     28.3975     84.1236
  1391.5000     29.9172     80.8767     28.1426     85.0072
  1391.7500     30.0852     80.7485     27.8513     85.5641
  1392.0000     30.2650     80.6499     27.5818     86.3609
  1392.2500     30.4108     80.6086     27.3603     86.8111
  1392.5000     30.5300     80.6292     27.1962     87.2462
  1392.7500     30.6727     80.6889     27.0957     87.1382
  1393.0000     30.8713     80.7513     27.0604     85.6037
  1393.2500     31.1101     80.7874     27.0822     83.3667
  1393.5000     31.3387     80.7907     27.1506     78.7596
  1393.7500     31.5058     80.7781     27.2655     75.8515
  1394.0000     31.5971     80.7771     27.4463     73.8563
  1394.2500     31.6365     80.8095     27.7255     75.0572
  1394.5000     31.6511     80.8823     28.1354     81.0072
  1394.7500     31.6726     80.9917     28.6921     87.0273
  1395.0000     31.7841     81.1308     29.3792     96.8461
  1395.2500     32.1314     81.2914     30.1357    102.5288
  1395.5000     32.8604     81.4643     30.8563    108.0428
  1395.7500     34.0396     81.6445     31.4172    109.0281
  1396.0000     35.6564     81.8435     31.7248    105.5054
  1396.2500     37.7057     82.0990     31.7526     99.6780
  1396.5000     40.1829     82.4721     31.5341     87.1767
  1396.7500     42.7929     83.0278     31.1151     78.1018
  1397.0000     44.7666     83.8094     30.5114     66.4820
  1397.2500     45.3139     84.8229     29.7029     61.2457
  1397.5000     44.2494     86.0386     28.6647     58.0453
  1397.7500     41.9606     87.4023     27.4007     59.1209
  1398.0000     38.9548     88.8451     25.9593     65.2926
  1398.2500     35.6601     90.2897     24.4240     72.1083
  1398.5000     32.4370     91.6576     22.8885     85.3990
  1398.7500     29.5567     92.8781     21.4333     95.3170
  1399.0000     27.1657     93.9004     20.1168    109.4678
  1399.2500     25.2556     94.7047     18.9787    117.2897
  1399.5000     23.6990     95.3097     18.0457    126.3465
  1399.7500     22.3721     95.7672     17.3312    131.4508
  1400.0000     21.2500     96.1365     16.8316    139.3444
  1400.2500     20.4046     96.4585     16.5253    144.8629
  1400.5000     19.9227     96.7443     16.3773    152.0010
  1400.7500     19.8259     96.9829     16.3479    154.9326
  1401.0000     20.0836     97.1574     16.4005    155.9325
  1401.2500     20.6509     97.2616     16.5038    154.6380
  1401.5000     21.4616     97.3070     16.6290    150.6203
  1401.7500     22.4441     97.3179     16.7495    146.9246
  1402.0000     23.5506     97.3214     16.8490    139.9763
  1402.2500     24.7253     97.3403     16.9340    134.2417
  1402.5000     25.8732     97.3906     17.0343    124.1506
  1402.7500     26.9040     97.4803     17.1862    117.2192
  1403.0000     27.7661     97.6064     17.4044    108.5938
  1403.2500     28.4005     97.7559     17.6664    104.9488
  1403.5000     28.7036     97.9099     17.9215    103.0786
  1403.7500     28.5821     98.0511     18.1179    104.0607
  1404.0000     28.0234     98.1703     18.2303    108.4566
  1404.2500     27.1045     98.2677     18.2662    113.0784
  1404.5000     25.9684     98.3493     18.2518    121.9020
  1404.7500     24.7933     98.4202     18.2117    128.4632
