~Version Information
VERS.                      2.0: CWLS Log ASCII Standard - VERSION 2.0
WRAP.                       NO: One line per depth step
~Well Information Block
STRT.FT               530.7500: 
STOP.FT              1325.2500: 
STEP.FT                 0.2500: 
NULL.                -999.2500: 
COMP.          Pioneer Natural Resources: COMPANY
WELL.            Erin 21-15 Tr: WELL
FLD.           Purgatoire River: FIELD
LOC.           1217' FNL & 2284' FWL--: LOCATION
CNTY.               Las Animas: COUNTY
SRVC.                Patterson: SERVICE COMPANY
DATE.          Fri Mar 03 23:07:06 2006: LOG DATE
UWI.           05 071 08712 00: UNIQUE WELL ID
STAT.                 Colorado: STATE
~Curve Information Block
DEPT.FT            0 000 00 00: Depth
SN.Ohm-m                      : IEL Short Normal
SP.mV                         : IEL Spontaneous Potential
DIR.Ohm-m                     : IEL Induction Resistivity
GR.GAPI                       : Gamma Ray
~Parameter Information Block
~A  Depth        SN          SP         DIR          GR     
# ...
   999.7500     35.8653    100.4375     34.6925     76.8916
  1000.0000     35.5059    100.3775     34.3577     80.6033
  1000.2500     34.9835    100.2930     33.9911     81.4101
  1000.5000     34.2469    100.2228     33.5739     79.7519
  1000.7500     33.3181    100.2101     33.0829     77.5449
  1001.0000     32.2910    100.2934     32.4878     75.0786
  1001.2500     31.2856    100.4973     31.7624     75.3579
  1001.5000     30.3864    100.8269     30.9065     79.5172
  1001.7500     29.6066    101.2655     29.9595     84.2465
  1002.0000     28.8987    101.7783     28.9871     92.4884
  1002.2500     28.1985    102.3189     28.0516     97.8890
  1002.5000     27.4703    102.8372     27.1883    105.1131
  1002.7500     26.7277    103.2879     26.4059    109.1083
  1003.0000     26.0210    103.6358     25.7056    113.4314
  1003.2500     25.4078    103.8596     25.0991    115.0496
  1003.5000     24.9284    103.9526     24.6126    115.7955
  1003.7500     24.6013    103.9210     24.2757    115.4950
  1004.0000     24.4332    103.7819     24.1086    114.2866
  1004.2500     24.4311    103.5584     24.1159    113.0293
  1004.5000     24.6050    103.2768     24.2898    110.3865
  1004.7500     24.9623    102.9622     24.6179    108.2343
  1005.0000     25.4982    102.6355     25.0879    105.1375
  1005.2500     26.1900    102.3117     25.6868    103.6467
  1005.5000     27.0017    101.9987     26.3928    102.4371
  1005.7500     27.8963    101.6983     27.1711    101.9148
  1006.0000     28.8455    101.4079     27.9801    100.8328
  1006.2500     29.8320    101.1232     28.7861     99.9457
  1006.5000     30.8401    100.8410     29.5733     99.0057
  1006.7500     31.8431    100.5612     30.3382     98.7764
  1007.0000     32.7960    100.2881     31.0793     98.3615
  1007.2500     33.6513    100.0308     31.7939     97.4241
  1007.5000     34.3944     99.8014     32.4867     94.4434
  1007.7500     35.0737     99.6144     33.1804     91.6120
  1008.0000     35.7842     99.4840     33.9150     87.4235
  1008.2500     36.5998     99.4230     34.7303     85.6121
  1008.5000     37.4978     99.4406     35.6325     84.9970
  1008.7500     38.3403     99.5421     36.5639     85.5342
  1009.0000     38.9335     99.7279     37.4029     86.5449
  1009.2500     39.1308     99.9929     38.0100     86.9493
  1009.5000     38.9080    100.3268     38.2941     87.0644
  1009.7500     38.3672    100.7133     38.2459     87.0085
  1010.0000     37.6763    101.1312     37.9172     87.3790
  1010.2500     36.9948    101.5550     37.3836     88.1926
  1010.5000     36.4318    101.9570     36.7274     89.8620
  1010.7500     36.0382    102.3102     36.0414     90.7146
  1011.0000     35.8158    102.5909     35.4228     90.9518
  1011.2500     35.7289    102.7817     34.9474     90.3228
  1011.5000     35.7187    102.8730     34.6441     88.1344
  1011.7500     35.7257    102.8642     34.4903     85.8462
  1012.0000     35.7168    102.7637     34.4367     81.6580
  1012.2500     35.6989    102.5879     34.4429     78.9437
  1012.5000     35.7074    102.3598     34.4978     75.8643
  1012.7500     35.7758    102.1067     34.6098     74.6308
  1013.0000     35.9119    101.8569     34.7812     73.9033
  1013.2500     36.0943    101.6365     34.9900     74.1115
  1013.5000     36.2850    101.4657     35.1908     75.2720
  1013.7500     36.4428    101.3562     35.3286     76.2612
  1014.0000     36.5341    101.3102     35.3608     77.3658
  1014.2500     36.5379    101.3207     35.2743     77.8463
  1014.5000     36.4471    101.3738     35.0867     79.1364
  1014.7500     36.2649    101.4524     34.8285     80.9323
  1015.0000     35.9998    101.5398     34.5237     84.5965
  1015.2500     35.6644    101.6226     34.1913     86.5833
  1015.5000     35.2764    101.6927     33.8584     87.1262
  1015.7500     34.8589    101.7475     33.5640     85.7885
  1016.0000     34.4387    101.7896     33.3447     82.6488
  1016.2500     34.0444    101.8246     33.2155     80.7464
  1016.5000     33.7014    101.8598     33.1605     78.8646
  1016.7500     33.4221    101.9019     33.1369     78.1653
  1017.0000     33.1971    101.9564     33.0901     77.7081
  1017.2500     32.9963    102.0264     32.9740     77.8763
  1017.5000     32.7840    102.1131     32.7712     79.2481
  1017.7500     32.5387    102.2152     32.5015     81.0632
  1018.0000     32.2615    102.3304     32.2136     84.7311
  1018.2500     31.9691    102.4547     31.9644     87.1107
  1018.5000     31.6801    102.5839     31.7937     89.2406
  1018.7500     31.4052    102.7134     31.7082     89.4152
  1019.0000     31.1458    102.8391     31.6812     88.6597
  1019.2500     30.8988    102.9572     31.6673     88.3758
  1019.5000     30.6659    103.0653     31.6251     89.1761
  1019.7500     30.4573    103.1616     31.5343     90.2972
  1020.0000     30.2877    103.2449     31.4006     91.6887
  1020.2500     30.1665    103.3144     31.2491     91.8627
  1020.5000     30.0944    103.3687     31.1132     90.9173
  1020.7500     30.0645    103.4060     31.0232     89.9460
  1021.0000     30.0661    103.4233     30.9946     89.1016
  1021.2500     30.0891    103.4174     31.0188     89.3683
  1021.5000     30.1279    103.3845     31.0609     90.7923
  1021.7500     30.1823    103.3219     31.0741     91.7840
  1022.0000     30.2549    103.2280     31.0237     92.0433
  1022.2500     30.3477    103.1034     30.9067     91.0229
  1022.5000     30.4616    102.9518     30.7517     88.1991
  1022.7500     30.5966    102.7800     30.6032     86.2255
  1023.0000     30.7535    102.5978     30.5061     84.3218
  1023.2500     30.9320    102.4175     30.4960     83.9571
  1023.5000     31.1250    102.2532     30.5931     84.1499
  1023.7500     31.3117    102.1191     30.7966     84.1808
  1024.0000     31.4585    102.0287     31.0810     83.6386
  1024.2500     31.5296    101.9932     31.3983     83.1818
  1024.5000     31.5011    102.0202     31.6878     83.1525
  1024.7500     31.3705    102.1130     31.8918     83.7254
  1025.0000     31.1536    102.2700     31.9667     85.2087
  1025.2500     30.8749    102.4845     31.8854     86.5251
  1025.5000     30.5570    102.7454     31.6342     89.3337
  1025.7500     30.2188    103.0370     31.2173     92.0460
  1026.0000     29.8786    103.3413     30.6667     97.1572
  1026.2500     29.5558    103.6386     30.0383    100.4750
  1026.5000     29.2665    103.9098     29.3887    103.6217
  1026.7500     29.0168    104.1379     28.7506    104.0677
  1027.0000     28.7997    104.3099     28.1269    102.9534
  1027.2500     28.5972    104.4178     27.5095    101.8282
  1027.5000     28.3870    104.4595     26.8999    100.6384
  1027.7500     28.1511    104.4398     26.3137    100.3605
  1028.0000     27.8822    104.3706     25.7655    100.4144
  1028.2500     27.5808    104.2712     25.2537    100.5609
  1028.5000     27.2419    104.1680     24.7594    100.9541
  1028.7500     26.8403    104.0942     24.2569    101.3339
  1029.0000     26.3242    104.0876     23.7205    101.6741
  1029.2500     25.6242    104.1879     23.1242    101.5081
  1029.5000     24.6757    104.4329     22.4393    100.8509
  1029.7500     23.4473    104.8540     21.6423    100.4520
  1030.0000     21.9600    105.4712     20.7269    100.2863
  1030.2500     20.2850    106.2900     19.7088    100.7166
  1030.5000     18.5263    107.2983     18.6199    103.0876
  1030.7500     16.8001    108.4672     17.4986    106.3788
  1031.0000     15.2153    109.7532     16.3826    113.7705
  1031.2500     13.8560    111.1031     15.3059    119.4309
  1031.5000     12.7671    112.4607     14.2951    126.8640
  1031.7500     11.9566    113.7737     13.3676    130.1970
  1032.0000     11.4107    114.9987     12.5308    132.5009
  1032.2500     11.1070    116.1055     11.7854    132.7968
  1032.5000     11.0099    117.0771     11.1295    132.9034
  1032.7500     11.0587    117.9084     10.5626    133.5267
  1033.0000     11.1696    118.6034     10.0852    135.7594
