~Version Information
VERS.                      2.0: CWLS Log ASCII Standard - VERSION 2.0
WRAP.                       NO: One line per depth step
~Well Information Block
STRT.FT                -8.7500: 
STOP.FT              1860.5000: 
STEP.FT                 0.2500: 
NULL.                -999.2500: 
COMP.          Pioneer Natural Resources: COMPANY
WELL.          Cortina 23-25 Tr: WELL
FLD.           Purgatorie River: FIELD
LOC.           --2521' FSL & 2345' FWL------: LOCATION
STAT.                       CO: PROVINCE
CNTY.               Las Animas: COUNTY
CTRY. USA : country
SECT. 25 : Section
TOWN. 32S : Township
RANG. 67W : Range
SRVC.          Patterson Wireline: SERVICE COMPANY
DATE.          Thu Sep 29 11:30:45 2005: LOG DATE
API.           05 071 08534 00: UNIQUE WELL ID
~Curve Information Block
DEPT.FT            0 000 00 00: Depth
CCL.                          : Casing Collar Locator
TT3.usec                      : CBL 3' Travel Time
AMP3.mV                       : CBL 3' Amplitude
GR.GAPI                       : Gamma Ray
~Parameter Information Block
~A  Depth       CCL         TT3         AMP3         GR     
# ...
  1465.2500      0.0000    907.0088      1.6927    123.9475
  1465.5000      0.0000    852.6436      1.5239    116.9395
  1465.7500      0.0000    788.3996      1.3904    110.8775
  1466.0000      0.0000    738.1368      1.3070    104.7358
  1466.2500      0.0000    709.1619      1.2747     98.3363
  1466.5000      0.0000    696.3452      1.2801     91.9083
  1466.7500      0.0000    691.9501      1.3078     84.8623
  1467.0000      0.0000    690.9210      1.3537     76.0024
  1467.2500      0.0000    691.0778      1.4262     65.1488
  1467.5000      0.0000    691.8738      1.5361     53.9120
  1467.7500      0.0000    693.8181      1.6901     44.6017
  1468.0000      0.0000    698.5371      1.8930     38.6534
  1468.2500      0.0000    708.5900      2.1524     35.9666
  1468.5000      0.0000    725.8955      2.4717     35.2497
  1468.7500      0.0000    749.1437      2.8271     34.9919
  1469.0000      0.0000    772.8758      3.1526     34.4768
  1469.2500      0.0000    790.2878      3.3606     33.9114
  1469.5000      0.0000    797.3621      3.3999     33.6550
  1469.7500      0.0000    794.3098      3.3044     33.6709
  1470.0000      0.0000    784.3530      3.1790     33.7772
  1470.2500      0.0000    772.4686      3.1287     34.0658
  1470.5000      0.0000    764.1530      3.1909     34.8857
  1470.7500      0.0000    762.7896      3.3306     36.5604
  1471.0000      0.0000    767.2234      3.4863     39.3137
  1471.2500      0.0000    772.7552      3.6125     43.5046
  1471.5000      0.0000    775.2044      3.6845     49.8370
  1471.7500      0.0000    773.8066      3.6872     59.0788
  1472.0000      0.0000    770.3555      3.6251     71.1685
  1472.2500      0.0000    766.5189      3.5488     84.3880
  1472.5000      0.0000    762.6974      3.5534     95.6989
  1472.7500      0.0000    759.0308      3.7311    102.3688
  1473.0000      0.0000    756.2819      4.1137    103.3553
  1473.2500      0.0000    755.2175      4.6557     99.1880
  1473.5000      0.0000    755.8799      5.2640     91.1580
  1473.7500      0.0000    758.0032      5.8373     81.1067
  1474.0000      0.0000    761.5773      6.2869     71.4026
  1474.2500      0.0000    766.4138      6.5429     64.1820
  1474.5000      0.0000    771.2774      6.5639     60.3644
  1474.7500      0.0000    773.9352      6.3565     59.5251
  1475.0000      0.0000    772.6556      5.9883     60.5391
  1475.2500      0.0000    768.0913      5.5737     62.2811
  1475.5000      0.0000    763.2698      5.2259     64.2614
  1475.7500      0.0000    760.7574      5.0088     67.1666
  1476.0000      0.0000    759.9293      4.9237     72.5071
  1476.2500      0.0000    758.1601      4.9323     81.0249
  1476.5000      0.0000    754.9550      4.9902     91.3595
  1476.7500      0.0000    753.8721      5.0752    100.7038
  1477.0000      0.0000    759.5341      5.2043    106.8435
  1477.2500      0.0000    772.7126      5.4257    109.4312
  1477.5000      0.0000    788.4111      5.7940    109.5844
  1477.7500      0.0000    798.9588      6.3436    108.7874
  1478.0000      0.0000    799.2581      7.0701    108.1963
  1478.2500      0.0000    789.2308      7.9239    108.4883
  1478.5000      0.0000    772.1207      8.8186    109.8621
  1478.7500      0.0000    752.0658      9.6526    111.9577
  1479.0000      0.0000    733.2669     10.3383    113.8704
  1479.2500      0.0000    719.2508     10.8354    114.6842
  1479.5000      0.0000    711.1551     11.1685    114.2815
  1479.7500      0.0000    707.1392     11.4007    113.3395
  1480.0000      0.0000    704.3350     11.5843    112.3049
  1480.2500      0.0000    701.1857     11.7462    110.7922
  1480.5000      0.0000    697.5319     11.9184    108.3142
  1480.7500      0.0000    693.2326     12.1515    105.2130
  1481.0000      0.0000    688.0694     12.4755    102.5774
  1481.2500      0.0000    682.4409     12.8574    101.4602
  1481.5000      0.0000    676.3770     13.2140    102.1956
  1481.7500      0.0000    668.4032     13.4629    104.0190
  1482.0000      0.0000    657.0441     13.5539    105.1485
  1482.2500      0.0000    642.2947     13.4634    103.6172
  1482.5000      0.0000    625.0952     13.1804     98.5804
  1482.7500      0.0000    609.1406     12.7045     91.0042
  1483.0000      0.0000    603.6973     12.0644     82.9627
  1483.2500      0.0000    618.1613     11.3267     76.2056
  1483.5000      0.0000    650.8887     10.5783     71.4019
  1483.7500      0.0000    687.9492      9.9005     68.4697
  1484.0000      0.0000    714.9995      9.3540     67.1426
  1484.2500      0.0000    727.7352      8.9580     67.0541
  1484.5000      0.0000    730.7599      8.6843     67.5314
  1484.7500      0.0000    729.4714      8.5215     67.6126
  1485.0000      0.0000    723.4266      8.5380     66.4731
  1485.2500      0.0000    705.6589      8.8153     63.9550
  1485.5000      0.0000    669.0522      9.3132     60.6537
  1485.7500      0.0000    616.5472      9.8464     57.4175
  1486.0000      2.0000    565.9059     10.2064     54.8288
  1486.2500      0.0000    540.6497     10.3292     53.1245
  1486.5000      0.0000    551.3918     10.4042     52.4505
  1486.7500      0.0000    585.5590     10.7933     53.2496
  1487.0000      0.0000    618.3549     11.7364     56.4482
  1487.2500      0.0000    634.2729     13.0961     62.9162
  1487.5000      0.0000    634.5496     14.4514     72.6017
  1487.7500      0.0000    624.1805     15.4642     84.6226
  1488.0000      0.0000    600.0271     16.1030     98.2510
  1488.2500      0.0000    557.4785     16.5173    113.2009
  1488.5000      0.0000    503.1152     16.8116    128.5451
  1488.7500      0.0000    452.7473     16.9975    141.7161
  1489.0000      0.0000    417.7765     17.0830    149.4149
  1489.2500      0.0000    398.6178     17.1159    150.2011
  1489.5000      0.0000    390.8257     17.1328    146.1161
  1489.7500      0.0000    392.3712     17.1077    141.0852
  1490.0000      0.0000    403.0262     16.9726    137.4528
  1490.2500      0.0000    420.4609     16.6799    134.5000
  1490.5000      0.0000    440.6430     16.2431    130.3745
  1490.7500      0.0000    461.7993     15.7320    124.5749
  1491.0000      0.0000    485.7298     15.2366    118.0615
  1491.2500      0.0000    514.0936     14.8225    111.8085
  1491.5000      0.0000    543.1221     14.5118    106.3058
  1491.7500      0.0000    562.6930     14.3057    102.3532
  1492.0000      0.0000    562.7916     14.2167    101.3988
  1492.2500      0.0000    542.3455     14.2629    104.5267
  1492.5000      0.0000    510.8931     14.4361    111.0527
  1492.7500      0.0000    481.6118     14.6895    118.3595
  1493.0000      0.0000    464.8720     14.9546    123.2971
  1493.2500      0.0000    467.9881     15.1640    123.8056
  1493.5000      0.0000    495.7913     15.2719    119.5761
  1493.7500      0.0000    546.7033     15.2745    111.9152
  1494.0000      0.0000    609.3131     15.2126    103.2282
  1494.2500      0.0000    667.0464     15.1367     96.0044
  1494.5000      0.0000    707.8900     15.0640     91.6691
  1494.7500      0.0000    729.1237     14.9803     90.3931
  1495.0000      0.0000    734.4233     14.8823     91.7281
  1495.2500      0.0000    729.4218     14.8012     94.6367
  1495.5000      0.0000    719.5735     14.7767     96.9698
  1495.7500      0.0000    708.6199     14.8194     96.2408
  1496.0000      0.0000    696.3353     14.9106     91.7064
  1496.2500      0.0000    677.4572     15.0363     85.0569
  1496.5000      0.0000    644.7612     15.2108     78.6269
  1496.7500      0.0000    596.6181     15.4602     73.5526
  1497.0000      0.0000    543.9402     15.7848     69.8981
  1497.2500      0.0000    508.0282     16.1463     67.8044
  1497.5000      0.0000    507.1781     16.5003     67.8307
  1497.7500      0.0000    541.7248     16.8382     70.2335
  1498.0000      0.0000    590.7601     17.1825     74.4846
  1498.2500      0.0000    624.3586     17.5386     79.9615
  1498.5000      0.0000    622.9610     17.8555     86.7479
