~Version Information
VERS.                      2.0: CWLS Log ASCII Standard - VERSION 2.0
WRAP.                       NO: One line per depth step
~Well Information Block
STRT.FT               245.0000: 
STOP.FT              1208.2500: 
STEP.FT                 0.2500: 
NULL.                -999.2500: 
COMP.          Pioneer Natural Resources: COMPANY
WELL.              Davida 34-8: WELL
FLD.           Purgatoire River: FIELD
LOC.           418' FSL & 1923' FEL--: LOCATION
CNTY.               Las Animas: COUNTY
SRVC.                Patterson: SERVICE COMPANY
DATE.          Sat Mar 18 07:00:13 2006: LOG DATE
UWI.           05 071 08722 00: UNIQUE WELL ID
STAT.                 Colorado: STATE
~Curve Information Block
DEPT.FT            0 000 00 00: Depth
GR.GAPI                       : Gamma Ray
DIR.Ohm-m                     : IEL Induction Resistivity
~Parameter Information Block
~A  Depth        GR         DIR     
# ...
   579.5000    133.8939     10.4958
   579.7500    137.3551     10.3701
   580.0000    139.1851     10.2910
   580.2500    137.9102     10.2499
   580.5000    133.0242     10.2402
   580.7500    128.6511     10.2575
   581.0000    122.0433     10.2992
   581.2500    118.5278     10.3617
   581.5000    115.9183     10.4365
   581.7500    116.2763     10.5097
   582.0000    119.3221     10.5653
   582.2500    122.1237     10.5891
   582.5000    125.8648     10.5718
   582.7500    127.5286     10.5076
   583.0000    129.0690     10.3942
   583.2500    130.1270     10.2337
   583.5000    132.5281     10.0352
   583.7500    134.3907      9.8153
   584.0000    136.4691      9.5949
   584.2500    137.1812      9.3919
   584.5000    138.0974      9.2154
   584.7500    139.2717      9.0637
   585.0000    142.2002      8.9270
   585.2500    144.5065      8.7937
   585.5000    147.3391      8.6544
   585.7500    148.4575      8.5049
   586.0000    149.3936      8.3462
   586.2500    149.9681      8.1850
   586.5000    150.8465      8.0315
   586.7500    151.1024      7.8963
   587.0000    150.6414      7.7852
   587.2500    150.0517      7.6975
   587.5000    149.6972      7.6260
   587.7500    150.1859      7.5610
   588.0000    151.9714      7.4944
   588.2500    153.6230      7.4222
   588.5000    156.3461      7.3440
   588.7500    158.0326      7.2611
   589.0000    159.7459      7.1743
   589.2500    160.0457      7.0838
   589.5000    159.2021      6.9882
   589.7500    158.0544      6.8855
   590.0000    156.0515      6.7742
   590.2500    154.8193      6.6547
   590.5000    153.7009      6.5313
   590.7500    153.9102      6.4105
   591.0000    156.2507      6.2987
   591.2500    158.9534      6.2002
   591.5000    163.1643      6.1163
   591.7500    164.9209      6.0463
   592.0000    164.8440      5.9888
   592.2500    163.1477      5.9432
   592.5000    159.4873      5.9118
   592.7500    157.2084      5.8991
   593.0000    154.9134      5.9104
   593.2500    154.1040      5.9492
   593.5000    153.2880      6.0159
   593.7500    152.4610      6.1067
   594.0000    150.0744      6.2143
   594.2500    147.7991      6.3293
   594.5000    144.6757      6.4416
   594.7500    143.8231      6.5431
   595.0000    145.3875      6.6298
   595.2500    148.0836      6.7028
   595.5000    152.9885      6.7681
   595.7500    155.5903      6.8356
   596.0000    156.7216      6.9170
   596.2500    155.1393      7.0233
   596.5000    149.4774      7.1630
   596.7500    144.0732      7.3409
   597.0000    134.6903      7.5587
   597.2500    128.1460      7.8157
   597.5000    118.5531      8.1102
   597.7500    112.5588      8.4419
   598.0000    104.3930      8.8123
   598.2500     99.5003      9.2235
   598.5000     92.9377      9.6733
   598.7500     89.1703     10.1493
   599.0000     84.7512     10.6255
   599.2500     82.7191     11.0638
   599.5000     80.9806     11.4251
   599.7500     80.7768     11.6838
   600.0000     82.5334     11.8392
   600.2500     85.4266     11.9139
   600.5000     91.9058     11.9411
   600.7500     96.6314     11.9502
   601.0000    102.1734     11.9582
   601.2500    104.0587     11.9677
   601.5000    104.2840     11.9691
   601.7500    103.4238     11.9470
   602.0000    102.2303     11.8876
   602.2500    102.3401     11.7831
   602.5000    104.9295     11.6330
   602.7500    108.6085     11.4396
   603.0000    116.9311     11.2046
   603.2500    123.8153     10.9296
   603.5000    134.6887     10.6194
   603.7500    141.3694     10.2858
   604.0000    149.3046      9.9476
   604.2500    152.9757      9.6280
   604.5000    156.5162      9.3500
   604.7500    157.8832      9.1322
   605.0000    158.0867      8.9867
   605.2500    156.2562      8.9199
   605.5000    149.5939      8.9349
   605.7500    142.8474      9.0330
   606.0000    131.2921      9.2128
   606.2500    123.9236      9.4665
   606.5000    114.4169      9.7766
   606.7500    109.0553     10.1145
   607.0000    102.4348     10.4432
   607.2500     99.4901     10.7267
   607.5000     98.9015     10.9414
   607.7500    101.7777     11.0833
   608.0000    110.5597     11.1653
   608.2500    118.0510     11.2083
   608.5000    128.5911     11.2303
   608.7500    133.5139     11.2396
   609.0000    136.0528     11.2331
   609.2500    134.4307     11.2010
   609.5000    128.5411     11.1361
   609.7500    123.7830     11.0430
   610.0000    117.7816     10.9407
   610.2500    115.4608     10.8567
   610.5000    115.1587     10.8182
   610.7500    116.9655     10.8443
   611.0000    121.7537     10.9417
   611.2500    125.4304     11.1056
   611.5000    129.7052     11.3225
   611.7500    130.6370     11.5741
   612.0000    128.2500     11.8422
   612.2500    124.3980     12.1132
   612.5000    116.5578     12.3828
   612.7500    110.7974     12.6570
   613.0000    102.4388     12.9483
   613.2500     97.4385     13.2683
   613.5000     91.0138     13.6210
   613.7500     87.3453     13.9992
   614.0000     82.5032     14.3843
   614.2500     79.7758     14.7520
   614.5000     76.9657     15.0805
   614.7500     76.1879     15.3576
   615.0000     76.3152     15.5823
   615.2500     76.6540     15.7624
   615.5000     76.5665     15.9120
   615.7500     75.9370     16.0493
   616.0000     74.4253     16.1925
   616.2500     73.2396     16.3546
   616.5000     71.4089     16.5382
   616.7500     70.4373     16.7361
   617.0000     70.2179     16.9360
   617.2500     71.2079     17.1267
   617.5000     73.8038     17.3022
   617.7500     75.3889     17.4614
   618.0000     76.1439     17.6045
   618.2500     75.2585     17.7297
   618.5000     72.2581     17.8354
   618.7500     69.6911     17.9255
   619.0000     65.9688     18.0113
   619.2500     63.9702     18.1045
   619.5000     61.9575     18.2058
   619.7500     61.2749     18.3006
   620.0000     61.1780     18.3658
   620.2500     61.6175     18.3840
   620.5000     62.6063     18.3534
   620.7500     63.2215     18.2860
   621.0000     63.9366     18.1987
   621.2500     64.3540     18.1069
   621.5000     64.9903     18.0225
   621.7500     65.4187     17.9539
   622.0000     66.1557     17.9050
   622.2500     66.8150     17.8753
   622.5000     67.9876     17.8630
   622.7500     68.5928     17.8698
   623.0000     68.5882     17.9014
   623.2500     67.8129     17.9618
   623.5000     65.8188     18.0478
   623.7500     64.3653     18.1497
   624.0000     62.7625     18.2575
   624.2500     62.3932     18.3685
   624.5000     63.0308     18.4882
   624.7500     64.0520     18.6261
   625.0000     65.7548     18.7906
   625.2500     66.5199     18.9878
   625.5000     66.4405     19.2212
   625.7500     65.3789     19.4904
   626.0000     62.5760     19.7899
   626.2500     60.4939     20.1093
   626.5000     58.2953     20.4369
   626.7500     57.8712     20.7659
   627.0000     58.6602     21.0964
   627.2500     59.7488     21.4311
   627.5000     61.5396     21.7641
   627.7500     62.4872     22.0733
   628.0000     62.9764     22.3231
   628.2500     62.5680     22.4812
   628.5000     61.4677     22.5348
   628.7500     61.0475     22.4954
   629.0000     61.4818     22.3890
   629.2500     62.3170     22.2419
   629.5000     63.7414     22.0723
   629.7500     64.4945     21.8878
   630.0000     64.9800     21.6846
   630.2500     64.7946     21.4504
   630.5000     63.9386     21.1734
   630.7500     63.2408     20.8524
   631.0000     62.4741     20.5019
   631.2500     62.3565     20.1456
   631.5000     62.9669     19.8069
   631.7500     63.9554     19.5044
   632.0000     66.2813     19.2527
   632.2500     68.1668     19.0608
   632.5000     70.7374     18.9277
   632.7500     71.9264     18.8376
   633.0000     72.9812     18.7642
   633.2500     73.4628     18.6822
   633.5000     74.0630     18.5796
   633.7500     74.2892     18.4621
   634.0000     74.1433     18.3488
   634.2500     73.6992     18.2610
   634.5000     72.7595     18.2109
   634.7500     72.2195     18.1963
   635.0000     71.8611     18.2025
