~Version Information
VERS.                      2.0: CWLS Log ASCII Standard - VERSION 2.0
WRAP.                       NO: One line per depth step
~Well Information Block
STRT.FT               480.0000: 
STOP.FT              1817.0000: 
STEP.FT                 0.1000: 
NULL.                -999.2500: 
COMP.          Pioneer Natural Resources: COMPANY
WELL.           Bobsy 34-11 Tr: WELL
FLD.           Purgatoire River: FIELD
LOC.           514' FSL & 1784' FEL: LOCATION
PROV.                 Colorado: PROVINCE
CNTY.               Las Animas: COUNTRY
SRVC.                Patterson: SERVICE COMPANY
DATE.          Tue Jul 19 10:30:09 2005: LOG DATE
UWI.           05 071 08438 00: UNIQUE WELL ID
~Curve Information Block
DEPT.FT            0 000 00 00: Depth
DCAL.in                       : CDL Caliper
DPOR.pu                       : CDL Density Porosity
GR.GAPI                       : Gamma Ray
NPOR.pu                       : Neutron Porosity
RHOB.g/cc                     : CDL Bulk Density
RHOC.g/cc                     : CDL Density Correction
~Parameter Information Block
~A  Depth       DCAL        DPOR         GR         NPOR        RHOB        RHOC    
# ...
   835.2000      8.3689      8.1604     98.3513     24.4839      2.5154      0.2014
   835.3000      8.2861      7.8494    107.6200     24.2132      2.5205      0.1945
   835.4000      8.2861      8.2187    120.5216     24.3885      2.5144      0.1336
   835.5000      8.2445      9.1865    132.3651     25.2861      2.4984      0.0587
   835.6000      8.2445     10.4471    138.4327     26.0219      2.4776      0.0442
   835.7000      8.2445     11.8680    138.1542     25.7576      2.4542      0.0130
   835.8000      8.1790     13.2332    134.0589     24.8835      2.4317      0.0299
   835.9000      8.1790     13.6970    129.4000     24.1378      2.4240      0.0035
   836.0000      8.1514     13.0076    127.7162     23.7022      2.4354      0.0578
   836.1000      8.1514     12.1356    131.6960     23.5617      2.4498      0.0708
   836.2000      8.1514     11.6143    138.4841     23.8026      2.4584      0.0924
   836.3000      8.1366     11.6381    140.9903     24.1135      2.4580      0.1249
   836.4000      8.1366     12.8824    138.8483     23.9365      2.4374      0.1194
   836.5000      8.1334     15.5692    140.6315     23.3195      2.3931      0.0717
   836.6000      8.1334     19.3111    148.8954     22.6299      2.3314      0.1266
   836.7000      8.1334     23.6378    155.0347     21.9154      2.2600      0.0261
   836.8000      8.1320     27.2843    153.9853     21.2942      2.1998      0.0301
   836.9000      8.1320     29.3816    149.7915     20.9159      2.1652      0.0687
   837.0000      8.1373     30.2916    144.6429     20.7122      2.1502      0.1204
   837.1000      8.1373     29.6759    138.6791     20.7855      2.1603      0.1116
   837.2000      8.1373     26.8933    135.2447     21.2572      2.2063      0.2404
   837.3000      8.1671     22.6320    135.6264     21.7421      2.2766      0.2632
   837.4000      8.1671     17.6037    140.3125     21.8999      2.3595      0.3503
   837.5000      8.1722     12.6636    150.4698     22.0535      2.4411      0.4974
   837.6000      8.1722      9.5785    161.6762     22.5393      2.4920      0.5412
   837.7000      8.1722      9.0893    166.9863     23.1575      2.5000      0.4745
   837.8000      8.2279     10.0448    166.8696     23.6349      2.4843      0.3802
   837.9000      8.2279     11.5107    166.7998     23.9443      2.4601      0.3442
   838.0000      8.2548     13.9462    167.7125     24.1825      2.4199      0.2145
   838.1000      8.2548     17.6202    167.2749     24.4667      2.3593      0.0876
   838.2000      8.2548     21.4106    165.3280     24.7505      2.2967      0.0353
   838.3000      8.3113     23.8452    163.9005     24.9643      2.2566      0.0347
   838.4000      8.3113     24.2826    167.1263     25.0582      2.2493      0.0259
   838.5000      8.1547     22.7147    175.3812     25.0668      2.2752      0.0099
   838.6000      8.1547     19.4035    179.4953     25.0497      2.3298      0.0391
   838.7000      8.1547     14.9129    170.6035     25.1397      2.4039      0.1389
   838.8000      8.1311     10.0752    152.4323     25.5972      2.4838      0.2028
   838.9000      8.1311      5.3128    139.4227     26.1556      2.5623      0.2905
   839.0000      8.1296      0.8666    139.9044     26.3967      2.6357      0.3680
   839.1000      8.1296     -2.2918    148.0288     26.3569      2.6878      0.4264
   839.2000      8.1296     -3.1031    154.2732     26.0082      2.7012      0.3590
   839.3000      8.1269     -1.7672    157.0454     25.4991      2.6792      0.2602
   839.4000      8.1269      0.3494    156.6034     25.1180      2.6442      0.1086
   839.5000      8.1457      2.1349    149.5371     24.8944      2.6148      0.1238
   839.6000      8.1457      3.7893    140.4263     24.9238      2.5875      0.0789
   839.7000      8.1457      5.8007    136.8361     25.3076      2.5543      0.0324
   839.8000      8.1064      7.8181    139.7617     25.7659      2.5210     -0.0131
   839.9000      8.1064      8.7976    148.4238     25.8119      2.5048     -0.0385
   840.0000      8.0968      8.2232    157.3909     25.6882      2.5143      0.0205
   840.1000      8.0968      7.1962    158.0907     26.1696      2.5313      0.1125
   840.2000      8.0968      6.9196    151.5931     27.1688      2.5358      0.0924
   840.3000      8.0981      6.7879    146.9055     28.0114      2.5380      0.0306
   840.4000      8.0981      5.7111    144.1061     28.2251      2.5558      0.0716
   840.5000      8.1166      3.8734    137.7211     27.8341      2.5861      0.0711
   840.6000      8.1166      1.9894    131.1629     27.3285      2.6172      0.0643
   840.7000      8.1166      0.1385    128.0298     26.8152      2.6477      0.0817
   840.8000      8.1308     -2.0397    127.1021     26.1401      2.6837      0.0867
   840.9000      8.1308     -4.2582    125.4137     25.5084      2.7203      0.0914
   841.0000      8.1331     -5.0060    123.7377     25.1280      2.7326      0.0888
   841.1000      8.1331     -3.2098    124.4018     25.0817      2.7030      0.0750
   841.2000      8.1331     -0.2600    124.6960     25.2699      2.6543     -0.0258
   841.3000      8.1287      1.5308    123.3177     25.2233      2.6247     -0.0310
   841.4000      8.1287      1.9398    122.2404     24.8587      2.6180     -0.0162
   841.5000      8.1314      2.3940    121.2868     24.6263      2.6105      0.0137
   841.6000      8.1314      3.3735    121.9859     24.7403      2.5943     -0.0103
   841.7000      8.1314      3.8524    126.3418     24.9648      2.5864     -0.0072
   841.8000      8.1258      3.5489    129.2129     25.1352      2.5914      0.0977
   841.9000      8.1258      3.3484    127.3022     25.4620      2.5948      0.0114
   842.0000      8.1268      3.3237    125.5366     25.8462      2.5952      0.0250
   842.1000      8.1268      3.5409    123.2951     25.9598      2.5916      0.0604
   842.2000      8.1268      4.7799    116.8986     26.0560      2.5711      0.0495
   842.3000      8.1441      6.5886    112.9827     26.4087      2.5413     -0.0180
   842.4000      8.1441      7.5885    115.6252     26.8414      2.5248     -0.0128
   842.5000      8.1501      7.4025    115.4252     27.0299      2.5279      0.0211
   842.6000      8.1501      6.0593    107.2236     26.8446      2.5500      0.0041
   842.7000      8.1501      3.3460     99.8148     26.3808      2.5948     -0.0053
   842.8000      8.1388     -0.5775     96.7544     25.8202      2.6595      0.0458
   842.9000      8.1388     -4.6666     93.8209     25.3940      2.7270      0.1418
   843.0000      8.0525     -7.5641     93.1045     25.2161      2.7748      0.1311
   843.1000      8.0525     -8.9304     94.8012     25.2143      2.7974      0.1437
   843.2000      8.0525     -8.8875     94.1071     25.2118      2.7966      0.1421
   843.3000      8.0213     -7.5934     91.6661     25.1084      2.7753      0.0696
   843.4000      8.0213     -6.0264     91.4753     24.9970      2.7494      0.0057
   843.5000      8.0211     -4.5772     92.7467     24.8674      2.7255      0.0295
   843.6000      8.0211     -2.6823     93.4718     24.3341      2.6943      0.0152
   843.7000      8.0211     -0.5960     95.0523     23.1747      2.6598      0.0348
   843.8000      8.0226      1.3361     98.1459     21.8275      2.6280      0.0635
   843.9000      8.0226      3.2766    100.8051     20.8685      2.5959      0.0381
   844.0000      8.0203      4.9840    101.1142     20.4296      2.5678     -0.0087
   844.1000      8.0203      6.1299    100.0184     20.3752      2.5489     -0.0384
   844.2000      8.0203      6.6402    101.6319     20.4489      2.5404     -0.0270
   844.3000      8.0251      6.8935    107.5999     20.3958      2.5363      0.0499
   844.4000      8.0251      7.6611    114.4095     20.3937      2.5236      0.0454
   844.5000      8.0920      9.0128    120.1324     20.7896      2.5013      0.0085
   844.6000      8.0920     10.1332    126.1800     21.5803      2.4828      0.0085
   844.7000      8.0920     10.2353    132.7457     22.5295      2.4811      0.0263
