~Version Information
VERS.                      2.0: CWLS Log ASCII Standard - VERSION 2.0
WRAP.                       NO: One line per depth step
~Well Information Block
STRT.FT                -7.7500: 
STOP.FT              1519.0000: 
STEP.FT                 0.2500: 
NULL.                -999.2500: 
COMP.          Pioneer Natural Resources: COMPANY
WELL.          Mow 8-14-33-67 Tr: WELL
FLD.           Purgatorie River: FIELD
LOC.           2258' FNL & 929' FEL--: LOCATION
CNTY.               Las Animas: COUNTY
SRVC.          Patterson Wireline: SERVICE COMPANY
DATE.          Thu Feb 02 10:06:28 2006: LOG DATE
UWI.           05 071 08684 00: UNIQUE WELL ID
STAT.                       CO: STATE
~Curve Information Block
DEPT.FT            0 000 00 00: Depth
MINMK.                        : Magnetic Mark Ticks
CCL.                          : Casing Collar Locator
TT3.usec                      : CBL 3' Travel Time
AMP3.mV                       : CBL 3' Amplitude
GR.GAPI                       : Gamma Ray
~Parameter Information Block
~A  Depth      MINMK        CCL         TT3         AMP3         GR     
# ...
   384.2500      0.0000      0.0000    262.5460     87.5461     87.1685
   384.5000      0.0000      0.0000    262.5477     87.5742     88.3264
   384.7500      0.0000      0.0000    262.5476     87.6187     89.5957
   385.0000      0.0000      0.0000    262.5467     87.6348     91.9921
   385.2500      0.0000      0.0000    262.5475     87.5985     96.0238
   385.5000      0.0000      0.0000    262.5506     87.5298    101.5093
   385.7500      0.0000      0.0000    262.5538     87.4754    107.1675
   386.0000      0.0000      0.0000    262.5537     87.4703    110.8909
   386.2500      0.0000      0.0000    262.5491     87.5131    111.2288
   386.5000      0.0000      0.0000    262.5416     87.5732    108.5767
   386.7500      0.0000      0.0000    262.5342     87.6180    104.4518
   387.0000      0.0000      0.0000    262.5297     87.6326     99.7572
   387.2500      0.0000      0.0000    262.5305     87.6179     94.3436
   387.5000      0.0000      0.0000    262.5383     87.5807     88.2297
   387.7500      0.0000      0.0000    262.5532     87.5309     82.4970
   388.0000      0.0000      0.0000    262.5723     87.4866     78.5770
   388.2500      0.0000      0.0000    262.5906     87.4692     77.0348
   388.5000      0.0000      0.0000    262.6038     87.4853     77.5195
   388.7500      0.0000      0.0000    262.6099     87.5201     79.7493
   389.0000      0.0000      0.0000    262.6099     87.5552     84.0865
   389.2500      0.0000      0.0000    262.6072     87.5846     91.0129
   389.5000      0.0000      0.0000    262.6063     87.6063    100.2283
   389.7500      0.0000      0.0000    262.6102     87.6059    110.3127
   390.0000      0.0000      0.0000    262.6192     87.5654    119.2406
   390.2500      0.0000      0.0000    262.6308     87.4872    125.3416
   390.5000      0.0000      0.0000    262.6423     87.3981    128.0075
   390.7500      0.0000      0.0000    262.6527     87.3276    127.9105
   391.0000      0.0000      0.0000    262.6616     87.2865    126.9088
   391.2500      0.0000      0.0000    262.6675     87.2686    127.2977
   391.5000      0.0000      0.0000    262.6679     87.2666    130.2902
   391.7500      0.0000      0.0000    262.6612     87.2803    134.9134
   392.0000      0.0000      0.0000    262.6479     87.3135    138.5316
   392.2500      0.0000      0.0000    262.6314     87.3610    138.5792
   392.5000      0.0000      0.0000    262.6160     87.4026    134.0483
   392.7500      0.0000      0.0000    262.6057     87.4183    125.8775
   393.0000      0.0000      0.0000    262.6017     87.4122    116.3572
   393.2500      0.0000      0.0000    262.6024     87.4114    108.1583
   393.5000      0.0000      0.0000    262.6049     87.4358    103.6226
   393.7500      0.0000      0.0000    262.6073     87.4774    104.3616
   394.0000      0.0000      0.0000    262.6096     87.5101    110.6057
   394.2500      0.0000      0.0000    262.6138     87.5131    120.4181
   394.5000      0.0000      0.0000    262.6218     87.4842    130.1350
   394.7500      0.0000      0.0000    262.6336     87.4354    136.5480
   395.0000      0.0000      0.0000    262.6454     87.3827    139.0118
   395.2500      0.0000      0.0000    262.6517     87.3427    139.3301
   395.5000      0.0000      0.0000    262.6486     87.3356    139.8061
   395.7500      0.0000      0.0000    262.6375     87.3740    141.5383
   396.0000      1.0000      0.0000    262.6241     87.4457    144.0362
   396.2500      0.0000      0.0000    262.6127     87.5174    145.9144
   396.5000      0.0000      0.0000    262.6040     87.5615    146.1843
   396.7500      0.0000      0.0000    262.5961     87.5754    145.3525
   397.0000      0.0000      0.0000    262.5876     87.5741    145.2172
   397.2500      0.0000      0.0000    262.5788     87.5726    147.3887
   397.5000      0.0000      0.0000    262.5704     87.5755    151.9196
   397.7500      0.0000      0.0000    262.5628     87.5772    157.2462
   398.0000      0.0000      0.0000    262.5576     87.5652    161.3329
   398.2500      0.0000      0.0000    262.5572     87.5277    163.0971
   398.5000      0.0000      0.0000    262.5623     87.4632    162.9615
   398.7500      0.0000      0.0000    262.5713     87.3807    161.9298
   399.0000      0.0000      0.0000    262.5810     87.2931    160.1857
   399.2500      0.0000      0.0000    262.5877     87.2128    156.9832
   399.5000      0.0000      0.0000    262.5882     87.1530    152.1860
   399.7500      0.0000      0.0000    262.5812     87.1236    147.5419
   400.0000      0.0000      0.0000    262.5688     87.1224    145.6594
   400.2500      0.0000      0.0000    262.5555     87.1394    147.3749
   400.5000      0.0000      0.0000    262.5449     87.1713    150.5959
   400.7500      0.0000      0.0000    262.5378     87.2214    152.2652
   401.0000      0.0000      0.0000    262.5338     87.2831    151.1952
   401.2500      0.0000      0.0000    262.5320     87.3391    148.5708
   401.5000      0.0000      0.0000    262.5315     87.3811    146.0751
   401.7500      0.0000      0.0000    262.5305     87.4200    144.4195
   402.0000      0.0000      0.0000    262.5280     87.4659    143.8531
   402.2500      0.0000      0.0000    262.5253     87.5072    145.0567
   402.5000      0.0000      0.0000    262.5253     87.5187    148.6090
   402.7500      0.0000      0.0000    262.5298     87.4881    153.9745
   403.0000      0.0000      0.0000    262.5379     87.4282    159.7260
   403.2500      0.0000      0.0000    262.5480     87.3657    164.6407
   403.5000      0.0000      0.0000    262.5598     87.3241    168.2731
   403.7500      0.0000      0.0000    262.5740     87.3149    170.7622
   404.0000      0.0000      0.0000    262.5895     87.3415    172.5230
   404.2500      0.0000      0.0000    262.6023     87.4076    173.9359
   404.5000      0.0000      0.0000    262.6091     87.5153    174.9077
   404.7500      0.0000      0.0000    262.6103     87.6525    174.8277
   405.0000      0.0000      0.0000    262.6084     87.7896    173.3121
   405.2500      0.0000      0.0000    262.6059     87.8955    170.8782
   405.5000      0.0000      0.0000    262.6042     87.9577    168.4459
   405.7500      0.0000      0.0000    262.6043     87.9853    166.3377
   406.0000      0.0000      0.0000    262.6070     87.9948    164.1960
   406.2500      0.0000      0.0000    262.6120     87.9941    161.7141
   406.5000      0.0000      0.0000    262.6185     87.9778    159.0019
   406.7500      0.0000      0.0000    262.6253     87.9347    156.2699
   407.0000      0.0000      0.0000    262.6316     87.8596    153.4507
   407.2500      0.0000      0.0000    262.6375     87.7614    150.3180
   407.5000      0.0000      0.0000    262.6428     87.6612    146.9058
   407.7500      0.0000      0.0000    262.6467     87.5848    143.7258
   408.0000      0.0000      0.0000    262.6467     87.5552    141.4239
   408.2500      0.0000      0.0000    262.6409     87.5819    140.0730
   408.5000      0.0000      0.0000    262.6291     87.6534    138.9665
   408.7500      0.0000      0.0000    262.6132     87.7419    137.4070
   409.0000      0.0000      0.0000    262.5961     87.8173    135.5069
   409.2500      0.0000      0.0000    262.5809     87.8637    133.9723
   409.5000      0.0000      0.0000    262.5695     87.8879    133.2989
   409.7500      0.0000      0.0000    262.5621     87.9095    133.4466
   410.0000      0.0000      0.0000    262.5583     87.9376    134.2249
   410.2500      0.0000      0.0000    262.5581     87.9615    135.8442
   410.5000      0.0000      0.0000    262.5621     87.9711    138.9668
   410.7500      0.0000      0.0000    262.5701     87.9762    144.0360
   411.0000      0.0000      0.0000    262.5804     87.9949    150.3633
   411.2500      0.0000      0.0000    262.5904     88.0271    155.9997
   411.5000      0.0000      0.0000    262.5968     88.0540    158.8510
   411.7500      0.0000      0.0000    262.5970     88.0625    158.1476
   412.0000      0.0000      0.0000    262.5901     88.0605    154.9056
