~Version Information
VERS.                      2.0: CWLS Log ASCII Standard - VERSION 2.0
WRAP.                       NO: One line per depth step
~Well Information Block
STRT.FT               555.0000: 
STOP.FT              2322.2000: 
STEP.FT                 0.1000: 
NULL.                -999.2500: 
COMP.          Pioneer Natural Resources: COMPANY
WELL.          Fittipaldi 21-12: WELL
FLD.           Purgatoire River: FIELD
LOC.           207' FNL & 2110' FWL--: LOCATION
CNTY.               Las Animas: COUNTY
SRVC.                Patterson: SERVICE COMPANY
DATE.          Wed Mar 22 07:11:06 2006: LOG DATE
UWI.           05 071 08492 00: UNIQUE WELL ID
STAT.                 Colorado: STATE
~Curve Information Block
DEPT.FT            0 000 00 00: Depth
DCAL.in                       : CDL Caliper
RHOB.g/cc                     : CDL Bulk Density
RHOC.g/cc                     : CDL Density Correction
DPOR.pu                       : CDL Density Porosity
NPOR.pu                       : Neutron Porosity
GR.GAPI                       : Gamma Ray
~Parameter Information Block
~A  Depth       DCAL        RHOB        RHOC        DPOR        NPOR         GR     
# ...
  1246.2000      8.0803      2.4725      0.0266     10.7580     23.1269    113.3790
  1246.3000      8.0479      2.5237      0.0321      7.6550     23.3509    112.8877
  1246.4000      8.0479      2.6122      0.1374      2.2884     24.0121    113.2175
  1246.5000      8.0018      2.7101      0.1469     -3.6437     24.9342    109.6924
  1246.6000      8.0018      2.8005      0.2492     -9.1229     25.7988    100.1254
  1246.7000      8.0018      2.8651      0.2714    -13.0389     26.5218     89.7205
  1246.8000      7.9762      2.8925      0.2345    -14.6968     27.3350     86.0978
  1246.9000      7.9762      2.9025      0.1585    -15.3028     28.2741     89.2167
  1247.0000      7.9801      2.9186      0.1624    -16.2806     28.9775     93.6652
  1247.1000      7.9801      2.9343      0.1352    -17.2302     29.3581     95.5984
  1247.2000      7.9801      2.9255      0.1069    -16.6965     29.6593     93.5289
  1247.3000      8.0075      2.8912     -0.0436    -14.6204     29.9571     89.1923
  1247.4000      8.0075      2.8499     -0.0128    -12.1164     30.0725     87.6212
  1247.5000      8.0401      2.7981      0.0096     -8.9764     29.8664     90.0385
  1247.6000      8.0401      2.7344     -0.0746     -5.1146     29.6168     93.5339
  1247.7000      8.0401      2.6846     -0.0894     -2.0958     29.5579     99.5386
  1247.8000      8.0616      2.6597     -0.0603     -0.5885     29.4178    109.4480
  1247.9000      8.0616      2.6442     -0.0518      0.3534     28.9727    117.3850
  1248.0000      8.0641      2.6278     -0.0136      1.3467     28.4618    119.0032
  1248.1000      8.0641      2.6078     -0.0145      2.5571     28.1251    117.3918
  1248.2000      8.0641      2.5779     -0.0174      4.3702     27.6687    115.9006
  1248.3000      8.0525      2.5379      0.0120      6.7958     26.9201    112.0672
  1248.4000      8.0525      2.5016      0.0009      8.9938     26.2228    106.1650
  1248.5000      8.0372      2.4849     -0.0068     10.0048     25.7541    106.2980
  1248.6000      8.0372      2.4869      0.0517      9.8878     25.4917    113.7419
  1248.7000      8.0372      2.4911      0.0736      9.6300     25.4712    121.0003
  1248.8000      8.0298      2.4880      0.0598      9.8176     25.4564    124.2308
  1248.9000      8.0298      2.4805      0.0549     10.2733     25.2153    126.8075
  1249.0000      8.0277      2.4714      0.0260     10.8218     24.7930    131.8373
  1249.1000      8.0277      2.4592      0.0683     11.5633     24.2616    135.1233
  1249.2000      8.0277      2.4406      0.0792     12.6882     23.6056    131.7391
  1249.3000      8.0193      2.4223      0.0055     13.8013     22.9838    124.6564
  1249.4000      8.0193      2.4184      0.0575     14.0386     22.5861    120.6764
  1249.5000      8.0024      2.4351      0.0268     13.0220     22.4203    120.6454
  1249.6000      8.0024      2.4750      0.0441     10.6078     22.3262    121.3797
  1249.7000      8.0024      2.5255      0.1216      7.5455     22.3132    120.7240
  1249.8000      7.9870      2.5607      0.1451      5.4149     22.6418    118.7330
  1249.9000      7.9870      2.5714      0.1414      4.7667     23.3065    117.9785
  1250.0000      7.9823      2.5680      0.1312      4.9686     23.9308    119.1052
  1250.1000      7.9823      2.5625      0.0869      5.3027     24.4202    118.8560
  1250.2000      7.9823      2.5586      0.1012      5.5398     25.0186    116.7882
  1250.3000      7.9900      2.5552      0.0683      5.7484     25.7298    114.9898
  1250.4000      7.9900      2.5523      0.0360      5.9208     26.2127    112.7274
  1250.5000      8.0104      2.5478      0.0512      6.1912     26.1528    110.5493
  1250.6000      8.0104      2.5425      0.0222      6.5125     25.7124    110.7490
  1250.7000      8.0104      2.5450      0.0223      6.3616     25.2394    113.7471
  1250.8000      8.0367      2.5591      0.0303      5.5102     24.7648    119.2845
  1250.9000      8.0367      2.5778      0.0745      4.3743     24.2972    126.4045
  1251.0000      8.0545      2.5966      0.0630      3.2350     24.1243    131.5900
  1251.1000      8.0545      2.6149      0.0651      2.1277     24.3271    132.0129
  1251.2000      8.0545      2.6229      0.0538      1.6421     24.4809    129.9833
  1251.3000      8.0584      2.6072      0.0507      2.5964     24.4057    127.1259
  1251.4000      8.0584      2.5696      0.0212      4.8713     24.4652    121.1689
  1251.5000      8.0579      2.5345      0.0196      6.9984     24.7926    114.3857
  1251.6000      8.0579      2.5183     -0.0128      7.9805     24.9971    112.2365
  1251.7000      8.0579      2.5053      0.0057      8.7681     24.7061    115.9816
  1251.8000      8.0569      2.4762     -0.0381     10.5316     24.0863    123.4936
  1251.9000      8.0569      2.4333     -0.0471     13.1339     23.5155    131.7990
  1252.0000      8.0550      2.3823     -0.0440     16.2253     22.9302    136.8002
  1252.1000      8.0550      2.3285     -0.0720     19.4834     22.3106    134.8602
  1252.2000      8.0550      2.2793     -0.0599     22.4673     21.6914    127.1430
  1252.3000      8.0515      2.2326     -0.0475     25.2974     20.8396    121.9624
  1252.4000      8.0515      2.1879     -0.0541     28.0048     19.8710    123.9119
  1252.5000      8.0442      2.1595     -0.0776     29.7246     18.8741    127.9562
  1252.6000      8.0442      2.1570      0.0035     29.8812     17.7237    128.3938
  1252.7000      8.0442      2.1653      0.0386     29.3743     16.7683    125.4489
  1252.8000      8.0367      2.1771      0.0058     28.6595     16.4116    121.2481
  1252.9000      8.0367      2.2129      0.0295     26.4936     16.5319    114.2518
  1253.0000      8.0336      2.2744      0.1634     22.7661     16.7250    103.7656
  1253.1000      8.0336      2.3260      0.1704     19.6349     16.6647     94.7940
  1253.2000      8.0336      2.3455      0.1124     18.4524     16.4089     91.5951
  1253.3000      8.0296      2.3452      0.1019     18.4750     16.3631     92.1060
  1253.4000      8.0296      2.3364      0.1233     19.0044     16.7244     93.7219
  1253.5000      8.0198      2.3162      0.0677     20.2285     17.3342     96.0773
  1253.6000      8.0198      2.2868      0.0409     22.0142     17.9965     97.2120
  1253.7000      8.0198      2.2561     -0.0276     23.8733     18.6844     95.1223
  1253.8000      8.0067      2.2320     -0.0458     25.3324     19.4561     90.3195
  1253.9000      8.0067      2.2148     -0.0449     26.3762     20.0765     86.4747
  1254.0000      8.0009      2.1795      0.0333     28.5151     20.2286     85.8854
  1254.1000      8.0009      2.1070     -0.0137     32.9092     19.9059     86.3728
  1254.2000      8.0009      2.0234     -0.0514     37.9774     19.1438     86.5250
  1254.3000      8.0087      1.9471      0.0105     42.6024     18.0248     89.0042
  1254.4000      8.0087      1.8588      0.0913     47.9502     16.6477     94.5393
  1254.5000      8.0339      1.7571      0.0490     54.1156     15.0645     97.0368
  1254.6000      8.0339      1.6610      0.0709     59.9393     13.3505     92.4772
  1254.7000      8.0339      1.5721      0.0441     65.3243     11.7421     86.1447
  1254.8000      8.0781      1.4928      0.0149     70.1337     10.4529     83.9247
  1254.9000      8.0781      1.4426      0.0033     73.1759      9.5549     82.8005
  1255.0000      8.1382      1.4295      0.0546     73.9715      8.9865     77.4235
  1255.1000      8.1382      1.4333      0.1364     73.7379      8.4017     70.4015
  1255.2000      8.1382      1.4317      0.1372     73.8344      7.7408     68.1894
  1255.3000      8.2017      1.4213      0.1426     74.4691      7.3319     72.0414
  1255.4000      8.2017      1.4075      0.1392     75.3009      7.1527     78.3817
  1255.5000      8.2484      1.3940      0.1297     76.1227      6.8446     84.6080
  1255.6000      8.2484      1.3796      0.1304     76.9927      6.1269     88.9945
  1255.7000      8.2484      1.3575      0.1292     78.3344      5.0344     90.1635
