~Version Information
VERS.                      2.0: CWLS Log ASCII Standard - VERSION 2.0
WRAP.                       NO: One line per depth step
~Well Information Block
STRT.FT                10.0000: 
STOP.FT               959.2500: 
STEP.FT                 0.2500: 
NULL.                -999.2500: 
COMP.          XTO Energy Inc.: COMPANY
WELL.          Golden Eagle 20-04: WELL
FLD.           Purgatrorie River: FIELD
LOC.           702' FNL & 487' FWL--: LOCATION
STAT.                       CO: State
CNTY.               Las Animas: COUNTY
CTRY. USA : Country
SECT. 20 : Section
TOWN. 33S : Township
RANG. 67W : Range
SRVC.          Patterson Wireline: SERVICE COMPANY
DATE.          Mon Dec 05 08:42:44 2005: LOG DATE
API.           05 071 08599 00: UNIQUE WELL ID
~Curve Information Block
DEPT.FT            0 000 00 00: Depth
TEMP.degF                     : Downhole Temperature
DTMP.degF                     : Delta Temperature
~Parameter Information Block
~A  Depth       TEMP        DTMP    
# ...
   511.7500     61.8130      0.0059
   512.0000     61.8146      0.0059
   512.2500     61.8163      0.0060
   512.5000     61.8175      0.0060
   512.7500     61.8192      0.0061
   513.0000     61.8205      0.0061
   513.2500     61.8221      0.0062
   513.5000     61.8239      0.0063
   513.7500     61.8252      0.0064
   514.0000     61.8269      0.0065
   514.2500     61.8287      0.0067
   514.5000     61.8301      0.0069
   514.7500     61.8320      0.0070
   515.0000     61.8335      0.0072
   515.2500     61.8355      0.0072
   515.5000     61.8376      0.0077
   515.7500     61.8391      0.0076
   516.0000     61.8414      0.0082
   516.2500     61.8431      0.0085
   516.5000     61.8454      0.0088
   516.7500     61.8473      0.0094
   517.0000     61.8498      0.0093
   517.2500     61.8524      0.0100
   517.5000     61.8551      0.0099
   517.7500     61.8579      0.0106
   518.0000     61.8601      0.0105
   518.2500     61.8630      0.0109
   518.5000     61.8653      0.0112
   518.7500     61.8684      0.0111
   519.0000     61.8708      0.0118
   519.2500     61.8741      0.0121
   519.5000     61.8775      0.0124
   519.7500     61.8801      0.0127
   520.0000     61.8837      0.0133
   520.2500     61.8873      0.0131
   520.5000     61.8900      0.0133
   520.7500     61.8937      0.0140
   521.0000     61.8975      0.0137
   521.2500     61.9004      0.0139
   521.5000     61.9042      0.0141
   521.7500     61.9081      0.0143
   522.0000     61.9111      0.0139
   522.2500     61.9151      0.0145
   522.5000     61.9181      0.0147
   522.7500     61.9222      0.0143
   523.0000     61.9253      0.0148
   523.2500     61.9294      0.0143
   523.5000     61.9336      0.0148
   523.7500     61.9366      0.0147
   524.0000     61.9407      0.0146
   524.2500     61.9438      0.0145
   524.5000     61.9478      0.0138
   524.7500     61.9517      0.0141
   525.0000     61.9546      0.0139
   525.2500     61.9584      0.0141
   525.5000     61.9612      0.0134
   525.7500     61.9649      0.0130
   526.0000     61.9684      0.0131
   526.2500     61.9719      0.0123
   526.5000     61.9745      0.0123
   526.7500     61.9777      0.0115
   527.0000     61.9808      0.0110
   527.2500     61.9830      0.0105
   527.5000     61.9859      0.0102
   527.7500     61.9879      0.0097
   528.0000     61.9905      0.0090
   528.2500     61.9930      0.0089
   528.5000     61.9948      0.0082
   528.7500     61.9971      0.0081
   529.0000     61.9988      0.0077
   529.2500     62.0009      0.0070
   529.5000     62.0024      0.0068
   529.7500     62.0042      0.0062
   530.0000     62.0059      0.0058
   530.2500     62.0071      0.0051
   530.5000     62.0084      0.0047
   530.7500     62.0096      0.0041
   531.0000     62.0104      0.0035
   531.2500     62.0111      0.0030
   531.5000     62.0118      0.0024
   531.7500     62.0124      0.0019
   532.0000     62.0129      0.0014
   532.2500     62.0131      0.0010
   532.5000     62.0133      0.0004
   532.7500     62.0133     -0.0001
   533.0000     62.0132     -0.0007
   533.2500     62.0130     -0.0012
   533.5000     62.0127     -0.0018
   533.7500     62.0122     -0.0022
   534.0000     62.0115     -0.0028
   534.2500     62.0108     -0.0034
   534.5000     62.0098     -0.0039
   534.7500     62.0089     -0.0045
   535.0000     62.0076     -0.0050
   535.2500     62.0061     -0.0054
   535.5000     62.0049     -0.0058
   535.7500     62.0032     -0.0063
   536.0000     62.0015     -0.0064
   536.2500     62.0001     -0.0067
   536.5000     61.9982     -0.0071
   536.7500     61.9962     -0.0070
   537.0000     61.9948     -0.0072
   537.2500     61.9928     -0.0073
   537.5000     61.9907     -0.0074
   537.7500     61.9892     -0.0076
   538.0000     61.9871     -0.0077
   538.2500     61.9855     -0.0078
   538.5000     61.9833     -0.0080
   538.7500     61.9811     -0.0082
   539.0000     61.9795     -0.0084
   539.2500     61.9771     -0.0087
   539.5000     61.9747     -0.0090
   539.7500     61.9728     -0.0093
   540.0000     61.9702     -0.0096
   540.2500     61.9682     -0.0100
   540.5000     61.9654     -0.0101
   540.7500     61.9625     -0.0109
   541.0000     61.9602     -0.0109
   541.2500     61.9570     -0.0118
   541.5000     61.9545     -0.0124
   541.7500     61.9510     -0.0129
   542.0000     61.9483     -0.0133
   542.2500     61.9446     -0.0139
   542.5000     61.9407     -0.0148
   542.7500     61.9367     -0.0147
   543.0000     61.9335     -0.0157
   543.2500     61.9293     -0.0155
   543.5000     61.9249     -0.0160
   543.7500     61.9216     -0.0164
   544.0000     61.9170     -0.0167
   544.2500     61.9135     -0.0171
   544.5000     61.9087     -0.0168
   544.7500     61.9038     -0.0177
   545.0000     61.9001     -0.0180
   545.2500     61.8951     -0.0182
   545.5000     61.8913     -0.0184
   545.7500     61.8862     -0.0186
   546.0000     61.8810     -0.0187
   546.2500     61.8771     -0.0188
   546.5000     61.8719     -0.0188
   546.7500     61.8666     -0.0189
   547.0000     61.8627     -0.0189
   547.2500     61.8575     -0.0189
   547.5000     61.8536     -0.0188
   547.7500     61.8484     -0.0187
   548.0000     61.8432     -0.0186
   548.2500     61.8394     -0.0184
   548.5000     61.8343     -0.0182
   548.7500     61.8293     -0.0179
   549.0000     61.8256     -0.0176
   549.2500     61.8208     -0.0173
   549.5000     61.8172     -0.0170
   549.7500     61.8125     -0.0160
   550.0000     61.8080     -0.0162
   550.2500     61.8047     -0.0153
   550.5000     61.8004     -0.0154
   550.7500     61.7973     -0.0149
   551.0000     61.7932     -0.0140
   551.2500     61.7902     -0.0140
   551.5000     61.7864     -0.0134
   551.7500     61.7828     -0.0134
   552.0000     61.7801     -0.0124
   552.2500     61.7767     -0.0123
   552.5000     61.7735     -0.0117
   552.7500     61.7705     -0.0108
   553.0000     61.7683     -0.0106
   553.2500     61.7656     -0.0097
   553.5000     61.7630     -0.0091
   553.7500     61.7612     -0.0082
   554.0000     61.7590     -0.0079
   554.2500     61.7574     -0.0073
   554.5000     61.7554     -0.0066
   554.7500     61.7541     -0.0063
   555.0000     61.7524     -0.0055
   555.2500     61.7509     -0.0052
   555.5000     61.7499     -0.0046
   555.7500     61.7487     -0.0042
   556.0000     61.7479     -0.0036
   556.2500     61.7469     -0.0030
   556.5000     61.7461     -0.0026
   556.7500     61.7457     -0.0020
   557.0000     61.7452     -0.0014
   557.2500     61.7449     -0.0009
   557.5000     61.7448     -0.0002
   557.7500     61.7448      0.0002
   558.0000     61.7450      0.0009
   558.2500     61.7452      0.0015
   558.5000     61.7457      0.0019
   558.7500     61.7461      0.0025
   559.0000     61.7469      0.0030
   559.2500     61.7479      0.0036
   559.5000     61.7486      0.0042
   559.7500     61.7499      0.0047
   560.0000     61.7509      0.0053
   560.2500     61.7524      0.0057
   560.5000     61.7541      0.0065
   560.7500     61.7555      0.0072
   561.0000     61.7576      0.0081
   561.2500     61.7592      0.0084
   561.5000     61.7616      0.0092
   561.7500     61.7642      0.0102
   562.0000     61.7671      0.0105
   562.2500     61.7693      0.0115
   562.5000     61.7725      0.0118
   562.7500     61.7759      0.0125
   563.0000     61.7786      0.0127
   563.2500     61.7823      0.0138
   563.5000     61.7852      0.0145
   563.7500     61.7893      0.0145
   564.0000     61.7924      0.0156
   564.2500     61.7968      0.0157
   564.5000     61.8014      0.0168
   564.7500     61.8050      0.0175
   565.0000     61.8098      0.0180
   565.2500     61.8136      0.0186
   565.5000     61.8188      0.0185
   565.7500     61.8242      0.0198
   566.0000     61.8284      0.0204
   566.2500     61.8341      0.0209
   566.5000     61.8385      0.0216
   566.7500     61.8445      0.0223
   567.0000     61.8507      0.0228
   567.2500     61.8555      0.0236
