~Version Information
VERS.                      2.0: CWLS Log ASCII Standard - VERSION 2.0
WRAP.                       NO: One line per depth step
~Well Information Block
STRT.FT                -8.2500: 
STOP.FT              1653.2500: 
STEP.FT                 0.2500: 
NULL.                -999.2500: 
COMP.          Pioneer Natural Resources: COMPANY
WELL.            Relay 12-7 Tr: WELL
FLD.           Purgatorie River: FIELD
LOC.           2025' FNL & 790' FWL--: LOCATION
PROV.                       CO: PROVINCE
CNTY.               Las Animas: COUNTRY
SRVC.          Patterson Wireline: SERVICE COMPANY
DATE.          Tue Jan 24 10:25:08 2006: LOG DATE
UWI.           05 071 08603 00: UNIQUE WELL ID
~Curve Information Block
DEPT.FT            0 000 00 00: Depth
CCL.                          : Casing Collar Locator
TT3.usec                      : CBL 3' Travel Time
AMP3.mV                       : CBL 3' Amplitude
GR.GAPI                       : Gamma Ray
~Parameter Information Block
~A  Depth       CCL         TT3         AMP3         GR     
# ...
   862.7500      0.0000    694.9280      5.9414    112.3106
   863.0000      0.0000    699.0701      5.9257    105.8944
   863.2500      0.0000    699.4210      5.8583     97.6373
   863.5000      0.0000    696.0814      5.7399     90.3954
   863.7500      0.0000    691.7668      5.5869     86.8041
   864.0000      0.0000    689.6806      5.4256     88.2505
   864.2500      0.0000    691.0126      5.2823     94.5474
   864.5000      0.0000    694.0714      5.1731    104.2712
   864.7500      0.0000    695.7297      5.0994    115.2333
   865.0000      0.0000    694.1125      5.0539    124.8227
   865.2500      0.0000    689.9927      5.0291    130.5971
   865.5000      0.0000    685.5654      5.0224    131.3891
   865.7500      0.0000    682.3813      5.0349    128.1388
   866.0000      0.0000    680.7063      5.0677    123.3348
   866.2500      0.0000    680.1762      5.1189    119.3003
   866.5000      0.0000    680.3902      5.1816    116.8520
   866.7500      0.0000    681.0153      5.2448    115.3111
   867.0000      0.0000    681.7687      5.2966    113.4958
   867.2500      0.0000    682.5227      5.3311    110.9453
   867.5000      0.0000    683.4200      5.3557    108.6037
   867.7500      0.0000    684.9316      5.3863    108.3198
   868.0000      0.0000    687.6423      5.4323    111.3306
   868.2500      0.0000    691.5400      5.4873    117.0489
   868.5000      0.0000    695.2806      5.5320    123.3538
   868.7500      0.0000    696.7102      5.5451    128.2120
   869.0000      0.0000    694.7581      5.5174    131.1304
   869.2500      0.0000    690.5723      5.4592    133.1143
   869.5000      0.0000    686.3745      5.3939    135.2560
   869.7500      0.0000    683.5515      5.3395    137.4085
   870.0000      0.0000    682.1267      5.2961    138.4279
   870.2500      0.0000    681.5171      5.2523    137.7874
   870.5000      0.0000    681.2560      5.2034    136.4839
   870.7500      0.0000    681.1517      5.1597    136.0547
   871.0000      0.0000    681.1460      5.1356    137.1177
   871.2500      0.0000    681.1839      5.1341    139.1697
   871.5000      0.0000    681.1920      5.1454    141.4566
   871.7500      0.0000    681.1512      5.1624    143.6222
   872.0000      0.0000    681.1243      5.1867    145.3804
   872.2500      0.0000    681.1987      5.2208    145.8751
   872.5000      0.0000    681.4128      5.2601    144.0143
   872.7500      0.0000    681.7388      5.2922    139.7675
   873.0000      0.0000    682.1108      5.3002    134.7520
   873.2500      0.0000    682.4553      5.2691    131.1018
   873.5000      0.0000    682.7161      5.1963    129.7507
   873.7500      0.0000    682.8751      5.0940    129.8372
   874.0000      0.0000    682.9482      4.9808    129.6903
   874.2500      0.0000    682.9492      4.8737    128.3508
   874.5000      0.0000    682.8599      4.7891    125.9953
   874.7500      0.0000    682.6432      4.7426    123.0769
   875.0000      0.0000    682.2892      4.7408    119.7800
   875.2500      0.0000    681.8421      4.7732    116.3834
   875.5000      0.0000    681.3823      4.8156    113.1385
   875.7500      0.0000    680.9835      4.8418    109.4197
   876.0000      0.0000    680.6845      4.8371    104.0118
   876.2500      0.0000    680.4877      4.8021     96.8778
   876.5000      0.0000    680.3784      4.7483     89.8100
   876.7500      0.0000    680.3448      4.6881     84.7041
   877.0000      0.0000    680.3853      4.6312     81.8395
   877.2500      0.0000    680.4979      4.5875     80.3376
   877.5000      0.0000    680.6685      4.5667     79.7340
   877.7500      0.0000    680.8625      4.5733     80.5262
   878.0000      0.0000    681.0305      4.6042     83.3329
   878.2500      0.0000    681.0846      4.6541     87.9249
   878.5000      0.0000    680.7688      4.7202     93.2723
   878.7500      0.0000    679.4049      4.8041     98.3771
   879.0000      0.0000    675.8038      4.9091    102.6945
   879.2500      0.0000    668.8000      5.0333    105.7903
   879.5000      0.0000    658.3951      5.1663    107.1927
   879.7500      0.0000    646.3985      5.2912    106.9061
   880.0000      0.0000    635.3923      5.3830    105.7944
   880.2500      0.0000    626.3309      5.4076    105.0965
   880.5000      0.0000    616.8038      5.3492    105.3907
   880.7500      0.0000    602.1345      5.2402    106.0170
   881.0000      0.0000    579.5088      5.1400    105.6391
   881.2500      0.0000    551.7635      5.0846    103.7431
   881.5000     -2.0000    526.5519      5.0758    101.7004
   881.7500      0.0000    511.3288      5.1109    101.9219
   882.0000      0.0000    509.5239      5.2033    105.7652
   882.2500      0.0000    520.6003      5.3655    112.5002
   882.5000      0.0000    541.6054      5.5684    119.9987
   882.7500      0.0000    568.1806      5.7225    125.8550
   883.0000      0.0000    596.0511      5.7348    128.1033
   883.2500      0.0000    622.9326      5.6074    125.7053
   883.5000      0.0000    648.4120      5.4460    118.9462
   883.7500      0.0000    671.6033      5.3492    109.4553
   884.0000      0.0000    689.6356      5.3235     99.5299
   884.2500      0.0000    698.3104      5.3199     90.9958
   884.5000      0.0000    693.2617      5.3086     84.4957
   884.7500      0.0000    670.6961      5.2992     79.7115
   885.0000      0.0000    629.0093      5.3121     76.0121
   885.2500      0.0000    572.1833      5.3515     72.8705
   885.5000      0.0000    512.2237      5.3983     70.0320
   885.7500      0.0000    466.4778      5.4228     67.5666
   886.0000      0.0000    450.3372      5.4070     65.6750
   886.2500      0.0000    469.9133      5.3560     64.5471
   886.5000      0.0000    518.2037      5.2916     64.7610
   886.7500      0.0000    577.2875      5.2373     67.5992
   887.0000      0.0000    627.7758      5.2081     74.3308
   887.2500      0.0000    659.3462      5.2070     85.0726
   887.5000      0.0000    672.8527      5.2246     98.5954
   887.7500      0.0000    673.6362      5.2443    112.9741
   888.0000      0.0000    664.8713      5.2508    126.2873
   888.2500      0.0000    647.3162      5.2401    137.3269
   888.5000      0.0000    623.8796      5.2237    146.2755
   888.7500      0.0000    602.7095      5.2227    154.4279
   889.0000      0.0000    593.7157      5.2522    162.4510
   889.2500      0.0000    600.5192      5.3083    168.7220
   889.5000      0.0000    616.0149      5.3716    170.1499
   889.7500      0.0000    626.8373      5.4217    165.2791
   890.0000      0.0000    622.6107      5.4458    156.1042
   890.2500      0.0000    601.5524      5.4394    146.1759
   890.5000      0.0000    568.7140      5.4055    137.2982
   890.7500      0.0000    530.5232      5.3545    128.8786
   891.0000      0.0000    491.7014      5.3006    120.3281
   891.2500      0.0000    456.2172      5.2566    112.8677
   891.5000      0.0000    428.3862      5.2300    108.3305
   891.7500      0.0000    411.0748      5.2231    106.8386
   892.0000      0.0000    403.4118      5.2372    106.5597
   892.2500      0.0000    401.5519      5.2736    105.6683
   892.5000      0.0000    401.8542      5.3303    104.0088
   892.7500      0.0000    403.0554      5.3987    102.9341
   893.0000      0.0000    405.7462      5.4677    103.9976
   893.2500      0.0000    410.4383      5.5313    107.8094
   893.5000      0.0000    416.4741      5.5917    113.7197
   893.7500      0.0000    422.5640      5.6544    120.3607
   894.0000      0.0000    427.8055      5.7188    126.5580
   894.2500      0.0000    431.9617      5.7725    131.8083
   894.5000      0.0000    435.0822      5.7955    135.9417
   894.7500      0.0000    437.1625      5.7749    138.6542
   895.0000      0.0000    438.1591      5.7178    139.6431
   895.2500      0.0000    438.2041      5.6485    139.0137
   895.5000      0.0000    437.8979      5.5932    137.4318
   895.7500      0.0000    438.6725      5.5639    135.9883
   896.0000      0.0000    443.2194      5.5536    135.7335
