~Version Information
VERS.                      2.0: CWLS Log ASCII Standard - VERSION 2.0
WRAP.                       NO: One line per depth step
~Well Information Block
STRT.FT                -8.5000: 
STOP.FT              1214.7500: 
STEP.FT                 0.2500: 
NULL.                -999.2500: 
COMP.          Pioneer Natural Resources: COMPANY
WELL.          Rock Island 44-24 Tr: WELL
FLD.           Purgatorie River: FIELD
LOC.           814' FSL & 761' FEL--: LOCATION
CNTY.               Las Animas: COUNTY
SRVC.          Patterson Wireline: SERVICE COMPANY
DATE.          Fri Apr 28 10:23:18 2006: LOG DATE
UWI.           05 071 08680 00: UNIQUE WELL ID
STAT.                       CO: STATE
~Curve Information Block
DEPT.FT            0 000 00 00: Depth
CCL.                          : Casing Collar Locator
TT3.usec                      : CBL 3' Travel Time
AMP3.mV                       : CBL 3' Amplitude
GR.GAPI                       : Gamma Ray
~Parameter Information Block
~A  Depth       CCL         TT3         AMP3         GR     
# ...
   226.0000      0.0000    697.8117      8.1197     69.4476
   226.2500      0.0000    699.3937      8.1138     75.2425
   226.5000      0.0000    698.9283      8.1088     80.2870
   226.7500      0.0000    698.0334      8.1174     83.6429
   227.0000      0.0000    697.4038      8.1447     85.3381
   227.2500      0.0000    697.1013      8.1928     85.6245
   227.5000      0.0000    696.9993      8.2668     84.4147
   227.7500      0.0000    696.9471      8.3674     81.4510
   228.0000      0.0000    696.8322      8.4802     76.7867
   228.2500      0.0000    696.6016      8.5774     70.9318
   228.5000      0.0000    696.2835      8.6329     64.6966
   228.7500      0.0000    695.9504      8.6369     59.1048
   229.0000      0.0000    695.6815      8.6013     55.3580
   229.2500      0.0000    695.5363      8.5507     54.6136
   229.5000      0.0000    695.5323      8.5071     57.4129
   229.7500      0.0000    695.6329      8.4794     62.9680
   230.0000      0.0000    695.7521      8.4672     69.1815
   230.2500      0.0000    695.7858      8.4673     73.7787
   230.5000      0.0000    695.6597      8.4749     75.5362
   230.7500      0.0000    695.3761      8.4818     74.5579
   231.0000      0.0000    695.0196      8.4777     71.7467
   231.2500      0.0000    694.7045      8.4545     68.0980
   231.5000      0.0000    694.4917      8.4100     64.2516
   231.7500      0.0000    694.3472      8.3485     60.6389
   232.0000      0.0000    694.1846      8.2768     57.9309
   232.2500      0.0000    693.9529      8.1983     56.9206
   232.5000      0.0000    693.6963      8.1130     57.7832
   232.7500      0.0000    693.5340      8.0222     59.7926
   233.0000      0.0000    693.5688      7.9304     62.0579
   233.2500      0.0000    693.7982      7.8431     64.4403
   233.5000      0.0000    694.1184      7.7629     67.6753
   233.7500      0.0000    694.4183      7.6920     72.5940
   234.0000      0.0000    694.6528      7.6344     78.9610
   234.2500      0.0000    694.8267      7.5932     84.8805
   234.5000      0.0000    694.9380      7.5654     87.7119
   234.7500      0.0000    694.9670      7.5419     86.0605
   235.0000      0.0000    694.9175      7.5118     81.0837
   235.2500      0.0000    694.8357      7.4695     75.8070
   235.5000      0.0000    694.7739      7.4183     72.9184
   235.7500      0.0000    694.7553      7.3695     72.9860
   236.0000      0.0000    694.7884      7.3348     74.7016
   236.2500      0.0000    694.9368      7.3196     76.5309
   236.5000      0.0000    695.4258      7.3220     77.8963
   236.7500      0.0000    696.7725      7.3390     79.2199
   237.0000      0.0000    699.7987      7.3726     81.3922
   237.2500      0.0000    705.2452      7.4289     84.9053
   237.5000      0.0000    713.0073      7.5083     89.0144
   237.7500      0.0000    721.7120      7.5975     91.8877
   238.0000      0.0000    729.3719      7.6735     92.0601
   238.2500      0.0000    734.6591      7.7176     89.9310
   238.5000      0.0000    737.5231      7.7241     87.6212
   238.7500      0.0000    738.6918      7.6984     87.0788
   239.0000      0.0000    738.7903      7.6537     88.4347
   239.2500      0.0000    737.8565      7.6101     90.2788
   239.5000      0.0000    735.4153      7.5876     91.1720
   239.7500      0.0000    731.0400      7.5962     90.7486
   240.0000      0.0000    725.0992      7.6339     89.8406
   240.2500      0.0000    718.8719      7.6923     89.6973
   240.5000      0.0000    713.5952      7.7592     90.7963
   240.7500      0.0000    709.5793      7.8183     92.3690
   241.0000      0.0000    706.7444      7.8547     93.0585
   241.2500      0.0000    705.7221      7.8616     91.7673
   241.5000      0.0000    707.5541      7.8422     88.1811
   241.7500      0.0000    712.0449      7.8053     83.0576
   242.0000      0.0000    716.8768      7.7600     77.9531
   242.2500      0.0000    718.8761      7.7111     74.1998
   242.5000      0.0000    716.4142      7.6569     72.0783
   242.7500      0.0000    710.5942      7.5948     71.0515
   243.0000      0.0000    704.1256      7.5292     70.5031
   243.2500      0.0000    699.2063      7.4673     70.0732
   243.5000      0.0000    696.4356      7.4077     69.6839
   243.7500      0.0000    695.2520      7.3413     69.5881
   244.0000      0.0000    694.8644      7.2664     70.3011
   244.2500      0.0000    694.7960      7.1946     72.3117
   244.5000      0.0000    695.0243      7.1388     75.7769
   244.7500      0.0000    696.0290      7.1019     80.2252
   245.0000      0.0000    698.7397      7.0763     84.3370
   245.2500      0.0000    704.0391      7.0485     86.3719
   245.5000      0.0000    711.8546      7.0081     85.3655
   245.7500      0.0000    720.6590      6.9588     81.8859
   246.0000      0.0000    728.1207      6.9170     77.3819
   246.2500      0.0000    732.3184      6.8937     72.9956
   246.5000      0.0000    732.3198      6.8818     69.3198
   246.7500      0.0000    728.0882      6.8666     66.9324
   247.0000      0.0000    720.5336      6.8418     66.5644
   247.2500      0.0000    711.6104      6.8107     68.7067
   247.5000      0.0000    703.6439      6.7778     73.1317
   247.7500      0.0000    698.1146      6.7444     78.6928
   248.0000      0.0000    695.1030      6.7122     83.8836
   248.2500      0.0000    693.7981      6.6845     87.9764
   248.5000      0.0000    693.3052      6.6685     91.3575
   248.7500      0.0000    693.0772      6.6757     94.4388
   249.0000      0.0000    692.9392      6.7205     96.6039
   249.2500      0.0000    692.9172      6.8095     96.6287
   249.5000      0.0000    693.0342      6.9308     93.9967
   249.7500      0.0000    693.2203      7.0558     89.6151
   250.0000      0.0000    693.3821      7.1562     85.2991
   250.2500      0.0000    693.4932      7.2196     82.5521
   250.5000      0.0000    693.5800      7.2497     81.6881
   250.7500      0.0000    693.6554      7.2556     82.0294
   251.0000      0.0000    693.7052      7.2462     82.9013
   251.2500      0.0000    693.7256      7.2349     84.1844
   251.5000      0.0000    693.7451      7.2397     85.7324
   251.7500      0.0000    693.8037      7.2685     86.7969
   252.0000      0.0000    693.9147      7.3077     86.7755
   252.2500      0.0000    694.0455      7.3286     86.1584
   252.5000      0.0000    694.1340      7.3072     85.7720
   252.7500      0.0000    694.1290      7.2377     85.2698
   253.0000      0.0000    693.9936      7.1324     83.4543
   253.2500      0.0000    693.6155      7.0146     80.2808
   253.5000      0.0000    692.6247      6.9095     77.6584
   253.7500      0.0000    690.3453      6.8356     77.7972
   254.0000      0.0000    686.2430      6.8003     81.0163
   254.2500      0.0000    680.8060      6.7960     85.2931
   254.5000      0.0000    675.9495      6.8014     87.8176
   254.7500      0.0000    674.0287      6.7889     87.0198
   255.0000      0.0000    676.0366      6.7390     83.3251
   255.2500      0.0000    680.8002      6.6502     78.4052
   255.5000      0.0000    686.0309      6.5359     74.1286
   255.7500      0.0000    690.0354      6.4149     71.9040
   256.0000      0.0000    692.4429      6.3040     72.2512
   256.2500      0.0000    693.7396      6.2140     74.6422
   256.5000      0.0000    694.5400      6.1476     77.8232
   256.7500      0.0000    695.3188      6.0998     80.4031
   257.0000      0.0000    696.6122      6.0634     81.4880
   257.2500      0.0000    699.4726      6.0328     81.0917
   257.5000      0.0000    705.7365      6.0046     79.9482
   257.7500      0.0000    717.4377      5.9787     78.8628
   258.0000      0.0000    735.1379      5.9578     78.2867
   258.2500      0.0000    756.3942      5.9432     78.3991
   258.5000      0.0000    776.0689      5.9293     79.2096
   258.7500      0.0000    788.6407      5.9063     80.2741
   259.0000      0.0000    791.1735      5.8701     80.5304
   259.2500      0.0000    785.3143      5.8268     78.9192
