~Version Information
 VERS.                                  2.0 : CWLS LAS VERSION
 WRAP.                                   NO : WRAPING MODE
 SWARE .                 MController 2.5.0N : SOFTWARE VERSION
~Well Information
 WELL.                        Cleaver 24-12 : WELL
 COMP.    Pioneer Natural Resources USA Inc : COMPANY
 FLD.                      Purgatoire River : FIELD
 LOC.                SE/SW Sec 12 T32S R67W : LOCATION
 DATE.                         1/05-06/2006 : DATE(S) LOGGED
 SRVC.       BLANCO Geological Services LLC : SERVICE COMPANY
 STAT.                                   CO : STATE
 CNTY.                           Las Animas : COUNTY
 CTRY.                                  USA : COUNTRY
 API.                       05-071-08634-00 : API NUMBER
 STRT.FT                             461.00 : START DEPTH
 STOP.FT                            3055.00 : STOP DEPTH
 STEP.FT                               1.00 : DEPTH INCREMENT
 NULL.                                -9999 : NULL VALUE
~Curve information
 DEPTH.FT                                   :
 ROP.MIN/FT                                 :
 GAS.UNITS                                  :
~ASCII Log data
# ...
      2261.0         0.67         42.9 
      2262.0         0.40         44.0 
      2263.0         0.33         47.3 
      2264.0         0.30         40.4 
      2265.0         0.30         43.4 
      2266.0         0.38         38.7 
      2267.0         0.40         35.5 
      2268.0         0.63         52.8 
      2269.0         0.57         48.1 
      2270.0         0.47         44.5 
      2271.0         0.40         41.1 
      2272.0         0.30         36.7 
      2273.0         0.28         32.3 
      2274.0         0.37         35.2 
      2275.0         0.43         31.7 
      2276.0         6.63         73.4 
      2277.0         0.53         88.2 
      2278.0         0.43        109.3 
      2279.0         0.80        141.4 
      2280.0         0.60        128.5 
      2281.0         0.68         76.3 
      2282.0         0.50         60.8 
      2283.0         0.50         48.6 
      2284.0         0.63         40.0 
      2285.0         0.97         40.3 
      2286.0         0.75         65.8 
      2287.0         0.53         80.8 
      2288.0         0.43         85.3 
      2289.0         0.47        107.5 
      2290.0         0.30        104.8 
      2291.0         0.37        143.3 
      2292.0         0.30        123.7 
      2293.0         0.27         96.3 
      2294.0         0.35         86.5 
      2295.0         0.33         97.0 
      2296.0         0.33         87.3 
      2297.0         0.30         88.3 
      2298.0         0.27         90.0 
      2299.0         0.23         91.6 
      2300.0         0.17         92.7 
      2301.0         0.37         94.6 
      2302.0         0.57         96.9 
      2303.0         0.72         98.9 
      2304.0         0.27        104.3 
      2305.0         0.57        122.4 
      2306.0         4.35        161.8 
      2307.0         0.43        148.9 
      2308.0         0.50        148.7 
      2309.0         0.37        162.6 
      2310.0         0.42        190.7 
      2311.0         0.50        219.7 
      2312.0         0.53        181.4 
      2313.0         0.27        110.9 
      2314.0         0.47         93.3 
      2315.0         0.40         57.9 
      2316.0         0.33         38.1 
      2317.0         0.33         39.6 
      2318.0         0.45         37.4 
      2319.0         0.40         34.3 
      2320.0         0.47         49.0 
      2321.0         0.57         53.9 
      2322.0         0.67         63.0 
      2323.0         0.50         72.1 
      2324.0         0.33         75.3 
      2325.0         0.48         86.4 
      2326.0         0.37         70.4 
      2327.0         0.27         73.2 
      2328.0         0.23         64.2 
      2329.0         0.37         82.9 
      2330.0         0.37         84.7 
      2331.0         0.47         70.1 
      2332.0         0.40         58.1 
      2333.0         0.30         56.7 
      2334.0         0.38         50.4 
      2335.0         0.33         55.8 
      2336.0         7.57        159.3 
      2337.0         0.73        107.7 
      2338.0         0.23        164.4 
      2339.0         0.37        193.6 
      2340.0         0.37        169.3 
      2341.0         0.42        134.6 
      2342.0         0.37         56.5 
      2343.0         0.33         44.2 
      2344.0         0.43         35.0 
      2345.0         0.47         26.2 
      2346.0         0.43         23.3 
      2347.0         0.40         49.6 
      2348.0         0.40         35.3 
      2349.0         0.33         26.1 
      2350.0         0.45         34.3 
      2351.0         0.40         38.6 
      2352.0         0.37         50.0 
      2353.0         0.33         53.3 
      2354.0         0.33         63.0 
      2355.0         0.30         58.9 
      2356.0         0.30         68.1 
      2357.0         0.30         47.6 
      2358.0         0.30         61.4 
      2359.0         0.30         53.7 
      2360.0         0.28         67.7 
      2361.0         0.33         63.3 
      2362.0         0.47         71.5 
      2363.0         0.50         62.5 
      2364.0         0.50         76.3 
      2365.0         7.30        116.9 
      2366.0         0.92        131.4 
      2367.0         0.53        172.8 
      2368.0         0.50        150.2 
      2369.0         0.43         89.5 
      2370.0         0.47         64.9 
      2371.0         0.53         27.9 
      2372.0         0.60         34.4 
      2373.0         0.62         36.3 
      2374.0         0.70         36.2 
      2375.0         0.73         39.0 
      2376.0         0.70         56.5 
      2377.0         0.78         47.6 
      2378.0         0.60         51.7 
      2379.0         0.50         44.8 
      2380.0         0.47         58.5 
      2381.0         0.43         62.5 
      2382.0         0.43         53.4 
      2383.0         0.43         53.4 
      2384.0         0.30         58.9 
      2385.0         0.32         65.3 
      2386.0         0.27         65.8 
      2387.0         0.17         85.4 
      2388.0         0.27        101.2 
      2389.0         0.30        120.7 
      2390.0         0.20        120.7 
      2391.0         0.63        170.9 
      2392.0         1.88        213.5 
      2393.0         1.23        217.7 
      2394.0         0.27        185.6 
      2395.0         4.38        194.7 
      2396.0         1.55         71.3 
      2397.0         0.07         39.2 
      2398.0         0.43         30.9 
      2399.0         0.53         30.2 
      2400.0         0.53         36.3 
      2401.0         0.45         34.3 
      2402.0         0.30         29.5 
      2403.0         0.47         36.7 
      2404.0         0.53         28.3 
      2405.0         0.47         41.9 
      2406.0         0.40         52.8 
      2407.0         0.37         50.7 
      2408.0         0.37         55.5 
      2409.0         0.37         68.3 
      2410.0         0.35         70.3 
      2411.0         0.27         58.4 
      2412.0         0.27         48.3 
      2413.0         0.37         49.4 
      2414.0         0.43         50.3 
      2415.0         0.50         43.4 
      2416.0         0.53         64.8 
      2417.0         0.57         42.1 
      2418.0         0.55         42.2 
      2419.0         0.57         25.4 
      2420.0         0.57         30.9 
      2421.0         0.57         37.0 
      2422.0         0.60         28.0 
      2423.0         0.65         41.6 
      2424.0         0.33         25.8 
      2425.0         2.63         78.7 
      2426.0         0.82         94.0 
      2427.0         4.45         86.0 
      2428.0         0.67         81.9 
      2429.0         0.63        172.3 
      2430.0         0.58        155.6 
      2431.0         0.50         92.7 
      2432.0         0.23         47.8 
      2433.0         0.37         34.0 
      2434.0         0.47         44.6 
      2435.0         0.43         41.5 
      2436.0         0.33         26.3 
      2437.0         0.43         29.8 
      2438.0         0.55         30.3 
      2439.0         0.50         35.6 
      2440.0         0.40         23.6 
      2441.0         0.53         30.5 
      2442.0         0.37         31.2 
      2443.0         0.50         31.7 
      2444.0         0.50         31.6 
      2445.0         0.52         29.5 
      2446.0         0.53         26.4 
      2447.0         0.57         26.1 
      2448.0         0.57         27.9 
      2449.0         0.57         76.8 
      2450.0         0.57         39.6 
      2451.0         0.55         37.5 
      2452.0         0.53         45.8 
      2453.0         0.53         68.6 
      2454.0         7.73         98.5 
      2455.0         1.07        157.4 
      2456.0         4.60        162.7 
      2457.0         0.80        109.0 
      2458.0         0.57         90.6 
      2459.0         0.53         66.9 
      2460.0         0.52         54.5 
