~Version Information
VERS.                      2.0: CWLS Log ASCII Standard - VERSION 2.0
WRAP.                       NO: One line per depth step
~Well Information Block
STRT.FT               670.0000: 
STOP.FT              2110.0000: 
STEP.FT                 0.2500: 
NULL.                -999.2500: 
COMP.          Petrogulf Corporation: COMPANY
WELL.           Montoya 12-44R: WELL
FLD.           Purgatorie River: FIELD
LOC.           713' FSL & 798' FEL: LOCATION
PROV.                 Colorado: PROVINCE
CNTY.               Las Animas: COUNTRY
SRVC.                Patterson: SERVICE COMPANY
DATE.          Sun Oct 02 01:06:45 2005: LOG DATE
UWI.           05-071-08538               : UNIQUE WELL ID
~Curve Information Block
DEPT.FT            0 000 00 00: Depth
SP.mV                         : DIL Spontaneous Potential
RILD.Ohm-m                    : DIL Deep Resistivity
RILM.Ohm-m                    : DIL Medium Resistivity
RLL3.Ohm-m                    : DIL Shallow Resistivity
GR.GAPI                       : Gamma Ray
~Parameter Information Block
~A  Depth        SP         RILD        RILM        RLL3         GR     
# ...
  1986.0000    244.2396     11.6635     11.9995     12.9999    137.6697
  1986.2500    243.5888     11.5836     11.9486     13.0352    137.7512
  1986.5000    243.0373     11.5384     11.9178     12.9667    138.1764
  1986.7500    242.5901     11.5315     11.9108     12.8445    138.5807
  1987.0000    242.2415     11.5608     11.9311     12.7443    138.5648
  1987.2500    241.9823     11.6199     11.9805     12.7428    137.7413
  1987.5000    241.8016     11.6996     12.0583     12.8921    135.3578
  1987.7500    241.6888     11.7887     12.1604     13.1999    133.4069
  1988.0000    241.6335     11.8762     12.2804     13.6225    130.5174
  1988.2500    241.6250     11.9535     12.4102     14.0707    128.6012
  1988.5000    241.6470     12.0165     12.5411     14.4299    125.2536
  1988.7500    241.6740     12.0651     12.6656     14.6034    122.5420
  1989.0000    241.6750     12.1011     12.7777     14.5647    118.3729
  1989.2500    241.6223     12.1259     12.8734     14.3760    116.3120
  1989.5000    241.5010     12.1394     12.9499     14.1471    115.1943
  1989.7500    241.3126     12.1400     13.0042     13.9675    115.4860
  1990.0000    241.0716     12.1256     13.0327     13.8730    116.0034
  1990.2500    240.8018     12.0951     13.0310     13.8581    115.7035
  1990.5000    240.5339     12.0489     12.9950     13.8954    114.3988
  1990.7500    240.3008     11.9884     12.9221     13.9367    113.7721
  1991.0000    240.1283     11.9158     12.8133     13.9164    114.7325
  1991.2500    240.0235     11.8342     12.6737     13.7821    116.8925
  1991.5000    239.9682     11.7484     12.5123     13.5315    121.3197
  1991.7500    239.9225     11.6636     12.3403     13.2144    123.8959
  1992.0000    239.8371     11.5845     12.1693     12.8985    125.3072
  1992.2500    239.6740     11.5133     12.0096     12.6332    124.2233
  1992.5000    239.4265     11.4503     11.8690     12.4392    121.1470
  1992.7500    239.1232     11.3945     11.7531     12.3182    120.0177
  1993.0000    238.8105     11.3451     11.6653     12.2617    121.9821
  1993.2500    238.5280     11.3022     11.6074     12.2552    125.4594
  1993.5000    238.2955     11.2683     11.5805     12.2836    131.5737
  1993.7500    238.1173     11.2468     11.5845     12.3380    134.9618
  1994.0000    237.9913     11.2408     11.6181     12.4205    138.1399
  1994.2500    237.9146     11.2513     11.6784     12.5472    139.1260
  1994.5000    237.8871     11.2767     11.7602     12.7503    139.2890
  1994.7500    237.9156     11.3132     11.8561     13.0683    138.3739
  1995.0000    238.0152     11.3567     11.9568     13.5165    134.7321
  1995.2500    238.2002     11.4048     12.0520     14.0456    130.7234
  1995.5000    238.4709     11.4584     12.1329     14.5273    123.7569
  1995.7500    238.8071     11.5204     12.1928     14.8037    119.9047
  1996.0000    239.1697     11.5921     12.2293     14.7760    116.9564
  1996.2500    239.5078     11.6701     12.2438     14.4626    116.6288
  1996.5000    239.7673     11.7459     12.2410     13.9824    116.7532
  1996.7500    239.9046     11.8083     12.2271     13.4857    116.4371
  1997.0000    239.9005     11.8476     12.2083     13.0840    115.6095
  1997.2500    239.7659     11.8587     12.1895     12.8207    115.5474
  1997.5000    239.5314     11.8440     12.1730     12.6891    116.9790
  1997.7500    239.2310     11.8113     12.1589     12.6709    118.8909
  1998.0000    238.8899     11.7706     12.1449     12.7586    122.6746
  1998.2500    238.5257     11.7292     12.1276     12.9439    125.3207
  1998.5000    238.1550     11.6918     12.1038     13.1916    127.8703
  1998.7500    237.7998     11.6612     12.0712     13.4307    127.5009
  1999.0000    237.4859     11.6414     12.0304     13.5806    123.4868
  1999.2500    237.2373     11.6368     11.9850     13.5965    119.8493
  1999.5000    237.0678     11.6500     11.9413     13.4970    116.4855
  1999.7500    236.9767     11.6798     11.9076     13.3514    116.9218
  2000.0000    236.9490     11.7217     11.8923     13.2379    121.1582
  2000.2500    236.9629     11.7693     11.9023     13.2036    125.0769
  2000.5000    236.9990     11.8180     11.9420     13.2527    130.2355
  2000.7500    237.0439     11.8648     12.0120     13.3610    132.3435
  2001.0000    237.0857     11.9075     12.1091     13.5003    133.1892
  2001.2500    237.1085     11.9429     12.2273     13.6571    132.4606
  2001.5000    237.0923     11.9687     12.3583     13.8372    130.0333
  2001.7500    237.0215     11.9859     12.4930     14.0587    127.9228
  2002.0000    236.8943     12.0015     12.6229     14.3333    125.0588
  2002.2500    236.7281     12.0263     12.7413     14.6427    124.0566
  2002.5000    236.5533     12.0706     12.8446     14.9332    124.3133
  2002.7500    236.3985     12.1400     12.9327     15.1388    125.0459
  2003.0000    236.2766     12.2345     13.0091     15.2167    125.1679
  2003.2500    236.1807     12.3499     13.0809     15.1635    123.9449
  2003.5000    236.0926     12.4814     13.1571     15.0107    120.7825
  2003.7500    235.9964     12.6249     13.2476     14.8171    119.0053
  2004.0000    235.8855     12.7781     13.3615     14.6541    118.7775
  2004.2500    235.7619     12.9384     13.5059     14.5871    120.2698
  2004.5000    235.6308     13.1023     13.6842     14.6737    122.6581
  2004.7500    235.4920     13.2644     13.8954     14.9867    122.7025
  2005.0000    235.3335     13.4196     14.1340     15.6104    119.7779
  2005.2500    235.1303     13.5662     14.3903     16.5620    116.9901
  2005.5000    234.8527     13.7087     14.6519     17.7001    114.2021
  2005.7500    234.4794     13.8586     14.9076     18.7482    113.9970
  2006.0000    234.0086     14.0321     15.1502     19.4552    115.5142
  2006.2500    233.4619     14.2472     15.3804     19.7389    116.8542
  2006.5000    232.8845     14.5206     15.6089     19.6739    118.4506
  2006.7500    232.3389     14.8647     15.8565     19.3665    119.4407
  2007.0000    231.8913     15.2838     16.1527     18.8762    121.7742
  2007.2500    231.5978     15.7697     16.5314     18.2720    124.0416
  2007.5000    231.5020     16.2991     17.0273     17.8200    127.3050
  2007.7500    231.6467     16.8346     17.6698     18.3016    128.3359
  2008.0000    232.0928     17.3314     18.4757     21.4671    127.5844
  2008.2500    232.9312     17.7471     19.4402     30.3270    126.3356
  2008.5000    234.2767     18.0504     20.5252     48.4174    125.2134
  2008.7500    236.2421     18.2279     21.6499     77.1528    125.1055
  2009.0000    238.8939     18.2852     22.6904    112.1210    123.4574
  2009.2500    242.2090     18.2430     23.4995    142.0272    119.1487
  2009.5000    246.0513     18.1273     23.9459    153.8390    105.9516
  2009.7500    250.1852     17.9575     23.9590    141.7626     94.0201
  2010.0000    254.3200     17.7372     23.5492    111.8288     77.1445
  2010.2500    258.1691     17.4516     22.7923     77.1953     69.8611
  2010.5000    261.5040     17.0755     21.7905     49.0569     67.3770
  2010.7500    264.1940     16.5889     20.6380     31.5995     70.8479
  2011.0000    266.2243     15.9920     19.4063     23.2890     80.9323
  2011.2500    267.6815     15.3099     18.1461     20.5628     88.7560
  2011.5000    268.7097     14.5840     16.8974     20.2302     98.5396
  2011.7500    269.4553     13.8575     15.6961     20.1501    102.4136
  2012.0000    270.0262     13.1654     14.5760     19.2455    104.3774
  2012.2500    270.4791     12.5307     13.5657     17.3863    104.5135
  2012.5000    270.8340     11.9659     12.6845     15.0715    105.7252
  2012.7500    271.1004     11.4755     11.9406     12.9382    107.7310
  2013.0000    271.2950     11.0588     11.3318     11.3870    110.8708
  2013.2500    271.4445     10.7112     10.8478     10.5120    111.6803
  2013.5000    271.5731     10.4257     10.4733     10.2204    110.6435
  2013.7500    271.6885     10.1944     10.1910     10.3509    109.6375
