~Version Information
 VERS.                                  2.0 : CWLS LAS VERSION
 WRAP.                                   NO : WRAPING MODE
 SWARE .                  MController 2.6.3 : SOFTWARE VERSION
~Well Information
 WELL.                          Lucky 21-36 : WELL
 COMP.    Pioneer Natural Resources USA Inc : COMPANY
 FLD.                      Purgatoire River : FIELD
 LOC.                NE/NW Sec 36 T32S R65W : LOCATION
 DATE.                           07/07/2008 : DATE(S) LOGGED
 SRVC.        Ismay Geological Services Ltd : SERVICE COMPANY
 STAT.                                   CO : STATE
 CNTY.                           Las Animas : COUNTY
 CTRY.                                  USA : COUNTRY
 API.                       05-071-08456-00 : API NUMBER
 STRT.FT                             441.00 : START DEPTH
 STOP.FT                            1450.00 : STOP DEPTH
 STEP.FT                               1.00 : DEPTH INCREMENT
 NULL.                                -9999 : NULL VALUE
~Curve information
 DEPTH.FT                                   :
 ROP.MIN/FT                                 :
 GAS.UNITS                                  :
~ASCII Log data
      441.00     -9999.00          4.3 
      442.00         0.27          4.6 
      443.00         0.20          2.9 
      444.00         0.17          3.9 
      445.00         0.13          4.2 
      446.00         0.20          2.9 
      447.00         0.17          3.5 
      448.00         0.13          2.7 
      449.00         0.13          2.7 
      450.00         0.17          3.6 
      451.00         0.13          3.6 
      452.00         0.13          3.4 
      453.00         0.22          2.8 
      454.00         0.20          2.1 
      455.00         0.20          1.9 
      456.00         0.20          2.9 
      457.00         0.17          2.5 
      458.00         0.17          2.2 
      459.00         0.10          2.2 
      460.00         0.23          2.3 
      461.00         0.10          1.5 
      462.00         0.13          1.5 
      463.00         0.17          2.8 
      464.00         0.20          2.2 
      465.00         0.20          1.3 
      466.00         0.20          2.1 
      467.00         0.17          2.4 
      468.00         0.20          0.9 
      469.00         0.20          2.0 
      470.00         0.58          2.5 
      471.00         1.40          2.4 
      472.00         0.13          2.6 
      473.00         0.23          3.1 
      474.00         0.20          3.4 
      475.00         0.17          3.6 
      476.00         0.13          3.8 
      477.00         0.13          3.8 
      478.00         0.13          3.8 
      479.00         0.13          4.0 
      480.00         0.13          4.0 
      481.00         0.10          3.8 
      482.00         0.13          3.8 
      483.00         0.12          4.6 
      484.00         0.13          4.0 
      485.00         0.13          3.3 
      486.00         0.17          4.2 
      487.00         0.20          3.9 
      488.00         0.20          4.0 
      489.00         0.17          4.7 
      490.00         0.13          3.8 
      491.00         0.20          3.8 
      492.00         0.20          4.7 
      493.00         0.20          4.6 
      494.00         0.17          4.6 
      495.00         0.23          5.0 
      496.00         0.10          3.9 
      497.00         0.13          3.9 
      498.00         0.20          4.8 
      499.00         0.13          4.5 
      500.00         0.27          4.8 
      501.00         1.15          4.8 
      502.00         0.10          4.7 
      503.00         0.30          4.4 
      504.00         0.17          5.0 
      505.00         0.23          3.4 
      506.00         0.20          3.1 
      507.00         0.20          4.8 
      508.00         0.20          5.0 
      509.00         0.17          3.8 
      510.00         0.17          4.6 
      511.00         0.13          4.8 
      512.00         0.17          5.0 
      513.00         0.13          5.0 
      514.00         0.13          4.5 
      515.00         0.13          4.6 
      516.00         0.15          4.7 
      517.00         0.23          4.1 
      518.00         0.10          4.1 
      519.00         0.20          4.7 
      520.00         0.23          3.6 
      521.00         0.13          3.6 
      522.00         0.13          3.5 
      523.00         0.20          4.4 
      524.00         0.20          4.4 
      525.00         0.17          4.7 
      526.00         0.20          4.8 
      527.00         0.20          4.8 
      528.00         0.17          4.9 
      529.00         0.17          4.4 
      530.00         0.23          4.8 
      531.00         0.82          4.6 
      532.00         0.30          4.4 
      533.00         0.27          4.7 
      534.00         0.17          4.4 
      535.00         0.33          4.8 
      536.00         0.23          5.0 
      537.00         0.17          5.1 
      538.00         0.17          5.6 
      539.00         0.23          4.8 
      540.00         0.23          4.3 
      541.00         0.23          5.0 
      542.00         0.17          5.0 
      543.00         0.40          4.5 
      544.00         0.22          5.5 
      545.00         0.10          5.5 
      546.00         0.13          5.3 
      547.00         0.13          5.3 
      548.00         0.20          4.6 
      549.00         0.30          5.0 
      550.00         0.13          4.9 
      551.00         0.20          4.2 
      552.00         0.07          4.2 
      553.00         0.13          4.2 
      554.00         0.23          4.8 
      555.00         0.23          3.8 
      556.00         0.30          5.1 
      557.00         0.20          4.8 
      558.00         0.23          5.5 
      559.00         0.27          3.6 
      560.00         0.28          5.4 
      561.00         1.27          5.7 
      562.00         0.20          5.5 
      563.00         0.20          5.7 
      564.00         0.17          4.0 
      565.00         0.20          5.7 
      566.00         0.17          3.9 
      567.00         0.17          4.8 
      568.00         0.17          4.9 
      569.00         0.20          4.8 
      570.00         0.13          5.3 
      571.00         0.20          4.6 
      572.00         0.17          4.7 
      573.00         0.22          5.1 
      574.00         0.17          5.1 
      575.00         0.17          5.1 
      576.00         0.17          6.0 
      577.00         0.20          5.6 
      578.00         0.17          5.2 
      579.00         0.13          5.6 
      580.00         0.23          6.0 
      581.00         0.10          6.0 
      582.00         0.20          6.0 
      583.00         0.23          5.5 
      584.00         0.23          5.6 
      585.00         0.10          5.6 
      586.00         0.13          5.6 
      587.00         0.17          5.7 
      588.00         0.20          5.3 
      589.00         0.17          4.9 
      590.00         0.27          5.5 
      591.00         0.92          6.2 
      592.00         0.27          5.7 
      593.00         0.20          5.3 
      594.00         0.30          5.3 
      595.00         0.23          5.6 
      596.00         0.23          5.3 
      597.00         0.20          5.4 
      598.00         0.23          5.0 
      599.00         0.17          5.6 
      600.00         0.17          5.5 
      601.00         0.13          5.0 
      602.00         0.13          5.2 
      603.00         0.13          5.9 
      604.00         0.18          5.0 
      605.00         0.20          4.5 
      606.00         0.13          5.3 
      607.00         0.23          5.7 
      608.00         0.17          5.4 
      609.00         0.17          5.4 
      610.00         0.17          4.8 
      611.00         0.13          4.8 
      612.00         0.10          4.8 
      613.00         0.17          5.2 
      614.00         0.10          5.2 
      615.00         0.13          5.1 
      616.00         0.23          5.5 
      617.00         0.10          5.8 
      618.00         0.13          5.7 
      619.00         0.10          5.7 
      620.00         0.13          5.7 
      621.00         1.35          6.1 
      622.00         0.10          5.6 
      623.00         0.37          5.5 
      624.00         0.23          5.8 
      625.00         0.20          6.0 
      626.00         0.20          5.9 
      627.00         0.20          5.3 
      628.00         0.20          5.4 
      629.00         0.20          4.9 
      630.00         0.20          5.3 
      631.00         0.20          5.6 
      632.00         0.27          5.5 
      633.00         0.37          5.9 
      634.00         0.28          5.6 
      635.00         0.30          5.8 
      636.00         0.27          5.6 
      637.00         0.37          5.9 
      638.00         0.27          6.0 
      639.00         0.23          5.4 
      640.00         0.23          6.1 
