~Version Information
VERS.                      2.0: CWLS Log ASCII Standard - VERSION 2.0
WRAP.                       NO: One line per depth step
~Well Information Block
STRT.FT               -16.2500: 
STOP.FT               938.7500: 
STEP.FT                 0.2500: 
NULL.                -999.2500: 
COMP.          XTO Energy Inc.: COMPANY
WELL.          Golden Eagle 20-04: WELL
FLD.           Purgatrorie River: FIELD
LOC.           702' FNL & 487' FWL--: LOCATION
STAT.                       CO: PROVINCE
CNTY.               Las Animas: COUNTY
CTRY. USA : Country
SECT. 20 : Section 
TOWN. 33S : Township
RANG. 67W : Range
SRVC.          Patterson Wireline: SERVICE COMPANY
DATE.          Mon Dec 05 10:32:54 2005: LOG DATE
API.           05 071 08599 00: UNIQUE WELL ID
~Curve Information Block
DEPT.FT            0 000 00 00: Depth
CCL.                          : Casing Collar Locator
TT3.usec                      : CBL 3' Travel Time
AMP3.mV                       : CBL 3' Amplitude
GR.GAPI                       : Gamma Ray
~Parameter Information Block
~A  Depth       CCL         TT3         AMP3         GR     
# ...
   285.2500      0.0000    653.8649      8.5382    101.5163
   285.5000      0.0000    653.8418      8.6710    100.5558
   285.7500      0.0000    653.6371      8.6360    100.5185
   286.0000      0.0000    653.2492      8.4150    100.9684
   286.2500      0.0000    652.6909      8.0621    101.5718
   286.5000      0.0000    651.9878      7.6708    102.2696
   286.7500      0.0000    651.1996      7.3248    102.9656
   287.0000      0.0000    650.4175      7.0552    103.7504
   287.2500      0.0000    649.7263      6.8418    104.9977
   287.5000      0.0000    649.1801      6.6528    106.5570
   287.7500      0.0000    648.8154      6.4860    107.3476
   288.0000      0.0000    648.6466      6.3729    106.5560
   288.2500      0.0000    648.6246      6.3484    105.0071
   288.5000      0.0000    648.6444      6.4202    104.4842
   288.7500      0.0000    648.6295      6.5673    105.6008
   289.0000      0.0000    648.5930      6.7598    107.2172
   289.2500      0.0000    648.6046      6.9718    108.2693
   289.5000      0.0000    648.7131      7.1779    109.4678
   289.7500      0.0000    648.9121      7.3481    112.6908
   290.0000      0.0000    649.1618      7.4565    118.8306
   290.2500      0.0000    649.4194      7.4972    126.3031
   290.5000      0.0000    649.6354      7.4784    131.8731
   290.7500      0.0000    649.7364      7.3913    133.4787
   291.0000      0.0000    649.6517      7.1998    132.0366
   291.2500      0.0000    649.3798      6.8816    129.8383
   291.5000      0.0000    649.0159      6.4755    127.6359
   291.7500      0.0000    648.7013      6.0756    124.3968
   292.0000      0.0000    648.5317      5.7702    119.7542
   292.2500      0.0000    648.4984      5.5860    115.5314
   292.5000      0.0000    648.5161      5.4870    114.4298
   292.7500      0.0000    648.5162      5.4253    117.7333
   293.0000      0.0000    648.5030      5.3898    124.5365
   293.2500      0.0000    648.5197      5.4043    132.5773
   293.5000      0.0000    648.5900      5.4819    139.3179
   293.7500      0.0000    648.6964      5.5991    142.7737
   294.0000      0.0000    648.7873      5.7233    142.2703
   294.2500      0.0000    648.8000      5.8493    138.6825
   294.5000      0.0000    648.7043      5.9910    133.8134
   294.7500      0.0000    648.5344      6.1482    129.5805
   295.0000      0.0000    648.3665      6.2983    127.5804
   295.2500      0.0000    648.2687      6.4206    128.5772
   295.5000      0.0000    648.2742      6.5221    131.8833
   295.7500      0.0000    648.3844      6.6456    135.8795
   296.0000      0.0000    648.5738      6.8611    139.7409
   296.2500      0.0000    648.7479      7.2357    144.2329
   296.5000      0.0000    648.6465      7.7900    150.2876
   296.7500      0.0000    647.7516      8.4568    157.2466
   297.0000      0.0000    645.4766      9.0642    163.2535
   297.2500      0.0000    641.8621      9.3698    167.2854
   297.5000      0.0000    638.2501      9.1641    170.0215
   297.7500      0.0000    636.7313      8.3993    172.3497
   298.0000      0.0000    638.3448      7.2374    173.4326
   298.2500      0.0000    642.0349      5.9648    170.9599
   298.5000      0.0000    645.7311      4.8463    163.3829
   298.7500      0.0000    648.1157      4.0262    151.2813
   299.0000      0.0000    649.1174      3.5153    136.6297
   299.2500      0.0000    649.2450      3.2343    121.5539
   299.5000      0.0000    648.9594      3.0766    107.6375
   299.7500      0.0000    648.5313      2.9563     95.5844
   300.0000      0.0000    648.1097      2.8276     85.5029
   300.2500      0.0000    647.7643      2.6784     77.8622
   300.5000      0.0000    647.5085      2.5148     73.8581
   300.7500      0.0000    647.3254      2.3506     74.3726
   301.0000      0.0000    647.1954      2.2048     78.6814
   301.2500      0.0000    647.1031      2.1015     84.4781
   301.5000      0.0000    647.0393      2.0653     89.1669
   301.7500      0.0000    647.0113      2.1094     91.2184
   302.0000      0.0000    647.0468      2.2261     90.6331
   302.2500      0.0000    647.1694      2.3902     88.6360
   302.5000      0.0000    647.3640      2.5720     87.0456
   302.7500      0.0000    647.5724      2.7479     87.2840
   303.0000      0.0000    647.7302      2.9013     89.4633
   303.2500      0.0000    647.8015      3.0190     92.5901
   303.5000      0.0000    647.7861      3.0902     95.8185
   303.7500      0.0000    647.7164      3.1130     99.0952
   304.0000      0.0000    647.6610      3.1034    102.4675
   304.2500      0.0000    647.7167      3.0938    105.2411
   304.5000      0.0000    647.9910      3.1121    106.2229
   304.7500      0.0000    648.6401      3.1560    104.5978
   305.0000      0.0000    649.9982      3.1943    100.2773
   305.2500      0.0000    652.6199      3.1986     93.6055
   305.5000      0.0000    656.9062      3.1701     85.2191
   305.7500      0.0000    662.3216      3.1334     76.2656
   306.0000      0.0000    666.9904      3.1093     68.4250
   306.2500      0.0000    668.5744      3.1010     63.4414
   306.5000      0.0000    666.0322      3.1109     62.4993
   306.7500      0.0000    660.5491      3.1674     65.8518
   307.0000      0.0000    654.6057      3.3279     72.6136
   307.2500      0.0000    650.1825      3.6500     80.8165
   307.5000      0.0000    647.8369      4.1534     88.2925
   307.7500      0.0000    647.0949      4.8094     93.9960
   308.0000      0.0000    647.2690      5.5629     98.3091
   308.2500      0.0000    647.8862      6.3626    102.0251
   308.5000      0.0000    648.6886      7.1665    105.4057
   308.7500      0.0000    649.5155      7.9158    108.1666
   309.0000      0.0000    650.2592      8.5094    110.0640
   309.2500      0.0000    650.8782      8.8361    111.4705
   309.5000      0.0000    651.3880      8.8609    113.1652
   309.7500      0.0000    651.7941      8.6755    115.2536
   310.0000      0.0000    652.0494      8.4437    116.7085
   310.2500      0.0000    652.1033      8.2901    116.5655
   310.5000      0.0000    651.9843      8.2369    115.1473
   310.7500      0.0000    651.8124      8.2288    113.4407
   311.0000      0.0000    651.7213      8.2037    111.6935
   311.2500      0.0000    651.7711      8.1445    109.4266
   311.5000      0.0000    651.9273      8.0786    106.6282
   311.7500      0.0000    652.1068      8.0395    104.2265
   312.0000      0.0000    652.2451      8.0317    103.3385
   312.2500      0.0000    652.3303      8.0303    104.5765
   312.5000      0.0000    652.3951      8.0079    107.9382
   312.7500      0.0000    652.4962      7.9605    112.7311
   313.0000      0.0000    652.6968      7.9066    117.6421
   313.2500      0.0000    653.0301      7.8649    121.6438
   313.5000      0.0000    653.4401      7.8375    124.8231
   313.7500      0.0000    653.6843      7.8169    127.6559
   314.0000      0.0000    653.2325      7.8029    129.6130
   314.2500      0.0000    651.2056      7.8044    129.3440
   314.5000      0.0000    646.7119      7.8214    126.2792
   314.7500      0.0000    639.9222      7.8239    121.3672
   315.0000      0.0000    633.0890      7.7495    116.1883
   315.2500      0.0000    629.7057      7.5311    111.7270
   315.5000      0.0000    631.8016      7.1399    107.8111
   315.7500      0.0000    638.3932      6.6147    103.3051
   316.0000      0.0000    646.9836      6.0588     97.2160
   316.2500      0.0000    655.6920      5.5934     90.3156
   316.5000      0.0000    663.2643      5.2919     85.4829
   316.7500      2.0000    668.1093      5.1527     85.6866
   317.0000     -2.0000    668.8121      5.1395     91.4430
   317.2500      2.0000    665.6466      5.2424    100.4903
   317.5000      0.0000    660.7130      5.4972    109.5646
   317.7500      0.0000    656.2911      5.9418    116.0486
   318.0000      0.0000    653.2834      6.5441    118.4974
   318.2500      0.0000    651.0416      7.1797    116.8527
   318.5000      0.0000    648.0502      7.7040    112.6282
