~Version Information
VERS.                      2.0: CWLS Log ASCII Standard - VERSION 2.0
WRAP.                       NO: One line per depth step
~Well Information Block
STRT.FT               880.0000: 
STOP.FT              1996.5000: 
STEP.FT                 0.1000: 
NULL.                -999.2500: 
COMP.          Petrogulf Corporation: COMPANY
WELL.          Collister 17-31R: WELL
FLD.           Purgatorie River: FIELD
LOC.           962' FNL & 1520' FEL: LOCATION
PROV.                 Colorado: PROVINCE
CNTY.               Las Animas: COUNTRY
SRVC.                Patterson: SERVICE COMPANY
DATE.          Mon Sep 26 09:28:52 2005: LOG DATE
UWI.                          : UNIQUE WELL ID
~Curve Information Block
DEPT.FT            0 000 00 00: Depth
DCAL.in                       : CDL Caliper
RHOB.g/cc                     : CDL Bulk Density
RHOC.g/cc                     : CDL Density Correction
DPOR.pu                       : CDL Density Porosity
GR.GAPI                       : Gamma Ray
NPOR.pu                       : Neutron Porosity
~Parameter Information Block
~A  Depth       DCAL        RHOB        RHOC        DPOR         GR         NPOR    
# ...
  1465.6000      7.8209      2.6726      0.0675     -1.3686    130.5661     26.7312
  1465.7000      7.8209      2.6678      0.0806     -1.0804    128.3179     26.1489
  1465.8000      7.8183      2.6468      0.0389      0.1956    124.0361     25.0961
  1465.9000      7.8183      2.6271      0.0446      1.3857    121.0012     24.1863
  1466.0000      7.8011      2.6154      0.0371      2.0947    119.0694     23.6554
  1466.1000      7.8011      2.6106      0.0055      2.3890    117.1879     23.2578
  1466.2000      7.8011      2.6203      0.0207      1.7988    117.3213     22.7174
  1466.3000      7.7997      2.6509      0.0511     -0.0516    118.6509     21.9531
  1466.4000      7.7997      2.6856      0.1147     -2.1573    116.5521     21.2119
  1466.5000      7.7922      2.6992      0.1113     -2.9834    110.7772     20.7631
  1466.6000      7.7922      2.6971      0.0354     -2.8528    105.5571     20.3767
  1466.7000      7.7922      2.6983      0.0758     -2.9268    102.6423     19.6141
  1466.8000      7.7955      2.6961      0.0501     -2.7926    100.2067     18.6152
  1466.9000      7.7955      2.6794      0.0534     -1.7847     95.5906     17.8843
  1467.0000      7.7976      2.6577     -0.0011     -0.4690     90.1007     17.5787
  1467.1000      7.7976      2.6446      0.0321      0.3268     86.6591     17.4391
  1467.2000      7.7976      2.6396      0.0024      0.6312     86.7693     17.3347
  1467.3000      7.7936      2.6350      0.0612      0.9076     89.9153     17.4971
  1467.4000      7.7936      2.6275      0.0487      1.3618     92.7924     17.9272
  1467.5000      7.7924      2.6197      0.0377      1.8391     93.4515     18.2389
  1467.6000      7.7924      2.6112      0.0344      2.3540     92.3150     18.1482
  1467.7000      7.7924      2.5961      0.0603      3.2694     90.9766     17.7313
  1467.8000      7.7964      2.5769      0.0210      4.4283     91.8434     17.2839
  1467.9000      7.7964      2.5653      0.0409      5.1356     93.6080     17.0347
  1468.0000      7.8044      2.5654     -0.0028      5.1301     94.6298     17.1411
  1468.1000      7.8044      2.5774     -0.0006      4.4007     98.1905     17.5659
  1468.2000      7.8044      2.5942      0.0542      3.3801    104.2067     18.0683
  1468.3000      7.8064      2.5979      0.0166      3.1589    107.1747     18.5066
  1468.4000      7.8064      2.5814      0.0281      4.1598    106.4175     18.8053
  1468.5000      7.7917      2.5545      0.0410      5.7860    109.5756     19.1304
  1468.6000      7.7917      2.5341      0.0049      7.0264    120.6834     19.7821
  1468.7000      7.7917      2.5318      0.0283      7.1617    133.7627     20.5608
  1468.8000      7.7914      2.5353      0.0805      6.9501    142.0691     21.1485
  1468.9000      7.7914      2.5223      0.0750      7.7398    145.9909     21.6557
  1469.0000      7.7845      2.4972     -0.0045      9.2582    149.0688     22.3136
  1469.1000      7.7845      2.4796      0.0202     10.3279    151.0255     23.2034
  1469.2000      7.7845      2.4705      0.0663     10.8762    151.6721     24.1820
  1469.3000      7.8203      2.4594      0.0478     11.5500    154.2625     25.0089
  1469.4000      7.8203      2.4402      0.0426     12.7121    159.1329     25.6496
  1469.5000      7.9255      2.4102      0.0478     14.5332    162.6540     26.1570
  1469.6000      7.9255      2.3781      0.0185     16.4805    164.0228     26.5888
  1469.7000      7.9255      2.3662     -0.0037     17.1989    166.7861     27.1158
  1469.8000      7.9083      2.3770      0.0670     16.5432    170.4285     27.8598
  1469.9000      7.9083      2.3896      0.0779     15.7836    170.5383     28.7871
  1470.0000      7.9057      2.4028      0.0408     14.9803    168.1594     29.6729
  1470.1000      7.9057      2.4381      0.0904     12.8449    167.2926     30.2409
  1470.2000      7.9057      2.4949      0.2409      9.4024    168.8877     30.3327
  1470.3000      7.8355      2.5443      0.3146      6.4082    171.1523     29.9922
  1470.4000      7.8355      2.5658      0.3290      5.1010    172.2833     29.5361
  1470.5000      7.8164      2.5592      0.3055      5.5025    172.1492     29.4617
  1470.6000      7.8164      2.5377      0.2022      6.8078    172.2567     29.7649
  1470.7000      7.8164      2.5268      0.1562      7.4667    175.4619     29.9245
  1470.8000      7.8263      2.5385      0.2025      6.7563    181.2683     29.8492
  1470.9000      7.8263      2.5556      0.2146      5.7239    184.6819     29.8164
  1471.0000      7.8728      2.5625      0.1561      5.3005    181.1420     29.8122
  1471.1000      7.8728      2.5644      0.1323      5.1851    171.6257     29.6018
  1471.2000      7.8728      2.5684      0.1413      4.9451    162.2427     29.1351
  1471.3000      7.8807      2.5717      0.1522      4.7447    154.1731     28.3920
  1471.4000      7.8807      2.5690      0.1573      4.9070    144.1568     27.4163
  1471.5000      7.8705      2.5587      0.0922      5.5326    133.8270     26.4748
  1471.6000      7.8705      2.5417      0.0909      6.5625    127.5773     25.5708
  1471.7000      7.8705      2.5280      0.0414      7.3912    124.2066     24.5100
  1471.8000      7.8058      2.5315      0.0525      7.1838    119.6332     23.4068
  1471.9000      7.8058      2.5488      0.0444      6.1307    114.0643     22.6255
  1472.0000      7.7827      2.5719      0.0222      4.7340    109.0372     22.1739
  1472.1000      7.7827      2.5985      0.0751      3.1192    103.7902     21.5053
  1472.2000      7.7827      2.6186      0.1050      1.9002     98.7410     20.6203
  1472.3000      7.7943      2.6247      0.0958      1.5352     95.2629     20.0230
  1472.4000      7.7943      2.6263      0.0906      1.4376     92.1092     19.5428
  1472.5000      7.7367      2.6362      0.0757      0.8334     88.7218     18.7720
  1472.6000      7.7367      2.6608      0.0659     -0.6570     86.8022     17.9981
  1472.7000      7.7367      2.6945      0.1004     -2.6950     87.1524     17.4859
  1472.8000      7.7034      2.7193      0.1344     -4.2009     89.5481     17.1411
  1472.9000      7.7034      2.7193      0.1662     -4.2028     91.9227     16.9953
  1473.0000      7.7085      2.6982      0.1248     -2.9223     93.6040     17.0837
  1473.1000      7.7085      2.6785      0.1314     -1.7302     97.5353     17.3378
  1473.2000      7.7085      2.6739      0.1291     -1.4461    103.8422     17.6389
  1473.3000      7.7079      2.6749      0.1278     -1.5099    108.2634     17.8510
  1473.4000      7.7079      2.6696      0.1048     -1.1868    109.7703     18.1386
  1473.5000      7.7321      2.6567      0.0621     -0.4070    111.7939     18.6308
  1473.6000      7.7321      2.6338      0.0914      0.9820    117.3286     19.2081
  1473.7000      7.7321      2.6027     -0.0079      2.8678    126.7998     19.8736
  1473.8000      7.8006      2.5803      0.0236      4.2262    138.0513     20.6399
  1473.9000      7.8006      2.5712      0.0410      4.7744    145.7884     21.3660
  1474.0000      7.8494      2.5613      0.0453      5.3735    146.5957     21.9901
  1474.1000      7.8494      2.5433      0.0451      6.4665    145.6865     22.3976
  1474.2000      7.8494      2.5297      0.0040      7.2882    149.2076     22.6335
  1474.3000      7.8678      2.5300      0.0895      7.2743    156.2560     23.0176
  1474.4000      7.8678      2.5372      0.0679      6.8363    162.1402     23.7225
  1474.5000      7.8483      2.5485      0.0761      6.1527    163.3755     24.5462
  1474.6000      7.8483      2.5578      0.0625      5.5859    162.7021     25.2165
  1474.7000      7.8483      2.5557      0.0559      5.7156    166.6412     25.7765
  1474.8000      7.8643      2.5465      0.0684      6.2700    173.3381     26.2369
  1474.9000      7.8643      2.5433      0.0605      6.4695    173.9024     26.6127
  1475.0000      7.8395      2.5504      0.0780      6.0338    167.1853     26.9400
  1475.1000      7.8395      2.5646      0.0927      5.1776    161.7988     27.0016
