~Version Information
VERS.                      2.0: CWLS Log ASCII Standard - VERSION 2.0
WRAP.                       NO: One line per depth step
~Well Information Block
STRT.FT               875.0000: 
STOP.FT              2053.0000: 
STEP.FT                 0.1000: 
NULL.                -999.2500: 
COMP.          Pioneer Natural Resources: COMPANY
WELL.          Woodstock 43-19: WELL
FLD.           Purgatoire River: FIELD
LOC.           2195' FSL & 250' FEL: LOCATION
CNTY.               Las Animas: COUNTY
SRVC.                Patterson: SERVICE COMPANY
DATE.          Thu Feb 02 12:45:04 2006: LOG DATE
UWI.           05 071 08677 00: UNIQUE WELL ID
STAT.                 Colorado: STATE
~Curve Information Block
DEPT.FT            0 000 00 00: Depth
DCAL.in                       : CDL Caliper
RHOB.g/cc                     : CDL Bulk Density
RHOC.g/cc                     : CDL Density Correction
DPOR.pu                       : CDL Density Porosity
GR.GAPI                       : Gamma Ray
NPOR.pu                       : Neutron Porosity
~Parameter Information Block
~A  Depth       DCAL        RHOB        RHOC        DPOR         GR         NPOR    
# ...
  1182.2000      8.2048      2.5285      0.1189      7.3617    179.6953     26.3268
  1182.3000      8.1341      2.4955      0.0508      9.3619    174.2870     26.2353
  1182.4000      8.1341      2.4476      0.0384     12.2672    169.9188     26.5398
  1182.5000      8.2202      2.3825      0.0237     16.2099    164.7103     27.1233
  1182.6000      8.2202      2.3187     -0.0367     20.0798    160.1302     27.3295
  1182.7000      8.2202      2.2889     -0.0337     21.8853    160.4923     26.7955
  1182.8000      8.3891      2.3015     -0.0500     21.1227    165.5032     25.9983
  1182.9000      8.3891      2.3418      0.0006     18.6808    168.2727     25.7485
  1183.0000      8.4208      2.3929      0.0239     15.5830    166.5416     26.1745
  1183.1000      8.4208      2.4449      0.0956     12.4299    164.5850     26.4911
  1183.2000      8.4208      2.4844      0.1334     10.0350    165.5067     26.1231
  1183.3000      8.3331      2.4953      0.1778      9.3757    169.0936     25.1662
  1183.4000      8.3331      2.4747      0.1921     10.6218    174.3528     23.9563
  1183.5000      8.2177      2.4313      0.2178     13.2527    179.4524     22.8540
  1183.6000      8.2177      2.3771      0.0910     16.5391    181.3214     22.1438
  1183.7000      8.2177      2.3217      0.1155     19.8976    178.1714     21.8470
  1183.8000      8.2415      2.2655      0.0394     23.3035    170.7703     21.6870
  1183.9000      8.2415      2.2197      0.0401     26.0805    163.2975     21.4412
  1184.0000      8.2492      2.2042      0.0101     27.0166    161.2910     21.1095
  1184.1000      8.2492      2.2252      0.0329     25.7432    166.2733     20.6542
  1184.2000      8.2492      2.2643      0.1803     23.3762    174.5654     20.1586
  1184.3000      8.0454      2.2881      0.2550     21.9356    185.8772     19.8926
  1184.4000      8.0454      2.2716      0.2416     22.9342    198.3929     19.8204
  1184.5000      8.1690      2.2103      0.1958     26.6456    203.3602     19.5971
  1184.6000      8.1690      2.1192      0.1971     32.1706    197.2033     19.0291
  1184.7000      8.1690      2.0195      0.1219     38.2112    185.1322     18.2909
  1184.8000      8.1987      1.9278      0.0820     43.7725    173.7256     17.7749
  1184.9000      8.1987      1.8522      0.0106     48.3509    166.8792     17.7101
  1185.0000      8.0585      1.7917      0.0203     52.0199    163.0609     18.0918
  1185.1000      8.0585      1.7412     -0.0103     55.0810    157.7785     19.1643
  1185.2000      8.0585      1.7124     -0.0188     56.8258    149.5696     21.0679
  1185.3000      8.1166      1.7339     -0.0190     55.5194    142.9348     23.0937
  1185.4000      8.1166      1.8254      0.0909     49.9778    141.1788     24.5268
  1185.5000      8.0366      1.9736      0.2227     40.9939    138.6658     25.3637
  1185.6000      8.0366      2.1416      0.3135     30.8130    131.3669     25.7239
  1185.7000      8.0366      2.2855      0.3586     22.0920    124.5324     25.5846
  1185.8000      8.0227      2.3730      0.3590     16.7894    120.2026     25.6350
  1185.9000      8.0227      2.4224      0.2205     13.7909    116.0549     26.6973
  1186.0000      8.2709      2.4843      0.1379     10.0416    111.7957     28.1850
  1186.1000      8.2709      2.5576      0.1868      5.5994    107.5149     28.7866
  1186.2000      8.2709      2.5988      0.0971      3.1010    104.5420     28.0494
  1186.3000      8.1839      2.6019      0.0349      2.9171    102.7199     26.6212
  1186.4000      8.1839      2.5913      0.0721      3.5556     99.8206     25.5071
  1186.5000      8.0757      2.5823      0.0603      4.1029     95.6236     25.2594
  1186.6000      8.0757      2.5829      0.0600      4.0693     92.4450     25.6593
  1186.7000      8.0757      2.5901      0.1163      3.6301     89.8716     25.9814
  1186.8000      7.9893      2.5956      0.0517      3.2963     86.1582     25.6217
  1186.9000      7.9893      2.5997      0.0567      3.0487     82.7533     24.9797
  1187.0000      7.9162      2.6026      0.0956      2.8748     80.8748     24.7813
  1187.1000      7.9162      2.6080      0.0287      2.5477     80.1988     24.9020
  1187.2000      7.9162      2.6183      0.1261      1.9217     80.3989     25.0192
  1187.3000      7.9306      2.6171      0.0848      1.9939     81.0954     25.0901
  1187.4000      7.9306      2.5958      0.0633      3.2870     82.7651     24.9901
  1187.5000      7.9306      2.5726      0.0099      4.6925     86.2227     24.6972
  1187.6000      7.9306      2.5610      0.0635      5.3914     92.3988     24.3648
  1187.7000      7.9306      2.5578      0.0110      5.5901    100.4994     23.9496
  1187.8000      7.9092      2.5568      0.0145      5.6468    106.7575     23.6060
  1187.9000      7.9092      2.5442      0.0558      6.4147    107.7586     23.6921
  1188.0000      7.9420      2.5113      0.0620      8.4053    104.9869     24.0685
  1188.1000      7.9420      2.4728      0.0158     10.7395    105.2184     24.2790
  1188.2000      7.9420      2.4523     -0.0335     11.9813    111.6316     24.3250
  1188.3000      7.9450      2.4643      0.0048     11.2535    119.1979     24.4599
  1188.4000      7.9450      2.4974      0.0743      9.2476    123.3796     24.4197
  1188.5000      7.9691      2.5231      0.0867      7.6913    126.6817     24.1371
  1188.6000      7.9691      2.5273      0.1030      7.4384    129.2363     24.0574
  1188.7000      7.9691      2.5173      0.0788      8.0449    128.6345     24.1724
  1188.8000      7.9552      2.5064      0.1247      8.7012    131.9121     24.3957
  1188.9000      7.9552      2.5066      0.0792      8.6879    142.1925     24.9588
  1189.0000      7.9772      2.5289      0.0910      7.3409    152.9783     25.7526
  1189.1000      7.9772      2.5666      0.1347      5.0532    161.0152     26.5095
  1189.2000      7.9772      2.6003      0.1423      3.0125    165.9536     27.0760
  1189.3000      8.0782      2.6205      0.1431      1.7908    167.3673     27.3423
  1189.4000      8.0782      2.6310      0.1587      1.1532    165.2567     27.4332
  1189.5000      8.0708      2.6290      0.2084      1.2741    161.7783     27.5536
  1189.6000      8.0708      2.6044      0.1591      2.7618    163.1330     27.6782
  1189.7000      8.0708      2.5721      0.0431      4.7239    167.4152     27.7698
  1189.8000      8.0961      2.5608      0.0750      5.4040    167.7706     27.6157
  1189.9000      8.0961      2.5729      0.0750      4.6711    168.1180     27.0680
  1190.0000      8.0583      2.5904      0.1005      3.6139    172.0461     26.6918
  1190.1000      8.0583      2.5953      0.1107      3.3168    173.7224     26.9719
  1190.2000      8.0583      2.5819      0.0391      4.1283    168.8295     27.6311
  1190.3000      8.0520      2.5625      0.0599      5.3028    162.5075     27.9180
  1190.4000      8.0520      2.5514      0.0019      5.9746    164.2111     27.5782
  1190.5000      8.0694      2.5480      0.0481      6.1847    171.6778     27.0880
  1190.6000      8.0694      2.5375     -0.0315      6.8169    175.4381     26.7752
  1190.7000      8.0694      2.5154     -0.0049      8.1577    173.4520     26.7727
  1190.8000      8.0694      2.4928      0.0012      9.5296    170.5706     27.1097
  1190.9000      8.0694      2.4926     -0.0725      9.5373    169.3195     27.4036
  1191.0000      8.0961      2.5240     -0.0083      7.6358    167.5229     27.3176
  1191.1000      8.0961      2.5612      0.0255      5.3831    163.1782     26.9686
  1191.2000      8.0961      2.5769      0.0791      4.4287    159.9254     26.9242
  1191.3000      8.1339      2.5665      0.0791      5.0604    162.8589     27.4000
  1191.4000      8.1339      2.5501     -0.0204      6.0547    168.6251     27.8286
  1191.5000      8.1758      2.5538     -0.0043      5.8276    169.6317     27.7957
  1191.6000      8.1758      2.5756      0.0110      4.5067    165.4020     27.7079
  1191.7000      8.1758      2.5885      0.0303      3.7300    161.8754     28.2463
