~Version Information
VERS.                      2.0: CWLS Log ASCII Standard - VERSION 2.0
WRAP.                       NO: One line per depth step
~Well Information Block
STRT.FT                -9.5000: 
STOP.FT              1304.7500: 
STEP.FT                 0.2500: 
NULL.                -999.2500: 
COMP.          Pioneer Natural Resources: COMPANY
WELL.            Hamburg 43-35: WELL
FLD.           Purgatorie River: FIELD
LOC.           2444' FSL & 950' FEL--: LOCATION
PROV.                       CO: PROVINCE
CNTY.               Las Animas: COUNTRY
SRVC.          Patterson Wireline: SERVICE COMPANY
DATE.          Thu Dec 08 14:29:45 2005: LOG DATE
UWI.           08 071 08607 00: UNIQUE WELL ID
~Curve Information Block
DEPT.FT            0 000 00 00: Depth
CCL.                          : Casing Collar Locator
TT3.usec                      : CBL 3' Travel Time
AMP3.mV                       : CBL 3' Amplitude
GR.GAPI                       : Gamma Ray
~Parameter Information Block
~A  Depth       CCL         TT3         AMP3         GR     
# ...
   761.0000      0.0000   1083.0642     11.5411    151.5736
   761.2500      0.0000   1046.7799     11.5100    163.7017
   761.5000      0.0000    992.2180     11.4893    170.0411
   761.7500      0.0000    930.7973     11.5303    169.5944
   762.0000      0.0000    876.9665     11.6522    162.7327
   762.2500      0.0000    839.2172     11.8215    151.4444
   762.5000      0.0000    817.6674     11.9793    138.0752
   762.7500      0.0000    809.0751     12.0894    124.0642
   763.0000      0.0000    811.0377     12.1598    110.5840
   763.2500      0.0000    821.2723     12.2233     99.5569
   763.5000      0.0000    835.7298     12.3033     92.8119
   763.7500      0.0000    849.4474     12.3980     90.5546
   764.0000      0.0000    859.1285     12.4874     91.4683
   764.2500      0.0000    864.2493     12.5490     93.9981
   764.5000      0.0000    865.8604     12.5581     97.1409
   764.7500      0.0000    864.8672     12.4714    100.6188
   765.0000      0.0000    861.4710     12.2189    104.8755
   765.2500      0.0000    855.8127     11.7417    110.5802
   765.5000      0.0000    849.1880     11.0657    117.7590
   765.7500      0.0000    845.4929     10.3310    125.4753
   766.0000      0.0000    851.4205      9.7132    132.3672
   766.2500      0.0000    872.3475      9.3046    137.4913
   766.5000      0.0000    905.3923      9.0923    140.8797
   766.7500      0.0000    938.5888      9.0235    143.4205
   767.0000      0.0000    960.1025      9.0464    146.2732
   767.2500      0.0000    966.4047      9.1061    150.3663
   767.5000     -2.0000    959.5162      9.1510    155.9864
   767.7500      2.0000    941.1861      9.1482    162.4166
   768.0000      0.0000    913.9484      9.0840    168.1266
   768.2500      0.0000    883.7632      8.9660    171.6850
   768.5000      0.0000    856.9007      8.8467    172.7392
   768.7500      0.0000    835.7269      8.8407    172.2598
   769.0000      0.0000    819.6477      9.0749    171.8593
   769.2500      0.0000    808.4068      9.5866    172.6731
   769.5000      0.0000    802.6935     10.2624    174.6769
   769.7500      0.0000    802.9050     10.9000    176.9742
   770.0000      0.0000    809.3137     11.3460    178.4386
   770.2500      0.0000    823.1652     11.5835    177.9568
   770.5000      0.0000    845.7219     11.7041    174.3983
   770.7500      0.0000    875.2585     11.8123    166.8960
   771.0000      0.0000    906.1644     11.9566    155.6077
   771.2500      0.0000    932.4199     12.1230    142.2959
   771.5000      0.0000    951.6329     12.2738    129.7294
   771.7500      0.0000    964.7845     12.3843    120.0426
   772.0000      0.0000    972.1901     12.4542    113.4370
   772.2500      0.0000    971.0894     12.4963    108.5720
   772.5000      0.0000    958.2943     12.5191    104.5781
   772.7500      0.0000    934.6658     12.5201    102.5465
   773.0000      0.0000    905.5698     12.4948    104.2242
   773.2500      0.0000    877.0319     12.4497    109.2554
   773.5000      0.0000    852.6851     12.3974    115.0740
   773.7500      0.0000    833.6246     12.3413    120.0437
   774.0000      0.0000    819.1831     12.2713    125.2694
   774.2500      0.0000    807.9450     12.1717    132.5091
   774.5000      0.0000    799.0728     12.0274    141.7743
   774.7500      0.0000    792.5097     11.8297    152.0965
   775.0000      0.0000    787.8220     11.5843    163.0957
   775.2500      0.0000    783.5490     11.3221    174.1598
   775.5000      0.0000    777.9988     11.0936    183.0355
   775.7500      0.0000    770.5967     10.9403    187.0083
   776.0000      0.0000    762.4244     10.8621    185.5857
   776.2500      0.0000    755.4793     10.8190    181.2783
   776.5000      0.0000    751.3260     10.7656    177.7937
   776.7500      0.0000    750.3574     10.6818    177.6703
   777.0000      0.0000    751.9379     10.5767    180.9642
   777.2500      0.0000    754.8933     10.4773    185.4955
   777.5000      0.0000    758.1808     10.4106    188.6320
   777.7500      0.0000    761.4893     10.3853    189.4226
   778.0000      0.0000    765.0380     10.3789    189.0047
   778.2500      0.0000    768.7756     10.3499    188.7523
   778.5000      0.0000    772.3012     10.2704    188.2830
   778.7500      0.0000    775.5231     10.1475    185.7422
   779.0000      0.0000    778.6319     10.0136    180.0392
   779.2500      0.0000    781.3344      9.9034    172.3372
   779.5000      0.0000    782.6557      9.8388    164.9594
   779.7500      0.0000    781.5688      9.8253    158.9368
   780.0000      0.0000    777.7320      9.8586    153.0650
   780.2500      0.0000    771.8882      9.9348    145.7543
   780.5000      0.0000    765.5886     10.0541    137.6826
   780.7500      0.0000    760.1046     10.2065    131.9527
   781.0000      0.0000    755.5741     10.3597    131.2665
   781.2500      0.0000    751.4990     10.4704    135.2290
   781.5000      0.0000    747.8062     10.5110    140.6691
   781.7500      0.0000    744.9453     10.4882    144.3269
   782.0000      0.0000    743.2022     10.4376    145.1057
   782.2500      0.0000    742.3857     10.4005    144.2593
   782.5000      0.0000    742.1047     10.3981    144.0456
   782.7500      0.0000    742.0646     10.4233    145.9636
   783.0000      0.0000    742.1149     10.4568    149.3503
   783.2500      0.0000    742.1957     10.4913    151.5235
   783.5000      0.0000    742.3005     10.5371    150.1778
   783.7500      0.0000    742.4354     10.6005    145.9394
   784.0000      0.0000    742.5761     10.6639    141.9188
   784.2500      0.0000    742.6655     10.6937    140.6363
   784.5000      0.0000    742.6682     10.6662    141.8188
   784.7500      0.0000    742.6036     10.5830    143.0782
   785.0000      0.0000    742.5146     10.4641    142.3000
   785.2500      0.0000    742.4287     10.3339    139.4530
   785.5000      0.0000    742.3708     10.2123    136.3652
   785.7500      0.0000    742.4172     10.1117    134.8278
   786.0000      0.0000    742.7753     10.0381    134.8752
   786.2500      0.0000    743.9124      9.9922    134.9137
   786.5000      0.0000    746.6052      9.9701    133.5634
   786.7500      0.0000    751.5905      9.9611    131.1120
   787.0000      0.0000    758.7867      9.9527    128.9323
   787.2500      0.0000    766.7959      9.9418    128.1167
   787.5000      0.0000    773.4413      9.9367    129.1208
   787.7500      0.0000    777.0799      9.9510    131.8171
   788.0000      0.0000    777.6321      9.9963    135.0873
   788.2500      0.0000    776.6015     10.0778    137.0366
   788.5000      0.0000    776.0472     10.1880    136.4845
   788.7500      0.0000    777.1371     10.3067    134.2165
   789.0000      0.0000    779.4964     10.4119    132.4498
   789.2500      0.0000    781.9463     10.4898    132.8505
   789.5000      0.0000    783.6767     10.5356    134.8618
   789.7500      0.0000    784.6331     10.5502    136.0958
   790.0000      0.0000    785.1241     10.5417    134.4860
   790.2500      0.0000    785.3957     10.5276    130.0331
   790.5000      0.0000    785.5377     10.5266    124.6936
   790.7500      0.0000    785.5939     10.5462    120.9448
   791.0000      0.0000    785.6471     10.5782    120.1180
   791.2500      0.0000    785.8115     10.6057    121.4851
   791.5000      0.0000    786.1786     10.6137    122.8593
   791.7500      0.0000    787.0383     10.5970    122.2674
   792.0000      0.0000    789.4257     10.5593    119.1277
   792.2500      0.0000    795.6428     10.5056    114.2900
   792.5000      0.0000    808.3680     10.4374    109.4725
   792.7500      0.0000    827.2902     10.3599    106.3604
   793.0000      0.0000    845.8527     10.2870    105.5169
   793.2500      0.0000    853.8634     10.2321    105.8547
   793.5000      0.0000    846.1491     10.1963    105.2248
   793.7500      0.0000    827.6882     10.1708    101.8174
   794.0000      0.0000    808.5471     10.1501     95.4201
   794.2500      0.0000    795.3040     10.1368     87.6685
