~Version Information
VERS.                      2.0: CWLS Log ASCII Standard - VERSION 2.0
WRAP.                       NO: One line per depth step
~Well Information Block
STRT.FT                -4.0000: 
STOP.FT              1544.0000: 
STEP.FT                 0.2500: 
NULL.                -999.2500: 
COMP.          Pioneer Natural Resources: COMPANY
WELL.           Screamin 12-29: WELL
FLD.           Purgatoire River: FIELD
LOC.           2038' FNL & 612' FWL--: LOCATION
CNTY.               Las Animas: COUNTY
SRVC.                Patterson: SERVICE COMPANY
DATE.          Fri Apr 14 00:36:42 2006: LOG DATE
UWI.           05 071 08661 00: UNIQUE WELL ID
STAT.                 Colorado: STATE
~Curve Information Block
DEPT.FT            0 000 00 00: Depth
GR.GAPI                       : Gamma Ray
CCL.                          : Casing Collar Locator
TT3.usec                      : CBL 3' Travel Time
AMP3.mV                       : CBL 3' Amplitude
~Parameter Information Block
~A  Depth        GR         CCL         TT3         AMP3    
# ...
  1101.5000     78.8648      0.0000    642.5771      6.3794
  1101.7500     81.4690      0.0000    642.7367      6.3218
  1102.0000     84.8745      0.0000    643.4418      6.2322
  1102.2500     85.9271      0.0000    644.4774      6.1872
  1102.5000     85.3922      0.0000    647.4100      6.1609
  1102.7500     84.0601      0.0000    650.4551      6.1711
  1103.0000     81.2049      0.0000    656.1651      6.2088
  1103.2500     78.7952      0.0000    659.7921      6.2309
  1103.5000     74.6817      0.0000    662.7415      6.2328
  1103.7500     72.0796      0.0000    662.1962      6.2062
  1104.0000     69.3184      0.0000    658.1522      6.1292
  1104.2500     68.5194      0.0000    654.5688      6.0649
  1104.5000     68.8141      0.0000    649.9451      5.9816
  1104.7500     69.7139      0.0000    647.8575      5.9557
  1105.0000     71.1810      0.0000    645.9684      5.9757
  1105.2500     71.6757      0.0000    645.1854      6.0150
  1105.5000     71.6934      0.0000    644.2944      6.0697
  1105.7500     71.8876      0.0000    643.7791      6.0883
  1106.0000     73.4399      0.0000    643.0803      6.1019
  1106.2500     75.1101      0.0000    642.6682      6.1173
  1106.5000     77.2234      0.0000    642.1485      6.1558
  1106.7500     77.7751      0.0000    641.8730      6.1792
  1107.0000     77.4894      0.0000    641.5498      6.1846
  1107.2500     77.1593      0.0000    641.3732      6.1613
  1107.5000     77.2647      0.0000    641.1547      6.0948
  1107.7500     77.6282      0.0000    641.0660      6.0443
  1108.0000     77.6699      0.0000    641.0999      5.9903
  1108.2500     76.9135      0.0000    641.2669      5.9820
  1108.5000     74.7758      0.0000    641.7228      6.0108
  1108.7500     73.2283      0.0000    642.1271      6.0442
  1109.0000     71.5405      0.0000    642.8229      6.0855
  1109.2500     70.8763      0.0000    643.3369      6.0961
  1109.5000     70.1040      0.0000    644.2286      6.0866
  1109.7500     69.5604      0.0000    644.9580      6.0708
  1110.0000     68.8735      0.0000    646.3809      6.0402
  1110.2500     68.6936      0.0000    647.6449      6.0116
  1110.5000     68.8696      0.0000    650.2935      5.9485
  1110.7500     69.0791      0.0000    652.8316      5.8980
  1111.0000     69.1337      0.0000    658.1353      5.8389
  1111.2500     69.0049      0.0000    662.3708      5.8297
  1111.5000     69.0401      0.0000    668.0760      5.8736
  1111.7500     69.4383      0.0000    670.3693      5.9340
  1112.0000     70.1733      0.0000    671.2614      6.0481
  1112.2500     70.1243      0.0000    670.9995      6.1275
  1112.5000     68.5390      0.0000    670.5712      6.2345
  1112.7500     66.6674      0.0000    669.9592      6.2888
  1113.0000     63.5257      0.0000    667.0904      6.3354
  1113.2500     61.5941      0.0000    663.7800      6.3448
  1113.5000     59.3302      0.0000    658.7277      6.3401
  1113.7500     58.4910      0.0000    656.8569      6.3337
  1114.0000     58.4428      0.0000    657.5150      6.3296
  1114.2500     58.9683      0.0000    659.8321      6.3355
  1114.5000     59.8510      0.0000    664.1119      6.3682
  1114.7500     60.2433      0.0000    666.1038      6.4096
  1115.0000     60.5152      0.0000    666.3455      6.4893
  1115.2500     60.5503      0.0000    665.0750      6.5379
  1115.5000     60.6673      0.0000    663.5038      6.5803
  1115.7500     61.1357      0.0000    663.9008      6.5845
  1116.0000     62.9654      0.0000    666.4955      6.5633
  1116.2500     64.9082      0.0000    668.5427      6.5376
  1116.5000     68.4277      0.0000    670.8011      6.4906
  1116.7500     70.9790      0.0000    671.5439      6.4591
  1117.0000     75.0546      0.0000    671.0909      6.4264
  1117.2500     77.9785      0.0000    669.4251      6.4249
  1117.5000     82.9625      0.0000    665.6207      6.4627
  1117.7500     86.9442      0.0000    663.8390      6.5085
  1118.0000     93.8802      0.0000    665.7421      6.5813
  1118.2500     98.7513      0.0000    670.9844      6.6175
  1118.5000    105.9605      0.0000    682.7578      6.6441
  1118.7500    110.9464      0.0000    690.4429      6.6453
  1119.0000    119.3189      0.0000    697.8582      6.6278
  1119.2500    125.2315      0.0000    699.9983      6.6078
  1119.5000    132.7483      0.0000    701.7052      6.5829
  1119.7500    135.6121      0.0000    702.7750      6.5839
  1120.0000    135.9082      0.0000    702.1627      6.6274
  1120.2500    134.1615      0.0000    698.0123      6.6777
  1120.5000    131.2483      0.0000    685.0004      6.7462
  1120.7500    130.6782      0.0000    673.7592      6.7641
  1121.0000    133.1522      0.0000    658.5200      6.7439
  1121.2500    136.4020      0.0000    651.8965      6.7179
  1121.5000    140.5874      0.0000    649.0685      6.6967
  1121.7500    140.9216      0.0000    652.2076      6.7025
  1122.0000    136.4172      0.0000    663.9340      6.7362
  1122.2500    131.1261      0.0000    674.6388      6.7707
  1122.5000    123.5588      0.0000    688.8809      6.8270
  1122.7500    120.8831      0.0000    693.6069      6.8518
  1123.0000    122.4150      0.0000    692.0103      6.8416
  1123.2500    127.2579      0.0000    687.0630      6.7981
  1123.5000    138.6923      0.0000    677.4697      6.6977
  1123.7500    147.0590      0.0000    669.9698      6.6301
  1124.0000    156.3386      0.0000    655.7571      6.5654
  1124.2500    158.7355      0.0000    644.7477      6.5575
  1124.5000    157.5254      0.0000    630.7327      6.5890
  1124.7500    155.5583      0.0000    626.4091      6.6242
  1125.0000    153.7564      0.0000    628.5731      6.6803
  1125.2500    153.5995      0.0000    632.9014      6.7182
  1125.5000    153.7279      0.0000    637.0657      6.7753
  1125.7500    153.2769      0.0000    636.3329      6.8065
  1126.0000    151.2982      0.0000    631.4888      6.8235
  1126.2500    149.5523      0.0000    628.4200      6.8083
  1126.5000    148.1810      0.0000    629.0769      6.7497
  1126.7500    149.1491      0.0000    634.9474      6.6937
  1127.0000    153.4932      0.0000    651.0221      6.5957
  1127.2500    157.4013      0.0000    663.2383      6.5248
  1127.5000    163.3755      0.0000    676.6222      6.4104
  1127.7500    167.1155      0.0000    680.1700      6.3267
  1128.0000    171.4737      0.0000    679.6398      6.1911
  1128.2500    172.5863      0.0000    678.4055      6.1034
  1128.5000    170.8158      0.0000    678.8439      6.0069
  1128.7500    167.9662      0.0000    680.6922      5.9829
  1129.0000    162.7948      0.0000    683.4988      6.0080
  1129.2500    159.2581      0.0000    684.1700      6.0462
  1129.5000    154.3044      0.0000    683.1293      6.0935
  1129.7500    151.8890      0.0000    681.6797      6.1032
  1130.0000    151.3694      0.0000    679.1481      6.0830
  1130.2500    153.5988      0.0000    677.1639      6.0568
  1130.5000    158.8142      0.0000    673.5528      6.0232
  1130.7500    160.9591      0.0000    671.1709      6.0148
  1131.0000    158.6976      0.0000    669.3132      6.0236
  1131.2500    153.7181      0.0000    669.8452      6.0377
  1131.5000    144.5757      0.0000    672.1552      6.0639
  1131.7500    139.5298      0.0000    672.9260      6.0854
  1132.0000    135.0732      0.0000    670.4344      6.1264
  1132.2500    133.9189      0.0000    666.5811      6.1586
  1132.5000    133.5220      0.0000    660.9146      6.2086
  1132.7500    133.0833      0.0000    659.4708      6.2399
  1133.0000    130.6985      0.0000    662.1057      6.2862
  1133.2500    127.8430      0.0000    665.9642      6.3246
  1133.5000    122.3780      0.0000    671.7491      6.4101
  1133.7500    118.2872      0.0000    674.2691      6.4873
  1134.0000    112.2190      0.0000    675.3051      6.6119
  1134.2500    109.4273      0.0000    674.2030      6.6823
  1134.5000    110.0199      0.0000    670.0160      6.7516
  1134.7500    114.4738      0.0000    665.8844      6.7735
