~Version Information
VERS.                      2.0: CWLS Log ASCII Standard - VERSION 2.0
WRAP.                       NO: One line per depth step
~Well Information Block
STRT.FT                 0.0000: 
STOP.FT              1906.7500: 
STEP.FT                 0.2500: 
NULL.                -999.2500: 
COMP.          Petrogulf Corporation: COMPANY
WELL.             Kraft 17-23R: WELL
FLD.           Purgatorie River: FIELD
LOC.           1509' FSL & 1673' FWL: LOCATION
STAT.                 Colorado: State
CNTY.               Las Animas: COUNTY
CTRY. USA : Country
SECT. 17 : Section
TOWN. 33S : Township
RANG. 67W : Range
SRVC.                Patterson: SERVICE COMPANY
DATE.          Fri Jan 06 08:59:54 2006: LOG DATE
API. 05-071-08560                         : UNIQUE WELL ID
~Curve Information Block
DEPT.FT            0 000 00 00: Depth
CCL.                          : Casing Collar Locator
TT3.usec                      : CBL 3' Travel Time
AMP3.mV                       : CBL 3' Amplitude
AMP3.mV                       : CBL 3' Amplitude
GR.GAPI                       : Gamma Ray
AMP3.mV                       : CBL 3' Amplitude
~Parameter Information Block
~A  Depth       CCL         TT3         AMP3        AMP3         GR        .AMP3    
# ...
  1248.0000      0.0000    409.3877      4.7686      4.7686     94.6757      4.7686
  1248.2500      0.0000    433.5772      4.7058      4.7058     98.2284      4.7058
  1248.5000      0.0000    468.3095      4.5939      4.5939    100.8401      4.5939
  1248.7500      0.0000    497.2497      4.5115      4.5115    102.4604      4.5115
  1249.0000      0.0000    512.4780      4.5751      4.5751    103.1477      4.5751
  1249.2500      0.0000    517.3448      4.7858      4.7858    103.0704      4.7858
  1249.5000      0.0000    517.1115      5.0217      5.0217    102.6886      5.0217
  1249.7500      0.0000    515.2335      5.1557      5.1557    102.4519      5.1557
  1250.0000      0.0000    515.4324      5.1499      5.1499    102.3349      5.1499
  1250.2500      0.0000    519.7835      5.0625      5.0625    102.0561      5.0625
  1250.5000      0.0000    525.9437      4.9847      4.9847    101.7616      4.9847
  1250.7500      0.0000    530.5350      4.9583      4.9583    102.0324      4.9583
  1251.0000      0.0000    532.8448      4.9554      4.9554    103.1522      4.9554
  1251.2500      0.0000    533.8171      4.9393      4.9393    104.7153      4.9393
  1251.5000      0.0000    534.2330      4.9203      4.9203    106.0273      4.9203
  1251.7500      0.0000    534.4387      4.9342      4.9342    106.6227      4.9342
  1252.0000      0.0000    534.5957      4.9915      4.9915    106.4981      4.9915
  1252.2500      0.0000    534.7738      5.0615      5.0615    106.0767      5.0615
  1252.5000      0.0000    534.9633      5.0899      5.0899    105.8440      5.0899
  1252.7500      0.0000    535.1003      5.0489      5.0489    105.6880      5.0489
  1253.0000      0.0000    535.1134      4.9820      4.9820    104.7117      4.9820
  1253.2500      0.0000    535.0159      4.9541      4.9541    102.1270      4.9541
  1253.5000      0.0000    534.9470      4.9732      4.9732     98.4096      4.9732
  1253.7500      0.0000    535.0814      4.9958      4.9958     95.2508      4.9958
  1254.0000      0.0000    535.5142      4.9805      4.9805     94.2964      4.9805
  1254.2500      0.0000    536.2383      4.9193      4.9193     95.9435      4.9193
  1254.5000      0.0000    537.1680      4.8483      4.8483     98.9816      4.8483
  1254.7500      0.0000    538.1335      4.8279      4.8279    101.2298      4.8279
  1255.0000      0.0000    538.9375      4.8765      4.8765    101.2575      4.8765
  1255.2500      0.0000    539.5186      4.9383      4.9383     99.9747      4.9383
  1255.5000      0.0000    540.1437      4.9449      4.9449    100.1221      4.9449
  1255.7500      0.0000    541.7451      4.8910      4.8910    103.7497      4.8910
  1256.0000      0.0000    545.9823      4.8286      4.8286    110.1748      4.8286
  1256.2500      0.0000    553.2190      4.7992      4.7992    116.3703      4.7992
  1256.5000      0.0000    559.4432      4.7993      4.7993    119.2832      4.7993
  1256.7500      0.0000    558.9055      4.8126      4.8126    117.8429      4.8126
  1257.0000      0.0000    551.6213      4.8355      4.8355    112.9831      4.8355
  1257.2500      0.0000    543.3591      4.8569      4.8569    106.3388      4.8569
  1257.5000      0.0000    538.0964      4.8422      4.8422     99.3858      4.8422
  1257.7500      0.0000    535.4922      4.7746      4.7746     93.4501      4.7746
  1258.0000      0.0000    534.0910      4.6936      4.6936     89.6786      4.6936
  1258.2500      0.0000    533.0845      4.6459      4.6459     88.5865      4.6459
  1258.5000      0.0000    532.0515      4.6284      4.6284     89.7741      4.6284
  1258.7500      0.0000    530.8894      4.6022      4.6022     92.2130      4.6022
  1259.0000      0.0000    529.8006      4.5483      4.5483     94.7808      4.5483
  1259.2500      0.0000    528.9788      4.4893      4.4893     96.6727      4.4893
  1259.5000      0.0000    528.5532      4.4450      4.4450     97.7065      4.4450
  1259.7500      0.0000    528.8888      4.4011      4.4011     98.3004      4.4011
  1260.0000      0.0000    531.0728      4.3458      4.3458     98.9407      4.3458
  1260.2500      0.0000    537.4902      4.3065      4.3065     99.5817      4.3065
  1260.5000      0.0000    550.8906      4.3024      4.3024     99.6138      4.3024
  1260.7500      0.0000    571.2364      4.2987      4.2987     98.4757      4.2987
  1261.0000      0.0000    593.9300      4.2543      4.2543     96.3608      4.2543
  1261.2500      0.0000    613.0960      4.1643      4.1643     94.4330      4.1643
  1261.5000      0.0000    627.0844      4.0300      4.0300     94.1665      4.0300
  1261.7500      0.0000    636.2468      3.8446      3.8446     96.1461      3.8446
  1262.0000      0.0000    636.4665      3.6304      3.6304     99.3673      3.6304
  1262.2500      0.0000    625.9482      3.4367      3.4367    101.8751      3.4367
  1262.5000      0.0000    613.3080      3.2720      3.2720    102.2961      3.2720
  1262.7500      0.0000    605.8476      3.1025      3.1025    100.9382      3.1025
  1263.0000      0.0000    601.2623      2.9371      2.9371     99.3849      2.9371
  1263.2500      0.0000    599.9025      2.8222      2.8222     98.9079      2.8222
  1263.5000      0.0000    606.5991      2.7528      2.7528     99.3049      2.7528
  1263.7500      0.0000    618.0136      2.6826      2.6826     99.2701      2.6826
  1264.0000      0.0000    624.0891      2.6003      2.6003     97.6510      2.6003
  1264.2500      0.0000    621.5876      2.5237      2.5237     94.2969      2.5237
  1264.5000      0.0000    618.1557      2.4602      2.4602     90.0796      2.4602
  1264.7500      0.0000    621.4826      2.4102      2.4102     86.2339      2.4102
  1265.0000      0.0000    629.2684      2.3632      2.3632     83.4224      2.3632
  1265.2500      0.0000    630.8555      2.2912      2.2912     81.3627      2.2912
  1265.5000      0.0000    614.6761      2.1856      2.1856     79.3994      2.1856
  1265.7500      0.0000    582.1935      2.0668      2.0668     77.3600      2.0668
  1266.0000      0.0000    557.3849      1.9329      1.9329     75.8211      1.9329
  1266.2500      0.0000    562.4344      1.7631      1.7631     75.5573      1.7631
  1266.5000      0.0000    588.0405      1.5830      1.5830     76.6871      1.5830
  1266.7500      0.0000    609.9960      1.4621      1.4621     78.4211      1.4621
  1267.0000      0.0000    617.6788      1.4554      1.4554     79.6605      1.4554
  1267.2500      0.0000    611.6866      1.5597      1.5597     79.7256      1.5597
  1267.5000      0.0000    592.8554      1.7351      1.7351     78.6917      1.7351
  1267.7500      0.0000    567.7466      1.9695      1.9695     77.4782      1.9695
  1268.0000      0.0000    556.9885      2.2411      2.2411     77.4669      2.2411
  1268.2500      0.0000    576.1342      2.5107      2.5107     79.4545      2.5107
  1268.5000      0.0000    611.6381      2.8158      2.8158     82.9195      2.8158
  1268.7500      0.0000    640.0294      3.1833      3.1833     86.6215      3.1833
  1269.0000      0.0000    657.5446      3.5243      3.5243     89.8325      3.5243
  1269.2500      0.0000    673.8976      3.7446      3.7446     92.7585      3.7446
  1269.5000     -2.0000    693.5755      3.8347      3.8347     95.8534      3.8347
  1269.7500      0.0000    712.4160      3.8282      3.8282     99.0096      3.8282
  1270.0000      0.0000    721.3159      3.7974      3.7974    101.7099      3.7974
  1270.2500      0.0000    712.1898      3.9308      3.9308    103.9759      3.9308
  1270.5000      0.0000    689.6500      4.4058      4.4058    106.6801      4.4058
  1270.7500      0.0000    669.6351      5.0781      5.0781    110.4883      5.0781
  1271.0000      0.0000    661.6888      5.6315      5.6315    114.7243      5.6315
  1271.2500      0.0000    662.3685      5.9855      5.9855    117.8092      5.9855
  1271.5000      0.0000    664.7898      6.1973      6.1973    118.9083      6.1973
  1271.7500      0.0000    665.9764      6.2758      6.2758    118.6753      6.2758
