~Version Information
VERS.                      2.0: CWLS Log ASCII Standard - VERSION 2.0
WRAP.                       NO: One line per depth step
~Well Information Block
STRT.FT               555.0000: 
STOP.FT              2283.0000: 
STEP.FT                 0.2500: 
NULL.                -999.2500: 
COMP.          Pioneer Natural Resources: COMPANY
WELL.          Roadster 41-33 Kv: WELL
FLD.           Purgatoire River: FIELD
LOC.           903' FNL & 248' FEL: LOCATION
PROV.                 Colorado: PROVINCE
CNTY.               Las Animas: COUNTRY
SRVC.                Patterson: SERVICE COMPANY
DATE.          Wed Dec 14 23:52:42 2005: LOG DATE
UWI.           05 071 08615 00: UNIQUE WELL ID
~Curve Information Block
DEPT.FT            0 000 00 00: Depth
SN.Ohm-m                      : IEL Short Normal
SP.mV                         : IEL Spontaneous Potential
DIR.Ohm-m                     : IEL Induction Resistivity
GR.GAPI                       : Gamma Ray
~Parameter Information Block
~A  Depth        SN          SP         DIR          GR     
# ...
  1794.5000     16.6631     37.8364     15.1326     60.7462
  1794.7500     16.3521     37.7797     14.9689     61.3781
  1795.0000     16.1116     37.6995     14.9200     60.4939
  1795.2500     15.9234     37.5945     14.9688     58.5549
  1795.5000     15.8265     37.4766     15.0857     54.1337
  1795.7500     15.8877     37.3674     15.2394     50.8399
  1796.0000     16.1491     37.2900     15.4055     46.6847
  1796.2500     16.6209     37.2610     15.5719     44.9386
  1796.5000     17.2730     37.2858     15.7391     44.0542
  1796.7500     17.9936     37.3553     15.9161     44.6112
  1797.0000     18.6106     37.4465     16.1121     47.3715
  1797.2500     18.9922     37.5267     16.3288     50.6318
  1797.5000     19.1037     37.5645     16.5596     57.4505
  1797.7500     18.9966     37.5431     16.7951     62.8870
  1798.0000     18.7836     37.4683     17.0308     71.6851
  1798.2500     18.5860     37.3644     17.2699     77.7212
  1798.5000     18.4756     37.2611     17.5193     86.6179
  1798.7500     18.4686     37.1802     17.7832     92.0986
  1799.0000     18.5346     37.1271     18.0580     98.9013
  1799.2500     18.6163     37.0925     18.3309    101.9608
  1799.5000     18.6894     37.0592     18.5835    103.3879
  1799.7500     18.7950     37.0110     18.8024    102.0623
  1800.0000     18.9979     36.9382     18.9930     97.7446
  1800.2500     19.3464     36.8380     19.1852     94.4771
  1800.5000     19.8759     36.7114     19.4240     90.4041
  1800.7500     20.6012     36.5597     19.7518     95.4824
  1801.0000     21.4771     36.3840     20.1929     90.9390
  1801.2500     22.4020     36.1865     20.7468     86.3441
  1801.5000     23.2895     35.9747     21.3878     76.5276
  1801.7500     24.1241     35.7628     22.0717     73.8181
  1802.0000     24.9468     35.5710     22.7475     60.6443
  1802.2500     25.7724     35.4185     23.3714     52.9868
  1802.5000     26.5238     35.3153     23.9176     44.6205
  1802.7500     27.1159     35.2558     24.3858     41.2196
  1803.0000     27.5799     35.2202     24.8020     38.5055
  1803.2500     28.0201     35.1813     25.2089     37.4862
  1803.5000     28.4775     35.1165     25.6442     36.0435
  1803.7500     28.8908     35.0185     26.1179     35.0079
  1804.0000     29.1956     34.9023     26.6003     33.9333
  1804.2500     29.4053     34.8018     27.0281     33.9513
  1804.5000     29.5747     34.7530     27.3241     35.2259
  1804.7500     29.7408     34.7731     27.4230     36.6101
  1805.0000     29.9089     34.8497     27.3005     38.7092
  1805.2500     30.0522     34.9489     27.0003     39.7822
  1805.5000     30.1097     35.0339     26.6379     40.6879
  1805.7500     30.0255     35.0807     26.3671     40.8507
  1806.0000     29.8136     35.0854     26.3212     40.7912
  1806.2500     29.5535     35.0594     26.5572     41.0082
  1806.5000     29.3324     35.0173     27.0297     42.5829
  1806.7500     29.2237     34.9642     27.6004     44.5814
  1807.0000     29.2717     34.8933     28.0869     48.0800
  1807.2500     29.4479     34.7927     28.3355     49.7488
  1807.5000     29.6459     34.6569     28.2856     49.7131
  1807.7500     29.7479     34.4947     27.9832     47.6854
  1808.0000     29.7093     34.3273     27.5405     42.4274
  1808.2500     29.5947     34.1781     27.0761     38.4740
  1808.5000     29.5194     34.0648     26.6725     34.0059
  1808.7500     29.5175     33.9959     26.3654     33.1968
  1809.0000     29.4655     33.9684     26.1543     36.8411
  1809.2500     29.1734     33.9643     26.0157     42.8363
  1809.5000     28.5686     33.9556     25.9114     55.6643
  1809.7500     27.7696     33.9193     25.7966     64.4949
  1810.0000     26.9638     33.8511     25.6314     73.5599
  1810.2500     26.2500     33.7665     25.3903     75.2149
  1810.5000     25.6321     33.6863     25.0626     71.3661
  1810.7500     25.1018     33.6241     24.6504     65.8497
  1811.0000     24.6696     33.5841     24.1720     55.7631
  1811.2500     24.3545     33.5666     23.6684     49.3385
  1811.5000     24.1645     33.5671     23.1991     42.3637
  1811.7500     24.0705     33.5722     22.8207     40.1077
  1812.0000     24.0241     33.5592     22.5628     39.7376
  1812.2500     24.0032     33.5094     22.4181     40.5434
  1812.5000     24.0038     33.4233     22.3529     41.7272
  1812.7500     24.0151     33.3227     22.3277     41.9695
  1813.0000     24.0314     33.2350     22.3153     41.4244
  1813.2500     24.0618     33.1784     22.3051     40.7288
  1813.5000     24.1178     33.1590     22.3003     39.7210
  1813.7500     24.2089     33.1722     22.3133     39.2427
  1814.0000     24.3576     33.2028     22.3644     38.8777
  1814.2500     24.6008     33.2264     22.4787     38.8258
  1814.5000     24.9518     33.2182     22.6797     38.7132
  1814.7500     25.3812     33.1630     22.9811     38.2417
  1815.0000     25.8556     33.0646     23.3803     36.3655
  1815.2500     26.3579     32.9501     23.8559     34.3680
  1815.5000     26.8674     32.8611     24.3714     31.0817
  1815.7500     27.3556     32.8353     24.8872     29.3620
  1816.0000     27.8085     32.8901     25.3757     28.2966
  1816.2500     28.2414     33.0208     25.8289     28.7158
  1816.5000     28.6766     33.2092     26.2493     30.7201
  1816.7500     29.1175     33.4343     26.6316     32.5615
  1817.0000     29.5583     33.6807     26.9519     35.1364
  1817.2500     29.9957     33.9419     27.1771     36.1891
  1817.5000     30.4189     34.2182     27.2900     36.2897
  1817.7500     30.8060     34.5117     27.3034     35.4861
  1818.0000     31.1329     34.8244     27.2432     33.8100
  1818.2500     31.3717     35.1631     27.1157     33.1250
  1818.5000     31.4934     35.5443     26.8905     34.1729
  1818.7500     31.4725     35.9899     26.5189     36.8691
  1819.0000     31.2443     36.5165     25.9737     44.0505
  1819.2500     30.6674     37.1281     25.2751     50.5224
  1819.5000     29.6063     37.8110     24.4813     61.7917
  1819.7500     28.0732     38.5318     23.6555     69.7603
  1820.0000     26.2601     39.2401     22.8330     81.1724
  1820.2500     24.4449     39.8819     22.0111     87.7217
  1820.5000     22.8698     40.4178     21.1634     95.6400
  1820.7500     21.6269     40.8375     20.2702    100.0880
  1821.0000     20.6461     41.1598     19.3429    106.4427
  1821.2500     19.8314     41.4224     18.4230    110.7181
  1821.5000     19.1478     41.6660     17.5583    117.3795
  1821.7500     18.5662     41.9188     16.7808    122.0925
  1822.0000     18.0310     42.1884     16.1004    129.4327
  1822.2500     17.5028     42.4615     15.5106    134.1615
  1822.5000     16.9839     42.7125     14.9992    140.2639
  1822.7500     16.4925     42.9150     14.5539    143.2674
  1823.0000     16.0284     43.0524     14.1642    145.5928
  1823.2500     15.5764     43.1255     13.8199    145.6328
  1823.5000     15.1423     43.1527     13.5102    144.3005
  1823.7500     14.7569     43.1619     13.2259    143.3814
  1824.0000     14.4445     43.1768     12.9624    143.1377
  1824.2500     14.2052     43.2080     12.7206    143.9528
  1824.5000     14.0162     43.2550     12.5031    146.5400
  1824.7500     13.8359     43.3129     12.3086    148.8221
  1825.0000     13.6243     43.3766     12.1295    151.6073
  1825.2500     13.3839     43.4391     11.9554    152.1190
  1825.5000     13.1717     43.4893     11.7808    150.9702
  1825.7500     13.0466     43.5137     11.6114    150.1146
  1826.0000     13.0131     43.4998     11.4624    150.5818
  1826.2500     13.0193     43.4403     11.3514    151.9584
  1826.5000     12.9937     43.3363     11.2904    153.7519
  1826.7500     12.9220     43.2009     11.2829    153.8235
  1827.0000     12.8780     43.0595     11.3252    152.2301
  1827.2500     12.9277     42.9449     11.4081    150.6998
  1827.5000     13.0511     42.8855     11.5184    148.8580
  1827.7500     13.1599     42.8958     11.6388    148.3686
