~Version Information
VERS.                      2.0: CWLS Log ASCII Standard - VERSION 2.0
WRAP.                       NO: One line per depth step
~Well Information Block
STRT.FT               -10.0000: 
STOP.FT              1935.0000: 
STEP.FT                 0.2500: 
NULL.                -999.2500: 
COMP.          Pioneer Natural Resources: COMPANY
WELL.           Willys 32-8 Tr: WELL
FLD.           Purgatorie River: FIELD
LOC.           1843' FNL & 2355' FEL--: LOCATION
CNTY.               Las Animas: COUNTY
SRVC.          Patterson Wireline: SERVICE COMPANY
DATE.          Wed Feb 15 13:29:41 2006: LOG DATE
UWI.           05 071 08688 00: UNIQUE WELL ID
STAT.                       CO: STATE
~Curve Information Block
DEPT.FT            0 000 00 00: Depth
CCL.                          : Casing Collar Locator
TT3.usec                      : CBL 3' Travel Time
AMP3.mV                       : CBL 3' Amplitude
GR.GAPI                       : Gamma Ray
~Parameter Information Block
~A  Depth       CCL         TT3         AMP3         GR     
# ...
   258.0000      0.0000    782.4434     10.4493     51.4654
   258.2500      0.0000    782.5645     10.3515     53.8554
   258.5000      0.0000    782.5905     10.2627     57.0581
   258.7500      0.0000    782.5414     10.1940     59.5806
   259.0000      0.0000    782.5376     10.1492     60.8443
   259.2500      0.0000    782.6895     10.1295     61.2591
   259.5000      0.0000    782.9627     10.1364     61.6139
   259.7500      0.0000    783.1979     10.1699     62.3721
   260.0000      0.0000    783.2855     10.2243     63.1952
   260.2500      0.0000    783.3135     10.2901     63.1014
   260.5000      0.0000    783.5488     10.3612     61.4412
   260.7500      0.0000    784.3290     10.4388     58.7738
   261.0000      0.0000    785.9147     10.5239     56.5800
   261.2500      0.0000    788.1910     10.6077     56.1476
   261.5000      0.0000    790.3630     10.6719     57.8653
   261.7500      0.0000    791.2520     10.7005     61.3832
   262.0000      0.0000    790.2968     10.6903     66.0456
   262.2500      0.0000    788.1669     10.6488     71.1547
   262.5000      0.0000    786.1288     10.5859     76.0510
   262.7500      0.0000    784.9452     10.5109     79.9911
   263.0000      0.0000    784.5408     10.4349     82.1744
   263.2500      0.0000    784.4578     10.3707     82.3399
   263.5000      0.0000    784.3389     10.3295     81.1321
   263.7500      0.0000    784.0521     10.3187     79.2836
   264.0000      0.0000    783.6139     10.3414     76.6582
   264.2500      0.0000    783.1238     10.3954     72.6810
   264.5000      0.0000    782.7101     10.4739     67.4015
   264.7500      0.0000    782.4563     10.5684     61.5592
   265.0000      0.0000    782.3513     10.6728     55.9566
   265.2500      0.0000    782.3201     10.7841     51.3332
   265.5000      0.0000    782.2911     10.9006     48.5223
   265.7500      0.0000    782.2386     11.0173     48.0951
   266.0000      0.0000    782.1976     11.1255     49.8326
   266.2500      0.0000    782.2930     11.2164     52.7657
   266.5000      0.0000    782.7657     11.2849     55.7326
   266.7500      0.0000    783.9982     11.3283     57.9004
   267.0000      0.0000    786.4709     11.3429     58.9624
   267.2500      0.0000    790.5241     11.3251     59.0532
   267.5000      0.0000    796.0283     11.2760     58.5186
   267.7500      0.0000    802.3640     11.2061     57.7383
   268.0000      0.0000    808.7720     11.1354     57.2106
   268.2500      0.0000    814.5477     11.0868     57.7252
   268.5000      0.0000    818.9100     11.0739     60.0648
   268.7500      0.0000    820.9780     11.0934     64.1938
   269.0000      0.0000    820.0021     11.1291     68.8307
   269.2500      0.0000    815.6876     11.1634     72.2111
   269.5000      0.0000    808.6193     11.1873     73.3740
   269.7500      0.0000    800.4611     11.2020     72.5471
   270.0000      0.0000    793.3423     11.2141     70.4428
   270.2500      0.0000    788.7688     11.2267     67.5988
   270.5000      0.0000    787.2233     11.2353     64.3995
   270.7500      0.0000    788.7097     11.2328     61.1564
   271.0000      0.0000    793.1619     11.2204     57.8082
   271.2500      0.0000    800.0456     11.2089     53.9042
   271.5000      0.0000    807.8966     11.2071     49.3811
   271.7500      0.0000    814.8101     11.2110     45.1870
   272.0000      0.0000    819.5609     11.2056     42.6259
   272.2500      0.0000    822.0978     11.1768     42.1004
   272.5000      0.0000    822.9866     11.1207     42.8919
   272.7500      0.0000    822.5612     11.0425     44.1319
   273.0000      0.0000    820.6406     10.9487     45.6130
   273.2500      0.0000    817.0474     10.8429     47.7163
   273.5000      0.0000    812.4445     10.7300     50.8506
   273.7500      0.0000    808.3690     10.6197     54.8693
   274.0000      0.0000    805.8922     10.5219     58.7879
   274.2500      0.0000    804.3385     10.4407     61.1921
   274.5000      0.0000    802.0771     10.3756     61.1828
   274.7500      0.0000    798.7300     10.3275     58.9499
   275.0000      0.0000    795.9354     10.3017     55.5159
   275.2500      0.0000    795.5852     10.3023     52.1120
   275.5000      0.0000    797.6315     10.3254     49.6657
   275.7500      0.0000    799.9373     10.3572     48.4351
   276.0000      0.0000    800.3462     10.3806     47.9824
   276.2500      0.0000    798.6952     10.3887     47.7085
   276.5000      0.0000    796.5411     10.3931     47.4627
   276.7500      0.0000    795.1602     10.4158     47.5781
   277.0000      0.0000    794.5103     10.4714     48.4347
   277.2500      0.0000    794.1478     10.5550     50.0608
   277.5000      0.0000    794.1902     10.6496     52.0332
   277.7500      0.0000    794.8861     10.7406     53.7156
   278.0000      0.0000    795.9057     10.8233     54.8067
   278.2500      0.0000    796.5814     10.8999     55.8013
   278.5000      0.0000    796.4579     10.9746     57.5357
   278.7500      0.0000    795.4166     11.0485     59.8724
   279.0000      0.0000    793.8374     11.1192     61.2135
   279.2500      0.0000    792.7853     11.1857     59.8409
   279.5000      0.0000    793.4893     11.2553     55.6542
   279.7500      0.0000    796.3688     11.3393     50.3900
   280.0000      0.0000    800.7297     11.4408     46.2491
   280.2500      0.0000    805.2327     11.5499     44.3851
   280.5000      0.0000    808.3723     11.6544     44.5488
   280.7500      0.0000    808.8963     11.7527     45.8693
   281.0000      0.0000    806.5765     11.8516     47.6524
   281.2500      0.0000    802.6342     11.9408     49.5292
   281.5000      0.0000    799.0502     11.9508     51.3956
   281.7500      0.0000    797.5775     11.7511     53.4128
   282.0000      0.0000    799.3038     11.2492     55.6489
   282.2500      0.0000    803.9993     10.5256     57.4862
   282.5000      0.0000    809.2623      9.8208     57.7006
   282.7500      0.0000    811.5385      9.3440     55.4661
   283.0000      0.0000    809.0440      9.1223     51.3078
   283.2500      0.0000    803.3076      9.0500     46.8970
   283.5000     -2.0000    797.8096      9.0358     43.7937
   283.7500      0.0000    795.7948      9.0859     42.4402
   284.0000      0.0000    798.6765      9.2871     42.4037
   284.2500      0.0000    804.5985      9.7133     43.2844
   284.5000      0.0000    808.6459     10.3138     44.9542
   284.7500      0.0000    806.7320     10.8979     47.0630
   285.0000      0.0000    799.8095     11.2779     48.8768
   285.2500      0.0000    792.6527     11.4148     49.7753
   285.5000      0.0000    788.6099     11.3927     49.7063
   285.7500      0.0000    787.2114     11.2973     49.3058
   286.0000      0.0000    786.4859     11.1709     49.8393
   286.2500      0.0000    785.5114     11.0411     52.7581
   286.5000      0.0000    784.3665     10.9361     58.7927
   286.7500      0.0000    782.9517     10.8682     67.2857
   287.0000      0.0000    780.5981     10.8290     76.4171
   287.2500      0.0000    776.7789     10.8064     84.1364
   287.5000      0.0000    772.1601     10.8039     89.0439
   287.7500      0.0000    768.7505     10.8450     90.8042
   288.0000      0.0000    768.4813     10.9608     90.2301
   288.2500      0.0000    771.4617     11.1708     88.9528
   288.5000      0.0000    775.9362     11.4702     88.4394
   288.7500      0.0000    779.9113     11.8346     89.0273
   289.0000      0.0000    782.4958     12.2324     89.9944
   289.2500      0.0000    783.8339     12.6313     90.6133
   289.5000      0.0000    784.3534     12.9947     91.0536
   289.7500      0.0000    784.1004     13.2888     92.1774
   290.0000      0.0000    782.2621     13.4985     94.4284
   290.2500      0.0000    776.8504     13.6301     97.0668
   290.5000      0.0000    765.5654     13.6993     98.6257
   290.7500      0.0000    748.7933     13.7175     98.1460
   291.0000      0.0000    732.4870     13.6866     95.9383
   291.2500      0.0000    725.7670     13.6004     93.1376
