~Version Information
VERS.                      2.0: CWLS Log ASCII Standard - VERSION 2.0
WRAP.                       NO: One line per depth step
~Well Information Block
STRT.FT               840.0000: 
STOP.FT              1913.5000: 
STEP.FT                 0.2500: 
NULL.                -999.2500: 
COMP.          Petrogulf Corporation: COMPANY
WELL.             Kraft 17-23R: WELL
FLD.           Purgatorie River: FIELD
LOC.           1509' FSL & 1673' FWL: LOCATION
PROV.                 Colorado: PROVINCE
CNTY.               Las Animas: COUNTRY
SRVC.                Patterson: SERVICE COMPANY
DATE.          Tue Oct 11 13:03:25 2005: LOG DATE
UWI.                          : UNIQUE WELL ID
~Curve Information Block
DEPT.FT            0 000 00 00: Depth
SP.mV                         : DIL Spontaneous Potential
RILD.Ohm-m                    : DIL Deep Resistivity
RILM.Ohm-m                    : DIL Medium Resistivity
RLL3.Ohm-m                    : DIL Shallow Resistivity
GR.GAPI                       : Gamma Ray
~Parameter Information Block
~A  Depth        SP         RILD        RILM        RLL3         GR     
# ...
  1540.0000    199.8816     29.9086     33.2934     34.4096     66.1852
  1540.2500    200.0293     29.9123     33.4519     34.7749     63.0280
  1540.5000    200.2002     29.9191     33.5338     35.1246     58.6521
  1540.7500    200.3741     29.9322     33.5164     35.3817     56.3044
  1541.0000    200.5189     29.9479     33.3865     35.5114     53.3785
  1541.2500    200.5988     29.9550     33.1441     35.5083     51.4902
  1541.5000    200.5879     29.9378     32.8034     35.3744     48.6091
  1541.7500    200.4820     29.8784     32.3891     35.1143     46.9538
  1542.0000    200.3007     29.7620     31.9318     34.7410     45.7729
  1542.2500    200.0768     29.5828     31.4613     34.2749     46.2875
  1542.5000    199.8433     29.3489     31.0022     33.7394     48.9054
  1542.7500    199.6272     29.0800     30.5698     33.1674     51.1533
  1543.0000    199.4507     28.7995     30.1694     32.6025     53.6092
  1543.2500    199.3324     28.5247     29.7973     32.0787     54.1465
  1543.5000    199.2850     28.2616     29.4442     31.5944     54.0005
  1543.7500    199.3131     28.0073     29.0997     31.1099     54.1141
  1544.0000    199.4168     27.7578     28.7573     30.5627     55.2169
  1544.2500    199.5960     27.5157     28.4174     29.8806     56.1619
  1544.5000    199.8511     27.2909     28.0869     29.0023     57.0598
  1544.7500    200.1800     27.0936     27.7777     27.9229     57.4825
  1545.0000    200.5730     26.9274     27.5029     26.7435     58.9472
  1545.2500    201.0100     26.7869     27.2732     25.6605     60.7732
  1545.5000    201.4589     26.6627     27.0950     24.8726     63.9829
  1545.7500    201.8790     26.5468     26.9698     24.4636     65.6314
  1546.0000    202.2312     26.4349     26.8948     24.3568     66.6154
  1546.2500    202.4890     26.3248     26.8647     24.3794     66.4237
  1546.5000    202.6424     26.2131     26.8731     24.3906     65.4829
  1546.7500    202.6946     26.0944     26.9142     24.3810     64.5897
  1547.0000    202.6565     25.9654     26.9833     24.4681     62.7963
  1547.2500    202.5461     25.8295     27.0764     24.7857     61.4002
  1547.5000    202.3882     25.6966     27.1898     25.3679     59.7594
  1547.7500    202.2107     25.5787     27.3192     26.1318     59.5118
  1548.0000    202.0366     25.4836     27.4586     26.9595     60.6256
  1548.2500    201.8801     25.4116     27.6001     27.7808     61.8454
  1548.5000    201.7490     25.3556     27.7345     28.5843     62.9591
  1548.7500    201.6499     25.3025     27.8519     29.3682     62.5785
  1549.0000    201.5904     25.2377     27.9436     30.0930     60.1695
  1549.2500    201.5753     25.1504     28.0038     30.6740     57.8810
  1549.5000    201.6022     25.0367     28.0296     31.0083     54.9870
  1549.7500    201.6585     24.9005     28.0207     31.0147     54.2331
  1550.0000    201.7220     24.7530     27.9784     30.6642     55.4912
  1550.2500    201.7662     24.6109     27.9036     29.9931     57.8070
  1550.5000    201.7689     24.4924     27.7969     29.1034     62.5636
  1550.7500    201.7233     24.4094     27.6588     28.1560     65.6676
  1551.0000    201.6422     24.3601     27.4908     27.3386     68.5202
  1551.2500    201.5520     24.3292     27.2967     26.8033     68.7090
  1551.5000    201.4801     24.2977     27.0830     26.6054     67.0453
  1551.7500    201.4458     24.2567     26.8585     26.6839     65.5941
  1552.0000    201.4588     24.2119     26.6329     26.8982     64.2462
  1552.2500    201.5211     24.1791     26.4167     27.0938     64.0495
  1552.5000    201.6302     24.1737     26.2199     27.1587     64.1325
  1552.7500    201.7806     24.2032     26.0527     27.0470     63.8911
  1553.0000    201.9671     24.2653     25.9255     26.7729     62.5437
  1553.2500    202.1879     24.3523     25.8492     26.3973     61.1065
  1553.5000    202.4438     24.4550     25.8347     26.0096     59.1090
  1553.7500    202.7354     24.5650     25.8913     25.6979     58.5544
  1554.0000    203.0595     24.6750     26.0263     25.5169     59.2817
  1554.2500    203.4066     24.7793     26.2426     25.4819     60.5085
  1554.5000    203.7578     24.8757     26.5385     25.5960     63.0156
  1554.7500    204.0815     24.9653     26.9067     25.8823     65.1947
  1555.0000    204.3386     25.0530     27.3352     26.3918     69.0134
  1555.2500    204.4972     25.1470     27.8083     27.1757     71.1777
  1555.5000    204.5488     25.2578     28.3085     28.2317     72.1957
  1555.7500    204.5128     25.3915     28.8197     29.4515     70.9742
  1556.0000    204.4242     25.5403     29.3277     30.6213     67.1148
  1556.2500    204.3196     25.6760     29.8211     31.5035     64.2064
  1556.5000    204.2313     25.7527     30.2868     31.9582     60.7372
  1556.7500    204.1899     25.7169     30.7030     32.0171     59.1526
  1557.0000    204.2264     25.5160     31.0303     31.8619     57.1754
  1557.2500    204.3701     25.1041     31.2015     31.7417     55.7123
  1557.5000    204.6467     24.4470     31.1189     31.9007     53.1934
  1557.7500    205.0783     23.5344     30.6644     32.5453     51.5304
  1558.0000    205.6834     22.3941     29.7300     33.8022     49.6532
  1558.2500    206.4758     21.0950     28.2654     35.5977     49.1379
  1558.5000    207.4600     19.7307     26.3186     37.4521     49.7640
  1558.7500    208.6253     18.3935     24.0404     38.3697     51.1686
  1559.0000    209.9390     17.1533     21.6404     37.1461     54.9795
  1559.2500    211.3414     16.0488     19.3210     33.1491     58.9409
  1559.5000    212.7479     15.0906     17.2280     26.9848     67.6502
  1559.7500    214.0605     14.2686     15.4369     20.2885     75.6751
  1560.0000    215.1907     13.5603     13.9644     14.7174     91.2750
  1560.2500    216.0845     12.9380     12.7901     11.0760    103.5266
  1560.5000    216.7357     12.3741     11.8745      9.2416    122.3328
  1560.7500    217.1809     11.8446     11.1712      8.6536    133.4081
  1561.0000    217.4809     11.3325     10.6341      8.7866    145.7123
  1561.2500    217.7002     10.8315     10.2198      9.3252    150.8061
  1561.5000    217.8919     10.3475      9.8901     10.1051    154.6576
  1561.7500    218.0892      9.8952      9.6134     10.9693    155.3942
  1562.0000    218.3071      9.4925      9.3666     11.6762    154.6737
  1562.2500    218.5509      9.1535      9.1356     11.9452    153.4630
  1562.5000    218.8240      8.8847      8.9153     11.6156    151.5731
  1562.7500    219.1303      8.6839      8.7078     10.7743    150.8717
  1563.0000    219.4711      8.5416      8.5190      9.7291    151.1746
  1563.2500    219.8409      8.4427      8.3551      8.8431    152.1091
  1563.5000    220.2262      8.3697      8.2201      8.3549    153.9214
  1563.7500    220.6041      8.3054      8.1135      8.2960    155.1603
  1564.0000    220.9431      8.2353      8.0307      8.5237    156.9072
  1564.2500    221.2076      8.1493      7.9635      8.8267    157.7235
  1564.5000    221.3671      8.0435      7.9026      9.0355    157.6987
  1564.7500    221.4041      7.9205      7.8392      9.0821    156.6905
  1565.0000    221.3159      7.7881      7.7675      8.9936    154.0837
  1565.2500    221.1136      7.6568      7.6856      8.8385    151.9783
  1565.5000    220.8198      7.5358      7.5953      8.6741    148.8296
  1565.7500    220.4649      7.4307      7.5008      8.5274    147.0770
  1566.0000    220.0812      7.3423      7.4071      8.4031    145.5513
  1566.2500    219.6951      7.2674      7.3184      8.2926    145.5260
  1566.5000    219.3248      7.2012      7.2374      8.1790    147.0810
  1566.7500    218.9815      7.1391      7.1653      8.0533    148.9638
  1567.0000    218.6719      7.0780      7.1014      7.9395    152.3675
  1567.2500    218.3993      7.0171      7.0440      7.8926    154.6533
  1567.5000    218.1637      6.9578      6.9912      7.9545    157.5566
  1567.7500    217.9632      6.9043      6.9413      8.1040    158.7168
