~Version Information
VERS.                      2.0: CWLS Log ASCII Standard - VERSION 2.0
WRAP.                       NO: One line per depth step
~Well Information Block
STRT.FT                 0.0000: 
STOP.FT               878.7500: 
STEP.FT                 0.2500: 
NULL.                -999.2500: 
COMP.          Pioneer Natural Resources: COMPANY
WELL.          Screamin 12-29 Tr: WELL
FLD.           Purgatoire River: FIELD
LOC.           1979' FNL & 532' FWL--: LOCATION
CNTY.               Las Animas: COUNTY
SRVC.                Patterson: SERVICE COMPANY
DATE.          Thu Apr 13 22:21:38 2006: LOG DATE
UWI.           05 071 08660 00: UNIQUE WELL ID
STAT.                 Colorado: STATE
~Curve Information Block
DEPT.FT            0 000 00 00: Depth
GR.GAPI                       : Gamma Ray
CCL.                          : Casing Collar Locator
TT3.usec                      : CBL 3' Travel Time
AMP3.mV                       : CBL 3' Amplitude
~Parameter Information Block
~A  Depth        GR         CCL         TT3         AMP3    
# ...
   268.0000    102.4372      0.0000    719.6385      5.9838
   268.2500     98.2996      0.0000    720.0200      5.9322
   268.5000     95.0809      0.0000    720.5084      5.8677
   268.7500     94.7923      0.0000    720.6312      5.8410
   269.0000     94.9816      0.0000    720.4049      5.8309
   269.2500     94.4062      0.0000    720.0538      5.8419
   269.5000     92.4934      0.0000    719.5021      5.8685
   269.7500     91.3230      0.0000    719.2696      5.8798
   270.0000     90.7673      0.0000    719.2545      5.8736
   270.2500     91.1078      0.0000    719.4600      5.8570
   270.5000     91.7071      0.0000    719.9741      5.8290
   270.7500     91.6307      0.0000    720.3582      5.8156
   271.0000     90.8168      0.0000    720.8521      5.8053
   271.2500     90.2825      0.0000    721.0688      5.8030
   271.5000     89.8872      0.0000    721.1678      5.8059
   271.7500     89.5645      0.0000    721.0826      5.8133
   272.0000     88.5739      0.0000    720.8134      5.8322
   272.2500     87.9407      0.0000    720.6300      5.8464
   272.5000     87.6945      0.0000    720.4828      5.8602
   272.7500     87.6721      0.0000    720.4773      5.8604
   273.0000     86.7250      0.0000    720.3959      5.8501
   273.2500     85.4759      0.0000    719.9755      5.8427
   273.5000     83.9777      0.0000    717.9109      5.8403
   273.7500     83.9022      0.0000    715.1102      5.8436
   274.0000     84.9695      0.0000    709.0773      5.8442
   274.2500     85.6941      0.0000    705.0565      5.8336
   274.5000     85.3319      0.0000    702.0381      5.7936
   274.7500     83.7270      0.0000    703.0802      5.7518
   275.0000     79.8540      0.0000    708.2926      5.6776
   275.2500     77.0822      0.0000    712.5638      5.6313
   275.5000     73.7093      0.0000    717.7385      5.5829
   275.7500     72.2310      0.0000    719.8796      5.5674
   276.0000     71.2109      0.0000    721.5235      5.5628
   276.2500     71.2520      0.0000    721.9905      5.5673
   276.5000     72.2102      0.0000    722.2239      5.5798
   276.7500     73.4263      0.0000    722.1948      5.5885
   277.0000     76.2658      0.0000    722.0006      5.5966
   277.2500     78.8032      0.0000    721.8441      5.5971
   277.5000     82.8993      0.0000    721.6811      5.5881
   277.7500     85.1961      0.0000    721.6608      5.5721
   278.0000     87.3444      0.0000    721.7892      5.5294
   278.2500     88.1051      0.0000    721.9638      5.4924
   278.5000     89.2311      0.0000    722.2445      5.4423
   278.7500     90.4443      0.0000    722.3438      5.4229
   279.0000     93.0317      0.0000    722.2361      5.4204
   279.2500     94.9735      0.0000    721.9872      5.4318
   279.5000     97.6095      0.0000    721.4249      5.4514
   279.7500     98.8640      0.0000    720.9872      5.4552
   280.0000     99.3498      0.0000    720.3582      5.4358
   280.2500     98.4003      0.0000    720.0374      5.4062
   280.5000     95.3041      0.0000    719.8261      5.3455
   280.7500     92.9422      0.0000    719.8984      5.3016
   281.0000     90.5148      0.0000    720.2786      5.2457
   281.2500     89.8997      0.0000    720.6175      5.2250
   281.5000     89.8221      0.0000    721.0073      5.2307
   281.7500     90.0261      0.0000    721.0508      5.2557
   282.0000     91.1125      0.0000    720.6958      5.3010
   282.2500     92.7493      0.0000    720.2307      5.3188
   282.5000     96.3313      0.0000    719.3953      5.3115
   282.7500     98.7413      0.0000    718.8754      5.2888
   283.0000    101.3144      0.0000    718.3206      5.2524
   283.2500    102.2566      0.0000    718.1494      5.2400
   283.5000    102.6850      0.0000    718.1593      5.2438
   283.7500    102.1138      0.0000    718.2660      5.2536
   284.0000     99.6361      0.0000    718.4225      5.2625
   284.2500     97.3273      0.0000    718.4730      5.2594
   284.5000     94.3439      0.0000    718.4724      5.2420
   284.7500     93.1688      0.0000    718.4586      5.2265
   285.0000     92.3457      0.0000    718.4900      5.2098
   285.2500     92.0023      0.0000    718.5654      5.2116
   285.5000     91.0759      0.0000    718.7258      5.2437
   285.7500     89.7416      0.0000    718.7964      5.2831
   286.0000     86.1995      0.0000    718.6689      5.3526
   286.2500     83.0100      0.0000    718.3174      5.3919
   286.5000     77.9026      0.0000    717.3209      5.4196
   286.7500     74.7544      0.0000    716.4709      5.4136
   287.0000     70.8087      0.0000    715.4377      5.3796
   287.2500     68.8969      0.0000    715.2062      5.3529
   287.5000     67.7444      0.0000    715.6089      5.3217
   287.7500     68.5519      0.0000    716.1603      5.3068
   288.0000     72.3681      0.0000    717.0548      5.2845
   288.2500     76.1861      0.0000    717.6561      5.2660
   288.5000     81.8289      0.0000    718.6036      5.2375
   288.7500     84.0095      0.0000    719.1917      5.2272
   289.0000     83.1181      0.0000    719.7418      5.2404
   289.2500     79.9406      0.0000    719.7963      5.2679
   289.5000     73.7781      0.0000    719.5150      5.3163
   289.7500     70.5580      0.0000    719.2514      5.3394
   290.0000     68.6903      0.0000    719.0129      5.3535
   290.2500     69.0360      0.0000    719.0421      5.3559
   290.5000     70.3707      0.0000    719.3466      5.3634
   290.7500     71.5292      0.0000    719.6395      5.3763
   291.0000     74.5148      0.0000    720.0536      5.4111
   291.2500     77.5064      0.0000    720.2578      5.4453
   291.5000     81.9373      0.0000    720.4243      5.5086
   291.7500     83.5633      0.0000    720.4376      5.5522
   292.0000     83.3401      0.0000    720.3363      5.6051
   292.2500     82.2101      0.0000    720.2713      5.6256
   292.5000     80.8942      0.0000    720.5432      5.6334
   292.7500     80.6881      0.0000    721.3286      5.6293
   293.0000     80.8617      0.0000    724.0931      5.6212
   293.2500     80.8911      0.0000    727.1170      5.6171
   293.5000     80.6507      0.0000    732.4852      5.6095
   293.7500     80.3513      0.0000    735.4299      5.6006
   294.0000     79.6754      0.0000    736.9608      5.5843
   294.2500     79.1567      0.0000    735.7538      5.5770
   294.5000     78.9477      0.0000    731.8949      5.5828
   294.7500     79.7293      0.0000    729.4260      5.6011
   295.0000     82.5299      0.0000    728.6321      5.6469
   295.2500     84.8567      0.0000    731.1799      5.6848
   295.5000     87.1828      0.0000    739.4391      5.7447
   295.7500     87.2753      0.0000    746.1445      5.7822
   296.0000     85.8723      0.0000    753.3352      5.8254
   296.2500     84.9910      0.0000    754.1218      5.8419
   296.5000     84.9686      0.0000    748.9247      5.8512
   296.7500     85.6708      0.0000    742.5931      5.8515
   297.0000     86.9273      0.0000    731.6888      5.8470
   297.2500     87.6122      0.0000    724.4483      5.8395
   297.5000     88.2362      0.0000    713.6518      5.8126
   297.7500     88.1947      0.0000    706.2653      5.7736
   298.0000     87.1446      0.0000    696.0629      5.6669
   298.2500     86.0537      0.0000    691.7062      5.5639
   298.5000     85.2915      0.0000    692.0665      5.3814
   298.7500     86.0512      0.0000    697.3679      5.2583
   299.0000     88.0773      0.0000    710.3846      5.1020
   299.2500     88.3576     -1.0095    719.8563      5.0307
   299.5000     85.8108      1.3013    731.3903      4.9763
   299.7500     83.6382      2.0000    736.0784      4.9634
   300.0000     84.2712      1.1877    737.6860      4.9587
   300.2500     88.4821      0.0000    734.8131      4.9699
   300.5000     97.5649      0.0000    724.7136      5.0496
   300.7500    102.3670      0.0000    715.0353      5.1714
   301.0000    104.7931      0.0000    698.9340      5.4636
   301.2500    104.0041      0.0000    688.8583      5.6981
