~Version Information
VERS.                      2.0: CWLS Log ASCII Standard - VERSION 2.0
WRAP.                       NO: One line per depth step
~Well Information Block
STRT.FT               620.0000: 
STOP.FT              3067.2500: 
STEP.FT                 0.2500: 
NULL.                -999.2500: 
COMP.          Pioneer Natural Resources: COMPANY
WELL.          Interceptor 43-13 Kv: WELL
FLD.           Purgatoire River: FIELD
LOC.           2073' FSL & 519' FEL--: LOCATION
PROV.                 Colorado: PROVINCE
CNTY.               Las Animas: COUNTRY
SRVC.                Patterson: SERVICE COMPANY
DATE.          Sat Jan 14 19:35:17 2006: LOG DATE
UWI.           05 071 08655 00: UNIQUE WELL ID
~Curve Information Block
DEPT.FT            0 000 00 00: Depth
SN.Ohm-m                      : IEL Short Normal
SP.mV                         : IEL Spontaneous Potential
DIR.Ohm-m                     : IEL Induction Resistivity
GR.GAPI                       : Gamma Ray
~Parameter Information Block
~A  Depth        SN          SP         DIR          GR     
# ...
  1256.5000   2000.0000   1977.0000     14.3483    112.2599
  1256.7500   2000.0000   1977.0000     14.5999    113.0030
  1257.0000   2000.0000   1977.0000     14.8408    113.6446
  1257.2500   2000.0000   1977.0000     15.0483    113.9729
  1257.5000   2000.0000   1977.0000     15.2003    114.9901
  1257.7500   2000.0000   1977.0000     15.2826    116.1885
  1258.0000   2000.0000   1977.0000     15.2923    118.5629
  1258.2500   2000.0000   1977.0000     15.2362    120.4455
  1258.5000   2000.0000   1977.0000     15.1273    123.9500
  1258.7500   2000.0000   1977.0000     14.9808    126.8583
  1259.0000   2000.0000   1977.0000     14.8118    131.7318
  1259.2500   2000.0000   1977.0000     14.6329    134.7912
  1259.5000   2000.0000   1977.0000     14.4526    138.1293
  1259.7500   2000.0000   1977.0000     14.2749    139.2411
  1260.0000   2000.0000   1977.0000     14.1013    139.4588
  1260.2500   2000.0000   1977.0000     13.9328    139.0262
  1260.5000   2000.0000   1977.0000     13.7716    138.2058
  1260.7500   2000.0000   1977.0000     13.6206    137.7768
  1261.0000   2000.0000   1977.0000     13.4814    137.1820
  1261.2500   2000.0000   1977.0000     13.3523    136.5226
  1261.5000   2000.0000   1977.0000     13.2270    134.8670
  1261.7500   2000.0000   1977.0000     13.0946    133.5412
  1262.0000   2000.0000   1977.0000     12.9434    131.9763
  1262.2500   2000.0000   1977.0000     12.7657    131.5504
  1262.5000   2000.0000   1977.0000     12.5630    132.0371
  1262.7500   2000.0000   1977.0000     12.3472    133.0495
  1263.0000   2000.0000   1977.0000     12.1376    135.1419
  1263.2500   2000.0000   1977.0000     11.9569    136.5505
  1263.5000   2000.0000   1977.0000     11.8285    138.3757
  1263.7500   2000.0000   1977.0000     11.7742    139.4323
  1264.0000   2000.0000   1977.0000     11.8115    140.5925
  1264.2500   2000.0000   1977.0000     11.9507    140.6924
  1264.5000   2000.0000   1977.0000     12.1953    139.1567
  1264.7500   2000.0000   1977.0000     12.5449    136.8937
  1265.0000   2000.0000   1977.0000     13.0019    132.0831
  1265.2500   2000.0000   1977.0000     13.5780    128.5734
  1265.5000   2000.0000   1977.0000     14.2964    124.3057
  1265.7500   2000.0000   1977.0000     15.1881    122.6751
  1266.0000   2000.0000   1977.0000     16.2818    121.4677
  1266.2500   2000.0000   1977.0000     17.5897    120.2907
  1266.5000   2000.0000   1977.0000     19.0964    116.0377
  1266.7500   2000.0000   1977.0000     20.7558    111.4400
  1267.0000   2000.0000   1977.0000     22.5020    103.5315
  1267.2500   2000.0000   1977.0000     24.2698     98.7839
  1267.5000   2000.0000   1977.0000     26.0155     93.7224
  1267.7500   2000.0000   1977.0000     27.7270     91.9025
  1268.0000   2000.0000   1977.0000     29.4244     90.9772
  1268.2500   2000.0000   1977.0000     31.1535     90.8279
  1268.5000   2000.0000   1977.0000     32.9719     89.9229
  1268.7500   2000.0000   1977.0000     34.9265     88.5016
  1269.0000   2000.0000   1977.0000     37.0276     85.6311
  1269.2500   2000.0000   1977.0000     39.2345     83.7724
  1269.5000   2000.0000   1977.0000     41.4628     81.4595
  1269.7500   2000.0000   1977.0000     43.6057     80.0581
  1270.0000   2000.0000   1977.0000     45.5537     77.9485
  1270.2500   2000.0000   1977.0000     47.2113     76.8255
  1270.5000   2000.0000   1977.0000     48.5181     76.3752
  1270.7500   2000.0000   1977.0000     49.4730     77.0167
  1271.0000   2000.0000   1977.0000     50.1389     78.7459
  1271.2500   2000.0000   1977.0000     50.6116     79.9681
  1271.5000   2000.0000   1977.0000     50.9650     81.6750
  1271.7500   2000.0000   1977.0000     51.2072     82.7616
  1272.0000   2000.0000   1977.0000     51.2890     84.1893
  1272.2500   2000.0000   1977.0000     51.1673     84.8493
  1272.5000   2000.0000   1977.0000     50.8694     85.3241
  1272.7500   2000.0000   1977.0000     50.4904     85.4173
  1273.0000   2000.0000   1977.0000     50.1162     85.5419
  1273.2500   2000.0000   1977.0000     49.7527     85.7371
  1273.5000   2000.0000   1977.0000     49.3276     86.2294
  1273.7500   2000.0000   1977.0000     48.7642     86.6991
  1274.0000   2000.0000   1977.0000     48.0582     87.8609
  1274.2500   2000.0000   1977.0000     47.2858     89.1929
  1274.5000   2000.0000   1977.0000     46.5433     92.1634
  1274.7500   2000.0000   1977.0000     45.8818     94.3507
  1275.0000   2000.0000   1977.0000     45.2886     96.1894
  1275.2500   2000.0000   1977.0000     44.7183     95.2629
  1275.5000   2000.0000   1977.0000     44.1401     89.4806
  1275.7500   2000.0000   1977.0000     43.5640     82.9120
  1276.0000   2000.0000   1977.0000     43.0368     70.7397
  1276.2500   2000.0000   1977.0000     42.6186     62.4833
  1276.5000   2000.0000   1977.0000     42.3482     51.9051
  1276.7500   2000.0000   1977.0000     42.2041     46.5892
  1277.0000   2000.0000   1977.0000     42.0709     41.1007
  1277.2500   2000.0000   1977.0000     41.7353     38.8574
  1277.5000   2000.0000   1977.0000     40.9429     37.5313
  1277.7500   2000.0000   1977.0000     39.5158     38.1115
  1278.0000   2000.0000   1977.0000     37.4608     41.3109
  1278.2500   2000.0000   1977.0000     34.9751     45.0454
  1278.5000   2000.0000   1977.0000     32.3412     53.1891
  1278.7500   2000.0000   1977.0000     29.8061     60.2996
  1279.0000   2000.0000   1977.0000     27.5230     72.8560
  1279.2500   2000.0000   1977.0000     25.5527     81.6650
  1279.5000   2000.0000   1977.0000     23.8902     93.7021
  1279.7500   2000.0000   1977.0000     22.4933    100.0150
  1280.0000   2000.0000   1977.0000     21.3068    106.2483
  1280.2500   2000.0000   1977.0000     20.2825    108.4600
  1280.5000   2000.0000   1977.0000     19.3906    109.7694
  1280.7500   2000.0000   1977.0000     18.6197    109.8418
  1281.0000   2000.0000   1977.0000     17.9709    109.5559
  1281.2500   2000.0000   1977.0000     17.4498    109.5239
  1281.5000   2000.0000   1977.0000     17.0600    110.1457
  1281.7500   2000.0000   1977.0000     16.7993    111.0418
  1282.0000   2000.0000   1977.0000     16.6571    113.1391
  1282.2500   2000.0000   1977.0000     16.6130    115.1049
  1282.5000   2000.0000   1977.0000     16.6393    118.5362
  1282.7500   2000.0000   1977.0000     16.7030    120.4981
  1283.0000   2000.0000   1977.0000     16.7720    121.9547
  1283.2500   2000.0000   1977.0000     16.8217    121.9788
  1283.5000   2000.0000   1977.0000     16.8432    121.5752
  1283.7500   2000.0000   1977.0000     16.8444    121.5615
  1284.0000   2000.0000   1977.0000     16.8433    122.3338
  1284.2500   2000.0000   1977.0000     16.8556    123.4133
  1284.5000   2000.0000   1977.0000     16.8857    125.5720
  1284.7500   2000.0000   1977.0000     16.9251    126.8871
  1285.0000   2000.0000   1977.0000     16.9575    127.8070
  1285.2500   2000.0000   1977.0000     16.9656    127.6486
  1285.5000   2000.0000   1977.0000     16.9353    126.9210
  1285.7500   2000.0000   1977.0000     16.8548    126.5469
  1286.0000   2000.0000   1977.0000     16.7113    126.5049
  1286.2500   2000.0000   1977.0000     16.4883    126.8647
  1286.5000   2000.0000   1977.0000     16.1697    127.9617
  1286.7500   2000.0000   1977.0000     15.7491    129.0260
  1287.0000   2000.0000   1977.0000     15.2387    131.2374
  1287.2500   2000.0000   1977.0000     14.6690    133.3682
  1287.5000   2000.0000   1977.0000     14.0795    137.7999
  1287.7500   2000.0000   1977.0000     13.5091    141.2453
  1288.0000   2000.0000   1977.0000     12.9887    145.9365
  1288.2500   2000.0000   1977.0000     12.5395    148.2134
  1288.5000   2000.0000   1977.0000     12.1740    150.2561
  1288.7500   2000.0000   1977.0000     11.8992    150.8671
  1289.0000   2000.0000   1977.0000     11.7194    150.8740
  1289.2500   2000.0000   1977.0000     11.6391    150.4278
  1289.5000   2000.0000   1977.0000     11.6644    149.3593
  1289.7500   2000.0000   1977.0000     11.8018    148.2446
