~Version Information
VERS.                      2.0: CWLS Log ASCII Standard - VERSION 2.0
WRAP.                       NO: One line per depth step
~Well Information Block
STRT.FT               597.2500: 
STOP.FT              1567.2500: 
STEP.FT                 0.2500: 
NULL.                -999.2500: 
COMP.          Pioneer Natural Resources: COMPANY
WELL.           Butch 33-10 Tr: WELL
FLD.           Purgatoire River: FIELD
LOC.           2309' FSL & 1337' FEL--: LOCATION
PROV.                 Colorado: PROVINCE
CNTY.               Las Animas: COUNTRY
SRVC.                Patterson: SERVICE COMPANY
DATE.          Sat Jan 14 05:18:29 2006: LOG DATE
UWI.           05 071 08649 00: UNIQUE WELL ID
~Curve Information Block
DEPT.FT            0 000 00 00: Depth
SN.Ohm-m                      : IEL Short Normal
SP.mV                         : IEL Spontaneous Potential
DIR.Ohm-m                     : IEL Induction Resistivity
GR.GAPI                       : Gamma Ray
~Parameter Information Block
~A  Depth        SN          SP         DIR          GR     
# ...
   630.7500   2000.0000   2000.0000 100000.0000     74.1606
   631.0000   2000.0000   2000.0000 100000.0000     82.7826
   631.2500   2000.0000   2000.0000 100000.0000     94.6348
   631.5000   2000.0000   2000.0000 100000.0000    120.9451
   631.7500   2000.0000   2000.0000 100000.0000    140.6142
   632.0000   2000.0000   2000.0000 100000.0000    162.4123
   632.2500   2000.0000   2000.0000 100000.0000    166.2821
   632.5000   2000.0000   2000.0000 100000.0000    155.5926
   632.7500   2000.0000   2000.0000 100000.0000    142.5901
   633.0000   2000.0000   2000.0000 100000.0000    125.0570
   633.2500   2000.0000   2000.0000 100000.0000    118.2048
   633.5000   2000.0000   2000.0000 100000.0000    115.0695
   633.7500   2000.0000   2000.0000 100000.0000    115.8192
   634.0000   2000.0000   2000.0000     15.5766    118.1609
   634.2500   2000.0000   2000.0000      4.9240    119.6803
   634.5000   2000.0000   2000.0000      2.9825    121.7567
   634.7500   2000.0000   2000.0000      2.4463    123.0698
   635.0000   2000.0000   2000.0000      2.5481    124.2524
   635.2500   2000.0000   2000.0000      3.3594    123.7756
   635.5000   2000.0000   2000.0000      5.9961    120.7237
   635.7500   2000.0000   2000.0000     22.2686    117.8428
   636.0000   2000.0000   2000.0000 100000.0000    114.3081
   636.2500   2000.0000   2000.0000 100000.0000    113.2757
   636.5000   2000.0000   2000.0000 100000.0000    113.5093
   636.7500   2000.0000   2000.0000 100000.0000    113.9998
   637.0000   2000.0000   2000.0000 100000.0000    113.6698
   637.2500   2000.0000   2000.0000    100.1922    112.4068
   637.5000   2000.0000   2000.0000     22.5914    109.7201
   637.7500   2000.0000   2000.0000     14.8740    108.1602
   638.0000   2000.0000   2000.0000     12.7626    106.6698
   638.2500   2000.0000   2000.0000     12.4488    105.8156
   638.5000   2000.0000   2000.0000     13.0321    103.6058
   638.7500   2000.0000   2000.0000     14.1384    101.2362
   639.0000   2000.0000   2000.0000     15.4568     96.8916
   639.2500   2000.0000   2000.0000     16.6056     94.1409
   639.5000   2000.0000   2000.0000     17.2448     91.3216
   639.7500   2000.0000   2000.0000     17.3601     90.6601
   640.0000   2000.0000   2000.0000     17.3221     91.4355
   640.2500   2000.0000   2000.0000     17.6166     92.7985
   640.5000   2000.0000   2000.0000     18.5765     95.3718
   640.7500    655.6692   2000.0000     20.2085     97.1461
   641.0000    655.6692   2000.0000     21.9632     99.9574
   641.2500    655.6692   2000.0000     22.7296    102.2058
   641.5000    655.6692   2000.0000     21.7582    106.2930
   641.7500    655.6692   2000.0000     19.5815    109.1323
   642.0000    655.6692   2000.0000     17.2793    112.6385
   642.2500    655.6692   -265.0945     15.4844    114.2850
   642.5000    655.6692   -265.0945     14.3413    116.3516
   642.7500    655.6692   -265.0949     13.7863    118.0089
   643.0000    655.6692   -265.0957     13.7009    121.0287
   643.2500    655.6692   -265.0968     13.9501    122.7311
   643.5000    655.6692   -265.0983     14.3904    123.1993
   643.7500    655.6692   -265.0999     14.8893    121.6923
   644.0000    655.6692   -265.1015     15.3549    117.4915
   644.2500    655.6692   -265.1030     15.7477    114.2740
   644.5000    655.6692   -265.1043     16.0656    109.7757
   644.7500    655.6692   -265.1054     16.3209    107.0910
   645.0000    655.6692   -265.1063     16.5268    103.5689
   645.2500    655.6692   -265.1071     16.6955    101.7310
   645.5000    655.6692   -265.1079     16.8376    100.0105
   645.7500    655.6692   -265.1085     16.9615     99.4751
   646.0000    655.6692   -265.1086     17.0740     99.1854
   646.2500    655.6692   -265.1079     17.1794     99.1793
   646.5000    655.6692   -265.1058     17.2792     99.4918
   646.7500    655.6692   -265.1014     17.3698    100.0225
   647.0000    655.6692   -265.0941     17.4406    101.3758
   647.2500    655.6692   -265.0831     17.4769    102.4742
   647.5000    655.6692   -265.0679     17.4663    103.7074
   647.7500    655.6692   -265.0486     17.4057    103.8824
   648.0000    655.6692   -265.0255     17.3040    103.3316
   648.2500    655.6692   -264.9993     17.1782    102.9779
   648.5000    655.6692   -264.9716     17.0464    103.4055
   648.7500    655.6692   -264.9436     16.9225    104.5246
   649.0000    655.6692   -264.9171     16.8155    107.3579
   649.2500    655.6692   -264.8935     16.7300    109.9194
   649.5000    655.6692   -264.8742     16.6661    114.3182
   649.7500    655.6692   -264.8599     16.6178    116.9510
   650.0000    655.6692   -264.8512     16.5725    118.8903
   650.2500    655.6692   -264.8478     16.5158    118.2600
   650.5000    655.6692   -264.8492     16.4371    114.7257
   650.7500    655.6692   -264.8545     16.3335    111.4249
   651.0000    655.6692   -264.8626     16.2092    106.5553
   651.2500    655.6692   -264.8726     16.0705    103.9951
   651.5000    655.6692   -264.8838     15.9184    101.8506
   651.7500    655.6692   -264.8960     15.7445    101.8507
   652.0000    655.6692   -264.9094     15.5330    104.2324
   652.2500    655.6692   -264.9243     15.2705    107.0464
   652.5000    655.6692   -264.9408     14.9540    111.5201
   652.7500    655.6692   -264.9589     14.5941    113.8428
   653.0000    655.6692   -264.9777     14.2102    116.5246
   653.2500    655.6692   -264.9963     13.8248    118.7132
   653.5000    655.6692   -265.0133     13.4589    123.8553
   653.7500    655.6692   -265.0278     13.1317    128.3273
   654.0000    655.6692   -265.0391     12.8615    134.9404
   654.2500    655.6692   -265.0471     12.6668    138.2243
   654.5000    655.6692   -265.0524     12.5661    140.5223
   654.7500    655.6692   -265.0558     12.5757    140.3434
   655.0000    655.6692   -265.0581     12.7060    138.0217
   655.2500    655.6692   -265.0600     12.9601    135.3653
   655.5000    655.6692   -265.0618     13.3343    130.0880
   655.7500    655.6692   -265.0635     13.8228    125.9441
   656.0000    655.6692   -265.0650     14.4216    119.1532
   656.2500    655.6692   -265.0661     15.1314    114.4212
   656.5000    655.6692   -265.0667     15.9556    107.4686
   656.7500    655.6692   -265.0666     16.8955    103.2924
   657.0000    655.6692   -265.0659     17.9425     98.1437
   657.2500    655.6692   -265.0648     19.0721     95.4090
   657.5000    655.6692   -265.0635     20.2423     91.9836
   657.7500    655.6692   -265.0622     21.3989     90.0478
   658.0000    655.6692   -265.0610     22.4856     87.7434
   658.2500    655.6692   -265.0602     23.4557     86.5946
   658.5000    655.6692   -265.0596     24.2784     85.2723
   658.7500    655.6692   -265.0594     24.9381     84.6227
   659.0000    655.6692   -265.0594     25.4331     83.9960
   659.2500    655.6692   -265.0594     25.7782     83.7346
   659.5000    655.6692   -265.0593     26.0070     83.4847
   659.7500    655.6692   -265.0589     26.1636     83.4484
   660.0000    655.6692   -265.0583     26.2818     83.3913
   660.2500    655.6692   -265.0575     26.3671     82.9674
   660.5000    655.6692   -265.0564     26.3959     81.2266
   660.7500    655.6692   -265.0552     26.3263     79.5134
   661.0000    655.6692   -265.0540     26.1081     77.2799
   661.2500    655.6692   -265.0529     25.6862     76.7821
   661.5000    655.6692   -265.0519     25.0090     78.1962
   661.7500    655.6692   -265.0510     24.0520     80.5288
   662.0000    655.6692   -265.0503     22.8425     85.7446
   662.2500    655.6692   -265.0496     21.4597     90.1856
   662.5000    655.6692   -265.0489     20.0079     97.9151
   662.7500    655.6692   -265.0481     18.5828    103.4090
   663.0000    655.6692   -265.0470     17.2513    111.4720
   663.2500    655.6692   -265.0455     16.0506    116.4904
   663.5000    655.6692   -265.0438     14.9957    123.3721
   663.7500    655.6692   -265.0417     14.0899    127.4632
   664.0000    655.6692   -265.0396     13.3296    132.4402
