~Version Information
VERS.                      2.0: CWLS Log ASCII Standard - VERSION 2.0
WRAP.                       NO: One line per depth step
~Well Information Block
STRT.FT                 0.0000: 
STOP.FT              1674.7500: 
STEP.FT                 0.2500: 
NULL.                -999.2500: 
COMP.          Pioneer Natural Resources: COMPANY
WELL.          Culver 14-12 Tr: WELL
FLD.           Purgatorie River: FIELD
LOC.           915' FSL & 1048' FWL: LOCATION
STAT.                 Colorado: Colorado
CNTY.               Las Animas: COUNTY
CTRY. USA : Country
SECT. 12 : Section
TOWN. 32S : Township
RANG. 66W : Range
SRVC.                Patterson: SERVICE COMPANY
DATE.          Mon Oct 03 12:52:29 2005: LOG DATE
API. 05-071-08520                         : UNIQUE WELL ID
~Curve Information Block
DEPT.FT            0 000 00 00: Depth
CCL.                          : Casing Collar Locator
TT3.usec                      : CBL 3' Travel Time
AMP3.mV                       : CBL 3' Amplitude
GR.GAPI                       : Gamma Ray
~Parameter Information Block
~A  Depth       CCL         TT3         AMP3         GR     
# ...
   770.5000      0.0000    840.9998     10.3930    103.8317
   770.7500      0.0000    847.7626     10.3521    101.6596
   771.0000      0.0000    847.7790     10.3554     99.9770
   771.2500      0.0000    840.4662     10.4286    100.2358
   771.5000      0.0000    825.1148     10.5398    103.6119
   771.7500      0.0000    805.9073     10.5712    108.9458
   772.0000      0.0000    791.3179     10.4084    113.1250
   772.2500      0.0000    787.2901     10.0476    113.2751
   772.5000      0.0000    795.0337      9.5409    108.5418
   772.7500      0.0000    811.5182      8.9250    100.2799
   773.0000      0.0000    829.4247      8.2856     90.8736
   773.2500      0.0000    843.2855      7.7715     82.2108
   773.5000      0.0000    852.5977      7.4767     74.9330
   773.7500      0.0000    856.8809      7.3738     68.7238
   774.0000      0.0000    856.5666      7.3688     63.0147
   774.2500      0.0000    854.7420      7.3688     57.7656
   774.5000      0.0000    853.7168      7.3046     54.1266
   774.7500      0.0000    853.9602      7.1154     54.0645
   775.0000      0.0000    855.8698      6.7709     58.6279
   775.2500      0.0000    860.7732      6.3534     66.4773
   775.5000      0.0000    869.1443      6.0755     74.2165
   775.7500      0.0000    877.7487      6.1627     78.1965
   776.0000      0.0000    882.5638      6.6813     76.6706
   776.2500      0.0000    884.6792      7.4624     71.1113
   776.5000      0.0000    886.8572      8.2299     65.5112
   776.7500      0.0000    886.4758      8.7973     63.9344
   777.0000      0.0000    879.5694      9.1167     68.4308
   777.2500      0.0000    869.1825      9.2241     78.6847
   777.5000      0.0000    862.6743      9.1973     92.6094
   777.7500      0.0000    861.2903      9.1370    107.0062
   778.0000      0.0000    860.1409      9.1433    118.6632
   778.2500      0.0000    857.4126      9.2626    125.9142
   778.5000      0.0000    855.0674      9.5072    129.2714
   778.7500      0.0000    853.8387      9.9053    130.4124
   779.0000      0.0000    853.0645     10.4004    130.8255
   779.2500      0.0000    852.4988     10.8125    131.3424
   779.5000      0.0000    852.2964     11.0292    132.0584
   779.7500      0.0000    852.4398     11.0828    132.2884
   780.0000      0.0000    852.7546     11.0167    131.3297
   780.2500      0.0000    853.0374     10.8423    129.6117
   780.5000      0.0000    852.6846     10.6125    128.5343
   780.7500      0.0000    849.9167     10.4055    129.1195
   781.0000      0.0000    841.5460     10.2294    131.2314
   781.2500      0.0000    825.6709     10.0348    133.7278
   781.5000      0.0000    806.1168      9.8070    134.9111
   781.7500      0.0000    790.5102      9.5797    133.4201
   782.0000      0.0000    782.4562      9.4051    129.1814
   782.2500      0.0000    779.7383      9.3440    123.1070
   782.5000      0.0000    779.0862      9.4351    115.9585
   782.7500      0.0000    778.9053      9.6569    108.2636
   783.0000      0.0000    778.5697      9.9294    100.9783
   783.2500      0.0000    777.2376     10.1466     95.1469
   783.5000      0.0000    773.8467     10.2352     91.0746
   783.7500      0.0000    768.9467     10.2073     88.7002
   784.0000      0.0000    765.2192     10.1582     88.4903
   784.2500      0.0000    763.1011     10.1908     91.0316
   784.5000      0.0000    759.6339     10.3185     95.6726
   784.7500      0.0000    755.7008     10.4701    100.1651
   785.0000      0.0000    756.8405     10.5890    102.0541
   785.2500      0.0000    764.0078     10.6540    100.5244
   785.5000      0.0000    771.8141     10.6395     96.8959
   785.7500      0.0000    776.2076     10.5488     93.5387
   786.0000      0.0000    777.6004     10.4405     92.6075
   786.2500      0.0000    777.7783     10.3549     95.3845
   786.5000      0.0000    777.6865     10.2620    101.7669
   786.7500      0.0000    777.6015     10.1235    109.9993
   787.0000      0.0000    777.6738      9.9652    117.4944
   787.2500      0.0000    777.9769      9.8412    122.5089
   787.5000      0.0000    778.3994      9.7741    125.2715
   787.7500      0.0000    778.7916      9.7541    127.6787
   788.0000      0.0000    779.4462      9.7541    131.8090
   788.2500      0.0000    781.6829      9.7483    138.3382
   788.5000      0.0000    787.3128      9.7335    146.0621
   788.7500      0.0000    795.2037      9.7228    152.7448
   789.0000      0.0000    799.3011      9.7370    156.4262
   789.2500      0.0000    795.8755      9.7875    156.3875
   789.5000      0.0000    790.6964      9.8412    153.5987
   789.7500      0.0000    792.8463      9.8337    150.6124
   790.0000      0.0000    804.4514      9.7306    150.5402
   790.2500      0.0000    818.2618      9.5626    155.0919
   790.5000      0.0000    825.9170      9.3986    162.7884
   790.7500      0.0000    827.6261      9.2896    169.1254
   791.0000      0.0000    826.2328      9.2515    169.4207
   791.2500      0.0000    818.6621      9.2685    162.3128
   791.5000      0.0000    804.2433      9.3010    150.5670
   791.7500      0.0000    790.1528      9.3283    138.5090
   792.0000      0.0000    782.0176      9.3713    129.0164
   792.2500      0.0000    778.8809      9.4415    122.7913
   792.5000      0.0000    777.8622      9.5137    119.3989
   792.7500      0.0000    777.9775      9.5731    118.0378
   793.0000      0.0000    780.6406      9.6410    117.4208
   793.2500      0.0000    788.9117      9.7421    115.7181
   793.5000      0.0000    803.7031      9.8672    111.4328
   793.7500      0.0000    818.6774      9.9736    104.7553
   794.0000      0.0000    824.7479     10.0207     97.8701
   794.2500      0.0000    822.9132      9.9978     93.5605
   794.5000      0.0000    823.9634      9.9194     93.3784
   794.7500      0.0000    832.3576      9.8231     96.9778
   795.0000      0.0000    840.1090      9.7716    102.7032
   795.2500      0.0000    837.7560      9.8279    108.6047
   795.5000      0.0000    823.5415      9.9973    113.2017
   795.7500      0.0000    804.0423     10.1824    115.5586
   796.0000      0.0000    788.6501     10.2481    115.0829
   796.2500      0.0000    781.3197     10.1595    111.9597
   796.5000      0.0000    779.4512      9.9966    107.8212
   796.7500      0.0000    779.4249      9.8476    105.2410
   797.0000      0.0000    779.5554      9.7505    105.9181
   797.2500      0.0000    779.3554      9.7059    109.3189
   797.5000      0.0000    778.7444      9.7071    113.2814
   797.7500      0.0000    777.9357      9.7605    116.0302
   798.0000      0.0000    777.1927      9.8720    117.3985
   798.2500      0.0000    776.6660     10.0192    117.9716
   798.5000      0.0000    776.4348     10.1480    117.5780
   798.7500      0.0000    776.4472     10.2055    115.3802
   799.0000      0.0000    776.5720     10.1886    111.4463
   799.2500      0.0000    776.7698     10.1364    107.5375
   799.5000      0.0000    777.1130     10.0732    105.8249
   799.7500      0.0000    778.1541     10.0031    107.0714
   800.0000      0.0000    782.2546      9.9392    110.3002
   800.2500      0.0000    793.9819      9.8801    113.8349
   800.5000      0.0000    815.2287      9.8002    116.4200
   800.7500      0.0000    839.2347      9.7131    117.7778
   801.0000      0.0000    856.4971      9.6919    118.4154
   801.2500      0.0000    864.7703      9.7672    118.7715
   801.5000      0.0000    865.5854      9.8612    118.6242
   801.7500      0.0000    859.2264      9.8679    117.6805
   802.0000      0.0000    848.1803      9.7518    116.4840
   802.2500      0.0000    837.2217      9.5742    116.1455
   802.5000      0.0000    827.8757      9.4444    117.2809
   802.7500      0.0000    816.8193      9.4149    119.6870
   803.0000      0.0000    802.5645      9.4402    122.9272
   803.2500      0.0000    789.5656      9.4669    126.5605
   803.5000      0.0000    781.9615      9.5201    129.5565
   803.7500      0.0000    779.0252      9.6557    130.2090
