~Version Information
VERS.                      2.0: CWLS Log ASCII Standard - VERSION 2.0
WRAP.                       NO: One line per depth step
~Well Information Block
STRT.FT               800.0000: 
STOP.FT              3500.0000: 
STEP.FT                 0.2500: 
NULL.                -999.2500: 
COMP.          Pioneer Natural Resources: COMPANY
WELL.          Cordillera 34-7: WELL
FLD.           Purgatoire River: FIELD
LOC.           598' FSL & 1770' FEL--: LOCATION
PROV.                 Colorado: PROVINCE
CNTY.               Las Animas: COUNTRY
SRVC.                Patterson: SERVICE COMPANY
DATE.          Thu Oct 27 20:08:30 2005: LOG DATE
UWI.           05 071 08552 00: UNIQUE WELL ID
~Curve Information Block
DEPT.FT            0 000 00 00: Depth
SN.Ohm-m                      : IEL Short Normal
SP.mV                         : IEL Spontaneous Potential
DIR.Ohm-m                     : IEL Induction Resistivity
GR.GAPI                       : Gamma Ray
~Parameter Information Block
~A  Depth        SN          SP         DIR          GR     
# ...
  3111.5000     27.2842    150.7245     25.1896     67.4461
  3111.7500     27.8624    150.5391     25.4905     67.4082
  3112.0000     28.4754    150.3528     25.8162     66.6385
  3112.2500     29.0735    150.1699     26.1389     65.1378
  3112.5000     29.6430    149.9915     26.4419     61.6115
  3112.7500     30.1735    149.8164     26.7176     59.1003
  3113.0000     30.6370    149.6451     26.9578     56.1987
  3113.2500     31.0068    149.4852     27.1484     55.0831
  3113.5000     31.2777    149.3516     27.2743     54.4203
  3113.7500     31.4616    149.2605     27.3314     54.3159
  3114.0000     31.5701    149.2200     27.3354     54.1204
  3114.2500     31.6094    149.2260     27.3187     53.8887
  3114.5000     31.5889    149.2640     27.3152     53.7534
  3114.7500     31.5211    149.3170     27.3441     54.0869
  3115.0000     31.4108    149.3815     27.3996     55.4638
  3115.2500     31.2548    149.4825     27.4488     56.9742
  3115.5000     31.0519    149.6737     27.4337     60.0483
  3115.7500     30.8110    150.0237     27.2814     62.5115
  3116.0000     30.5588    150.5836     26.9263     66.4686
  3116.2500     30.3461    151.3419     26.3391     69.0519
  3116.5000     30.2501    152.1974     25.5448     72.3450
  3116.7500     30.3447    152.9872     24.6138     73.7276
  3117.0000     30.6267    153.5621     23.6339     73.8957
  3117.2500     30.9605    153.8591     22.6830     72.6823
  3117.5000     31.0991    153.9238     21.8137     69.5832
  3117.7500     30.7767    153.8742     21.0517     67.3964
  3118.0000     29.8382    153.8336     20.3982     65.4239
  3118.2500     28.3366    153.8816     19.8355     65.8562
  3118.5000     26.5203    154.0427     19.3326     70.1146
  3118.7500     24.6972    154.2973     18.8529     75.2616
  3119.0000     23.0674    154.5951     18.3629     84.9174
  3119.2500     21.6758    154.8770     17.8416     91.3445
  3119.5000     20.5231    155.1042     17.2865     99.2432
  3119.7500     19.6746    155.2776     16.7126    103.0119
  3120.0000     19.2159    155.4303     16.1476    106.5635
  3120.2500     19.1350    155.5929     15.6230    107.5250
  3120.5000     19.2928    155.7613     15.1665    106.5369
  3120.7500     19.5215    155.9077     14.7960    104.3429
  3121.0000     19.7662    156.0316     14.5188     99.9905
  3121.2500     20.0949    156.1932     14.3329     97.4527
  3121.5000     20.5385    156.4734     14.2296     95.4944
  3121.7500     20.9951    156.8895     14.1953     95.5308
  3122.0000     21.3393    157.3598     14.2117     97.0113
  3122.2500     21.5471    157.7646     14.2572     98.5439
  3122.5000     21.6783    158.0389     14.3089    101.0560
  3122.7500     21.7902    158.2040     14.3472    102.4532
  3123.0000     21.8883    158.3128     14.3602    103.5684
  3123.2500     21.9352    158.3710     14.3451    103.8082
  3123.5000     21.8813    158.3135     14.3076    104.5973
  3123.7500     21.6860    158.0700     14.2588    106.1525
  3124.0000     21.3373    157.6596     14.2142    110.3639
  3124.2500     20.8671    157.2146     14.1924    113.8919
  3124.5000     20.3296    156.9072     14.2124    118.8008
  3124.7500     19.7773    156.8494     14.2885    121.3422
  3125.0000     19.2742    157.0399     14.4262    124.3929
  3125.2500     18.8847    157.3790     14.6193    126.2368
  3125.5000     18.6216    157.7309     14.8516    128.2844
  3125.7500     18.4413    158.0004     15.1003    128.5379
  3126.0000     18.3028    158.1671     15.3421    126.7374
  3126.2500     18.2272    158.2597     15.5605    124.3248
  3126.5000     18.3293    158.3124     15.7522    119.5621
  3126.7500     18.8056    158.3596     15.9321    115.9056
  3127.0000     19.8331    158.4510     16.1313    110.3003
  3127.2500     21.4142    158.6384     16.3892    107.2144
  3127.5000     23.3005    158.9259     16.7421    105.2831
  3127.7500     25.0842    159.2366     17.2121    106.4741
  3128.0000     26.4099    159.4465     17.7975    111.4609
  3128.2500     27.1540    159.4790     18.4674    115.6161
  3128.5000     27.4357    159.3756     19.1611    120.4704
  3128.7500     27.4865    159.2730     19.7995    121.8402
  3129.0000     27.5126    159.3000     20.3093    120.7088
  3129.2500     27.6208    159.4826     20.6516    117.8121
  3129.5000     27.8040    159.7294     20.8357    109.9849
  3129.7500     27.9822    159.9110     20.9082    102.5198
  3130.0000     28.1009    159.9680     20.9262     89.7054
  3130.2500     28.2125    159.9486     20.9328     82.1174
  3130.5000     28.4213    159.9446     20.9460     75.7534
  3130.7500     28.7267    160.0032     20.9611     75.9214
  3131.0000     28.9668    160.1064     20.9617     82.2258
  3131.2500     28.9492    160.2153     20.9285     89.1286
  3131.5000     28.6206    160.3138     20.8428    100.5945
  3131.7500     28.0967    160.4102     20.6849    107.4045
  3132.0000     27.5383    160.5157     20.4392    114.6463
  3132.2500     27.0263    160.6277     20.1039    117.1717
  3132.5000     26.5446    160.7337     19.7001    117.7286
  3132.7500     26.0464    160.8171     19.2676    116.2772
  3133.0000     25.5278    160.8566     18.8515    112.3151
  3133.2500     25.0311    160.8288     18.4889    109.4373
  3133.5000     24.5813    160.7206     18.2022    106.9506
  3133.7500     24.1501    160.5260     17.9985    107.5206
  3134.0000     23.6871    160.2174     17.8734    111.5822
  3134.2500     23.1616    159.7346     17.8146    115.2215
  3134.5000     22.5731    159.0236     17.8053    119.8232
  3134.7500     21.9667    158.0936     17.8267    121.8212
  3135.0000     21.4422    157.0331     17.8627    123.6571
  3135.2500     21.1127    155.9558     17.9046    124.4975
  3135.5000     21.0629    154.9254     17.9533    125.4278
  3135.7500     21.3298    153.9319     18.0166    125.6944
  3136.0000     21.8862    152.9460     18.1044    124.9366
  3136.2500     22.6523    151.9881     18.2241    123.2660
  3136.5000     23.5187    151.1408     18.3779    119.0079
  3136.7500     24.3632    150.4977     18.5599    115.6137
  3137.0000     25.0910    150.0989     18.7539    111.3110
  3137.2500     25.6369    149.9231     18.9344    109.6105
  3137.5000     25.9398    149.9590     19.0730    108.4475
  3137.7500     25.9815    150.2808     19.1455    107.7412
  3138.0000     25.8301    151.0063     19.1383    105.8189
  3138.2500     25.5951    152.1278     19.0474    104.3228
  3138.5000     25.3305    153.3810     18.8741    103.3660
  3138.7500     24.9981    154.3334     18.6218    104.1702
  3139.0000     24.5275    154.6634     18.2992    107.0008
  3139.2500     23.8906    154.3800     17.9256    109.1232
  3139.5000     23.1228    153.7788     17.5311    111.7760
  3139.7500     22.3122    153.2084     17.1489    113.4083
  3140.0000     21.5488    152.8700     16.8058    116.4774
  3140.2500     20.8699    152.7605     16.5199    118.9630
  3140.5000     20.2830    152.7288     16.3052    122.4681
  3140.7500     19.8010    152.5897     16.1771    124.2098
  3141.0000     19.4436    152.2362     16.1511    125.9917
  3141.2500     19.2364    151.6826     16.2356    126.8372
  3141.5000     19.1980    151.0264     16.4244    127.4238
  3141.7500     19.3273    150.3834     16.6928    126.9444
  3142.0000     19.6140    149.8392     17.0010    124.2999
  3142.2500     20.0690    149.4226     17.2993    121.2103
  3142.5000     20.7576    149.1030     17.5344    114.7525
  3142.7500     21.7931    148.8271     17.6542    109.0456
  3143.0000     23.3075    148.5703     17.6177     97.5388
  3143.2500     25.4121    148.3631     17.4091     87.7646
  3143.5000     28.0087    148.2869     17.0476     71.4942
  3143.7500     30.5659    148.4548     16.5825     61.3530
  3144.0000     32.2491    148.9574     16.0716     50.2249
  3144.2500     32.3505    149.7833     15.5585     46.5668
  3144.5000     30.6795    150.7991     15.0609     47.1785
  3144.7500     27.7246    151.8349     14.5743     51.6198
