~Version Information
VERS.                      2.0: CWLS Log ASCII Standard - VERSION 2.0
WRAP.                       NO: One line per depth step
~Well Information Block
STRT.FT                -7.0000: 
STOP.FT              3030.2500: 
STEP.FT                 0.2500: 
NULL.                -999.2500: 
COMP.          Pioneer Natural Resources: COMPANY
WELL.            Cleaver 24-12: WELL
FLD.           Purgatorie River: FIELD
LOC.           204' FSL & 2351' FWL--: LOCATION
CNTY.               Las Animas: COUNTY
SRVC.          Patterson Wireline: SERVICE COMPANY
DATE.          Thu Feb 02 12:17:57 2006: LOG DATE
UWI.           05 071 08634 00: UNIQUE WELL ID
STAT.                       CO: STATE
~Curve Information Block
DEPT.FT            0 000 00 00: Depth
CCL.                          : Casing Collar Locator
TT3.usec                      : CBL 3' Travel Time
AMP3.mV                       : CBL 3' Amplitude
GR.GAPI                       : Gamma Ray
~Parameter Information Block
~A  Depth       CCL         TT3         AMP3         GR     
# ...
  2003.0000      0.0000    519.3882     16.3131    110.3249
  2003.2500      0.0000    518.3903     15.9894    113.3289
  2003.5000      0.0000    513.5123     15.6417    116.9907
  2003.7500      0.0000    497.0037     15.3737    120.1190
  2004.0000      0.0000    468.2195     15.2492    122.7496
  2004.2500      0.0000    440.8109     15.2602    125.2543
  2004.5000      0.0000    433.7128     15.3333    127.9219
  2004.7500      0.0000    458.1279     15.3760    130.8023
  2005.0000      0.0000    511.0804     15.3350    133.2785
  2005.2500      0.0000    576.9417     15.2196    134.1337
  2005.5000      0.0000    635.9424     15.0702    132.4870
  2005.7500      0.0000    674.4140     14.9118    128.6088
  2006.0000      0.0000    688.1615     14.7477    123.7977
  2006.2500      0.0000    678.1495     14.5871    119.7836
  2006.5000      0.0000    647.2255     14.4538    118.0937
  2006.7500      0.0000    602.2484     14.3595    119.2089
  2007.0000      0.0000    554.6259     14.2877    121.8754
  2007.2500      0.0000    513.4302     14.2235    123.5286
  2007.5000      0.0000    479.0576     14.1881    121.7485
  2007.7500      0.0000    447.6885     14.2223    115.5382
  2008.0000      0.0000    420.4721     14.3365    105.7281
  2008.2500      0.0000    405.2063     14.4878     94.5770
  2008.5000      0.0000    411.1640     14.6059     84.6702
  2008.7500      0.0000    443.9841     14.6386     77.7754
  2009.0000      0.0000    501.2705     14.5758     74.6243
  2009.2500      0.0000    570.1467     14.4325     75.3925
  2009.5000      0.0000    632.3633     14.2167     79.8204
  2009.7500      0.0000    675.0798     13.9311     86.8723
  2010.0000      0.0000    696.6615     13.6144     94.6302
  2010.2500      0.0000    703.1216     13.3559    100.6941
  2010.5000      0.0000    701.4329     13.2404    102.8827
  2010.7500      0.0000    695.4329     13.2813    100.1399
  2011.0000      0.0000    684.1694     13.4195     93.2604
  2011.2500      0.0000    661.9224     13.5845     84.8392
  2011.5000      0.0000    621.9690     13.7487     78.2309
  2011.7500      0.0000    564.4335     13.9328     75.8663
  2012.0000      0.0000    501.6242     14.1680     77.9564
  2012.2500      0.0000    453.5404     14.4445     82.7530
  2012.5000      0.0000    436.4788     14.6948     88.2034
  2012.7500      0.0000    455.0066     14.8372     93.2582
  2013.0000      0.0000    501.4240     14.8444     97.5079
  2013.2500      0.0000    559.9277     14.7613    100.0963
  2013.5000      0.0000    613.6092     14.6530     99.8938
  2013.7500      0.0000    652.0056     14.5451     96.8734
  2014.0000      0.0000    674.2243     14.4180     92.5050
  2014.2500      0.0000    685.7172     14.2457     88.3626
  2014.5000      0.0000    692.4894     14.0283     84.8191
  2014.7500      0.0000    697.3278     13.7926     81.4507
  2015.0000      0.0000    699.5447     13.5740     78.2341
  2015.2500      0.0000    697.1364     13.3998     75.8599
  2015.5000      0.0000    688.4663     13.2832     75.1566
  2015.7500      0.0000    672.1301     13.2293     76.6659
  2016.0000      0.0000    646.6066     13.2405     80.4452
  2016.2500      0.0000    611.7703     13.3088     85.5954
  2016.5000      0.0000    570.7205     13.4047     90.1033
  2016.7500      0.0000    529.8014     13.4870     91.9650
  2017.0000      0.0000    497.1869     13.5285     90.8750
  2017.2500      0.0000    479.7754     13.5291     88.4286
  2017.5000      0.0000    478.9182     13.5092     86.3617
  2017.7500      0.0000    490.5121     13.4972     84.9394
  2018.0000      0.0000    510.6693     13.5143     83.2991
  2018.2500      0.0000    537.0121     13.5569     80.9988
  2018.5000      0.0000    562.0514     13.5975     78.7837
  2018.7500      0.0000    572.2052     13.6132     77.9145
  2019.0000      0.0000    559.7770     13.6144     79.1338
  2019.2500      0.0000    532.8329     13.6334     82.4653
  2019.5000      0.0000    508.7401     13.6860     87.8007
  2019.7500      0.0000    500.7448     13.7498     95.1901
  2020.0000      0.0000    513.2520     13.7814    104.1958
  2020.2500      0.0000    544.1577     13.7607    113.1362
  2020.5000      0.0000    585.6371     13.7186    119.5221
  2020.7500      0.0000    626.0629     13.7101    121.7971
  2021.0000      0.0000    656.5099     13.7509    120.9759
  2021.2500      0.0000    675.3553     13.7924    120.2401
  2021.5000      0.0000    686.0118     13.7676    122.0518
  2021.7500      0.0000    692.1664     13.6471    125.4103
  2022.0000      0.0000    695.7452     13.4459    126.5903
  2022.2500      0.0000    697.4677     13.1902    123.0538
  2022.5000      0.0000    697.6680     12.8932    116.2932
  2022.7500      0.0000    696.5107     12.5661    110.4462
  2023.0000      0.0000    694.1268     12.2417    108.3028
  2023.2500      0.0000    690.9297     11.9658    109.0318
  2023.5000      0.0000    687.4698     11.7567    109.6187
  2023.7500      0.0000    683.7216     11.5901    107.8956
  2024.0000      0.0000    678.8886     11.4290    104.1586
  2024.2500      0.0000    671.6383     11.2568    100.6325
  2024.5000      0.0000    660.5532     11.0778     99.7004
  2024.7500      0.0000    646.0477     10.9035    102.0491
  2025.0000      0.0000    633.1855     10.7500    106.1012
  2025.2500      0.0000    630.4168     10.6434    109.6054
  2025.5000      0.0000    642.3278     10.6140    111.9246
  2025.7500      0.0000    664.2565     10.6830    114.2845
  2026.0000      0.0000    686.2289     10.8446    117.7219
  2026.2500      0.0000    701.3029     11.0545    121.5078
  2026.5000      0.0000    708.8033     11.2424    123.8467
  2026.7500      0.0000    711.4706     11.3502    123.6886
  2027.0000      0.0000    711.8913     11.3609    121.9133
  2027.2500      0.0000    711.2470     11.2898    120.9532
  2027.5000      0.0000    709.7538     11.1624    122.8714
  2027.7500      0.0000    707.5479     11.0086    127.5932
  2028.0000      0.0000    705.3641     10.8666    133.3288
  2028.2500      0.0000    704.3021     10.7723    138.5413
  2028.5000      0.0000    704.7726     10.7385    142.8911
  2028.7500      0.0000    705.7454     10.7508    146.4529
  2029.0000      0.0000    705.2875     10.7871    148.6993
  2029.2500      0.0000    701.9100     10.8373    148.3303
  2029.5000      0.0000    695.5812     10.9011    144.2375
  2029.7500      0.0000    687.7706     10.9735    137.1533
  2030.0000      0.0000    680.5041     11.0427    130.1113
  2030.2500      0.0000    675.1088     11.0995    126.3173
  2030.5000      0.0000    671.4904     11.1460    126.2939
  2030.7500      0.0000    667.9938     11.1915    127.6161
  2031.0000      0.0000    661.1656     11.2447    127.5280
  2031.2500      0.0000    645.7634     11.3109    125.3471
  2031.5000      0.0000    616.9637     11.3927    122.4256
  2031.7500      0.0000    575.3426     11.4882    120.4821
  2032.0000      0.0000    530.9100     11.5884    120.2795
  2032.2500      0.0000    500.7672     11.6801    121.4004
  2032.5000      0.0000    499.8362     11.7522    122.7519
  2032.7500      0.0000    530.8284     11.8008    123.1838
  2033.0000      0.0000    581.2532     11.8296    121.8035
  2033.2500      0.0000    630.4326     11.8484    117.9925
  2033.5000      0.0000    660.9424     11.8689    111.4923
  2033.7500      0.0000    665.4373     11.8953    102.6523
  2034.0000      0.0000    646.8369     11.9144     92.4857
  2034.2500      0.0000    616.5306     11.8969     82.3543
  2034.5000      0.0000    591.2289     11.8192     73.7041
  2034.7500      0.0000    584.8874     11.6948     67.9088
  2035.0000      0.0000    599.4440     11.5745     65.7885
  2035.2500      0.0000    624.6229     11.5013     67.2274
  2035.5000      0.0000    647.7018     11.4606     71.6785
  2035.7500      0.0000    662.3067     11.3907     78.8979
  2036.0000      0.0000    668.7610     11.2483     88.5568
  2036.2500      0.0000    669.3806     11.0541     99.2001
